     2.11           OBSERVATION DATA    G                   RINEX VERSION / TYPE
SPIDER V4,0,0,3554                      2015 04 17 04:33    PGM / RUN BY / DATE 
CABS                                                        MARKER NAME         
CABS                                                        MARKER NUMBER       
                                                            OBSERVER / AGENCY   
462287              LEICA GRX1200PRO    8.10/2.127          REC # / TYPE / VERS 
103298              LEIAT504                                ANT # / TYPE        
  5116912.3402   671231.6412  3737143.4301                  APPROX POSITION XYZ 
        0.0600        0.0000        0.0000                  ANTENNA: DELTA H/E/N
     1     1                                                WAVELENGTH FACT L1/2
     4    C1    L1    P2    L2                              # / TYPES OF OBSERV 
    30.000                                                  INTERVAL            
  2015    03    01    00    00    0.0000000     GPS         TIME OF FIRST OBS   
  2015    03    01    23    59   30.0000000     GPS         TIME OF LAST OBS    
    16                                                      LEAP SECONDS        
    30                                                      # OF SATELLITES     
   G 1    13    13    13    13                              PRN / # OF OBS      
   G 2   869   869   869   869                              PRN / # OF OBS      
   G 3   116   116   116   116                              PRN / # OF OBS      
   G 4   171   171   171   171                              PRN / # OF OBS      
   G 5   681   681   681   681                              PRN / # OF OBS      
   G 6   556   556   556   556                              PRN / # OF OBS      
   G 7   491   491   491   491                              PRN / # OF OBS      
   G 9   404   404   404   404                              PRN / # OF OBS      
   G10   540   540   540   540                              PRN / # OF OBS      
   G11    75    75    75    75                              PRN / # OF OBS      
   G12   830   830   830   830                              PRN / # OF OBS      
   G13   790   790   790   790                              PRN / # OF OBS      
   G14   516   516   516   516                              PRN / # OF OBS      
   G15   689   689   689   689                              PRN / # OF OBS      
   G16   521   521   521   521                              PRN / # OF OBS      
   G17   454   454   454   454                              PRN / # OF OBS      
   G18   799   799   799   799                              PRN / # OF OBS      
   G19   281   281   281   281                              PRN / # OF OBS      
   G20   486   486   486   486                              PRN / # OF OBS      
   G21   696   696   694   694                              PRN / # OF OBS      
   G22   380   380   380   380                              PRN / # OF OBS      
   G23   218   218   218   218                              PRN / # OF OBS      
   G24   785   785   782   782                              PRN / # OF OBS      
   G25   847   847   847   847                              PRN / # OF OBS      
   G27   460   460   460   460                              PRN / # OF OBS      
   G28   605   605   605   605                              PRN / # OF OBS      
   G29   780   780   780   780                              PRN / # OF OBS      
   G30   655   655   655   655                              PRN / # OF OBS      
   G31   611   611   611   611                              PRN / # OF OBS      
   G32    79    79    79    79                              PRN / # OF OBS      
BIT 2 OF LLI FLAGS DATA COLLECTED UNDER A/S CONDITION       COMMENT             
SNR is mapped to RINEX snr flag value [2-9]                 COMMENT             
Lx:     = 25dBHz -> 1; 26-27dBHz -> 2; 28-31dBHz -> 3       COMMENT             
       32-35dBHz -> 4; 36-38dBHz -> 5; 39-41dBHz -> 6       COMMENT             
       42-44dBHz -> 7; 45-48dBHz -> 8; >=49dBHz -> 9        COMMENT             
                                                            END OF HEADER       
 15 03 01 00 00  0.0000000  0  7G16G18G21G22G27G29G31
  21649828.220   113770642.77308  21649829.860    88652466.68648
  22364436.440   117525947.87908  22364438.760    91578694.17746
  21271522.040   111782826.26908  21271523.120    87103628.84648
  23782867.960   124979853.67206  23782870.620    97386918.42845
  22967350.100   120694247.63407  22967355.100    94047498.75747
  23839505.880   125277877.19107  23839508.960    97619322.49145
  23266820.400   122267979.65107  23266823.680    95273772.42246
 15 03 01 00 00 30.0000000  0  7G16G18G21G22G27G29G31
  21636576.520   113701004.78008  21636578.220    88598203.32948
  22353022.900   117465969.49808  22353025.080    91531957.80646
  21278720.120   111820652.64008  21278721.240    87133103.94048
  23764594.620   124883825.67606  23764597.060    97312091.57445
  22954506.420   120626753.52807  22954511.420    93994905.97347
  23853479.540   125351307.56407  23853482.500    97676540.92846
  23284308.880   122359881.48007  23284312.200    95345384.14946
 15 03 01 00 01  0.0000000  0  7G16G18G21G22G27G29G31
  21623383.080   113631672.93808  21623384.800    88544178.53148
  22341671.420   117406317.34308  22341673.460    91485475.63746
  21285977.460   111858790.46008  21285978.620    87162821.71848
  23746328.360   124787834.70506  23746330.520    97237293.52546
  22941679.920   120559350.00707  22941684.960    93942383.77647
  23867461.880   125424784.20107  23867464.680    97733795.38646
  23301823.920   122451923.05007  23301827.300    95417104.72646
 15 03 01 00 01 30.0000000  0  7G16G18G21G22G27G29G31
  21610248.100   113562648.22808  21610249.860    88490393.06348
  22330382.300   117346992.88008  22330384.200    91439248.80946
  21293293.620   111897237.09108  21293294.760    87192780.12948
  23728069.400   124691882.25006  23728071.360    97162525.51545
  22928870.420   120492035.92707  22928875.520    93889931.27947
  23881452.560   125498305.51506  23881455.240    97791084.73246
  23319364.860   122544100.62107  23319368.280    95488931.29046
 15 03 01 00 02  0.0000000  0  7G16G18G21G22G27G29G31
  21597172.160   113493933.70208  21597173.920    88436849.28948
  22319156.120   117287998.80408  22319157.860    91393279.44246
  21300668.460   111935992.07408  21300669.600    87222978.81548
  23709818.260   124595971.50506  23709820.120    97087790.00345
  22916078.140   120424812.15207  22916083.260    93837549.14547
  23895451.640   125571872.63306  23895454.640    97848409.70045
  23336931.220   122636411.69607  23336934.540    95560861.87346
 15 03 01 00 02 30.0000000  0  7G16G18G21G22G27G29G31
  21584155.120   113425528.72108  21584156.860    88383546.72148
  22307992.740   117229334.47508  22307994.380    91347567.01746
  21308101.120   111975051.04408  21308102.280    87253414.37348
  23691575.020   124500102.78606  23691577.040    97013087.21645
  22903302.580   120357676.12907  22903307.680    93785235.38947
  23909458.760   125645482.65806  23909462.360    97905768.11146
  23354521.840   122728850.62907  23354525.100    95632892.13046
 15 03 01 00 03  0.0000000  0  7G16G18G21G22G27G29G31
  21571197.360   113357435.49608  21571199.140    88330487.08348
  22296892.520   117171002.31808  22296894.160    91302113.42447
  21315591.200   112014411.85908  21315592.420    87284085.12948
  23673340.120   124404278.09507  23673342.340    96938418.75445
  22890543.720   120290627.66707  22890548.760    93732989.86247
  23923474.000   125719135.22206  23923477.920    97963159.69446
  23372136.080   122821414.07707  23372139.280    95705019.33546
 15 03 01 00 03 30.0000000  0  7G16G18G21G22G27G29G31
  21558299.600   113289657.65408  21558301.420    88277673.20348
  22285856.120   117113005.83608  22285857.920    91256921.39247
  21323138.680   112054074.18408  21323139.940    87314990.82948
  23655114.280   124308501.45507  23655116.700    96863787.73846
  22877801.760   120223668.22307  22877806.760    93680813.71047
  23937497.640   125792831.62706  23937501.680    98020585.44545
  23389773.740   122914100.55607  23389776.920    95777242.44246
 15 03 01 00 04  0.0000000  0  7G16G18G21G22G27G29G31
  21545461.620   113222193.73708  21545463.420    88225103.92948
  22274883.120   117055343.19608  22274885.140    91211989.49946
  21330742.500   112094032.41208  21330743.760    87346127.10948
  23636897.440   124212771.80107  23636899.960    96789193.33746
  22865076.100   120156794.21307  22865081.020    93628704.12147
  23951529.260   125866568.23306  23951533.280    98078042.51245
  23407433.560   123006903.37407  23407436.700    95849556.23646
 15 03 01 00 04 30.0000000  0  7G16G18G21G22G27G29G31
  21532684.260   113155048.25408  21532685.980    88172782.78248
  22263974.500   116998019.38808  22263976.820    91167321.63247
  21338402.760   112134287.34208  21338404.040    87377494.57248
  23618690.520   124117094.05107  23618693.040    96714639.35846
  22852367.040   120090007.91507  22852371.960    93576662.87047
  23965569.180   125940346.93106  23965572.980    98135532.36746
  23425115.340   123099821.38907  23425118.480    95921959.76046
 15 03 01 00 05  0.0000000  0  7G16G18G21G22G27G29G31
  21519968.320   113088225.39708  21519969.940    88120713.03548
  22253131.140   116941038.37608  22253133.680    91122920.87246
  21346119.580   112174839.38708  21346120.860    87409093.56448
  23600494.400   124021472.75806  23600496.840    96640129.38546
  22839675.100   120023311.70907  22839680.000    93524691.85147
  23979617.620   126014170.17607  23979621.140    98193056.90745
  23442818.940   123192854.07307  23442822.200    95994452.64346
 15 03 01 00 05 30.0000000  0  7G16G18G21G22G27G29G31
  21507314.320   113021728.06008  21507315.880    88068896.94348
  22242353.680   116884403.13808  22242356.260    91078789.54246
  21353892.740   112215687.29808  21353893.980    87440923.09948
  23582309.760   123925911.45707  23582312.040    96565666.15446
  22827000.460   119956706.23607  22827005.300    93472791.51646
  23993674.580   126088038.76706  23993677.960    98250616.79045
  23460543.860   123285998.74907  23460547.260    96067032.74446
 15 03 01 00 06  0.0000000  0  7G16G18G21G22G27G29G31
  21494722.460   112955557.26008  21494724.000    88017335.29948
  22231642.340   116828114.53008  22231644.740    91034928.31346
  21361721.580   112256827.87208  21361722.780    87472980.68348
  23564136.720   123830411.40607  23564138.800    96491250.63445
  22814342.860   119890190.43607  22814347.660    93420961.05347
  24007739.760   126161951.01206  24007742.900    98308210.72945
  23478289.380   123379251.40307  23478292.900    96139697.00646
 15 03 01 00 06 30.0000000  0  7G16G18G21G22G27G29G31
  21482193.260   112889715.68608  21482194.820    87966030.19148
  22220997.520   116772175.11908  22220999.680    90991339.19346
  21369605.960   112298260.48708  21369607.160    87505265.82748
  23545975.720   123734975.43707  23545977.720    96416885.06145
  22801702.340   119823764.70407  22801707.180    93369200.79347
  24021813.240   126235907.27806  24021816.360    98365838.95145
  23496055.040   123472609.43807  23496058.540    96212443.41546
 15 03 01 00 07  0.0000000  0  7G16G18G21G22G27G29G31
  21469727.060   112824205.37808  21469728.660    87914983.20648
  22210419.560   116716586.81808  22210421.440    90948023.66046
  21377545.480   112339982.79908  21377546.660    87537776.71448
  23527827.280   123639606.25207  23527829.300    96342571.51345
  22789078.980   119757428.98007  22789083.880    93317510.66447
  24035894.960   126309907.31106  24035898.220    98423501.26546
  23513840.100   123566069.50307  23513843.580    96285269.29846
 15 03 01 00 07 30.0000000  0  7G16G18G21G22G27G29G31
  21457324.340   112759028.72109  21457325.980    87864196.21348
  22199908.700   116661351.37908  22199910.420    90904983.08747
  21385539.740   112381993.08008  21385540.940    87570511.98948
  23509692.000   123544306.48307  23509694.080    96268312.06545
  22776472.860   119691183.50607  22776477.780    93265890.86647
  24049984.980   126383951.12807  24049988.240    98481197.67545
  23531643.980   123659628.82807  23531647.420    96358172.57846
 15 03 01 00 08  0.0000000  0  7G16G18G21G22G27G29G31
  21444985.300   112694186.71809  21444986.920    87813669.99148
  22189465.220   116606470.54508  22189466.920    90862218.81347
  21393588.220   112424288.23208  21393589.460    87603469.24348
  23491570.240   123449077.63907  23491572.320    96194107.86145
  22763883.800   119625027.42607  22763888.680    93214340.71847
  24064083.180   126458037.51706  24064086.380    98538927.32445
  23549465.880   123753283.10807  23549469.340    96431149.80646
 15 03 01 00 08 30.0000000  0  7G16G18G21G22G27G29G31
  21432710.360   112629681.43309  21432711.940    87763406.14548
  22179089.500   116551946.18608  22179091.280    90819732.32647
  21401690.660   112466867.17308  21401691.980    87636647.62848
  23473462.520   123353921.90007  23473464.480    96119960.62746
  22751311.740   119558960.59508  22751316.540    93162860.11347
  24078189.480   126532166.67606  24078192.660    98596690.32046
  23567305.160   123847029.36007  23567308.740    96504198.68646
 15 03 01 00 09  0.0000000  0  7G16G18G21G22G27G29G31
  21420500.340   112565517.52409  21420501.900    87713408.30448
  22168782.420   116497782.62708  22168784.300    90777526.97847
  21409847.160   112509730.39008  21409848.560    87670047.52948
  23455369.920   123258844.52707  23455371.600    96045874.45645
  22738757.120   119492985.57408  22738761.920    93111451.04947
  24092304.240   126606340.81906  24092307.400    98654488.31044
  23585161.840   123940866.84907  23585165.440    96577318.63046
 15 03 01 00 09 30.0000000  0  7G16G18G21G22G27G29G31
  21408355.480   112501696.12909  21408357.060    87663677.35148
  22158544.200   116443980.58608  22158546.120    90735603.32447
  21418057.160   112552874.56808  21418058.620    87703666.36048
  23437292.580   123163846.77107  23437293.960    95971850.32945
  22726219.780   119427101.18908  22726224.520    93060112.60547
  24106427.400   126680558.43107  24106430.460    98712320.15844
  23603035.180   124034791.45106  23603038.680    96650506.42046
 15 03 01 00 10  0.0000000  0  7G16G18G21G22G27G29G31
  21396275.940   112438217.72109  21396277.500    87614213.66848
  22148374.960   116390540.51708  22148376.880    90693961.73947
  21426320.060   112596296.21408  21426321.480    87737501.40348
  23419230.720   123068929.96007  23419231.780    95897889.28046
  22713699.400   119361306.00707  22713704.100    93008843.66247
  24120558.800   126754817.96506  24120561.480    98770184.72845
  23620924.240   124128798.44206  23620927.700    96723758.41045
 15 03 01 00 10 30.0000000  0  7G16G18G21G22G27G29G31
  21384262.460   112375086.28909  21384263.980    87565020.35948
  22138275.280   116337465.81808  22138277.100    90652604.84247
  21434635.780   112639995.28608  21434637.140    87771552.62648
  23401184.880   122974098.25207  23401185.800    95823994.54546
  22701196.380   119295601.96407  22701201.040    92957645.73547
  24134698.580   126829121.22106  24134700.700    98828083.37246
  23638828.860   124222886.79107  23638832.300    96797073.82045
 15 03 01 00 11  0.0000000  0  7G16G18G21G22G27G29G31
  21372315.540   112312304.80109  21372317.040    87516099.73148
  22128245.760   116284760.16108  22128247.540    90611535.52047
  21443004.140   112683971.10708  21443005.440    87805819.49648
  23383155.840   122879355.26307  23383156.820    95750168.91846
  22688710.860   119229990.05607  22688715.500    92906519.60647
  24148846.600   126903468.89606  24148848.680    98886016.54446
  23656748.600   124317054.14107  23656752.020    96870450.82945
 15 03 01 00 11 30.0000000  0  7G16G18G21G22G27G29G31
  21360435.840   112249876.53809  21360437.320    87467454.34248
  22118286.860   116232426.14308  22118288.720    90570755.78647
  21451425.000   112728222.88108  21451426.260    87840301.39148
  23365144.160   122784704.30407  23365145.340    95676415.02746
  22676242.980   119164471.09107  22676247.640    92855465.89447
  24163003.180   126977861.66106  24163005.320    98943984.84545
  23674682.960   124411298.16807  23674686.280    96943887.53945
 15 03 01 00 12  0.0000000  0  7G16G18G21G22G27G29G31
  21348623.580   112187802.90009  21348625.080    87419085.28048
  22108398.980   116180465.50608  22108400.960    90530266.99847
  21459898.040   112772748.74108  21459899.260    87874996.86148
  23347150.400   122690147.49807  23347151.800    95602734.49546
  22663792.740   119099045.03807  22663797.400    92804484.58247
  24177168.220   127052299.46406  24177170.680    99001988.25845
  23692631.340   124505616.04906  23692634.660    97017381.81146
 15 03 01 00 12 30.0000000  0  7G16G18G21G22G27G29G31
  21336879.120   112126085.61409  21336880.640    87370993.90448
  22098582.440   116128879.67908  22098584.540    90490070.26647
  21468422.640   112817545.74008  21468423.880    87909903.61148
  23329175.000   122595687.04707  23329176.560    95529129.02346
  22651360.080   119033711.33107  22651364.760    92753575.23347
  24191341.580   127126781.41206  24191344.120    99060026.17945
  23710592.860   124600003.67807  23710596.280    97090930.39846
 15 03 01 00 13  0.0000000  0  7G16G18G21G22G27G29G31
  21325202.960   112064727.12409  21325204.540    87323182.10448
  22088837.600   116077670.41708  22088839.700    90450166.96847
  21476998.600   112862612.69108  21476999.860    87945020.71148
  23311218.620   122501326.06707  23311220.220    95455601.06846
  22638945.100   118968470.47807  22638949.760    92702738.23747
  24205523.360   127201307.75806  24205526.400    99118098.58045
  23728567.100   124694458.30507  23728570.560    97164531.14246
 15 03 01 00 13 30.0000000  0  7G16G18G21G22G27G29G31
  21313595.440   112003729.15009  21313597.020    87275651.22748
  22079164.780   116026839.34408  22079166.820    90410558.35847
  21485625.520   112907947.41908  21485626.780    87980346.46848
  23293281.460   122407066.25407  23293283.120    95382151.92946
  22626547.680   118903321.97207  22626552.320    92651973.19847
  24219713.480   127275878.03506  24219716.860    99176205.31046
  23746553.540   124788976.90206  23746557.100    97238181.81146
 15 03 01 00 14  0.0000000  0  7G16G18G21G22G27G29G31
  21302056.940   111943093.91209  21302058.520    87228403.00348
  22069564.280   115976388.25008  22069566.220    90371245.83847
  21494302.860   112953547.07008  21494304.100    88015878.65948
  23275364.180   122312910.40407  23275365.800    95308783.80246
  22614167.880   118838266.03308  22614172.500    92601280.30247
  24233911.920   127350492.30606  24233915.720    99234346.19845
  23764551.420   124883555.83507  23764555.100    97311879.42946
 15 03 01 00 14 30.0000000  0  7G16G18G21G22G27G29G31
  21290587.580   111882822.28909  21290589.200    87181438.11448
  22060036.320   115926318.25408  22060038.160    90332230.27547
  21503030.200   112999409.63508  21503031.460    88051615.71948
  23257466.940   122218859.89407  23257468.520    95235497.76446
  22601805.500   118773301.50608  22601810.100    92550658.61747
  24248118.500   127425148.37406  24248122.260    99292519.77246
  23782560.080   124978191.03406  23782563.840    97385620.88846
 15 03 01 00 15  0.0000000  0  7G16G18G21G22G27G29G31
  21279188.080   111822918.07809  21279189.780    87134759.52248
  22050581.520   115876632.61908  22050583.260    90293514.22247
  21511807.560   113045534.99408  21511808.820    88087557.55348
  23239590.420   122124918.93106  23239592.120    95162297.08746
  22589460.940   118708430.42108  22589465.520    92500109.76147
  24262333.660   127499848.92906  24262337.140    99350727.89245
  23800579.220   125072881.57006  23800583.040    97459405.51746
 15 03 01 00 15 30.0000000  0  7G16G18G21G22G27G29G31
  21267858.780   111763382.58809  21267860.540    87088368.24348
  22041200.060   115827332.71108  22041201.780    90255098.73447
  21520634.380   113091920.29108  21520635.660    88123701.93448
  23221735.000   122031089.35306  23221737.020    95089183.22846
  22577134.000   118643651.92008  22577138.580    92449633.04347
  24276557.140   127574592.74906  24276560.120    99408969.84645
  23818608.000   125167623.32306  23818612.040    97533230.03446
 15 03 01 00 16  0.0000000  0  7G16G18G21G22G27G29G31
  21256600.540   111704220.24809  21256602.320    87042267.73148
  22031892.720   115778422.40108  22031894.460    90216986.81747
  21529510.860   113138566.67408  21529512.180    88160049.75848
  23203901.780   121937376.06606  23203904.020    95016159.95747
  22564825.200   118578968.51808  22564829.740    92399230.41947
  24290789.380   127649382.08807  24290791.920    99467247.20645
  23836646.400   125262415.71806  23836650.680    97607094.01446
 15 03 01 00 16 30.0000000  0  7G16G18G21G22G27G29G31
  21245413.700   111645432.99409  21245415.480    86996459.49748
  22022659.760   115729903.18908  22022661.540    90179179.65547
  21538436.280   113185470.28008  21538437.640    88196598.01948
  23186091.260   121843781.32807  23186093.520    94943229.06646
  22552534.440   118514380.00208  22552538.960    92348901.73047
  24305030.000   127724216.48107  24305032.660    99525559.55945
  23854693.820   125357255.14506  23854698.300    97680994.60346
 15 03 01 00 17  0.0000000  0  7G16G18G21G22G27G29G31
  21234298.580   111587022.61509  21234300.360    86950944.92548
  22013501.620   115681776.93608  22013503.460    90141678.69147
  21547410.520   113232630.52408  21547411.940    88233346.25548
  23168303.860   121750307.32107  23168305.940    94870392.23546
  22540261.720   118449886.30708  22540266.200    92298646.93647
  24319278.880   127799095.65206  24319281.380    99583906.97544
  23872749.700   125452138.50206  23872754.220    97754929.45146
 15 03 01 00 17 30.0000000  0  7G16G18G21G22G27G29G31
  21223255.340   111528989.77909  21223257.080    86905724.54548
  22004418.380   115634043.90908  22004420.260    90104484.13947
  21556433.040   113280044.37608  21556434.520    88270292.10948
  23150539.800   121656955.40807  23150541.560    94797650.56246
  22528006.780   118385486.26608  22528011.220    92248465.11247
  24333536.080   127874017.99905  24333538.540    99642288.06345
  23890813.240   125547061.59506  23890817.720    97828895.30345
 15 03 01 00 18  0.0000000  0  7G16G18G21G22G27G29G31
  21212285.380   111471342.14509  21212287.080    86860804.32548
  21995411.340   115586711.33208  21995413.220    90067601.63147
  21565504.460   113327714.96708  21565505.920    88307438.02148
  23132800.480   121563733.97407  23132802.000    94725010.55246
  22515770.700   118321185.55708  22515775.160    92198360.69647
  24347802.360   127948988.98906  24347805.020    99700706.93644
  23908884.880   125642026.72306  23908889.080    97902893.90146
 15 03 01 00 18 30.0000000  0  7G16G18G21G22G27G29G31
  21201387.860   111414075.15909  21201389.540    86816180.70648
  21986479.640   115539774.72108  21986481.480    90031027.65947
  21574623.200   113375634.23808  21574624.640    88344777.70448
  23115085.180   121470638.97107  23115086.480    94652469.06546
  22503552.260   118256977.73908  22503556.760    92148328.65947
  24362076.760   128024002.56505  24362079.620    99759159.08844
  23926962.600   125737024.37706  23926966.640    97976917.83846
 15 03 01 00 19  0.0000000  0  7G16G18G21G22G27G29G31
  21190564.080   111357195.54109  21190565.700    86771858.93248
  21977624.380   115493240.11608  21977626.200    89994766.93647
  21583789.780   113423804.63608  21583791.180    88382313.07748
  23097395.100   121377677.03907  23097396.300    94580031.26746
  22491352.380   118192867.39708  22491356.920    92098372.57747
  24376359.980   128099062.45706  24376363.120    99817647.32044
  23945046.740   125832055.87406  23945050.640    98050968.10146
 15 03 01 00 19 30.0000000  0  7G16G18G21G22G27G29G31
  21179813.300   111300699.75309  21179814.900    86727836.25048
  21968844.820   115447103.52908  21968846.680    89958816.36947
  21593002.720   113472218.54508  21593004.080    88420038.19748
  23079729.720   121284845.35607  23079730.960    94507694.96446
  22479170.020   118128849.14108  22479174.620    92048488.24847
  24390650.920   128174163.29106  24390654.540    99876167.27044
  23963135.720   125927112.93106  23963139.600    98125038.31445
 15 03 01 00 20  0.0000000  0  7G16G18G21G22G27G29G31
  21169132.920   111244574.23709  21169134.520    86684102.09448
  21960138.340   115401351.21208  21960140.280    89923165.24047
  21602258.720   113520858.86208  21602260.040    88457939.73848
  23062086.560   121192130.84107  23062087.880    94435449.94946
  22467002.320   118064907.45108  22467006.920    91998663.59447
  24404949.900   128248852.02005  24404951.020    99934184.93144
  23981225.780   126022176.59606  23981229.920    98199113.65446
 15 03 01 00 20 30.0000000  0  7G16G18G21G22G27G29G31
  21158536.220   111188888.47609  21158537.860    86640710.60048
  21951518.100   115356052.16008  21951520.100    89887867.29147
  21611570.200   113569790.81708  21611571.460    88496068.52648
  23044479.020   121099603.78407  23044480.380    94363351.00546
  22454862.080   118001110.00408  22454866.700    91948951.32647
  24419261.460   128324070.46906  24419264.280    99992796.56545
  23999329.360   126117311.47706  23999333.880    98273244.46246
 15 03 01 00 21  0.0000000  0  7G16G18G21G22G27G29G31
  21148008.420   111133564.59509  21148010.040    86597601.08948
  21942969.380   115311128.64608  21942971.320    89852861.97647
  21620921.740   113618933.37608  21620922.980    88534361.42548
  23026892.540   121007186.87807  23026893.760    94291337.89946
  22442734.180   117937377.22108  22442738.760    91899289.43747
  24433577.040   128399301.60405  24433580.060   100051418.25945
  24017430.740   126212434.84006  24017435.560    98347366.30146
 15 03 01 00 21 30.0000000  0  7G16G18G21G22G27G29G31
  21137556.980   111078641.93909  21137558.620    86554804.21848
  21934499.540   115266619.43108  21934501.400    89818179.48947
  21630319.940   113668321.06408  21630321.160    88572845.33148
  23009334.600   120914919.87207  23009335.720    94219441.60346
  22430625.660   117873746.41608  22430630.200    91849707.03147
  24447902.320   128474582.36806  24447905.620   100110078.58045
  24035536.560   126307581.06406  24035541.640    98421506.00545
 15 03 01 00 22  0.0000000  0  7G16G18G21G22G27G29G31
  21127181.520   111024118.32609  21127183.140    86512318.29048
  21926107.980   115222521.51108  21926109.760    89783817.49347
  21639763.840   113717948.89308  21639765.020    88611516.36848
  22991804.980   120822801.06807  22991805.900    94147660.79846
  22418535.760   117810213.56508  22418540.220    91800200.94247
  24462236.460   128549908.66405  24462239.980   100168774.37346
  24053645.360   126402742.46806  24053650.580    98495657.51046
 15 03 01 00 22 30.0000000  0  7G16G18G21G22G27G29G31
  21116883.060   110969999.49609  21116884.680    86470147.77748
  21917795.820   115178840.60608  21917797.560    89749780.44447
  21649253.680   113767818.12608  21649254.800    88650375.51048
  22974304.700   120730836.61207  22974305.560    94076000.24346
  22406465.220   117746782.52808  22406469.580    91750774.19147
  24476579.700   128625284.09406  24476583.620   100227508.36046
  24071757.200   126497920.10706  24071762.560    98569821.73746
 15 03 01 00 23  0.0000000  0  7G16G18G21G22G27G29G31
  21106660.420   110916279.20709  21106662.040    86428287.81448
  21909561.740   115135570.28408  21909563.480    89716063.32447
  21658787.580   113817918.93508  21658788.660    88689415.10048
  22956832.700   120639020.86707  22956833.620    94004455.57646
  22394412.480   117683445.13908  22394416.780    91701420.40947
  24490930.820   128700699.94905  24490934.940   100286273.96145
  24089869.940   126593102.60706  24089875.340    98643989.69946
 15 03 01 00 23 30.0000000  0  7G16G18G21G22G27G29G31
  21096515.040   110862965.08109  21096516.680    86386744.34148
  21901407.180   115092717.82408  21901408.960    89682671.81147
  21668366.140   113868254.67908  21668367.240    88728637.75748
  22939390.640   120547362.38307  22939391.700    93933033.44246
  22382378.700   117620207.42908  22382383.000    91652144.30147
  24505290.940   128776162.21906  24505294.840   100345075.73245
  24107984.180   126688292.81106  24107989.660    98718163.65346
 15 03 01 00 24  0.0000000  0  7G16G18G21G22G27G29G31
  21086446.900   110810056.90009  21086448.560    86345517.18748
  21893331.880   115050282.20108  21893333.800    89649605.11147
  21677988.620   113918821.43908  21677989.800    88768040.42148
  22921978.540   120455861.30307  22921979.820    93861733.94747
  22370363.440   117557067.25308  22370367.800    91602944.19447
  24519659.380   128851668.49405  24519663.320   100403911.72345
  24126098.900   126783485.11106  24126104.460    98792339.19346
 15 03 01 00 24 30.0000000  0  7G16G18G21G22G27G29G31
  21076456.980   110757559.74509  21076458.680    86304610.31348
  21885336.820   115008268.31608  21885338.880    89616867.03947
  21687655.440   113969621.13908  21687656.700    88807624.59948
  22904597.380   120364522.96707  22904598.900    93790561.27846
  22358367.360   117494027.89208  22358371.780    91553822.63947
  24534036.860   128927221.71606  24534040.760   100462784.34045
  24144214.200   126878679.82106  24144219.600    98866516.62945
 15 03 01 00 25  0.0000000  0  7G16G18G21G22G27G29G31
  21066545.020   110705472.11409  21066546.740    86264022.54948
  21877421.620   114966674.02208  21877423.800    89584455.91947
  21697365.400   114020647.42108  21697366.700    88847385.33648
  22887247.040   120273346.69107  22887248.780    93719514.90347
  22346389.880   117431086.09908  22346394.360    91504777.10847
  24548422.660   129002818.33106  24548426.300   100521690.76745
  24162328.760   126973870.44606  24162334.000    98940690.87546
 15 03 01 00 25 30.0000000  0  6G16G18G21G22G27G31
  21056710.200   110653789.75209  21056711.920    86223750.58048
  21869585.460   114925494.74408  21869587.620    89552368.18447
  21707117.000   114071892.64508  21707118.360    88887316.67348
  22869926.820   120182328.45207  22869928.560    93648591.66546
  22334429.800   117368235.67008  22334434.360    91455802.77347
  24180440.720   127069047.74006  24180445.860    99014854.81145
 15 03 01 00 26  0.0000000  0  6G16G18G21G22G27G31
  21046958.420   110602543.70809  21046960.140    86183818.59848
  21861834.200   114884761.12708  21861836.260    89520627.72047
  21716915.520   114123384.48108  21716916.960    88927440.17548
  22852642.920   120091500.69407  22852644.520    93577816.85747
  22322492.760   117305506.18008  22322497.320    91406922.66748
  24198555.120   127164238.22006  24198560.180    99089028.96145
 15 03 01 00 26 30.0000000  0  7G16G18G19G21G22G27G31
  21037285.480   110551711.92109  21037287.180    86144209.41548
  21854163.380   114844450.43108  21854165.400    89489216.81147
  24536300.340   128939129.67606  24536302.080   100472053.04645
  21726755.980   114175096.80208  21726757.480    88967735.48448
  22835391.100   120000841.39307  22835392.420    93507173.30146
  22310574.120   117242873.47008  22310578.660    91358117.98647
  24216666.600   127259413.99406  24216671.660    99163191.56945
 15 03 01 00 27  0.0000000  0  7G16G18G19G21G22G27G31
  21027688.300   110501278.13109  21027689.940    86104910.35448
  21846569.780   114804545.85408  21846571.800    89458122.34747
  24520967.820   128858556.91305  24520969.760   100409269.15245
  21736634.420   114227008.62208  21736635.980    89008186.24748
  22818168.260   119910334.96007  22818169.280    93436648.86946
  22298670.560   117180319.79508  22298675.080    91309374.88247
  24234771.440   127354555.08906  24234776.560    99237327.27546
 15 03 01 00 27 30.0000000  0  7G16G18G19G21G22G27G31
  21018174.800   110451284.32009  21018176.380    86065954.13548
  21839061.460   114765089.73708  21839063.480    89427377.33947
  24505647.880   128778050.37905  24505649.840   100346536.87045
  21746558.360   114279159.54708  21746559.980    89048823.32548
  22800982.520   119820024.02007  22800983.300    93366276.76347
  22286789.700   117117885.48308  22286794.200    91260724.79748
  24252876.540   127449697.74806  24252881.760    99311464.10945
 15 03 01 00 28  0.0000000  0  7G16G18G19G21G22G27G31
  21008742.260   110401716.07409  21008743.800    86027329.52448
  21831635.560   114726066.78408  21831637.620    89396969.84847
  24490337.240   128697593.26106  24490339.440   100283843.10645
  21756524.300   114331530.92008  21756525.920    89089632.18248
  22783831.240   119729894.61507  22783831.940    93296046.10946
  22274928.460   117055554.18608  22274932.960    91212154.98048
  24270978.340   127544822.93106  24270983.720    99385587.43045
 15 03 01 00 28 30.0000000  0  7G16G18G19G21G22G27G31
  20999390.800   110352573.76809  20999392.300    85989036.82048
  21824292.060   114687476.46008  21824294.120    89366899.48047
  24475035.740   128617184.06705  24475038.120   100221186.65844
  21766531.520   114384119.15308  21766533.160    89130610.02148
  22766714.720   119639947.91207  22766715.480    93225957.82846
  22263086.560   116993324.64708  22263091.080    91163664.45548
  24289075.960   127639926.20106  24289081.460    99459693.68546
 15 03 01 00 29  0.0000000  0  7G16G18G19G21G22G27G31
  20990120.800   110303859.53409  20990122.340    85951077.67748
  21817031.200   114649320.47508  21817033.280    89337167.56047
  24459743.500   128536823.22906  24459745.940   100158567.90145
  21776579.900   114436923.37908  21776581.520    89171756.16948
  22749633.540   119550186.58807  22749634.420    93156014.00146
  22251264.140   116931197.38708  22251268.640    91115253.62947
  24307168.920   127735004.91905  24307174.580    99533780.85145
 15 03 01 00 29 30.0000000  0  7G16G18G19G21G22G27G31
  20980932.800   110255576.08709  20980934.380    85913454.21148
  21809853.540   114611601.38608  21809855.600    89307776.07647
  24444460.640   128456511.59405  24444463.040   100095987.46644
  21786669.040   114489941.77108  21786670.620    89213069.19648
  22732588.480   119460614.17708  22732589.400    93086217.36946
  22239461.320   116869173.48008  22239465.880    91066923.34547
  24325256.860   127830056.86606  24325262.600    99607847.16546
 15 03 01 00 30  0.0000000  0  7G16G18G19G21G22G27G31
  20971827.260   110207726.13809  20971828.860    85876168.53948
  21802759.320   114574321.07908  21802761.420    89278726.50147
  24429187.220   128376249.62905  24429189.580   100033445.76144
  21796798.720   114543173.36408  21796800.260    89254548.35348
  22715580.020   119371233.68808  22715580.980    93016570.28647
  22227678.400   116807253.84708  22227682.940    91018674.30048
  24343339.300   127925079.80206  24343345.100    99681890.86245
 15 03 01 00 30 30.0000000  0  7G16G18G19G21G22G27G31
  20962804.560   110160311.32709  20962806.120    85839221.93948
  21795748.880   114537480.96308  21795750.980    89250019.92747
  24413923.260   128296037.59006  24413925.540    99970942.96045
  21806968.620   114596616.39708  21806970.120    89296192.27148
  22698608.620   119282047.58308  22698609.560    92947074.66047
  22215915.380   116745438.75208  22215919.900    90970506.71848
  24361415.740   128020070.83406  24361421.620    99755909.74645
 15 03 01 00 31  0.0000000  0  7G16G18G19G21G22G27G31
  20953864.800   110113332.48209  20953866.300    85802615.04748
  21788822.200   114501081.41308  21788824.400    89221656.65647
  24398668.580   128215873.82706  24398670.660    99908477.76545
  21817178.140   114650267.66608  21817179.620    89337998.44848
  22681674.460   119193057.54608  22681675.460    92877731.83047
  22204172.100   116683727.18608  22204176.580    90922419.81348
  24379485.300   128115026.03606  24379491.200    99829900.80645
 15 03 01 00 31 30.0000000  0  7G16G18G19G21G22G27G31
  20945008.380   110066791.64409  20945009.840    85766349.46348
  21781979.620   114465123.94308  21781981.920    89193637.85447
  24383423.180   128135758.68306  24383425.140    99846050.45844
  21827427.160   114704126.37508  21827428.580    89379966.26748
  22664778.040   119104266.27308  22664779.120    92808543.87047
  22192448.600   116622119.68608  22192453.040    90874413.99148
  24397547.460   128209942.38406  24397553.320    99903861.62345
 15 03 01 00 32  0.0000000  0  7G16G18G19G21G22G27G31
  20936236.200   110020693.51109  20936237.680    85730428.84249
  21775221.860   114429612.26608  21775224.240    89165966.43447
  24368187.480   128055694.77806  24368189.480    99783663.07845
  21837715.700   114758192.79408  21837717.060    89422095.94048
  22647920.300   119015678.71408  22647921.540    92739514.64647
  22180745.440   116560619.19408  22180749.900    90826491.55248
  24415602.180   128304819.62406  24415608.080    99977791.95945
 15 03 01 00 32 30.0000000  0  7G16G18G19G21G22G27G31
  20927548.060   109975037.06909  20927549.580    85694852.39448
  21768548.800   114394545.20208  21768551.120    89138641.45547
  24352961.080   127975679.47906  24352963.020    99721313.57745
  21848042.820   114812462.15208  21848044.180    89464383.74448
  22631101.260   118927294.75808  22631102.600    92670644.07447
  22169062.200   116499223.25608  22169066.640    90778650.58848
  24433648.320   128399652.21206  24433654.280   100051687.40246
 15 03 01 00 33  0.0000000  0  7G16G18G19G21G22G27G31
  20918944.360   109929824.58009  20918945.940    85659621.88148
  21761960.680   114359924.00608  21761962.840    89111663.91447
  24337744.120   127895713.19206  24337745.920    99659002.26045
  21858408.320   114866933.03608  21858409.660    89506828.58248
  22614321.560   118839117.44108  22614322.940    92601934.52347
  22157398.960   116437932.57408  22157403.400    90730891.63848
  24451685.480   128494437.60006  24451691.420   100125546.08245
 15 03 01 00 33 30.0000000  0  7G16G18G19G21G22G27G31
  20910426.080   109885061.08009  20910427.700    85624741.23549
  21755458.380   114325753.59508  21755460.380    89085037.63047
  24322537.000   127815799.02206  24322538.740    99596731.54945
  21868812.500   114921607.24208  21868813.800    89549431.85448
  22597582.320   118751152.57008  22597583.600    92533390.51947
  22145756.440   116376750.58408  22145760.860    90683217.38548
  24469713.720   128589176.19106  24469719.660   100199368.30646
 15 03 01 00 34  0.0000000  0  7G16G18G19G21G22G27G31
  20901993.480   109840747.57309  20901995.100    85590211.23249
  21749041.940   114292034.12408  21749043.760    89058762.74247
  24307339.600   127735936.56906  24307341.480    99534501.13645
  21879254.920   114976482.43808  21879256.200    89592191.74248
  22580883.780   118663401.74608  22580884.940    92465013.30547
  22134134.500   116315676.97208  22134138.900    90635627.57948
  24487732.300   128683864.47606  24487738.280   100273151.32445
 15 03 01 00 34 30.0000000  0  7G16G18G19G21G22G27G31
  20893647.220   109796887.75609  20893648.840    85556034.75249
  21742711.900   114258769.12908  21742713.600    89032841.97747
  24292152.160   127656127.21505  24292154.220    99472312.08245
  21889735.540   115031558.42808  21889736.800    89635108.09248
  22564226.880   118575869.36608  22564227.840    92396806.29946
  22122533.540   116254713.72808  22122537.940    90588123.77848
  24505740.960   128778501.18306  24505747.200   100346894.19445
 15 03 01 00 35  0.0000000  0  7G16G18G19G21G22G27G31
  20885387.120   109753480.39109  20885388.680    85522210.82949
  21736467.860   114225956.65908  21736469.540    89007273.82447
  24276974.260   127576368.20006  24276976.580    99410162.23946
  21900253.380   115086830.06608  21900254.660    89678176.88748
  22547611.440   118488554.77708  22547612.240    92328769.00147
  22110953.060   116193858.13708  22110957.440    90540703.86348
  24523738.600   128873080.37306  24523745.080   100420592.15546
 15 03 01 00 35 30.0000000  0  7G16G18G19G21G22G27G31
  20877213.380   109710527.13209  20877214.940    85488740.75649
  21730310.060   114193597.56908  21730311.800    88982058.95847
  24261806.020   127496659.33006  24261808.480    99348051.48946
  21910808.120   115142295.63608  21910809.380    89721396.80548
  22531037.940   118401460.20208  22531038.620    92260903.14447
  22099393.080   116133110.38708  22099397.460    90493367.97448
  24541724.600   128967598.98106  24541731.380   100494242.88545
 15 03 01 00 36  0.0000000  0  7G16G18G19G21G22G27G31
  20869126.620   109668031.15209  20869128.200    85455627.00449
  21724239.040   114161694.54308  21724240.900    88957199.46347
  24246647.560   127417001.54506  24246650.100    99285980.57044
  21921399.660   115197954.54108  21921400.900    89764767.37448
  22514507.160   118314589.93608  22514507.760    92193212.07447
  22087853.920   116072472.13108  22087858.320    90446117.41048
  24559698.920   129062055.89706  24559705.880   100567845.57545
 15 03 01 00 36 30.0000000  0  7G16G18G19G21G22G27G31
  20861127.100   109625993.46209  20861128.700    85422870.36249
  21718254.880   114130247.87808  21718256.860    88932695.57648
  24231498.800   127337394.36106  24231501.240    99223949.05145
  21932027.520   115253804.38308  21932028.740    89808286.72148
  22498019.360   118227945.63908  22498019.980    92125697.08947
  22076335.540   116011942.90608  22076339.940    90398951.80248
  24577660.840   129156447.44806  24577667.900   100641397.49745
 15 03 01 00 37  0.0000000  0  7G16G18G19G21G22G27G31
  20853215.080   109584415.69209  20853216.740    85390472.10249
  21712357.840   114099258.74408  21712359.860    88908548.20947
  24216359.800   127257838.06606  24216362.040    99161957.19046
  21942691.360   115309843.40108  21942692.620    89851953.47648
  22481574.980   118141529.79908  22481575.720    92058360.11647
  22064838.020   115951523.13808  22064842.420    90351871.49748
  24595609.940   129250770.42706  24595616.880   100714895.80344
 15 03 01 00 37 30.0000000  0  7G16G18G19G21G22G27G31
  20845391.260   109543301.20109  20845392.960    85358434.83249
  21706548.440   114068730.08908  21706550.460    88884759.65748
  24201230.720   127178334.04906  24201232.800    99100006.08145
  21953391.220   115366071.60508  21953392.480    89895767.65748
  22465174.680   118055346.30008  22465175.640    91991204.18447
  22053361.720   115891214.67208  22053366.080    90304877.90948
  24613546.000   129345024.03106  24613552.720   100788340.15145
 15 03 01 00 38  0.0000000  0  7G16G18G19G21G22G27G31
  20837655.980   109502651.77009  20837657.620    85326759.95149
  21700826.840   114038663.01708  21700828.920    88861330.78448
  24186111.580   127098882.54706  24186113.640    99038095.89045
  21964126.720   115422487.20908  21964128.020    89939727.85848
  22448819.080   117969397.91208  22448820.240    91924231.45747
  22041906.720   115831018.10908  22041911.000    90257971.52148
  24631468.300   129439205.25206  24631474.620   100861728.00745
 15 03 01 00 38 30.0000000  0  7G16G18G19G21G22G27G31
  20830009.340   109462468.08809  20830010.900    85295447.99549
  21695192.940   114009057.16108  21695195.160    88838261.30348
  24171002.200   127019482.13806  24171004.120    98976225.52345
  21974897.360   115479087.34908  21974898.680    89983831.85348
  22432508.440   117883685.76908  22432509.720    91857442.80747
  22030472.780   115770932.34908  22030477.040    90211151.47148
  24649376.140   129533310.11006  24649382.120   100935056.46245
 15 03 01 00 39  0.0000000  0  7G16G18G19G21G22G27G31
  20822452.060   109422754.24209  20822453.580    85264502.13749
  21689647.560   113979916.39208  21689649.860    88815554.22447
  24155903.020   126940135.49006  24155904.880    98914397.06145
  21985703.140   115535872.37708  21985704.540    90028079.91448
  22416243.760   117798215.00608  22416245.040    91790842.24947
  22019060.440   115710960.35008  22019064.720    90164420.06348
  24667269.400   129627338.23106  24667275.000   101008324.99245
 15 03 01 00 39 30.0000000  0  7G16G18G19G21G22G27G31
  20814984.060   109383509.62209  20814985.580    85233921.91649
  21684190.420   113951239.14108  21684192.720    88793208.32447
  24140813.720   126860840.63406  24140815.440    98852608.92845
  21996543.400   115592838.46708  21996544.840    90072469.06548
  22400025.160   117712985.69008  22400026.320    91724429.83847
  22007669.440   115651100.23808  22007673.740    90117775.85148
  24685146.960   129721284.21006  24685152.400   101081529.44944
 15 03 01 00 40  0.0000000  0  7G16G18G19G21G22G27G31
  20807606.240   109344738.74809  20807607.720    85203710.84349
  21678822.280   113923029.35608  21678824.580    88771226.68448
  24125734.660   126781600.00106  24125736.400    98790863.05145
  22007418.360   115649986.67808  22007419.800    90117000.13048
  22383853.660   117628003.39808  22383854.580    91658209.92347
  21996300.340   115591355.21708  21996304.660    90071221.31048
  24703009.000   129815148.76006  24703014.360   101154670.47144
 15 03 01 00 40 30.0000000  0  6G16G18G19G21G22G27
  20800317.300   109306434.95209  20800318.740    85173863.72949
  21673541.680   113895279.56608  21673543.980    88749603.48948
  24110664.320   126702405.30006  24110666.040    98729152.93545
  22018326.000   115707306.54708  22018327.400    90161664.95348
  22367728.020   117543261.77008  22367728.620    91592177.54047
  21984951.560   115531716.96308  21984955.900    90024749.96948
 15 03 01 00 41  0.0000000  0  6G16G18G19G21G22G27
  20793120.480   109268615.32909  20793121.880    85144393.88749
  21668351.860   113868006.72808  21668354.140    88728351.93848
  24095605.580   126623271.68906  24095607.320    98667490.43045
  22029268.960   115764811.80708  22029270.280    90206474.24448
  22351651.600   117458778.88808  22351651.880    91526346.76947
  21973626.140   115472201.62608  21973630.500    89978374.40548
 15 03 01 00 41 30.0000000  0  6G16G18G19G21G22G27
  20786014.340   109231272.32709  20786015.740    85115295.44449
  21663251.200   113841202.26608  21663253.400    88707465.35448
  24080556.880   126544190.54706  24080558.720    98605868.80846
  22040245.180   115822491.93508  22040246.420    90251419.78548
  22335623.040   117374547.90808  22335623.120    91460712.29147
  21962322.380   115412800.32608  21962326.800    89932087.69848
 15 03 01 00 42  0.0000000  0  6G16G18G19G21G22G27
  20778999.260   109194408.16109  20779000.740    85086570.12449
  21658239.940   113814867.79108  21658242.080    88686944.99647
  24065518.320   126465162.41806  24065520.180    98544288.48246
  22051254.460   115880345.85808  22051255.620    90296500.75848
  22319642.940   117290572.33608  22319643.060    91395276.81747
  21951040.540   115353514.09808  21951044.940    89885890.67048
 15 03 01 00 42 30.0000000  0  6G16G18G19G21G22G27
  20772075.940   109158026.04209  20772077.500    85058220.42349
  21653318.620   113789005.92208  21653320.660    88666792.90148
  24050490.220   126386189.34506  24050492.080    98482751.05246
  22062296.740   115938373.19508  22062297.860    90341716.85848
  22303712.080   117206856.21908  22303712.500    91330043.51847
  21939780.980   115294344.91408  21939785.360    89839784.83148
 15 03 01 00 43  0.0000000  0  6G16G18G19G21G22G27
  20765244.800   109122128.22009  20765246.400    85030248.09249
  21648487.460   113763618.18108  21648489.460    88647010.25647
  24035472.540   126307271.50106  24035474.520    98421256.66046
  22073371.820   115996573.04408  22073372.920    90387067.38748
  22287831.020   117123401.83908  22287831.800    91265014.15547
  21928543.880   115235293.93608  21928548.260    89793771.10048
 15 03 01 00 43 30.0000000  0  6G16G18G19G21G22G27
  20758505.700   109086714.10009  20758507.320    85002652.67349
  21643746.180   113738702.77308  21643748.140    88627595.66447
  24020464.960   126228406.56106  24020466.960    98359803.52645
  22084478.880   116054941.08308  22084479.980    90432548.96848
  22272000.040   117040210.36008  22272001.140    91200189.65747
  21917328.880   115176359.00208  21917333.240    89747847.79948
 15 03 01 00 44  0.0000000  0  6G16G18G19G21G22G27
  20751859.180   109051786.41209  20751860.800    84975436.29549
  21639095.320   113714262.53608  21639097.260    88608551.33247
  24005467.920   126149596.48906  24005469.840    98298393.13246
  22095617.860   116113477.14908  22095619.040    90478161.47948
  22256219.860   116957285.25108  22256221.120    91135572.71647
  21906136.320   115117541.97008  21906140.640    89702016.36548
 15 03 01 00 44 30.0000000  0  6G16G18G19G21G22G27
  20745305.380   109017345.94709  20745306.980    84948599.56549
  21634534.880   113690297.35408  21634536.780    88589877.17647
  23990481.240   126070840.51606  23990483.040    98237024.88847
  22106788.300   116172178.39408  22106789.560    90523902.69648
  22240490.780   116874628.04708  22240491.980    91071164.54147
  21894966.180   115058842.68308  21894970.460    89656276.67848
 15 03 01 00 45  0.0000000  0  6G16G18G19G21G22G27
  20738844.920   108983396.09309  20738846.540    84922145.13349
  21630065.320   113666809.64208  21630067.160    88571575.07747
  23975505.000   125992139.67206  23975506.740    98175699.62346
  22117990.260   116231045.18308  22117991.560    90569772.91347
  22224813.440   116792242.44408  22224814.380    91006968.01147
  21883818.820   115000263.01008  21883823.100    89610630.20348
 15 03 01 00 45 30.0000000  0  6G16G18G19G21G22G27
  20732478.480   108949940.26409  20732480.140    84896075.65949
  21625687.100   113643801.91708  21625688.920    88553646.99648
  23960539.580   125913496.07806  23960541.360    98114418.96346
  22129223.800   116290077.74708  22129225.120    90615772.30647
  22209188.620   116710133.23708  22209189.320    90942986.85047
  21872694.700   114941805.20008  21872698.940    89565078.68548
 15 03 01 00 46  0.0000000  0  6G16G18G19G21G22G27
  20726206.240   108916979.36309  20726207.880    84870391.83749
  21621400.340   113621274.63308  21621402.120    88536093.28348
  23945584.980   125834909.49506  23945586.800    98053182.73046
  22140488.340   116349273.30408  22140489.700    90661898.70247
  22193616.660   116628302.16408  22193617.120    90879222.40847
  21861593.780   114883469.37708  21861598.020    89519622.22048
 15 03 01 00 46 30.0000000  0  6G16G18G19G21G22G27
  20720028.100   108884512.71309  20720029.680    84845093.15149
  21617204.760   113599226.59608  21617206.540    88518913.00148
  23930640.860   125756377.78206  23930642.680    97991989.25646
  22151783.280   116408628.53308  22151784.640    90708149.52247
  22178097.620   116546749.51008  22178098.000    90815674.92047
  21850515.680   114825253.76008  21850520.000    89474259.42448
 15 03 01 00 47  0.0000000  0  6G16G18G19G21G22G27
  20713944.400   108852542.32509  20713945.900    84820181.16349
  21613100.600   113577659.42308  21613102.500    88502107.42048
  23915707.440   125677902.26406  23915709.240    97930839.55946
  22163108.380   116468142.59008  22163109.800    90754524.09747
  22162632.180   116465478.84708  22162632.660    90752347.17547
  21839460.720   114767159.87908  21839465.160    89428991.49048
 15 03 01 00 47 30.0000000  0  6G16G18G19G21G22G27
  20707956.080   108821073.33609  20707957.560    84795659.87149
  21609088.620   113556576.84908  21609090.660    88485679.44848
  23900785.120   125599485.54806  23900787.000    97869735.67146
  22174463.820   116527816.08808  22174465.260    90801022.91447
  22147221.340   116384495.08208  22147222.000    90689242.98047
  21828429.580   114709190.83908  21828434.020    89383820.83248
 15 03 01 00 48  0.0000000  0  6G16G18G19G21G22G27
  20702062.920   108790104.43509  20702064.360    84771528.25949
  21605168.500   113535976.96808  21605170.660    88469627.60748
  23885873.480   125521125.29706  23885875.520    97808675.79246
  22185848.900   116587645.25208  22185850.340    90847643.03047
  22131865.180   116303798.25608  22131866.000    90626362.36547
  21817421.900   114651344.80108  21817426.260    89338746.01748
 15 03 01 00 48 30.0000000  0  6G16G18G19G21G22G27
  20696264.760   108759635.16409  20696266.240    84747785.97249
  21601340.060   113515858.35908  21601342.240    88453950.78348
  23870972.320   125442819.89506  23870974.460    97747658.68446
  22197263.020   116647626.75808  22197264.460    90894381.85747
  22116563.720   116223388.70908  22116564.640    90563705.60647
  21806437.300   114593620.20708  21806441.600    89293765.83948
 15 03 01 00 49  0.0000000  0  6G16G18G19G21G22G27
  20690562.300   108729668.73908  20690563.820    84724435.51749
  21597603.880   113496224.18808  21597606.020    88438651.44448
  23856082.080   125364571.26306  23856084.080    97686685.79446
  22208706.120   116707760.60408  22208707.580    90941239.38447
  22101317.820   116143271.07908  22101318.840    90501276.30947
  21795476.260   114536019.59508  21795480.520    89248882.26448
 15 03 01 00 49 30.0000000  0  6G16G18G19G21G22G27
  20684956.040   108700208.05408  20684957.640    84701479.14349
  21593960.220   113477076.15308  21593962.260    88423730.91748
  23841202.880   125286380.74705  23841204.720    97625758.19546
  22220178.180   116768046.45508  22220179.620    90988215.36347
  22086128.180   116063448.99308  22086129.240    90439077.31947
  21784539.140   114478544.66308  21784543.380    89204096.62448
 15 03 01 00 50  0.0000000  0  6G16G18G19G21G22G27
  20679446.380   108671254.77409  20679448.000    84678918.15249
  21590409.200   113458414.87808  21590411.100    88409189.68248
  23826334.840   125208248.90905  23826336.520    97564876.30446
  22231678.940   116828483.17308  22231680.380    91035308.89547
  22070995.260   115983924.98808  22070996.300    90377110.59547
  21773626.120   114421196.31408  21773630.320    89159409.62248
 15 03 01 00 50 30.0000000  0  6G16G18G19G21G22G27
  20674033.520   108642810.09709  20674035.160    84656753.46949
  21586950.960   113440241.42008  21586952.720    88395028.56548
  23811477.920   125130175.65606  23811479.500    97504040.07146
  22243208.060   116889068.52708  22243209.400    91082518.25447
  22055919.540   115904701.30008  22055920.420    90315377.88247
  21762737.280   114363974.88908  21762741.420    89114821.51548
 15 03 01 00 51  0.0000000  0  6G16G18G19G21G22G27
  20668717.760   108614875.58709  20668719.420    84634986.32249
  21583585.560   113422556.27408  21583587.240    88381247.93948
  23796632.220   125052161.21806  23796633.800    97443249.67746
  22254765.220   116949801.39508  22254766.520    91129842.55847
  22040901.320   115825780.20008  22040902.080    90253880.95947
  21751872.620   114306880.96808  21751876.800    89070332.76848
 15 03 01 00 51 30.0000000  0  6G16G18G19G21G22G27
  20663499.380   108587452.83909  20663501.060    84613617.94749
  21580313.200   113405360.54208  21580314.880    88367848.68247
  23781797.840   124974206.10606  23781799.400    97382505.52146
  22266350.140   117010680.20308  22266351.440    91177280.58247
  22025941.180   115747164.58808  22025941.860    90192622.08247
  21741032.380   114249915.38508  21741036.620    89025944.02448
 15 03 01 00 52  0.0000000  0  6G16G18G19G21G22G27
  20658378.600   108560543.11109  20658380.320    84592649.32849
  21577133.940   113388654.20908  21577135.720    88354830.77448
  23766974.700   124896310.30806  23766976.340    97321807.55346
  22277962.320   117071702.33208  22277963.580    91224830.28147
  22011039.620   115668856.73208  22011040.240    90131603.00647
  21730216.640   114193078.57708  21730220.940    88981655.62348
 15 03 01 00 52 30.0000000  0  6G16G18G19G21G22G27
  20653355.780   108534148.12609  20653357.540    84572081.80849
  21574048.080   113372438.64608  21574050.000    88342195.27748
  23752162.900   124818474.12606  23752164.620    97261156.05045
  22289601.820   117132868.22308  22289603.100    91272492.00647
  21996197.300   115590859.64908  21996197.860    90070826.08747
  21719425.620   114136371.49208  21719429.900    88937468.30848
 15 03 01 00 53  0.0000000  0  6G16G18G19G21G22G27
  20648431.040   108508268.23808  20648432.760    84551915.65749
  21571055.440   113356712.95208  21571057.540    88329941.50248
  23737362.480   124740697.31806  23737364.160    97200550.82746
  22301267.980   117194174.54408  22301269.320    91320263.15547
  21981414.340   115513174.25508  21981414.900    90010292.04047
  21708659.240   114079793.62008  21708663.460    88893381.67348
 15 03 01 00 53 30.0000000  0  6G16G18G19G21G22G27
  20643604.760   108482905.83108  20643606.460    84532152.74349
  21568156.540   113341479.30808  21568158.740    88318071.15148
  23722573.540   124662980.60306  23722575.140    97139992.40446
  22312960.760   117255620.79108  22312962.140    91368143.33148
  21966691.380   115435804.04908  21966691.960    89950003.59348
  21697917.780   114023346.66208  21697921.920    88849397.04748
 15 03 01 00 54  0.0000000  0  6G16G18G19G21G22G27
  20638877.220   108458062.50908  20638878.920    84512794.30849
  21565351.420   113326738.06208  21565353.560    88306584.47748
  23707796.040   124585324.11706  23707797.500    97079480.93446
  22324679.900   117317205.47408  22324681.360    91416131.38547
  21952028.900   115358751.61408  21952029.440    89889962.75948
  21687201.300   113967031.33208  21687205.400    88805514.99248
 15 03 01 00 54 30.0000000  0  6G16G18G19G21G22G27
  20634248.820   108433740.13508  20634250.500    84493841.80849
  21562640.340   113312490.87008  21562642.380    88295482.78648
  23693030.240   124507729.37706  23693031.680    97019017.55846
  22336425.240   117378927.82508  22336426.760    91464226.71247
  21937427.460   115282020.16908  21937427.960    89830172.04547
  21676510.200   113910849.19308  21676514.260    88761736.71748
 15 03 01 00 55  0.0000000  0  6G16G18G19G21G22G27
  20629719.860   108409940.38908  20629721.580    84475296.55649
  21560023.420   113298738.48408  21560025.360    88284766.65748
  23678276.200   124430197.05206  23678277.680    96958602.81246
  22348196.560   117440786.56908  22348198.080    91512428.31847
  21922887.540   115205612.41008  21922888.000    89770633.55847
  21665844.560   113854801.15508  21665848.660    88718062.93948
 15 03 01 00 55 30.0000000  0  6G16G18G19G21G22G27
  20625290.440   108386663.58508  20625292.180    84457158.79349
  21557500.460   113285480.09208  21557502.360    88274435.45548
  23663533.820   124352726.15506  23663535.400    96898235.95545
  22359993.340   117502779.09008  22359994.860    91560734.17047
  21908409.340   115129529.27308  21908409.760    89711348.02247
  21655204.340   113798886.70308  21655208.480    88674493.26148
 15 03 01 00 56  0.0000000  0  6G16G18G19G21G22G27
  20620961.160   108363913.03409  20620962.900    84439431.08849
  21555071.960   113272718.29908  21555073.860    88264491.21348
  23648803.460   124275318.45506  23648805.100    96837918.32645
  22371815.620   117564905.74008  22371817.140    91609144.53347
  21893993.740   115053775.39608  21893994.100    89652319.05547
  21644590.080   113743108.41908  21644594.200    88631029.67748
 15 03 01 00 56 30.0000000  0  6G16G18G19G21G22G27
  20616731.740   108341687.07408  20616733.420    84422112.15049
  21552737.500   113260450.72908  21552739.440    88254932.08248
  23634084.800   124197971.90306  23634086.460    96777648.38046
  22383662.720   117627162.64708  22383664.180    91657656.40447
  21879640.700   114978350.42908  21879641.080    89593546.38947
  21634001.300   113687464.21708  21634005.460    88587670.57148
 15 03 01 00 57  0.0000000  0  6G16G18G19G21G22G27
  20612602.420   108319987.28308  20612604.040    84405203.22049
  21550497.220   113248678.08308  21550499.220    88245758.60448
  23619377.880   124120686.85306  23619379.500    96717426.32246
  22395534.340   117689548.29708  22395535.760    91706268.58947
  21865350.800   114903256.87408  21865351.140    89535031.96048
  21623438.240   113631955.16208  21623442.440    88544416.77848
 15 03 01 00 57 30.0000000  0  6G16G18G19G21G22G27
  20608573.920   108298817.22309  20608575.520    84388707.06549
  21548351.660   113237403.17908  21548353.700    88236972.97848
  23604683.120   124043465.83806  23604684.760    96657254.17546
  22407430.620   117752063.39008  22407431.980    91754981.64847
  21851124.860   114828499.27808  21851125.220    89476779.32947
  21612901.420   113576584.13808  21612905.660    88501270.53848
 15 03 01 00 58  0.0000000  0  6G16G18G19G21G22G27
  20604646.200   108278176.65209  20604647.740    84372623.50249
  21546300.660   113226625.04808  21546302.680    88228574.45048
  23590000.420   123966307.85506  23590002.040    96597131.16146
  22419350.980   117814705.25408  22419352.340    91803793.47847
  21836963.060   114754078.58508  21836963.440    89418789.20548
  21602390.760   113521350.47008  21602395.060    88458231.33548
 15 03 01 00 58 30.0000000  0  6G16G18G19G21G22G27
  20600819.820   108258068.72408  20600821.320    84356954.98449
  21544344.600   113216346.00208  21544346.620    88220564.81348
  23575330.100   123889215.00806  23575331.720    96537058.88445
  22431295.520   117877474.15908  22431296.920    91852704.30147
  21822866.200   114679999.22208  21822866.640    89361065.05748
  21591906.780   113466256.72008  21591911.080    88415301.15748
 15 03 01 00 59  0.0000000  0  6G16G18G19G21G22G27
  20597094.260   108238490.70508  20597095.760    84341699.38149
  21542482.820   113206562.42408  21542484.860    88212941.26248
  23560671.540   123812183.64206  23560673.080    96477034.50146
  22443263.160   117940364.57208  22443264.600    91901709.81347
  21808833.940   114606259.28008  21808834.460    89303605.38048
  21581448.780   113411299.58008  21581453.100    88372477.42848
 15 03 01 00 59 30.0000000  0  6G16G18G19G21G22G27
  20593470.560   108219448.17508  20593472.100    84326861.04649
  21540716.260   113197279.17008  21540718.320    88205707.57448
  23546025.580   123735218.55806  23546027.080    96417061.77446
  22455254.560   118003379.71208  22455255.980    91950812.51847
  21794867.560   114532865.80908  21794868.200    89246415.69048
  21571017.820   113356484.36308  21571022.140    88329764.29448
 15 03 01 01 00  0.0000000  0  6G16G18G19G21G22G27
  20589948.820   108200941.34108  20589950.420    84312440.13449
  21539044.980   113188496.38708  21539046.980    88198863.86248
  23531392.120   123658319.51206  23531393.640    96357140.51245
  22467269.240   118066517.48608  22467270.680    92000010.77747
  21780967.380   114459820.48308  21780968.140    89189497.28048
  21560613.920   113301811.33208  21560618.200    88287161.94848
 15 03 01 01 00 30.0000000  0  6G16G18G19G21G22G27
  20586528.800   108182969.12508  20586530.440    84298435.81049
  21537468.340   113180211.03808  21537470.320    88192407.76048
  23516770.740   123581483.78607  23516772.240    96297268.58246
  22479306.480   118129773.94308  22479307.920    92049301.51547
  21767133.360   114387122.65308  21767134.120    89132849.64148
  21550236.600   113247278.17108  21550240.820    88244668.59448
 15 03 01 01 01  0.0000000  0  6G16G18G19G21G22G27
  20583211.140   108165534.71208  20583212.780    84284850.55349
  21535986.820   113172425.71608  21535988.840    88186341.29248
  23502161.980   123504714.23407  23502163.420    96237448.21746
  22491366.400   118193149.62108  22491367.880    92098685.15647
  21753366.440   114314776.99208  21753367.060    89076476.43247
  21539886.480   113192887.99408  21539890.680    88202286.65348
 15 03 01 01 01 30.0000000  0  6G16G18G19G21G22G27
  20579996.120   108148639.51508  20579997.720    84271685.46149
  21534600.620   113165141.37808  21534602.680    88180665.20748
  23487565.920   123428011.33707  23487567.260    96177679.78346
  22503448.760   118256643.00908  22503450.220    92148160.51747
  21739666.980   114242785.58708  21739667.360    89020379.27848
  21529563.740   113138641.85208  21529567.940    88160016.95148
 15 03 01 01 02  0.0000000  0  6G16G18G19G21G22G27
  20576883.800   108132283.94308  20576885.340    84258940.85449
  21533309.680   113158357.36908  21533311.720    88175378.97848
  23472982.420   123351374.62207  23472983.660    96117962.93046
  22515553.240   118320252.43308  22515554.700    92197726.30047
  21726035.420   114171150.66208  21726035.540    88964559.88448
  21519268.420   113084539.73308  21519272.640    88117859.47348
 15 03 01 01 02 30.0000000  0  6G16G18G19G21G22G27
  20573874.300   108116468.84009  20573875.800    84246617.39649
  21532113.960   113152073.72808  21532115.960    88170482.64948
  23458411.640   123274804.56407  23458412.780    96058298.01546
  22527679.540   118383976.42008  22527680.980    92247381.35147
  21712472.060   114099874.15108  21712471.980    88909019.78148
  21509000.640   113030582.33708  21509004.860    88075814.76648
 15 03 01 01 03  0.0000000  0  6G16G18G19G21G22G27
  20570967.880   108101195.52608  20570969.400    84234716.11249
  21531013.580   113146291.19508  21531015.540    88165976.79548
  23443853.680   123198302.04207  23443854.840    95998685.71546
  22539827.420   118447813.83708  22539828.920    92297124.78647
  21698977.360   114028958.75808  21698977.240    88853761.05848
  21498760.660   112976770.95308  21498764.880    88033883.83948
 15 03 01 01 03 30.0000000  0  6G16G18G19G21G22G27
  20568165.320   108086467.94208  20568166.840    84223240.07549
  21530009.120   113141012.71708  21530011.040    88161863.71248
  23429308.980   123121869.56907  23429310.180    95939127.99946
  22551997.080   118511765.70108  22551998.600    92346957.39947
  21685552.220   113958409.38408  21685552.220    88798787.54648
  21488549.100   112923108.88008  21488553.280    87992069.24948
 15 03 01 01 04  0.0000000  0  6G16G18G19G21G22G27
  20565466.220   108072284.11508  20565467.760    84212187.74649
  21529100.040   113136235.54008  21529101.940    88158141.24948
  23414777.100   123045504.62307  23414778.360    95879622.90446
  22564187.740   118575827.87508  22564189.240    92396875.97047
  21672196.540   113888225.14308  21672196.680    88744098.55248
  21478365.520   112869593.91308  21478369.700    87950369.29048
 15 03 01 01 04 30.0000000  0  6G16G18G19G21G22G27
  20562871.000   108058646.32908  20562872.600    84201560.89849
  21528286.520   113131960.61608  21528288.420    88154810.15848
  23400258.460   122969209.09607  23400259.700    95820171.90046
  22576399.400   118640000.30608  22576400.860    92446880.46047
  21658911.020   113818409.62408  21658911.280    88689696.87148
  21468210.380   112816228.21908  21468214.560    87908785.65248
 15 03 01 01 05  0.0000000  0  6G16G18G19G21G22G27
  20560379.560   108045553.77608  20560381.160    84191358.90849
  21527568.380   113128186.84608  21527570.280    88151869.57448
  23385752.780   122892981.56907  23385753.960    95760773.86446
  22588631.380   118704279.57408  22588632.780    92496968.19947
  21645695.780   113748963.42708  21645696.140    88635582.97448
  21458083.460   112763010.84008  21458087.620    87867317.58348
 15 03 01 01 05 30.0000000  0  6G16G18G19G21G22G27
  20557992.560   108033010.05608  20557994.180    84181584.58749
  21526946.220   113124917.25308  21526948.080    88149321.85548
  23371260.580   122816824.97307  23371261.720    95701431.09246
  22600884.000   118768667.23808  22600885.380    92547140.40047
  21632551.740   113679891.00908  21632552.100    88581760.34348
  21447985.400   112709945.16808  21447989.500    87825967.72648
 15 03 01 01 06  0.0000000  0  6G16G18G19G21G22G27
  20555709.660   108021013.54808  20555711.300    84172236.65549
  21526419.480   113122149.15508  21526421.340    88147164.91048
  23356781.480   122740737.46907  23356782.580    95642142.18346
  22613156.480   118833159.20608  22613157.820    92597393.88647
  21619478.840   113611192.55908  21619479.200    88528229.11448
  21437915.860   112657029.56208  21437919.960    87784734.80248
 15 03 01 01 06 30.0000000  0  6G16G18G19G21G22G27
  20553531.400   108009566.93508  20553533.060    84163317.22149
  21525988.520   113119884.30808  21525990.360    88145400.10948
  23342315.900   122664720.99307  23342317.020    95582908.62546
  22625448.920   118897756.31108  22625450.280    92647729.28947
  21606477.800   113542871.71608  21606478.100    88474992.12748
  21427875.380   112604266.79708  21427879.520    87743620.97148
 15 03 01 01 07  0.0000000  0  6G16G18G19G21G22G27
  20551457.960   107998671.06108  20551459.620    84154826.92749
  21525653.320   113118122.99608  21525655.180    88144027.66648
  23327863.960   122588775.84607  23327865.100    95523730.63346
  22637760.980   118962456.72308  22637762.360    92698145.19247
  21593549.000   113474930.86108  21593549.320    88422051.23548
  21417864.120   112551657.47008  21417868.300    87702626.71348
 15 03 01 01 07 30.0000000  0  6G16G18G19G21G22G27
  20549489.840   107988328.31008  20549491.440    84146767.64349
  21525414.160   113116866.49108  21525416.040    88143048.58848
  23313425.940   122512904.05107  23313427.160    95464609.79346
  22650092.660   119027260.62808  22650094.080    92748641.73347
  21580693.160   113407373.42008  21580693.540    88369409.10248
  21407882.520   112499203.83908  21407886.700    87661753.76748
 15 03 01 01 08  0.0000000  0  6G16G18G19G21G22G27
  20547626.640   107978536.90508  20547628.200    84139137.97649
  21525270.580   113116112.04908  21525272.400    88142460.72148
  23299001.400   122437103.02807  23299002.660    95405544.11046
  22662443.240   119092164.01007  22662444.780    92799215.79747
  21567910.240   113340198.93208  21567910.640    88317065.36848
  21397930.240   112446904.19508  21397934.400    87621000.81148
 15 03 01 01 08 30.0000000  0  6G16G18G19G21G22G27
  20545868.220   107969296.42908  20545869.820    84131937.60649
  21525222.400   113115858.87508  21525224.220    88142263.46348
  23284590.320   122361372.01307  23284591.520    95346532.98146
  22674812.320   119157164.54007  22674813.980    92849865.56347
  21555200.380   113273408.24908  21555200.780    88265020.70248
  21388007.220   112394758.18108  21388011.280    87580367.57248
 15 03 01 01 09  0.0000000  0  6G16G18G19G21G22G27
  20544215.260   107960610.35508  20544216.920    84125169.23849
  21525270.080   113116109.47708  21525271.880    88142458.75048
  23270193.240   122285714.56807  23270194.360    95287579.17146
  22687200.140   119222263.45907  22687201.920    92900591.97747
  21542564.440   113207005.80208  21542564.780    88213278.55848
  21378114.080   112342769.32908  21378118.080    87539856.78749
 15 03 01 01 09 30.0000000  0  6G16G18G19G21G22G27
  20542667.740   107952478.42908  20542669.460    84118832.67549
  21525413.380   113116862.78608  21525415.220    88143045.76248
  23255809.980   122210129.74807  23255811.080    95228681.95646
  22699606.360   119287458.56708  22699608.160    92951393.35647
  21530002.820   113140993.66208  21530003.080    88161840.54748
  21368250.760   112290937.56608  21368254.800    87499468.41248
 15 03 01 01 10  0.0000000  0  6G16G18G19G21G22G27
  20541226.080   107944902.55208  20541227.840    84112929.39249
  21525652.680   113118120.44208  21525654.540    88144025.76848
  23241440.900   122134619.60507  23241441.980    95169842.93847
  22712031.000   119352749.95008  22712032.680    93002269.74747
  21517516.080   113075375.18208  21517516.280    88110709.29148
  21358417.800   112239265.35208  21358421.880    87459204.35948
 15 03 01 01 10 30.0000000  0  6G16G18G19G21G22G27
  20539890.520   107937884.14208  20539892.300    84107460.50749
  21525987.960   113119882.10108  21525989.780    88145398.50248
  23227086.060   122059184.21207  23227087.080    95111062.17446
  22724473.660   119418136.07008  22724475.260    93053219.97147
  21505104.460   113010151.70808  21505104.660    88059885.83348
  21348615.300   112187753.04508  21348619.380    87419064.91648
 15 03 01 01 11  0.0000000  0  6G16G18G19G21G22G27
  20538661.220   107931424.01108  20538662.960    84102426.63749
  21526419.160   113122148.01208  21526421.000    88147164.15748
  23212745.720   121983824.94607  23212746.680    95052340.71747
  22736934.240   119483616.07208  22736935.700    93104243.33547
  21492768.520   112945325.94008  21492768.700    88009372.27048
  21338843.560   112136402.16808  21338847.600    87379051.26448
 15 03 01 01 11 30.0000000  0  6G16G18G19G21G22G27
  20537538.220   107925522.32008  20537539.920    84097827.91049
  21526946.160   113124917.45008  21526948.040    88149322.17348
  23198419.700   121908541.40807  23198420.680    94993678.27746
  22749412.340   119549188.09708  22749413.720    93155338.41747
  21480508.620   112880899.92508  21480508.780    87959170.20148
  21329102.640   112085213.26508  21329106.660    87339163.81348
 15 03 01 01 12  0.0000000  0  6G16G18G19G21G22G27
  20536521.980   107920181.59108  20536523.620    84093666.30149
  21527569.280   113128192.19308  21527571.180    88151873.93148
  23184108.480   121833335.52107  23184109.420    94935076.34646
  22761908.000   119614852.79708  22761909.360    93206505.70447
  21468325.380   112816877.04508  21468325.600    87909282.27148
  21319393.060   112034188.83309  21319397.020    87299404.53248
 15 03 01 01 12 30.0000000  0  6G16G18G19G21G22G27
  20535612.280   107915400.97008  20535613.900    84089941.14349
  21528288.320   113131970.96608  21528290.220    88154818.44648
  23169811.840   121758206.57007  23169812.760    94876534.35647
  22774420.700   119680607.27208  22774422.060    93257742.94747
  21456218.900   112753257.59408  21456219.200    87859708.69648
  21309714.680   111983328.31908  21309718.580    87259772.97049
 15 03 01 01 13  0.0000000  0  6G16G18G19G21G22G27
  20534809.220   107911180.72908  20534810.820    84086652.64749
  21529103.220   113136253.20508  21529105.060    88158155.26348
  23155529.840   121683154.83607  23155530.780    94818052.52747
  22786950.180   119746450.20708  22786951.560    93309049.12047
  21444189.640   112690043.93908  21444190.080    87810451.32748
  21300067.620   111932632.48209  21300071.480    87220269.73548
 15 03 01 01 13 30.0000000  0  6G16G18G19G21G22G27
  20534112.720   107907520.79208  20534114.340    84083800.74349
  21530013.680   113141037.70208  21530015.460    88161883.45748
  23141262.420   121608179.99507  23141263.420    94759630.62546
  22799496.040   119812379.28108  22799497.400    93360422.41147
  21432237.900   112627237.36108  21432238.400    87761511.16348
  21290451.860   111882101.39308  21290455.680    87180894.87348
 15 03 01 01 14  0.0000000  0  6G16G18G19G21G22G27
  20533522.800   107904420.80908  20533524.420    84081385.17549
  21531019.480   113146323.23808  21531021.240    88166002.06948
  23127009.640   121533281.49007  23127010.620    94701268.18746
  22812057.900   119878392.75507  22812059.280    93411861.47646
  21420363.780   112564838.47008  21420364.280    87712888.67148
  21280867.460   111831735.03908  21280871.260    87141648.37248
 15 03 01 01 14 30.0000000  0  6G16G18G19G21G22G27
  20533040.120   107901884.30608  20533041.740    84079408.67449
  21532121.200   113152112.96008  21532122.960    88170513.55748
  23112772.120   121458463.17207  23112773.060    94642968.23846
  22824636.100   119944491.97008  22824637.500    93463367.35247
  21408568.280   112502852.41108  21408568.700    87664587.86848
  21271315.120   111781537.29008  21271318.980    87102533.25949
 15 03 01 01 15  0.0000000  0  6G16G18G19G21G22G27
  20532664.520   107899910.50408  20532666.140    84077870.64749
  21533318.540   113158405.02408  21533320.260    88175416.47848
  23098549.560   121383723.54107  23098550.540    94584729.59046
  22837230.100   120010674.03707  22837231.500    93514937.79447
  21396851.460   112441279.88508  21396851.780    87616609.30148
  21261794.760   111731507.64208  21261798.680    87063549.13249
 15 03 01 01 15 30.0000000  0  6G16G18G19G21G22G27
  20532396.200   107898500.57108  20532397.840    84076771.99949
  21534611.520   113165199.72208  21534613.200    88180711.06248
  23084342.260   121309063.88007  23084343.260    94526553.27547
  22849839.780   120076938.60707  22849841.220    93566572.52446
  21385213.740   112380123.46908  21385214.040    87568954.97848
  21252306.700   111681647.77108  21252310.660    87024697.29548
 15 03 01 01 16  0.0000000  0  6G16G18G19G21G22G27
  20532235.480   107897655.97108  20532237.100    84076113.86549
  21536000.160   113172497.30808  21536001.860    88186397.50448
  23070150.500   121234485.73107  23070151.540    94468440.47246
  22862465.060   120143285.09107  22862466.520    93618271.06846
  21373655.680   112319385.65608  21373655.940    87521626.83248
  21242851.320   111631959.48508  21242855.280    86985979.16649
 15 03 01 01 16 30.0000000  0  6G16G18G19G21G22G27
  20532182.080   107897375.43308  20532183.700    84075895.26749
  21537484.320   113180296.90308  21537486.060    88192475.12248
  23055974.060   121159988.37507  23055975.160    94410390.61747
  22875105.600   120209711.74207  22875107.080    93670032.09146
  21362177.400   112259067.10608  21362177.620    87474625.38748
  21233428.560   111582442.64408  21233432.520    86947394.61949
 15 03 01 01 17  0.0000000  0  6G16G18G19G21G22G27
  20532236.540   107897661.58008  20532238.180    84076118.23949
  21539064.220   113188599.44908  21539065.980    88198944.65348
  23041813.320   121085573.45207  23041814.440    94352405.00347
  22887761.400   120276218.50207  22887762.940    93721855.53246
  21350779.640   112199171.65208  21350779.820    87427953.63148
  21224038.820   111533099.43508  21224042.840    86908945.37749
 15 03 01 01 17 30.0000000  0  6G16G18G19G21G22G27
  20532398.300   107898511.65608  20532399.940    84076780.63149
  21540739.200   113197401.70108  21540740.980    88205803.56348
  23027667.880   121011238.87007  23027669.020    94294482.00247
  22900431.580   120342800.70007  22900433.120    93773737.75446
  21339462.220   112139698.22608  21339462.340    87381610.72948
  21214681.720   111483927.90008  21214685.800    86870629.90549
 15 03 01 01 18  0.0000000  0  6G16G18G19G21G22G27
  20532667.780   107899927.71208  20532669.380    84077884.04749
  21542509.560   113206704.94808  21542511.360    88213052.85348
  23013538.240   120936986.83507  23013539.340    94236623.31247
  22913116.320   120409459.04807  22913117.840    93825679.31046
  21328225.800   112080650.26708  21328225.860    87335599.35148
  21205357.860   111434930.78708  21205361.900    86832450.34749
 15 03 01 01 18 30.0000000  0  6G16G18G19G21G22G27
  20533045.520   107901912.59708  20533047.080    84079430.70749
  21544375.580   113216510.91308  21544377.420    88220693.88048
  22999424.820   120862820.23307  22999425.960    94178831.20647
  22925815.840   120476195.02207  22925817.240    93877681.35746
  21317071.020   112022031.45308  21317071.080    87289922.37548
  21196067.840   111386111.43908  21196071.840    86794409.30749
 15 03 01 01 19  0.0000000  0  6G16G18G19G21G22G27
  20533531.080   107904464.21608  20533532.640    84081418.98149
  21546336.840   113226817.15708  21546338.720    88228724.73448
  22985327.300   120788737.41007  22985328.540    94121104.37847
  22938529.500   120543005.21207  22938530.700    93929741.23746
  21305997.980   111963842.35108  21305998.080    87244580.23848
  21186811.440   111337468.58708  21186815.380    86756505.79849
 15 03 01 01 19 30.0000000  0  6G16G18G19G21G22G27
  20534124.720   107907583.61608  20534126.260    84083849.67849
  21548393.240   113237623.47008  21548395.160    88237145.25448
  22971245.920   120714739.23507  22971247.220    94063443.51647
  22951257.100   120609888.84407  22951258.180    93981858.34746
  21295007.020   111906084.74408  21295007.180    87199574.33548
  21177588.880   111289003.71209  21177592.840    86718740.97749
 15 03 01 01 20  0.0000000  0  6G16G18G19G21G22G27
  20534826.580   107911271.82008  20534828.100    84086723.60449
  21550544.920   113248930.70608  21550546.840    88245956.09848
  22957180.920   120640827.19007  22957182.200    94005849.75647
  22963998.500   120676845.33507  22963999.520    94034032.22646
  21284098.700   111848761.47208  21284098.900    87154906.87348
  21168400.560   111240718.70709  21168404.480    86681116.30649
 15 03 01 01 20 30.0000000  0  6G16G18G19G21G22G27
  20535636.740   107915529.19808  20535638.260    84090041.03949
  21552791.720   113260737.70408  21552793.620    88255156.36048
  22943132.340   120567001.44907  22943133.580    93948323.23947
  22976753.540   120743873.42507  22976754.600    94086261.89846
  21273273.280   111791873.94808  21273273.520    87110578.95448
  21159246.600   111192614.26509  21159250.500    86643632.33549
 15 03 01 01 21  0.0000000  0  6G16G18G19G21G22G27
  20536554.620   107920352.60008  20536556.140    84093799.52649
  21555133.000   113273041.40208  21555134.900    88264743.66848
  22929099.800   120493259.99607  22929100.940    93890862.40947
  22989521.480   120810969.15107  22989522.540    94138544.27646
  21262530.640   111735421.09808  21262530.840    87066589.75048
  21150126.620   111144688.57309  21150130.540    86606287.64849
 15 03 01 01 21 30.0000000  0  7G04G16G18G19G21G22G27
  24570504.060   129118867.88806  24570511.100   100612122.53145
  20537581.980   107925751.51108  20537583.560    84098006.47049
  21557570.320   113285849.72408  21557572.220    88274724.18848
  22915085.000   120419611.66707  22915086.000    93833474.14247
  23002303.680   120878139.78607  23002304.760    94190885.02946
  21251872.800   111679413.66908  21251872.920    87022947.62648
  21141042.420   111096951.09209  21141046.420    86569089.62649
 15 03 01 01 22  0.0000000  0  7G04G16G18G19G21G22G27
  24552245.800   129022921.74206  24552253.080   100537359.58144
  20538722.280   107931743.88508  20538723.900    84102675.84449
  21560106.980   113299180.27208  21560108.880    88285111.64148
  22901091.480   120346075.18107  22901092.400    93776173.01747
  23015103.320   120945402.36707  23015104.440    94243297.42746
  21241303.420   111623871.02308  21241303.460    86979667.66548
  21131997.700   111049420.89409  21132001.740    86532053.11849
 15 03 01 01 22 30.0000000  0  7G04G16G18G19G21G22G27
  24534008.040   128927082.57606  24534015.300   100462679.98244
  20539964.520   107938272.10808  20539966.200    84107762.76549
  21562731.940   113312974.87408  21562733.820    88295860.68348
  22887108.240   120272593.23707  22887109.180    93718914.39447
  23027909.160   121012697.99107  23027910.400    94295735.57446
  21230811.840   111568737.39308  21230811.860    86936706.41348
  21122981.640   111002041.36009  21122985.720    86495134.01749
 15 03 01 01 23  0.0000000  0  7G04G16G18G19G21G22G27
  24515798.340   128831389.89806  24515805.540   100388114.51744
  20541316.140   107945375.13508  20541317.880    84113297.58549
  21565452.420   113327271.21908  21565454.240    88307000.70748
  22873142.860   120199205.16107  22873143.820    93661728.91947
  23040728.380   121080063.86507  23040729.680    94348228.46646
  21220405.720   111514052.94008  21220405.740    86894095.17148
  21114001.780   110954852.01909  21114005.860    86458363.11849
 15 03 01 01 23 30.0000000  0  7G04G16G18G19G21G22G27
  24497615.840   128735840.07906  24497622.880   100313660.36044
  20542776.400   107953048.99508  20542778.180    84119277.21249
  21568267.620   113342065.03708  21568269.360    88318528.36848
  22859194.680   120125907.25607  22859195.620    93604613.69947
  23053560.000   121147494.77707  23053561.340    94400772.03246
  21210084.600   111459815.08008  21210084.640    86851831.92848
  21105057.560   110907849.87609  21105061.620    86421738.08449
 15 03 01 01 24  0.0000000  0  7G04G16G18G19G21G22G27
  24479460.800   128640434.79506  24479467.660   100239318.83045
  20544345.380   107961294.02208  20544347.140    84125701.90649
  21571177.400   113357356.20008  21571179.160    88330443.56548
  22845264.000   120052701.16507  22845264.920    93547570.01847
  23066404.000   121214990.89707  23066405.360    94453366.41346
  21199849.020   111406026.72308  21199849.080    86809918.94148
  21096149.320   110861036.70609  21096153.340    86385260.29849
 15 03 01 01 24 30.0000000  0  7G04G16G18G19G21G22G27
  24461333.320   128545174.36306  24461340.120   100165090.18445
  20546023.180   107970110.81008  20546024.880    84132572.12549
  21574181.580   113373143.49808  21574183.420    88342745.36548
  22831350.800   119979587.19407  22831351.780    93490598.12647
  23079259.980   121282550.30607  23079261.480    94506010.09846
  21189699.160   111352689.12708  21189699.280    86768357.19748
  21087277.180   110814413.19609  21087281.160    86348930.30649
 15 03 01 01 25  0.0000000  0  7G04G16G18G19G21G22G27
  24443233.540   128450059.88106  24443240.320   100090975.23545
  20547809.780   107979499.20908  20547811.400    84139887.75049
  21577280.200   113389427.14008  21577282.160    88355433.92548
  22817455.240   119906565.84107  22817456.220    93433698.41347
  23092127.780   121350171.85207  23092129.480    94558702.20046
  21179635.320   111299803.85908  21179635.560    86727147.91348
  21078441.340   110767980.49309  21078445.280    86312748.99249
 15 03 01 01 25 30.0000000  0  7G04G16G18G19G21G22G27
  24425161.320   128355090.95706  24425168.140   100016973.73945
  20549704.960   107989458.29508  20549706.520    84147648.06949
  21580472.760   113406204.35108  21580474.840    88368507.08648
  22803577.220   119833636.69207  22803578.240    93376870.54047
  23105007.140   121417853.56707  23105008.920    94611441.19246
  21169657.680   111247371.52408  21169657.980    86686291.57548
  21069641.780   110721738.59809  21069645.720    86276716.36149
 15 03 01 01 26  0.0000000  0  7G04G16G18G19G21G22G27
  24407117.000   128260269.34606  24407123.840    99943087.04544
  20551708.920   107999989.25808  20551710.460    84155854.00949
  21583759.540   113423476.38608  21583761.640    88381965.82348
  22789717.200   119760801.81207  22789718.160    93320116.12247
  23117897.960   121485595.47707  23117899.740    94664227.08546
  21159766.940   111195395.33708  21159767.220    86645790.66948
  21060879.000   110675689.86009  21060882.940    86240834.23749
 15 03 01 01 26 30.0000000  0  7G04G16G18G19G21G22G27
  24389100.660   128165595.27906  24389107.600    99869315.27644
  20553821.580   108011091.30008  20553823.120    84164504.94349
  21587140.280   113441242.05308  21587142.340    88395809.20648
  22775875.100   119688060.99607  22775875.980    93263434.99846
  23130800.000   121553396.10007  23130801.740    94717058.73246
  21149963.160   111143875.75808  21149963.340    86605645.56448
  21052153.040   110629834.49209  21052156.960    86205102.79849
 15 03 01 01 27  0.0000000  0  7G04G16G18G19G21G22G27
  24371112.340   128071068.35806  24371119.400    99795658.16244
  20556042.660   108022763.14908  20556044.220    84173599.88449
  21590614.600   113459499.35208  21590616.580    88410035.67948
  22762050.840   119615413.53808  22762051.560    93206826.62047
  23143712.860   121621252.96507  23143714.460    94769934.20946
  21140246.420   111092813.37408  21140246.500    86565856.71448
  21043463.860   110584172.57209  21043467.800    86169522.09349
 15 03 01 01 27 30.0000000  0  7G04G16G18G19G21G22G27
  24353152.640   127976691.34406  24353159.740    99722117.85345
  20558372.680   108035007.34208  20558374.240    84183140.80649
  21594182.660   113478249.29208  21594184.560    88424646.03248
  22748244.800   119542862.06108  22748245.420    93150293.04547
  23156636.660   121689167.10407  23156638.160    94822854.30646
  21130617.340   111042211.79709  21130617.360    86526426.93448
  21034812.060   110538707.14009  21034816.000    86134094.49449
 15 03 01 01 28  0.0000000  0  7G04G16G18G19G21G22G27
  24335221.280   127882462.42106  24335228.280    99648692.95745
  20560811.100   108047821.08708  20560812.680    84193125.54049
  21597843.800   113497488.37408  21597845.600    88439637.53048
  22734456.640   119470404.74408  22734457.260    93093832.83447
  23169570.660   121757134.86307  23169572.060    94875816.19646
  21121075.700   110992069.93008  21121075.700    86487355.36648
  21026197.320   110493436.69309  21026201.300    86098818.84249
 15 03 01 01 28 30.0000000  0  7G04G16G18G19G21G22G27
  24317319.200   127788387.02506  24317326.100    99575387.69045
  20563358.820   108061209.09608  20563360.380    84203557.74549
  21601598.780   113517220.98708  21601600.520    88455013.59948
  22720687.440   119398047.23908  22720688.080    93037450.40347
  23182515.440   121825159.65007  23182516.780    94928822.51546
  21111622.780   110942394.70008  21111622.820    86448647.41748
  21017620.900   110448367.33109  21017624.860    86063699.86949
 15 03 01 01 29  0.0000000  0  7G04G16G18G19G21G22G27
  24299446.000   127694462.52306  24299452.700    99502200.00544
  20566015.020   108075167.36408  20566016.580    84214434.31549
  21605446.820   113537442.65808  21605448.460    88470770.75348
  22706936.640   119325786.63308  22706937.360    92981143.48147
  23195470.300   121893237.57307  23195471.600    94981870.23746
  21102258.080   110893183.55208  21102258.240    86410301.08748
  21009082.240   110403496.40109  21009086.200    86028735.52049
 15 03 01 01 29 30.0000000  0  7G04G16G18G19G21G22G27
  24281601.560   127600689.33707  24281608.100    99429130.23045
  20568779.780   108089696.29708  20568781.340    84225755.55349
  21609387.800   113558152.93108  21609389.380    88486908.63548
  22693204.380   119253623.64008  22693205.160    92924912.61447
  23208434.980   121961367.36007  23208436.280    95034958.38146
  21092982.020   110844438.21708  21092982.260    86372317.72148
  21000581.520   110358825.02109  21000585.500    85993926.66749
 15 03 01 01 30  0.0000000  0  7G04G16G18G19G21G22G27
  24263786.640   127507071.31307  24263793.140    99356181.37445
  20571653.560   108104798.24708  20571655.140    84237523.30249
  21613422.120   113579353.81808  21613423.680    88503428.81848
  22679491.380   119181561.78308  22679492.180    92868760.56147
  23221409.780   122029550.72607  23221411.160    95088088.27646
  21083795.480   110796163.05908  21083795.720    86334700.73548
  20992119.580   110314357.20809  20992123.500    85959276.43549
 15 03 01 01 30 30.0000000  0  7G04G16G18G19G21G22G27
  24246000.820   127413606.77707  24246007.280    99283352.08445
  20574635.940   108120471.17708  20574637.580    84249735.96749
  21617549.140   113601041.86908  21617550.740    88520328.60548
  22665797.360   119109599.55808  22665798.220    92812686.14547
  23234394.140   122097784.26607  23234395.580    95141257.27046
  21074698.300   110748357.40208  21074698.520    86297449.59348
  20983696.140   110270091.89509  20983700.060    85924784.00249
 15 03 01 01 31  0.0000000  0  7G04G16G18G19G21G22G27
  24228244.580   127320297.70506  24228251.000    99210643.93845
  20577727.120   108136715.87708  20577728.840    84262394.16849
  21621768.980   113623217.47208  21621770.620    88537608.30448
  22652122.680   119037738.65108  22652123.520    92756690.67647
  23247388.120   122166068.42307  23247389.660    95194465.69646
  21065690.880   110701023.09908  21065691.060    86260565.74248
  20975311.680   110226031.45709  20975315.640    85890451.20749
 15 03 01 01 31 30.0000000  0  7G04G16G18G19G21G22G27
  24210517.920   127227144.51806  24210524.360    99138057.23445
  20580927.100   108153532.11408  20580928.860    84275497.72349
  21626081.420   113645879.59208  21626083.120    88555267.10548
  22638467.400   118965979.73908  22638468.220    92700774.67747
  23260391.480   122234401.99507  23260393.120    95247712.64046
  21056773.680   110654162.82008  21056773.840    86224051.25848
  20966966.340   110182176.70409  20966970.360    85856278.68549
 15 03 01 01 32  0.0000000  0  7G04G16G18G19G21G22G27
  24192821.080   127134148.62306  24192827.620    99065593.09045
  20584235.880   108170919.97008  20584237.640    84289046.69649
  21630486.460   113669028.05508  21630488.240    88573304.87448
  22624831.820   118894324.44507  22624832.580    92644939.42647
  23273404.180   122302784.47607  23273405.820    95300997.68046
  21047946.960   110607777.98308  21047947.100    86187907.24748
  20958660.480   110138529.43309  20958664.540    85822267.83949
 15 03 01 01 32 30.0000000  0  7G04G16G18G19G21G22G27
  24175154.160   127041309.90806  24175160.860    98993251.43545
  20587653.360   108188878.79308  20587655.100    84303040.58049
  21634983.780   113692661.31108  21634985.560    88591720.41248
  22611215.820   118822772.17907  22611216.540    92589184.45347
  23286425.820   122371214.10107  23286427.440    95354319.45746
  21039210.860   110561869.15308  21039210.960    86152134.14948
  20950394.200   110095090.01009  20950398.300    85788418.94749
 15 03 01 01 33  0.0000000  0  7G04G16G18G19G21G22G27
  24157517.340   126948629.55906  24157524.100    98921033.18045
  20591179.540   108207408.60008  20591181.220    84317479.38549
  21639573.220   113716778.62308  21639574.980    88610513.12948
  22597619.640   118751324.29907  22597620.400    92533510.81547
  23299456.400   122439690.41807  23299458.040    95407677.61046
  21030565.680   110516438.22808  21030565.740    86116733.44748
  20942167.800   110051859.96509  20942171.900    85754733.21349
 15 03 01 01 33 30.0000000  0  7G04G16G18G19G21G22G27
  24139910.280   126856105.42606  24139916.980    98848936.63345
  20594813.760   108226506.17708  20594815.380    84332360.60749
  21644254.080   113741376.43808  21644255.800    88629680.26248
  22584042.940   118679978.85307  22584043.720    92477917.00647
  23312495.360   122508209.85907  23312496.880    95461069.37846
  21022011.180   110471483.84609  21022011.200    86081704.07548
  20933980.960   110008837.77809  20933985.060    85721209.44349
 15 03 01 01 34  0.0000000  0  7G04G16G18G19G21G22G27
  24122333.720   126763740.82907  24122340.260    98776964.40845
  20598556.400   108246173.79908  20598558.040    84347686.02149
  21649026.600   113766456.35708  21649028.300    88649223.06248
  22570486.420   118608739.07507  22570487.180    92422405.51747
  23325542.800   122576773.73607  23325544.140    95514495.75546
  21013548.100   110427009.86809  21013548.100    86047049.04648
  20925834.420   109966027.20309  20925838.480    85687850.56649
 15 03 01 01 34 30.0000000  0  7G04G16G18G19G21G22G27
  24104787.720   126671536.00006  24104793.960    98705116.65344
  20602407.440   108266411.14808  20602409.060    84363455.37149
  21653890.600   113792017.20508  21653892.300    88669140.60648
  22556950.120   118537605.45908  22556950.860    92366976.76047
  23338598.360   122645380.56807  23338599.540    95567955.61645
  21005176.660   110383017.56009  21005176.660    86012769.34148
  20917728.260   109923429.00009  20917732.300    85654657.17549
 15 03 01 01 35  0.0000000  0  7G04G16G18G19G21G22G27
  24087272.440   126579492.68206  24087278.440    98633394.76645
  20606366.940   108287218.50308  20606368.560    84379668.89549
  21658846.120   113818059.01608  21658847.800    88689432.94147
  22543434.380   118466579.84708  22543435.120    92311632.17347
  23351662.140   122714031.13707  23351663.240    95621449.54246
  20996897.260   110339508.98209  20996897.240    85978866.57248
  20909662.920   109881045.29409  20909666.960    85621630.92749
 15 03 01 01 35 30.0000000  0  7G04G16G18G19G21G22G27
  24069787.920   126487610.95206  24069793.780    98561798.80245
  20610434.780   108308595.09408  20610436.380    84396325.97549
  21663892.840   113844579.99508  21663894.480    88710098.64548
  22529939.200   118395662.32408  22529939.960    92256371.80247
  23364733.860   122782723.51807  23364735.000    95674976.06246
  20988710.000   110296484.97408  20988709.980    85945341.38548
  20901638.480   109838876.84009  20901642.520    85588772.39849
 15 03 01 01 36  0.0000000  0  7G04G16G18G19G21G22G27
  24052334.380   126395892.07206  24052340.140    98490329.73045
  20614610.920   108330540.80208  20614612.500    84413426.52149
  21669030.700   113871579.72108  21669032.300    88731137.39947
  22516464.780   118324853.94508  22516465.580    92201196.48347
  23377813.440   122851457.17807  23377814.540    95728534.75646
  20980615.260   110253947.33308  20980615.260    85912195.18948
  20893655.320   109796925.24609  20893659.360    85556082.85649
 15 03 01 01 36 30.0000000  0  7G04G16G18G19G21G22G27
  24034912.040   126304337.54906  24034917.720    98418988.72745
  20618895.420   108353056.01208  20618897.000    84430970.84049
  21674259.640   113899057.96308  21674261.200    88752549.02847
  22503011.500   118254156.65508  22503012.340    92146107.72847
  23390900.780   122920231.98407  23390902.000    95782125.50246
  20972613.440   110211897.97408  20972613.480    85879429.47848
  20885713.820   109755192.46109  20885717.840    85523563.81549
 15 03 01 01 37  0.0000000  0  7G04G16G18G19G21G22G27
  24017520.600   126212945.48206  24017526.320    98347774.29345
  20623287.780   108376137.90908  20623289.320    84448956.73249
  21679579.040   113927011.32308  21679580.540    88774330.87747
  22489579.080   118183568.64608  22489579.900    92091104.13047
  23403995.400   122989044.82407  23403996.740    95835745.89846
  20964704.400   110170335.83808  20964704.460    85847043.41248
  20877813.720   109713677.28609  20877817.740    85491214.33449
 15 03 01 01 37 30.0000000  0  7G04G16G18G19G21G22G27
  24000160.600   126121719.42006  24000166.480    98276689.21445
  20627788.580   108399789.55508  20627790.060    84467386.57749
  21684989.120   113955441.46608  21684990.640    88796484.24448
  22476168.120   118113093.73808  22476168.980    92036188.66247
  23417097.660   123057897.60707  23417099.060    95889397.41346
  20956889.020   110129265.68909  20956889.060    85815040.72748
  20869955.860   109672383.89809  20869959.860    85459037.67649
 15 03 01 01 38  0.0000000  0  7G04G16G18G19G21G22G27
  23982832.140   126030659.30806  23982838.260    98205733.43845
  20632397.400   108424008.89908  20632398.840    84486258.78849
  21690489.520   113984346.33208  21690491.100    88819007.52248
  22462778.660   118042731.76908  22462779.480    91981361.20147
  23430207.120   123126788.28707  23430208.560    95943078.45546
  20949167.260   110088687.23009  20949167.220    85783421.15948
  20862140.240   109631312.44309  20862144.200    85427033.95549
 15 03 01 01 38 30.0000000  0  7G04G16G18G19G21G22G27
  23965535.100   125939764.14806  23965541.420    98134906.20045
  20637113.860   108448794.02508  20637115.300    84505571.86649
  21696079.860   114013723.61208  21696081.480    88841898.91748
  22449410.640   117972482.41808  22449411.380    91926621.48647
  23443323.440   123195715.07206  23443324.900    95996787.63945
  20941539.040   110048600.36109  20941538.920    85752184.65248
  20854366.840   109590462.94009  20854370.780    85395203.18049
 15 03 01 01 39  0.0000000  0  7G04G16G18G19G21G22G27
  23948269.920   125849036.01506  23948276.340    98064209.11245
  20641938.060   108474145.40908  20641939.540    84525326.18549
  21701760.120   114043573.50608  21701761.780    88865158.57948
  22436064.440   117902347.47708  22436065.080    91871970.92447
  23456446.600   123264678.05307  23456448.060    96050525.02346
  20934004.820   110009007.73908  20934004.680    85721333.27448
  20846636.120   109549837.75609  20846640.060    85363547.20749
 15 03 01 01 39 30.0000000  0  7G04G16G18G19G21G22G27
  23931036.260   125758472.72806  23931042.500    97993640.46845
  20646869.480   108500060.33808  20646871.040    84545519.63249
  21707529.560   114073892.27008  21707531.280    88888783.59647
  22422739.620   117832325.10708  22422740.160    91817408.07747
  23469576.040   123333673.83406  23469577.480    96104287.96545
  20926564.260   109969907.52608  20926564.180    85690865.59548
  20838947.840   109509435.41409  20838951.740    85332064.87549
 15 03 01 01 40  0.0000000  0  7G04G16G18G19G21G22G27
  23913834.800   125668078.18106  23913840.720    97923203.30445
  20651908.560   108526541.29708  20651910.240    84566154.14249
  21713388.620   114104682.03508  21713390.360    88912775.63147
  22409437.000   117762419.47208  22409437.480    91762936.18847
  23482712.160   123402704.77006  23482713.580    96158078.30446
  20919218.260   109931304.47708  20919218.280    85660785.31348
  20831302.820   109469260.51009  20831306.720    85300759.75749
 15 03 01 01 40 30.0000000  0  7G04G16G18G19G21G22G27
  23896665.460   125577852.25607  23896671.000    97852897.54245
  20657055.140   108553586.92008  20657056.880    84587228.65449
  21719336.860   114135940.50808  21719338.560    88937132.88647
  22396156.560   117692630.68808  22396157.060    91708555.35347
  23495854.640   123471769.05606  23495856.140    96211894.63045
  20911966.880   109893198.69608  20911966.960    85631092.51648
  20823701.120   109429313.27609  20823705.000    85269632.05249
 15 03 01 01 41  0.0000000  0  7G04G16G18G19G21G22G27
  23879528.380   125487795.67807  23879533.560    97782723.72245
  20662309.080   108581196.74508  20662310.840    84608742.80149
  21725374.240   114167667.14608  21725375.880    88961854.94847
  22382898.520   117622959.64408  22382899.100    91654266.25947
  23509003.380   123540866.07706  23509004.900    96265736.45846
  20904810.420   109855591.52609  20904810.500    85601788.24448
  20816143.020   109389595.23709  20816146.900    85238682.93949
 15 03 01 01 41 30.0000000  0  7G04G16G18G19G21G22G27
  23862423.640   125397909.44707  23862428.580    97712682.66145
  20667670.320   108609370.34108  20667672.080    84630696.24649
  21731500.440   114199860.48108  21731502.040    88986940.67647
  22369663.140   117553407.51808  22369663.800    91600069.83747
  23522158.260   123609995.25706  23522159.740    96319603.33545
  20897749.120   109818484.11309  20897749.160    85572873.39048
  20808628.840   109350107.86709  20808632.700    85207913.57049
 15 03 01 01 42  0.0000000  0  7G04G16G18G19G21G22G27
  23845351.520   125308195.00906  23845356.340    97642775.46045
  20673138.920   108638107.98908  20673140.660    84653089.20649
  21737715.460   114232520.52108  21737717.060    89012390.07047
  22356450.700   117483975.94508  22356451.400    91545967.34347
  23535319.200   123679156.39007  23535320.740    96373495.11746
  20890783.400   109781878.85209  20890783.420    85544349.82748
  20801158.940   109310853.24109  20801162.780    85177325.55649
 15 03 01 01 42 30.0000000  0  7G04G16G18G19G21G22G27
  23828311.920   125218652.04506  23828316.640    97573001.87845
  20678714.500   108667407.65908  20678716.200    84675920.11049
  21744018.860   114265645.04308  21744020.460    89038201.40347
  22343261.220   117414665.24808  22343262.000    91491959.04947
  23548486.000   123748348.26707  23548487.540    96427410.85845
  20883913.300   109745775.97009  20883913.260    85516217.72548
  20793733.420   109271831.87809  20793737.260    85146919.30949
 15 03 01 01 43  0.0000000  0  7G04G16G18G19G21G22G27
  23811305.040   125129282.01106  23811309.860    97503363.07645
  20684397.060   108697269.41208  20684398.700    84699189.00449
  21750410.500   114299233.60108  21750412.140    89064374.31147
  22330095.040   117345476.75208  22330095.820    91438045.96848
  23561658.660   123817570.67407  23561660.160    96481350.38745
  20877139.020   109710176.73409  20877138.960    85488478.07748
  20786352.560   109233045.51509  20786356.480    85116696.17749
 15 03 01 01 43 30.0000000  0  7G04G16G18G19G21G22G27
  23794331.020   125040084.76306  23794336.040    97433858.87645
  20690186.420   108727692.38908  20690187.960    84722895.21149
  21756890.120   114333284.49708  21756891.780    89090907.48947
  22316952.180   117276410.53608  22316952.920    91384228.16447
  23574836.860   123886821.97506  23574838.280    96535312.43245
  20870460.720   109675081.99909  20870460.620    85461131.54948
  20779016.620   109194494.91909  20779020.580    85086656.76449
 15 03 01 01 44  0.0000000  0  7G04G16G18G19G21G22G27
  23777390.020   124951060.86506  23777395.240    97364489.74345
  20696082.340   108758675.41008  20696083.820    84747037.82249
  21763457.380   114367795.99108  21763459.100    89117799.56647
  22303832.820   117207467.86508  22303833.520    91330506.62947
  23588020.300   123956101.42507  23588021.720    96589296.40145
  20863878.540   109640492.45109  20863878.400    85434178.66948
  20771725.800   109156181.36209  20771729.760    85056802.05349
 15 03 01 01 44 30.0000000  0  7G04G16G18G19G21G22G27
  23760481.920   124862209.03006  23760487.220    97295254.64344
  20702084.360   108790216.11708  20702085.820    84771614.98249
  21770111.740   114402765.17808  21770113.560    89145048.29447
  22290736.760   117138647.67708  22290737.440    91276880.53248
  23601208.640   124025406.46706  23601210.080    96643300.32145
  20857392.300   109606407.17709  20857392.140    85407618.72948
  20764479.940   109118104.20509  20764483.900    85027131.54549
 15 03 01 01 45  0.0000000  0  7G04G16G18G19G21G22G27
  23743607.520   124773533.91106  23743612.820    97226157.28945
  20708193.080   108822317.60008  20708194.540    84796629.11649
  21776853.760   114438195.02608  21776855.660    89172655.97648
  22277664.980   117069954.92208  22277665.640    91223353.75048
  23614402.280   124094740.01506  23614403.760    96697326.47145
  20851003.040   109572831.50209  20851002.900    85381455.87848
  20757280.080   109080268.69309  20757284.020    84997649.34249
 15 03 01 01 45 30.0000000  0  7G04G16G18G19G21G22G27
  23726766.200   124685032.53506  23726771.560    97157195.32546
  20714407.600   108854975.07008  20714409.060    84822076.48549
  21783682.420   114474079.88708  21783684.360    89200618.21547
  22264616.900   117001386.82508  22264617.540    91169924.09648
  23627600.640   124164097.98406  23627602.100    96751371.64345
  20844710.180   109539762.59408  20844710.080    85355687.91449
  20750125.760   109042672.51709  20750129.700    84968353.63149
 15 03 01 01 46  0.0000000  0  7G04G16G18G19G21G22G27
  23709958.460   124596707.05207  23709963.660    97088370.37045
  20720728.160   108888189.74508  20720729.600    84847958.04249
  21790597.980   114510421.11208  21790599.860    89228936.06347
  22251593.020   116932946.21008  22251593.680    91116593.78048
  23640803.760   124233481.32806  23640805.360    96805436.56845
  20838514.220   109507203.03808  20838514.220    85330316.84649
  20743017.540   109005318.71309  20743021.500    84939246.78149
 15 03 01 01 46 30.0000000  0  7G04G16G18G19G21G22G27
  23693184.360   124508558.61107  23693189.400    97019683.36945
  20727154.700   108921961.31208  20727156.120    84874273.54049
  21797600.160   114547217.51408  21797601.960    89257608.59647
  22238593.700   116864634.49608  22238594.360    91063363.90348
  23654011.720   124302889.78206  23654013.380    96859521.07546
  20832415.460   109475154.27708  20832415.580    85305343.80149
  20735955.820   108968209.09809  20735959.780    84910330.20849
 15 03 01 01 47  0.0000000  0  7G04G16G18G19G21G22G27
  23676443.820   124420586.51706  23676448.720    96951133.76745
  20733686.720   108956287.33308  20733688.160    84901021.08049
  21804688.400   114584466.33208  21804690.120    89286633.65647
  22225618.820   116796451.12008  22225619.460    91010234.03748
  23667224.140   124372321.30506  23667225.800    96913623.55545
  20826413.820   109443615.69008  20826414.020    85280768.29249
  20728940.580   108931343.50509  20728944.480    84881603.78049
 15 03 01 01 47 30.0000000  0  7G04G16G18G19G21G22G27
  23659737.140   124332792.83306  23659742.040    96882723.16445
  20740324.360   108991168.43508  20740325.840    84928201.15649
  21811862.800   114622167.79908  21811864.440    89316011.43048
  22212668.840   116728398.62908  22212669.480    90957206.15048
  23680441.140   124441776.56406  23680442.800    96967744.53445
  20820509.840   109412590.09509  20820510.080    85256592.52149
  20721972.300   108894724.84709  20721976.160    84853069.77349
 15 03 01 01 48  0.0000000  0  7G04G16G18G19G21G22G27
  23643064.440   124245178.33106  23643069.420    96814452.22944
  20747067.520   109026604.18708  20747069.100    84955813.41649
  21819123.040   114660320.59908  21819124.660    89345740.89547
  22199744.000   116660478.10008  22199744.580    90904281.09948
  23693662.540   124511255.07006  23693664.260    97021883.62946
  20814703.700   109382078.36609  20814703.900    85232817.16649
  20715051.280   108858354.65709  20715055.140    84824729.37649
 15 03 01 01 48 30.0000000  0  7G04G16G18G19G21G22G27
  23626426.340   124157745.70706  23626431.460    96746322.98645
  20753916.340   109062595.25008  20753918.020    84983858.39449
  21826469.300   114698925.59008  21826470.960    89375822.71647
  22186844.860   116592692.85608  22186845.480    90851461.46248
  23706888.600   124580758.30806  23706890.300    97076041.98545
  20808995.920   109352083.50909  20808996.080    85209444.56149
  20708178.160   108822236.30709  20708182.060    84796585.21949
 15 03 01 01 49  0.0000000  0  7G04G16G18G19G21G22G27
  23609821.780   124070489.26206  23609826.920    96678331.03945
  20760869.480   109099134.68608  20760871.280    85012330.67149
  21833900.160   114737975.20908  21833901.840    89406251.00147
  22173970.560   116525037.85008  22173971.180    90798743.30848
  23720117.980   124650279.19306  23720119.640    97130214.10545
  20803385.420   109322600.05109  20803385.520    85186470.45649
  20701352.020   108786364.84409  20701355.940    84768633.44049
 15 03 01 01 49 30.0000000  0  7G04G16G18G19G21G22G27
  23593251.580   123983412.74906  23593256.580    96610479.30245
  20767927.380   109136224.62408  20767929.260    85041231.91849
  21841415.920   114777470.87308  21841417.640    89437026.85647
  22161121.780   116457516.99808  22161122.360    90746129.68847
  23733351.180   124719820.21506  23733352.880    97184401.91045
  20797872.920   109293631.82509  20797873.000    85163897.83249
  20694573.700   108750744.68909  20694577.640    84740877.49449
 15 03 01 01 50  0.0000000  0  7G04G16G18G19G21G22G27
  23576715.520   123896515.11706  23576720.340    96542766.96545
  20775089.480   109173861.83908  20775091.380    85070559.60849
  21849016.060   114817409.87308  21849017.800    89468148.16547
  22148298.260   116390129.13208  22148298.800    90693619.68948
  23746587.780   124789378.90706  23746589.460    97238603.48045
  20792458.280   109265177.90809  20792458.340    85141725.96249
  20687843.160   108715375.53909  20687847.080    84713317.12349
 15 03 01 01 50 30.0000000  0  7G04G16G18G19G21G22G27
  23560214.220   123809799.68207  23560218.800    96475196.59245
  20782356.340   109212049.22808  20782358.200    85100316.00949
  21856700.840   114857793.86708  21856702.580    89499616.21847
  22135500.900   116322878.84608  22135501.440    90641216.90148
  23759828.260   124858957.88406  23759829.780    97292820.86045
  20787142.300   109237242.26009  20787142.320    85119957.93749
  20681161.240   108680261.85509  20681165.120    84685955.81949
 15 03 01 01 51  0.0000000  0  7G04G16G18G19G21G22G27
  23543747.620   123723266.59007  23543752.080    96407768.32345
  20789727.520   109250784.73608  20789729.320    85130499.51549
  21864469.800   114898620.40608  21864471.520    89531429.11147
  22122729.820   116255766.39608  22122730.320    90588921.51547
  23773072.340   124928555.73106  23773073.720    97347052.94745
  20781924.940   109209824.89809  20781924.940    85098593.77349
  20674528.020   108645404.17409  20674531.860    84658794.00449
 15 03 01 01 51 30.0000000  0  7G04G16G18G19G21G22G27
  23527315.780   123636916.62006  23527320.240    96340482.72445
  20797202.860   109290067.42408  20797204.560    85161109.39449
  21872322.700   114939888.30708  21872324.460    89563585.92247
  22109985.180   116188792.95308  22109985.660    90536734.44748
  23786319.920   124998172.06306  23786321.220    97401299.43645
  20776806.460   109182927.15709  20776806.440    85077634.51349
  20667943.840   108610804.17009  20667947.660    84631832.97449
 15 03 01 01 52  0.0000000  0  7G04G16G18G19G21G22G27
  23510918.740   123550749.92106  23510923.300    96273339.94945
  20804781.980   109329895.78208  20804783.660    85192144.46749
  21880259.320   114981595.86008  21880261.100    89596085.32447
  22097267.200   116121959.34108  22097267.560    90484656.33048
  23799570.760   125067805.70806  23799571.940    97455559.41045
  20771786.840   109156548.92009  20771786.800    85057080.05549
  20661408.840   108576462.67609  20661412.680    84605073.37649
 15 03 01 01 52 30.0000000  0  7G04G16G18G19G21G22G27
  23494556.660   123464767.06806  23494561.380    96206340.41946
  20812464.700   109370268.71608  20812466.400    85223603.88749
  21888279.520   115023742.02008  21888281.240    89628926.49647
  22084576.040   116055266.85808  22084576.340    90432688.18848
  23812824.820   125137456.38906  23812825.920    97509832.65845
  20766866.260   109130691.10809  20766866.200    85036931.12749
  20654923.360   108542381.38509  20654927.220    84578516.53449
 15 03 01 01 53  0.0000000  0  7G04G16G18G19G21G22G27
  23478229.780   123378969.23607  23478234.640    96139485.08246
  20820250.980   109411186.04108  20820252.680    85255487.51049
  21896382.920   115066325.53008  21896384.640    89662108.45147
  22071911.940   115988716.79208  22071912.220    90380831.01848
  23826081.980   125207123.66606  23826083.260    97564118.83245
  20762044.940   109105355.14208  20762044.900    85017188.83249
  20648487.760   108508561.96609  20648491.600    84552163.75749
 15 03 01 01 53 30.0000000  0  7G04G16G18G19G21G22G27
  23461937.960   123293355.77706  23461942.920    96072773.40545
  20828140.320   109452644.93708  20828142.040    85287793.13349
  21904569.100   115109343.93908  21904570.820    89695629.29847
  22059274.900   115922309.15808  22059275.280    90329084.83748
  23839341.960   125276805.82306  23839343.320    97618416.60045
  20757322.780   109080540.33708  20757322.760    84997852.63749
  20642102.080   108475004.76209  20642105.860    84526015.29749
 15 03 01 01 54  0.0000000  0  7G04G16G18G19G21G22G27
  23445681.240   123207926.77606  23445686.240    96006205.43646
  20836132.500   109494644.06308  20836134.220    85320519.71949
  21912837.560   115152794.98408  21912839.320    89729487.25747
  22046665.120   115856044.76408  22046665.600    90277450.27548
  23852604.720   125346502.51206  23852606.240    97672725.70845
  20752699.900   109056247.12809  20752699.880    84978922.88049
  20635766.460   108441710.68609  20635770.200    84500071.87149
 15 03 01 01 54 30.0000000  0  7G04G16G18G19G21G22G27
  23429459.920   123122683.86006  23429464.840    95939782.46045
  20844227.540   109537183.57508  20844229.260    85353667.38449
  21921188.340   115196678.54508  21921190.120    89763682.24647
  22034083.020   115789925.70308  22034083.580    90225928.95348
  23865870.340   125416213.55806  23865871.860    97727045.99246
  20748176.500   109032476.60309  20748176.460    84960400.40749
  20629481.340   108408682.08709  20629485.060    84474335.30849
 15 03 01 01 55  0.0000000  0  7G04G16G18G19G21G22G27
  23413273.920   123037626.70706  23413278.800    95873504.22746
  20852424.920   109580261.04509  20852426.620    85387234.23449
  21929620.920   115240991.96508  21929622.700    89798212.19047
  22021528.660   115723952.07208  22021529.180    90174520.95548
  23879138.400   125485937.30606  23879139.840    97781376.17245
  20743752.640   109009229.01909  20743752.560    84942285.42549
  20623246.800   108375919.38909  20623250.520    84448805.94649
 15 03 01 01 55 30.0000000  0  7G04G16G18G19G21G22G27
  23397123.500   122952756.22606  23397128.200    95807371.47745
  20860724.520   109623875.46708  20860726.180    85421219.48949
  21938135.160   115285734.39608  21938136.840    89833076.42447
  22009002.280   115658125.54008  22009002.760    90123227.57548
  23892408.920   125555674.19106  23892410.340    97835716.58245
  20739428.500   108986505.46609  20739428.380    84924578.77649
  20617063.200   108343424.66509  20617067.020    84423485.39449
 15 03 01 01 56  0.0000000  0  7G04G16G18G19G21G22G27
  23381008.600   122868072.02106  23381013.060    95741383.86645
  20869125.900   109668024.99808  20869127.540    85455621.71249
  21946730.600   115330903.21008  21946732.100    89868272.90847
  21996503.980   115592446.42508  21996504.400    90072049.07048
  23905681.640   125625422.30106  23905683.060    97890065.73645
  20735204.000   108964305.38709  20735203.800    84907280.03249
  20610930.640   108311198.19109  20610934.540    84398373.86649
 15 03 01 01 56 30.0000000  0  7G04G16G18G19G21G22G27
  23364929.640   122783576.63107  23364933.960    95675543.40745
  20877629.200   109712710.18908  20877630.820    85490441.33448
  21955407.220   115376498.73008  21955408.560    89903801.88947
  21984034.280   115526917.53608  21984034.620    90020987.61448
  23918956.700   125695182.89406  23918958.200    97944424.63146
  20731079.480   108942630.59409  20731079.180    84890390.59749
  20604849.720   108279243.15109  20604853.680    84373473.84749
 15 03 01 01 57  0.0000000  0  7G04G16G18G19G21G22G27
  23348886.800   122699271.05107  23348891.020    95609850.85445
  20886234.300   109757930.36308  20886235.900    85525677.81949
  21964164.820   115422520.07408  21964166.060    89939662.68647
  21971593.540   115461540.49108  21971593.720    89970044.48548
  23932234.140   125764956.19906  23932235.640    97998793.43545
  20727055.380   108921483.43009  20727054.980    84873912.30449
  20598820.900   108247561.61709  20598824.900    84348786.95149
 15 03 01 01 57 30.0000000  0  7G04G16G18G19G21G22G27
  23332879.800   122615153.69607  23332884.000    95544304.95145
  20894940.540   109803681.82608  20894942.100    85561328.30448
  21973002.680   115468963.49908  21973003.900    89975852.37947
  21959181.500   115396314.57008  21959181.620    89919219.11148
  23945513.500   125834739.58606  23945514.980    98053170.07745
  20723131.260   108900861.93209  20723130.820    84857843.62349
  20592844.020   108216152.94809  20592848.040    84324312.67649
 15 03 01 01 58  0.0000000  0  7G04G16G18G19G21G22G27
  23316908.720   122531225.22207  23316913.000    95478906.22645
  20903747.600   109849963.15508  20903749.140    85597391.66949
  21981920.580   115515827.57708  21981921.860    90012369.84847
  21946798.360   115331240.77808  21946798.440    89868512.28048
  23958794.640   125904532.44806  23958796.140    98107554.11945
  20719307.140   108880766.13009  20719306.740    84842184.56749
  20586919.360   108185018.54709  20586923.320    84300052.11849
 15 03 01 01 58 30.0000000  0  7G04G16G18G19G21G22G27
  23300973.960   122447487.64007  23300978.300    95413656.24645
  20912655.680   109896775.51808  20912657.260    85633868.82248
  21990918.500   115563112.51808  21990919.960    90049215.26147
  21934444.600   115266321.72008  21934444.760    89817926.01948
  23972077.800   125974335.86506  23972079.340    98161946.38845
  20715583.400   108861198.02509  20715583.060    84826936.71249
  20581047.440   108154161.34609  20581051.360    84276007.55749
 15 03 01 01 59  0.0000000  0  7G04G16G18G19G21G22G27
  23285075.640   122363942.07707  23285080.140    95348555.90846
  20921664.520   109944117.48308  20921666.200    85670758.65848
  21999996.200   115610816.85208  21999997.800    90086387.47147
  21922120.760   115201559.54008  21922120.960    89767462.00848
  23985362.860   126044149.61006  23985364.480    98216346.69045
  20711960.320   108842158.94009  20711960.040    84812101.07349
  20575228.620   108123583.27209  20575232.520    84252180.49249
 15 03 01 01 59 30.0000000  0  7G04G16G18G19G21G22G27
  23269213.480   122280586.46006  23269218.100    95283603.56146
  20930773.340   109991984.81908  20930775.080    85708057.87648
  22009152.960   115658936.38408  22009154.680    90123883.21747
  21909826.380   115136952.63408  21909826.680    89717118.98448
  23998649.400   126113971.17706  23998651.160    98270753.09645
  20708437.560   108823646.89309  20708437.340    84797676.11749
  20569462.700   108093283.21309  20569466.600    84228570.06749
 15 03 01 02 00  0.0000000  0  7G04G16G18G19G21G22G27
  23253387.680   122197422.07406  23253392.340    95218800.20946
  20939982.100   110040377.22108  20939983.880    85745766.23748
  22018388.700   115707470.57808  22018390.420    90161702.07147
  21897561.940   115072503.00008  21897562.260    89666898.50748
  24011937.540   126183801.06606  24011939.420    98325166.00145
  20705015.360   108805663.16809  20705015.140    84783662.84449
  20563750.100   108063263.36109  20563754.000    84205177.98449
 15 03 01 02 00 30.0000000  0  7G04G16G18G19G21G22G27
  23237598.460   122114449.65406  23237603.160    95154146.45346
  20949290.580   110089293.62109  20949292.380    85783882.90248
  22027703.120   115756417.87008  22027704.720    90199842.82047
  21885327.800   115008212.54208  21885328.140    89616802.06248
  24025227.140   126253638.60106  24025229.140    98379584.85745
  20701693.760   108788208.09209  20701693.500    84770061.49849
  20558091.140   108033525.34609  20558095.040    84182005.51049
 15 03 01 02 01  0.0000000  0  7G04G16G18G19G21G22G27
  23221845.760   122031669.15107  23221850.460    95089642.23646
  20958698.360   110138731.82608  20958700.160    85822406.16648
  22037095.720   115805776.06908  22037097.260    90238303.76147
  21873124.020   114944081.35008  21873124.340    89566829.72348
  24038518.000   126323482.15506  24038519.960    98434008.38744
  20698472.700   108771281.44909  20698472.380    84756871.92149
  20552486.000   108004070.03709  20552489.900    84159053.32949
 15 03 01 02 01 30.0000000  0  7G04G16G18G19G21G22G27
  23206129.900   121949081.98907  23206134.480    95025288.68145
  20968205.340   110188691.34608  20968207.160    85861335.65048
  22046566.340   115855544.35808  22046567.840    90277084.25047
  21860950.920   114880111.33308  21860951.240    89516982.97948
  24051810.120   126393332.60406  24051811.880    98488437.30945
  20695352.460   108754884.55609  20695352.120    84744095.13749
  20546935.060   107974899.66909  20546938.980    84136323.18049
 15 03 01 02 02  0.0000000  0  7G04G16G18G19G21G22G27
  23190450.720   121866687.38107  23190455.120    94961085.17245
  20977811.040   110239169.46908  20977812.840    85900669.24248
  22056114.480   115905720.27808  22056116.000    90316182.37347
  21848808.760   114816303.62008  21848808.980    89467262.70248
  24065103.400   126463189.38606  24065105.020    98542871.12944
  20692332.920   108739016.97909  20692332.600    84731730.80849
  20541438.380   107946014.57509  20541442.320    84113815.32149
 15 03 01 02 02 30.0000000  0  7G04G16G18G19G21G22G27
  23174808.400   121784486.27407  23174812.500    94897032.44045
  20987515.200   110290164.95608  20987517.000    85940405.98148
  22065739.900   115956302.34308  22065741.500    90355596.96747
  21836697.520   114752658.45608  21836697.640    89417669.08048
  24078397.580   126533050.89706  24078399.120    98597308.65644
  20689414.100   108723678.66909  20689413.820    84719778.89249
  20535996.320   107917416.42809  20536000.280    84091531.05449
 15 03 01 02 03  0.0000000  0  7G04G16G18G19G21G22G27
  23159203.300   121702480.81307  23159207.140    94833132.15245
  20997317.820   110341677.95608  20997319.620    85980545.96948
  22075442.640   116007290.64108  22075444.300    90395328.11147
  21824617.780   114689179.03108  21824617.900    89368204.60948
  24091692.900   126602918.68506  24091694.540    98651751.08445
  20686596.400   108708871.95209  20686596.220    84708241.20549
  20530609.500   107889108.44809  20530613.440    84069472.89849
 15 03 01 02 03 30.0000000  0  7G04G16G18G19G21G22G27
  23143635.140   121620669.79207  23143638.980    94769383.39545
  21007218.400   110393705.64008  21007220.140    86021087.01548
  22085221.980   116058681.37508  22085223.680    90435372.83647
  21812569.600   114625865.40208  21812569.780    89318869.33448
  24104989.100   126672791.02106  24104990.880    98706197.03045
  20683879.620   108694595.30309  20683879.480    84697116.55849
  20525277.820   107861090.22009  20525281.740    84047640.51749
 15 03 01 02 04  0.0000000  0  7G04G16G18G19G21G22G27
  23128104.000   121539053.63707  23128108.000    94705786.45446
  21017216.580   110446246.35908  21017218.260    86062027.82348
  22095077.620   116110472.91808  22095079.340    90475729.88347
  21800553.200   114562718.76508  21800553.360    89269664.17948
  24118286.160   126742667.23806  24118287.920    98760646.03045
  20681263.800   108680849.14909  20681263.700    84686405.28049
  20520001.560   107833363.35509  20520005.460    84026035.17049
 15 03 01 02 04 30.0000000  0  7G04G16G18G19G21G22G27
  23112610.200   121457634.03007  23112614.360    94642342.66846
  21027312.240   110499299.39008  21027313.880    86103367.83748
  22105009.520   116162665.19008  22105011.220    90516399.18547
  21788568.980   114499741.23208  21788569.120    89220590.79148
  24131584.060   126812548.07406  24131585.860    98815098.62045
  20678749.220   108667634.75809  20678749.120    84676108.36449
  20514781.200   107805930.33309  20514785.120    84004658.79349
 15 03 01 02 05  0.0000000  0  7G04G16G18G19G21G22G27
  23097153.680   121376410.29207  23097158.100    94579051.49746
  21037504.880   110552862.06108  21037506.500    86145104.96948
  22115017.060   116215255.15208  22115018.720    90557378.37247
  21776616.960   114436933.08508  21776617.120    89171649.39448
  24144882.540   126882431.89005  24144884.440    98869553.53346
  20676335.660   108654951.27109  20676335.520    84666225.13949
  20509616.800   107778791.44809  20509620.740    83983511.61249
 15 03 01 02 05 30.0000000  0  7G04G16G18G19G21G22G27
  23081734.420   121295381.85907  23081738.980    94515912.52445
  21047794.040   110606931.87008  21047795.640    86187237.27748
  22125099.700   116268240.04008  22125101.360    90598665.29247
  21764697.160   114374294.32608  21764697.360    89122839.98248
  24158181.360   126952317.45906  24158183.300    98924009.79445
  20674022.820   108642797.12809  20674022.640    84656754.39249
  20504508.440   107751946.82009  20504512.360    83962593.72249
 15 03 01 02 06  0.0000000  0  7G04G16G18G19G21G22G27
  23066352.660   121214550.52207  23066357.260    94452927.12646
  21058179.640   110661508.48508  21058181.240    86229764.49848
  22135257.420   116321619.54508  22135259.100    90640259.70947
  21752810.140   114311827.81908  21752810.400    89074164.80448
  24171480.680   127022205.41006  24171482.800    98978467.94245
  20671811.260   108631175.19409  20671811.020    84647698.35249
  20499456.680   107725399.55509  20499460.560    83941907.54449
 15 03 01 02 06 30.0000000  0  7G04G16G18G19G21G22G27
  23051008.680   121133917.39507  23051013.200    94390096.17946
  21068661.420   110716590.57109  21068663.080    86272685.59648
  22145489.940   116375392.03408  22145491.620    90682160.34647
  21740956.240   114249535.33308  21740956.560    89025625.22348
  24184780.500   127092096.21005  24184782.700    99032928.29145
  20669700.900   108620085.29009  20669700.640    84639056.88149
  20494461.880   107699151.51209  20494465.700    83921454.52349
 15 03 01 02 07  0.0000000  0  7G04G16G18G19G21G22G27
  23035702.580   121053483.08607  23035706.940    94327420.16446
  21079239.080   110772176.52308  21079240.780    86315999.31648
  22155797.080   116429556.30708  22155798.760    90724366.27447
  21729135.720   114187418.13908  21729136.060    88977222.22948
  24198080.640   127161989.30906  24198082.940    99087390.43244
  20667691.820   108609527.78709  20667691.560    84630830.27049
  20489524.320   107673204.32809  20489528.080    83901235.94249
 15 03 01 02 07 30.0000000  0  8G04G16G18G19G21G22G27G32
  23020434.100   120973246.68507  23020438.320    94264898.35845
  21089912.200   110828264.28708  21089913.940    86359704.05348
  22166178.320   116484109.71608  22166179.920    90766875.42747
  21717348.660   114125476.81808  21717348.960    88928956.27948
  24211381.000   127231883.95605  24211383.300    99141853.77845
  20665783.880   108599501.71809  20665783.620    84623017.75949
  20484644.020   107647558.22309  20484647.780    83881251.96449
  24485257.780   128670895.52405  24485263.380   100263063.09944
 15 03 01 02 08  0.0000000  0  8G04G16G18G19G21G22G27G32
  23005202.760   120893205.68907  23005206.920    94202528.81946
  21100679.840   110884848.83508  21100681.680    86403795.89848
  22176632.540   116539046.90508  22176634.100    90809683.62947
  21705594.680   114063709.35108  21705594.920    88880825.79848
  24224681.040   127301776.37205  24224683.420    99196315.39945
  20663976.520   108590004.31909  20663976.300    84615617.19849
  20479820.720   107622211.61609  20479824.500    83861501.36549
  24462561.040   128551624.21206  24462567.000   100170124.70745
 15 03 01 02 08 30.0000000  0  8G04G16G18G19G21G22G27G32
  22990009.640   120813365.87507  22990013.800    94140316.04245
  21111542.660   110941933.51508  21111544.520    86448277.45348
  22187160.460   116594371.56608  22187161.980    90852793.75247
  21693875.080   114002122.60308  21693875.320    88832836.14548
  24237981.460   127371670.91805  24237983.820    99250778.67845
  20662270.800   108581040.79709  20662270.620    84608632.65049
  20475055.680   107597171.22409  20475059.500    83841989.37449
  24439872.980   128432398.67705  24439879.320   100077221.95144
 15 03 01 02 09  0.0000000  0  9G04G11G16G18G19G21G22G27G32
  22974855.380   120733730.33507  22974859.500    94078262.43445
  24637373.200   129470261.74405  24637377.660   100885944.84443
  21122500.780   110999518.83508  21122502.640    86493149.12348
  22197762.300   116650084.53808  22197763.780    90896206.45847
  21682190.580   113940720.12308  21682190.860    88784990.07748
  24251282.720   127441569.65606  24251285.020    99305245.20044
  20660667.160   108572613.58309  20660667.000    84602066.00049
  20470349.640   107572440.95109  20470353.500    83822719.03649
  24417194.640   128313224.19106  24417201.280    99984358.99244
 15 03 01 02 09 30.0000000  0  9G04G11G16G18G19G21G22G27G32
  22959737.040   120654283.53407  22959741.240    94016355.89946
  24620160.840   129379810.68405  24620165.080   100815463.61545
  21133550.900   111057587.55308  21133552.740    86538397.45948
  22208434.640   116706168.20808  22208436.100    90939908.00647
  21670538.320   113879487.27008  21670538.700    88737276.17748
  24264581.940   127511457.19205  24264584.100    99359703.00244
  20659162.580   108564706.72809  20659162.380    84595904.82649
  20465699.860   107548006.34009  20465703.740    83803679.07849
  24394523.540   128194087.49006  24394530.260    99891525.56545
 15 03 01 02 10  0.0000000  0  9G04G11G16G18G19G21G22G27G32
  22944658.100   120575043.83707  22944662.400    93954610.73846
  24602960.740   129289424.93805  24602965.380   100745033.26744
  21144696.120   111116155.64809  21144697.900    86584034.92648
  22219180.620   116762638.86908  22219182.040    90983911.11747
  21658922.060   113818443.59608  21658922.480    88689709.69648
  24277882.340   127581350.57805  24277884.280    99414165.37844
  20657760.540   108557338.71309  20657760.300    84590163.52949
  20461110.080   107523886.80109  20461113.960    83784884.63749
  24371863.560   128075009.24806  24371870.300    99798737.69145
 15 03 01 02 10 30.0000000  0  8G04G16G18G19G21G22G27G32
  22929617.220   120496003.90407  22929621.640    93893021.22346
  21155934.460   111175213.17909  21155936.180    86630053.76748
  22229998.400   116819486.45508  22229999.720    91028207.93747
  21647340.520   113757582.47108  21647340.920    88642285.46448
  24291182.420   127651241.84005  24291184.120    99468626.08845
  20656459.420   108550501.30009  20656459.180    84584835.68049
  20456579.020   107500075.82809  20456582.900    83766330.63249
  24349213.760   127955984.03206  24349220.360    99705991.01144
 15 03 01 02 11  0.0000000  0  9G04G11G16G18G19G21G22G27G32
  22914614.800   120417166.03607  22914619.260    93831589.18246
  24568593.940   129108843.17205  24568597.820   100604306.49944
  21167266.120   111234761.14409  21167267.780    86676454.76548
  22240888.020   116876711.52408  22240889.300    91072798.89847
  21635794.420   113696907.42408  21635794.780    88595006.21748
  24304482.360   127721132.73705  24304484.060    99523086.48844
  20655259.660   108544196.65309  20655259.440    84579922.97849
  20452107.320   107476577.09409  20452111.220    83748019.93049
  24326575.000   127837016.78406  24326581.320    99613289.54445
 15 03 01 02 11 30.0000000  0  9G04G11G16G18G19G21G22G27G32
  22899650.760   120338529.16007  22899655.140    93770313.73946
  24551428.020   129018634.76605  24551431.700   100534014.29744
  21178690.360   111294795.93908  21178692.020    86723235.11448
  22251848.720   116934310.13608  22251850.060    91117680.92947
  21624283.660   113636418.18208  21624284.040    88547871.76548
  24317781.660   127791021.05905  24317783.360    99577544.87644
  20654160.920   108538422.93209  20654160.720    84575423.98649
  20447694.980   107453390.25409  20447698.900    83729952.26449
  24303947.440   127718108.58506  24303953.560    99520634.11144
 15 03 01 02 12  0.0000000  0  9G04G11G16G18G19G21G22G27G32
  22884725.080   120260093.57807  22884729.240    93709195.15446
  24534273.260   128928485.56505  24534276.860   100463768.27645
  21190206.680   111355314.84508  21190208.380    86770392.68748
  22262880.260   116992281.04708  22262881.660    91162853.06347
  21612808.420   113576115.53608  21612808.800    88500882.70248
  24331080.420   127860906.36206  24331082.020    99632000.93845
  20653163.140   108533179.73109  20653162.960    84571338.38749
  20443342.220   107430516.44509  20443346.160    83712128.52649
  24281331.540   127599261.66206  24281337.520    99428026.37744
 15 03 01 02 12 30.0000000  0  9G04G11G16G18G19G21G22G27G32
  22869837.960   120181860.91407  22869842.000    93648234.69246
  24517130.060   128838397.62505  24517133.720   100393569.96743
  21201815.120   111416317.73308  21201816.820    86817927.39248
  22273982.520   117050623.70708  22273984.000    91208314.87447
  21601369.300   113516002.48108  21601369.620    88454041.37548
  24344378.800   127930789.91505  24344380.420    99686455.63444
  20652266.640   108528468.76309  20652266.440    84567667.51249
  20439049.620   107407958.67709  20439053.540    83694551.04049
  24258728.120   127480480.36606  24258733.980    99335469.81045
 15 03 01 02 13  0.0000000  0  9G04G11G16G18G19G21G22G27G32
  22854989.460   120103831.35907  22854993.380    93587432.49346
  24499998.520   128748371.16105  24500002.120   100323419.58844
  21213515.340   111477802.97209  21213517.080    86865837.95248
  22285154.960   117109335.28008  22285156.480    91254064.14847
  21589966.500   113456080.22608  21589966.780    88407348.72748
  24357676.680   128000671.02505  24357678.300    99740908.39844
  20651471.280   108524289.30409  20651471.060    84564410.80249
  20434817.320   107385717.85909  20434821.240    83677220.53749
  24236137.580   127361766.76906  24236143.220    99242965.88244
 15 03 01 02 13 30.0000000  0  9G04G11G16G18G19G21G22G27G32
  22840179.420   120026004.28407  22840183.280    93526788.05846
  24482878.520   128658405.14305  24482882.100   100253316.30843
  21225306.740   111539767.27608  21225308.520    86914121.81548
  22296397.160   117168413.42208  22296398.660    91300099.05747
  21578600.000   113396348.84708  21578600.260    88360804.81448
  24370973.960   128070548.53006  24370975.500    99795358.37545
  20650776.820   108520640.17109  20650776.620    84561567.33149
  20430645.420   107363794.46309  20430649.340    83660137.37349
  24213560.160   127243122.59506  24213565.780    99150516.04145
 15 03 01 02 14  0.0000000  0  9G04G11G16G18G19G21G22G27G32
  22825407.840   119948379.49907  22825411.680    93466301.27145
  24465770.080   128568487.83905  24465772.560   100183254.29743
  21237188.760   111602207.57308  21237190.540    86962776.57848
  22307708.720   117227855.92908  22307710.160    91346417.89247
  21567270.020   113336809.38708  21567270.300    88314410.44048
  24384270.440   128140421.49705  24384271.840    99849804.82044
  20650183.180   108517520.84709  20650183.000    84559136.69849
  20426534.120   107342189.47509  20426538.060    83643302.31849
  24190996.480   127124550.14006  24191001.880    99058122.01645
 15 03 01 02 14 30.0000000  0  9G04G11G16G18G19G21G22G27G32
  22810674.960   119870958.27807  22810678.840    93405973.09846
  24448673.540   128478644.49205  24448676.260   100113246.59144
  21249161.200   111665123.22308  21249163.020    87011801.74748
  22319089.280   117287661.23808  22319090.700    91393019.42847
  21555976.880   113277463.59408  21555977.180    88268166.98348
  24397566.240   128210290.70905  24397567.520    99904248.35245
  20649690.380   108514931.27109  20649690.200    84557118.85649
  20422483.780   107320904.75609  20422487.720    83626716.82249
  24168447.080   127006052.71606  24168452.340    98965786.44945
 15 03 01 02 15  0.0000000  0  9G04G11G16G18G19G21G22G27G32
  22795981.140   119793742.46807  22795985.120    93345804.98446
  24431589.180   128388865.45105  24431591.900   100043288.99444
  21261224.140   111728514.45808  21261226.020    87061197.50448
  22330538.900   117347829.39208  22330540.300    91439903.70247
  21544721.280   113218314.96608  21544721.540    88222077.15848
  24410861.420   128280156.55206  24410862.640    99958689.23643
  20649298.880   108512873.81709  20649298.680    84555515.65649
  20418495.040   107299943.78009  20418498.980    83610383.59649
  24145912.760   126887634.75106  24145917.980    98873512.76345
 15 03 01 02 15 30.0000000  0  9G04G11G16G18G19G21G22G27G32
  22781326.480   119716731.93107  22781330.460    93285796.82245
  24414516.700   128299149.86405  24414519.640    99973380.83343
  21273376.960   111792377.84008  21273378.880    87110961.16448
  22342057.000   117408357.43208  22342058.380    91487068.40247
  21533503.300   113159364.20408  21533503.560    88176141.51448
  24424155.900   128350018.79405  24424156.860   100013127.34844
  20649008.360   108511346.89009  20649008.120    84554325.85349
  20414567.960   107279306.87009  20414571.920    83594302.88949
  24123393.840   126769298.22306  24123399.140    98781302.56845
 15 03 01 02 16  0.0000000  0  9G04G11G16G18G19G21G22G27G32
  22766710.700   119639925.63007  22766714.640    93225947.80646
  24397456.200   128209497.03505  24397459.300    99903521.56044
  21285619.020   111856710.01608  21285620.920    87161090.11848
  22353643.020   117469242.35508  22353644.440    91534511.19446
  21522322.880   113100610.96908  21522323.180    88130359.78648
  24437449.200   128419875.41506  24437450.100   100067561.03244
  20648818.580   108510349.30609  20648818.320    84553548.51649
  20410702.640   107258994.29209  20410706.580    83578474.90649
  24100890.780   126651044.58606  24100896.020    98689156.97545
 15 03 01 02 16 30.0000000  0  9G04G11G16G18G19G21G22G27G32
  22752134.020   119563324.42307  22752137.860    93166258.59746
  24380407.960   128119908.36305  24380411.140    99833712.28945
  21297950.080   111921509.81109  21297951.940    87211583.44848
  22365296.680   117530482.90108  22365298.140    91582231.09946
  21511180.500   113042057.66108  21511180.840    88084733.84848
  24450741.460   128489726.79705  24450742.380   100121990.70744
  20648729.580   108509881.30009  20648729.300    84553183.84749
  20406899.380   107239008.05509  20406903.340    83562901.21949
  24078404.200   126532877.37306  24078409.440    98597078.83045
 15 03 01 02 17  0.0000000  0  9G04G11G16G18G19G21G22G27G32
  22737596.420   119486928.54907  22737600.180    93106729.39846
  24363371.780   128030383.30805  24363375.060    99763952.57144
  21310369.740   111986775.20708  21310371.520    87262439.58548
  22377017.640   117592076.85408  22377019.080    91630226.38247
  21500076.320   112983704.89308  21500076.660    88039264.17148
  24464032.640   128559572.58705  24464033.580   100176415.96145
  20648741.200   108509942.19009  20648740.920    84553231.30049
  20403158.380   107219349.01209  20403162.360    83547582.48649
  24055934.400   126414798.36806  24055939.620    98505069.41845
 15 03 01 02 17 30.0000000  0  9G04G11G16G18G19G21G22G27G32
  22723097.860   119410738.17007  22723101.620    93047360.32146
  24346347.820   127940922.65605  24346351.300    99694243.07744
  21322877.460   112052503.64608  21322879.220    87313656.53248
  22388805.460   117654022.03708  22388806.860    91678495.35746
  21489010.640   112925554.27908  21489010.940    87993952.01448
  24477322.780   128629412.60205  24477323.640   100230836.75644
  20648853.360   108510531.34009  20648853.060    84553690.38249
  20399479.940   107200018.50809  20399483.880    83532519.76249
  24033481.940   126296810.49106  24033487.020    98413131.07045
 15 03 01 02 18  0.0000000  0  9G04G11G16G18G19G21G22G27G32
  22708638.460   119334753.81307  22708642.300    92988151.78146
  24329336.320   127851527.08806  24329339.960    99624584.27744
  21335472.880   112118693.10308  21335474.660    87365232.71848
  22400659.760   117716316.81508  22400661.200    91727036.73446
  21477983.720   112867607.30008  21477983.960    87948798.53248
  24490611.800   128699246.41705  24490612.620   100285252.67944
  20649066.000   108511648.53409  20649065.660    84554560.93349
  20395864.320   107181018.23709  20395868.260    83517714.35849
  24011047.240   126178916.58406  24011052.140    98321265.94745
 15 03 01 02 18 30.0000000  0  9G04G11G16G18G19G21G22G27G32
  22694218.340   119258975.96707  22694222.240    92929104.14346
  24312337.360   127762197.01606  24312341.060    99554976.48844
  21348155.700   112185341.83508  21348157.460    87417166.78148
  22412580.300   117778959.83608  22412581.800    91775849.47947
  21466995.960   112809865.98408  21466996.080    87903805.31248
  24503899.680   128769074.08805  24503900.400   100339663.84545
  20649379.040   108513293.55209  20649378.700    84555842.77849
  20392311.820   107162349.71009  20392315.760    83503167.46049
  23988630.900   126061119.27506  23988635.620    98229475.98145
 15 03 01 02 19  0.0000000  0  9G04G11G16G18G19G21G22G27G32
  22679837.640   119183405.21807  22679841.600    92870217.87946
  24295351.020   127672933.33406  24295354.700    99485420.43343
  21360925.580   112252448.15008  21360927.360    87469457.39948
  22424566.680   117841948.95008  22424568.260    91824931.89846
  21456047.520   112752331.41208  21456047.580    87858973.18848
  24517186.220   128838895.28205  24517187.020   100394069.93144
  20649792.600   108515466.90609  20649792.280    84557536.30849
  20388822.720   107144014.56009  20388826.680    83488880.33249
  23966233.500   125943421.65506  23966238.160    98137763.65644
 15 03 01 02 19 30.0000000  0  9G04G11G16G18G19G21G22G27G32
  22665496.400   119108041.89007  22665500.420    92811493.24946
  24278377.260   127583735.90705  24278380.880    99415915.99943
  21373782.040   112320009.59508  21373783.880    87522102.66448
  22436618.540   117905282.03608  22436620.140    91874282.35447
  21445138.620   112695004.86608  21445138.700    87814303.16248
  24530471.500   128908709.80206  24530472.300   100448470.81744
  20650306.460   108518167.41109  20650306.160    84559640.60649
  20385397.300   107126013.88309  20385401.260    83474853.83249
  23943855.560   125825826.09506  23943860.220    98046130.88544
 15 03 01 02 20  0.0000000  0  9G04G11G16G18G19G21G22G27G32
  22651194.700   119032886.39007  22651198.780    92752930.56546
  24261416.260   127494605.68106  24261419.920    99346463.95744
  21386724.820   112388024.51508  21386726.700    87575101.28948
  22448735.540   117968957.50108  22448737.160    91923899.59946
  21434269.640   112637888.21408  21434269.780    87769796.69248
  24543755.520   128978517.78805  24543756.420   100502866.65346
  20650920.600   108521395.10609  20650920.340    84562155.70149
  20382035.840   107108349.38609  20382039.820    83461089.29549
  23921497.720   125708335.79606  23921502.440    97954580.11844
 15 03 01 02 20 30.0000000  0  9G04G11G16G18G19G21G22G27G32
  22636932.340   118957937.44807  22636936.400    92694528.82946
  24244467.920   127405541.59806  24244471.420    99277063.44744
  21399753.100   112456488.78008  21399755.040    87628450.05348
  22460916.980   118032971.44208  22460918.600    91973780.58447
  21423440.560   112580981.00708  21423440.720    87725453.42248
  24557037.900   129048317.54505  24557038.980   100557256.01644
  20651634.620   108525147.79609  20651634.420    84565079.88349
  20378738.260   107091020.62009  20378742.260    83447586.35749
  23899160.160   125590951.57506  23899164.860    97863112.02945
 15 03 01 02 21  0.0000000  0  9G04G11G16G18G19G21G22G27G32
  22622709.500   118883196.14807  22622713.500    92636288.89946
  24227532.420   127316544.72105  24227535.700    99207715.30144
  21412866.660   112525400.81708  21412868.580    87682147.72748
  22473162.660   118097322.93008  22473164.280    92023924.60747
  21412651.820   112524285.57508  21412651.920    87681275.17648
  24570318.720   129118109.06405  24570319.900   100611638.98745
  20652448.620   108529425.86209  20652448.500    84568413.44849
  20375505.000   107074029.75009  20375508.980    83434346.72249
  23876843.500   125473677.00106  23876848.160    97771729.39745
 15 03 01 02 21 30.0000000  0  9G04G11G16G18G19G21G22G27G32
  22608526.500   118808664.14807  22608530.400    92578212.05346
  24210609.980   127227616.79606  24210612.980    99138420.87344
  21426065.420   112594760.50308  21426067.320    87736194.22048
  22485472.500   118162011.42108  22485474.120    92074331.21746
  21401903.920   112467804.84008  21401903.980    87637264.22248
  24583598.140   129187893.59905  24583599.500   100666016.53245
  20653362.760   108534229.92109  20653362.680    84572156.87649
  20372336.620   107057379.59309  20372340.540    83421372.57449
  23854548.520   125356516.02406  23854553.120    97680435.26345
 15 03 01 02 22  0.0000000  0  9G04G11G16G18G19G21G22G27G32
  22594383.240   118734340.81207  22594387.020    92520297.81546
  24193700.620   127138757.35206  24193703.540    99069179.85244
  21439348.660   112664563.99308  21439350.520    87790586.53348
  22497845.860   118227033.89308  22497847.520    92124998.07447
  21391196.920   112411539.05108  21391197.020    87593420.75848
  24596875.940   129257669.97605  24596877.520   100720387.70044
  20654376.780   108539558.65609  20654376.660    84576309.14149
  20369233.100   107041070.44109  20369236.980    83408664.14249
  23832275.500   125239470.35706  23832280.080    97589230.95745
 15 03 01 02 22 30.0000000  0  9G04G11G16G18G19G21G22G27G32
  22580279.740   118660226.64807  22580283.500    92462546.56146
  24176804.420   127049967.16106  24176807.260    98999992.76644
  21452716.040   112734809.86008  21452717.880    87845323.55448
  22510282.380   118292388.49108  22510284.140    92175923.73346
  21380531.120   112355489.87608  21380531.260    87549746.08848
  24610152.260   129327438.21205  24610153.980   100774752.56843
  20655490.620   108545411.76709  20655490.420    84580870.01349
  20366194.760   107025103.81709  20366198.620    83396222.61949
  23810025.040   125122543.21606  23810029.520    97498119.13945
 15 03 01 02 23  0.0000000  0  9G04G11G16G18G19G21G22G27G32
  22566215.920   118586321.09307  22566219.680    92404957.85846
  24159921.300   126961245.82706  24159924.180    98930859.33943
  21466166.980   112805494.80908  21466168.800    87900402.71948
  22522781.640   118358072.64008  22522783.460    92227106.17346
  21369906.680   112299658.24008  21369906.840    87506240.92848
  24623426.920   129397197.54905  24623428.740   100829110.47743
  20656704.020   108551788.01709  20656703.740    84585838.53249
  20363221.700   107009480.38709  20363225.600    83384048.51549
  23787797.340   125005736.05906  23787801.620    97407100.70844
 15 03 01 02 23 30.0000000  0  9G04G11G16G18G19G21G22G27G32
  22552192.140   118512625.59307  22552195.880    92347532.82346
  24143051.580   126872594.86305  24143054.460    98861780.74245
  21479701.240   112876617.74608  21479703.040    87955823.17148
  22535343.340   118424085.01908  22535345.260    92278544.38246
  21359324.060   112244046.49108  21359324.240    87462907.11048
  24636699.960   129466948.65705  24636701.860   100883461.97143
  20658017.020   108558687.57609  20658016.660    84591214.82049
  20360314.420   106994202.48009  20360318.320    83372143.64849
  23765593.240   124889052.70206  23765597.340    97316178.65145
 15 03 01 02 24  0.0000000  0  9G04G11G16G18G19G21G22G27G32
  22538208.160   118439139.27407  22538211.900    92290270.79446
  24126195.120   126784013.35805  24126197.980    98792756.24344
  21493318.120   112948174.87308  21493319.900    88011581.95348
  22547967.040   118490423.13908  22547969.000    92330236.41946
  21348783.320   112188654.69908  21348783.460    87419744.68948
  24649971.260   129536690.33504  24649973.540   100937806.11544
  20659429.280   108566108.94709  20659428.880    84596997.71549
  20357472.920   106979270.16509  20357476.820    83360508.07649
  23743413.000   124772494.62306  23743416.940    97225354.19044
 15 03 01 02 24 30.0000000  0  9G04G11G16G18G19G21G22G27G32
  22524264.340   118365864.04707  22524268.120    92233173.24946
  24109351.960   126695503.31605  24109355.000    98723787.44744
  21507017.520   113020165.48308  21507019.240    88067678.51348
  22560652.520   118557085.82308  22560654.500    92382181.36847
  21338285.040   112133486.02808  21338285.220    87376756.12248
  24663240.980   129606423.62005  24663243.500   100992143.72244
  20660940.960   108574052.83709  20660940.560    84603187.76749
  20354697.780   106964686.40909  20354701.640    83349144.10949
  23721257.400   124656066.20406  23721261.320    97134630.73445
 15 03 01 02 25  0.0000000  0  9G04G11G16G18G19G21G22G27G32
  22510360.400   118292798.48307  22510364.320    92176239.08546
  24092522.300   126607063.86505  24092525.580    98654873.63045
  21520798.840   113092586.58208  21520800.540    88124110.52048
  22573399.100   118624069.61608  22573401.140    92434376.52546
  21327829.200   112078540.22608  21327829.400    87333941.22648
  24676509.020   129676147.27105  24676511.540   101046473.82544
  20662551.640   108582517.05209  20662551.260    84609783.26549
  20351988.880   106950450.99609  20351992.760    83338051.58149
  23699126.720   124539768.59806  23699130.660    97044009.26445
 15 03 01 02 25 30.0000000  0  9G04G11G16G18G19G21G22G27G32
  22496496.460   118219942.98708  22496500.400    92119468.60146
  24075706.120   126518695.35405  24075709.600    98586015.12245
  21534661.460   113165435.24408  21534663.200    88180875.69548
  22586206.400   118691372.59208  22586208.480    92486820.40546
  21317416.100   112023818.97908  21317416.280    87291301.30648
  24689775.200   129745860.57105  24689777.640   101100795.86942
  20664261.280   108591501.28909  20664260.920    84616783.97649
  20349346.500   106936565.17709  20349350.380    83327231.46049
  23677021.480   124423604.68106  23677025.440    96953492.05145
 15 03 01 02 26  0.0000000  0  9G04G11G16G18G19G21G22G27G32
  22482672.680   118147298.58307  22482676.640    92062862.60846
  24058903.780   126430399.00006  24058907.120    98517212.84344
  21548605.060   113238709.61708  21548606.900    88237972.59148
  22599074.220   118758993.42408  22599076.280    92539511.96046
  21307046.100   111969324.28808  21307046.220    87248837.91848
  24703039.540   129815564.05504  24703041.740   101155110.27444
  20666069.820   108601005.24709  20666069.460    84624189.66349
  20346771.020   106923030.95209  20346774.880    83316685.30849
  23654942.160   124307577.48306  23654946.200    96863081.28145
 15 03 01 02 26 30.0000000  0  9G04G11G16G18G19G21G22G27G32
  22468889.120   118074865.31507  22468892.980    92006421.13446
  24042115.340   126342175.31006  24042118.660    98448467.16844
  21562629.320   113312407.82708  21562631.260    88295399.75548
  22612002.180   118826930.31808  22612004.160    92592449.79146
  21296719.520   111915057.96708  21296719.620    87206552.48848
  24716302.020   129885257.81805  24716304.000   101209417.06744
  20667977.120   108611028.36209  20667976.800    84631999.88949
  20344262.740   106909849.76409  20344266.580    83306414.25249
  23632889.340   124191689.97806  23632893.540    96772779.37646
 15 03 01 02 27  0.0000000  0  9G04G11G16G18G19G21G22G27G32
  22455147.280   118002651.59307  22455151.100    91950150.73146
  24025342.320   126254032.58906  24025345.640    98379784.61944
  21576735.280   113386535.19408  21576737.260    88353161.32548
  22624991.480   118895189.18508  22624993.300    92645638.52146
  21286438.140   111861029.17908  21286438.320    87164452.14648
  24729564.160   129954949.44105  24729565.840   101263722.17744
  20669984.540   108621577.59109  20669984.240    84640220.07249
  20341823.320   106897030.56509  20341827.180    83296425.26749
  23610864.940   124075952.48606  23610869.340    96682594.35345
 15 03 01 02 27 30.0000000  0 10G04G11G14G16G18G19G21G22G27G32
  22441442.780   117930634.28708  22441446.580    91894033.40046
  24008580.420   126165947.94206  24008583.720    98311147.29945
  24668385.160   129633236.44805  24668387.200   101012919.35844
  21590918.100   113461066.20108  21590920.040    88411237.41848
  22638037.180   118963744.43308  22638038.880    92699058.19546
  21276197.820   111807216.09708  21276198.040    87122519.89248
  24742821.420   130024616.19805  24742822.760   101318007.94344
  20672087.600   108632629.22809  20672087.280    84648831.74349
  20339448.640   106884551.61409  20339452.500    83286701.40949
  23588865.180   123960344.57506  23588869.880    96592510.31045
 15 03 01 02 28  0.0000000  0 10G04G11G14G16G18G19G21G22G27G32
  22427779.900   117858835.74207  22427783.680    91838086.52046
  23991833.800   126077943.78706  23991837.020    98242572.69844
  24653717.420   129556159.35605  24653720.420   100952859.34744
  21605181.500   113536020.27508  21605183.320    88469643.17148
  22651143.020   119032615.95008  22651144.640    92752724.30646
  21266003.040   111753642.09308  21266003.240    87080773.92548
  24756077.800   130094278.88505  24756078.780   101372290.58944
  20674290.260   108644204.22609  20674289.920    84657851.23049
  20337143.080   106872436.09509  20337146.980    83277260.73949
  23566894.880   123844890.92506  23566899.720    96502546.44445
 15 03 01 02 28 30.0000000  0 10G04G11G14G16G18G19G21G22G27G32
  22414157.600   117787250.60507  22414161.340    91782305.93146
  23975101.600   125990015.29306  23975104.800    98174057.04045
  24639053.580   129479100.86405  24639056.780   100892813.75944
  21619524.040   113611390.24008  21619525.740    88528372.99448
  22664307.660   119101796.47408  22664309.260    92806631.20246
  21255853.020   111700303.28908  21255853.160    87039211.23148
  24769332.340   130163932.17004  24769333.020   101426565.84544
  20676591.300   108656296.28909  20676590.920    84667273.61949
  20334905.900   106860679.79009  20334909.840    83268099.98449
  23544953.600   123729588.80006  23544958.360    96412700.73645
 15 03 01 02 29  0.0000000  0 10G04G11G14G16G18G19G21G22G27G32
  22400575.980   117715878.96008  22400579.700    91726691.70346
  23958383.760   125902162.51906  23958386.940    98105600.39544
  24624393.840   129402063.81505  24624397.340   100832784.89945
  21633945.060   113687172.81208  21633946.660    88587424.33148
  22677530.660   119171283.51408  22677532.260    92860776.95546
  21245748.000   111647200.95608  21245748.120    86997832.80048
  24782584.920   130233575.75705  24782585.780   101480833.51041
  20678990.640   108668904.82209  20678990.220    84677098.45649
  20332737.280   106849283.71009  20332741.220    83259219.91949
  23523041.660   123614440.61706  23523046.320    96322974.98245
 15 03 01 02 29 30.0000000  0 10G04G11G14G16G18G19G21G22G27G32
  22387034.760   117644719.36908  22387038.460    91671242.70846
  23941680.080   125814384.22706  23941683.180    98037201.79344
  24609738.360   129325049.33305  24609742.180   100772773.65844
  21648443.700   113763363.60108  21648445.280    88646793.75848
  22690811.260   119241073.42308  22690812.880    92915158.69446
  21235687.780   111594334.46608  21235687.980    86956638.15348
  24795835.260   130303207.51005  24795836.160   101535092.00041
  20681487.720   108682026.94709  20681487.260    84687323.49549
  20330637.160   106838247.35209  20330641.080    83250620.16049
  23501159.220   123499447.22206  23501163.680    96233369.85645
 15 03 01 02 30  0.0000000  0 10G04G11G14G16G18G19G21G22G27G32
  22373534.060   117573772.84007  22373537.780    91615959.73946
  23924990.860   125726681.81906  23924993.980    97968862.30544
  24595087.940   129248061.40305  24595091.940   100712783.08844
  21663019.800   113839961.44708  21663021.400    88706480.37348
  22704149.300   119311164.98608  22704150.880    92969775.48846
  21225672.960   111541706.49208  21225673.200    86915629.36048
  24809083.540   130372828.60805  24809084.700   101589342.18645
  20684082.540   108695662.57409  20684082.040    84697948.66549
  20328605.900   106827572.90909  20328609.800    83242302.41249
  23479306.880   123384612.02506  23479311.100    96143887.92445
 15 03 01 02 30 30.0000000  0 10G04G11G14G16G18G19G21G22G27G32
  22360074.020   117503039.81007  22360077.780    91560843.12746
  23908316.180   125639055.87305  23908319.300    97900582.39344
  24580443.060   129171102.91405  24580447.020   100652815.44344
  21677672.900   113916964.21208  21677674.580    88766482.51348
  22717544.300   119381556.14608  22717545.820    93024625.74746
  21215703.900   111489318.74408  21215704.080    86874807.75349
  24822329.740   130442438.56105  24822331.240   101643583.67944
  20686774.920   108709811.07109  20686774.440    84708973.47249
  20326643.780   106817261.71509  20326647.640    83234267.71349
  23457485.220   123269938.12006  23457489.240    96054531.76645
 15 03 01 02 31  0.0000000  0 10G04G11G14G16G18G19G21G22G27G32
  22346654.420   117432519.48407  22346658.220    91505892.25847
  23891655.860   125551505.97105  23891659.060    97832361.76544
  24565804.280   129094175.37505  24565808.040   100592871.93643
  21692402.380   113994368.30508  21692404.140    88826797.37048
  22730995.740   119452243.81508  22730997.200    93079707.04746
  21205780.560   111437171.49508  21205780.780    86834173.54749
  24835573.760   130512036.41905  24835575.560   101697815.75844
  20689564.420   108724470.20309  20689564.000    84720396.18049
  20324750.840   106807314.03009  20324754.660    83226516.27549
  23435694.440   123155426.90606  23435698.420    95965302.34345
 15 03 01 02 31 30.0000000  0 10G04G11G14G16G18G19G21G22G27G32
  22333275.520   117362213.10507  22333279.380    91451108.09846
  23875010.220   125464033.46905  23875013.360    97764201.38145
  24551172.200   129017282.94505  24551175.780   100532955.77144
  21707207.880   114072171.87408  21707209.680    88887423.51148
  22744503.360   119523227.04408  22744504.800    93135018.65746
  21195903.540   111385267.44108  21195903.800    86793728.84248
  24848815.840   130581623.39904  24848817.820   101752039.38145
  20692451.220   108739640.77609  20692450.900    84732217.41249
  20322927.480   106797732.14009  20322931.320    83219049.86949
  23413935.280   123041082.21106  23413939.280    95876202.65846
 15 03 01 02 32  0.0000000  0 10G04G11G14G16G18G19G21G22G27G32
  22319937.040   117292119.19307  22319940.900    91396489.49846
  23858379.100   125376637.20805  23858382.240    97696100.46244
  24536547.260   128940426.77405  24536550.320   100473067.86043
  21722088.760   114150371.55008  21722090.620    88948358.30548
  22758066.440   119594501.87608  22758067.900    93190557.47446
  21186072.760   111333606.25708  21186072.980    86753473.38849
  24862055.500   130651197.77705  24862057.480   101806253.14744
  20695434.760   108755319.91009  20695434.520    84744434.92549
  20321173.620   106788515.57809  20321177.480    83211868.13449
  23392208.020   122926904.94106  23392211.920    95787233.41445
 15 03 01 02 32 30.0000000  0 10G04G11G14G16G18G19G21G22G27G32
  22306639.460   117222240.20108  22306643.260    91342038.37246
  23841762.920   125289319.79905  23841766.200    97628060.95944
  24521930.080   128863611.76305  24521932.900   100413212.06944
  21737044.860   114228966.42508  21737046.760    89009601.04748
  22771685.140   119666068.72808  22771686.660    93246323.85046
  21176288.900   111282191.67808  21176289.080    86713410.08949
  24875293.040   130720760.48705  24875295.040   101860457.82543
  20698515.320   108771508.66409  20698515.140    84757049.54249
  20319489.900   106779667.61209  20319493.740    83204973.61149
  23370513.600   122812899.86907  23370517.400    95698398.34445
 15 03 01 02 33  0.0000000  0 10G04G11G14G16G18G19G21G22G27G32
  22293382.600   117152575.10208  22293386.280    91287753.91246
  23825161.700   125202080.28805  23825164.860    97560082.16444
  24507321.180   128786840.43305  24507323.740   100353390.22844
  21752075.520   114307953.09508  21752077.460    89071149.08348
  22785358.860   119737924.07008  22785360.400    93302315.02046
  21166552.040   111231024.21808  21166552.220    86673539.35648
  24888528.360   130790311.08605  24888530.080   101914653.05843
  20701692.500   108788205.20409  20701692.380    84770059.84049
  20317876.360   106771188.54109  20317880.200    83198366.54349
  23348852.260   122699068.70607  23348855.960    95609698.79045
 15 03 01 02 33 30.0000000  0 10G04G11G14G16G18G19G21G22G27G32
  22280166.760   117083125.22608  22280170.220    91233637.17146
  23808575.660   125114920.51405  23808578.760    97492165.52744
  24492721.060   128710116.17905  24492723.740   100293605.14544
  21767180.380   114387329.60408  21767182.320    89133000.89048
  22799087.380   119810067.21208  22799088.840    93358530.45746
  21156862.720   111180106.55508  21156862.900    86633863.26848
  24901761.460   130859850.36905  24901762.980   101968839.49644
  20704966.360   108805409.52309  20704966.260    84783465.80749
  20316333.420   106763080.52609  20316337.280    83192048.61549
  23327224.740   122585415.15306  23327228.360    95521137.62545
 15 03 01 02 34  0.0000000  0 10G04G11G14G16G18G19G21G22G27G32
  22266991.920   117013890.77208  22266995.180    91179688.28746
  23792004.880   125027840.98705  23792008.020    97424311.39344
  24478130.440   128633441.96605  24478132.880   100233859.01141
  21782359.020   114467093.81208  21782360.960    89195154.80648
  22812870.180   119882496.07108  22812871.620    93414968.52546
  21147221.100   111129439.52908  21147221.280    86594382.47949
  24914992.340   130929378.16905  24914993.800   102023016.98044
  20708336.680   108823120.52709  20708336.540    84797266.58949
  20314861.320   106755344.87209  20314865.200    83186020.82749
  23305631.480   122471941.94306  23305635.080    95432716.98945
 15 03 01 02 34 30.0000000  0 10G04G11G14G16G18G19G21G22G27G32
  22253858.080   116944871.73008  22253861.180    91125907.26246
  23775449.460   124940841.98806  23775452.640    97356520.02344
  24463549.500   128556820.20205  24463552.320   100174153.74444
  21797610.960   114547243.19208  21797612.900    89257608.85048
  22826706.840   119955207.91308  22826708.260    93471627.09746
  21137627.500   111079024.82908  21137627.660    86555098.30949
  24928220.980   130998894.24005  24928222.120   102077185.36044
  20711803.160   108841336.95009  20711803.000    84811461.21249
  20313460.240   106747982.31209  20313464.140    83180283.76549
  23284072.860   122358651.25806  23284076.540    95344438.59046
 15 03 01 02 35  0.0000000  0 10G04G11G14G16G18G19G21G22G27G32
  22240765.480   116876069.58708  22240768.520    91072295.24446
  23758909.780   124853925.12106  23758912.960    97288792.63444
  24448979.160   128480255.11304  24448982.460   100114492.63043
  21812935.940   114627776.25408  21812937.840    89320361.86848
  22840597.140   120028201.99008  22840598.560    93528505.59046
  21128082.440   111028865.11608  21128082.560    86516012.82949
  24941447.460   131068399.67805  24941448.460   102131345.37643
  20715365.940   108860059.17509  20715365.700    84826049.96549
  20312130.680   106740995.43009  20312134.580    83174839.44349
  23262549.640   122245547.03007  23262553.500    95256305.45245
 15 03 01 02 35 30.0000000  0 10G04G11G14G16G18G19G21G22G27G32
  22227713.660   116807482.03108  22227716.700    91018850.43546
  23742385.440   124767088.50306  23742388.580    97221127.79444
  24434419.800   128403747.52705  24434423.520   100054876.34145
  21828332.960   114708688.05008  21828334.820    89383409.99948
  22854540.360   120101474.10508  22854541.760    93585600.74146
  21118585.720   110978959.46508  21118585.800    86477125.32149
  24954671.340   131137892.02805  24954672.300   102185495.24844
  20719024.280   108879283.46909  20719023.920    84841029.93949
  20310872.400   106734382.99009  20310876.280    83169686.88649
  23241062.000   122132629.64107  23241066.040    95168317.89746
 15 03 01 02 36  0.0000000  0 10G04G11G14G16G18G19G21G22G27G32
  22214702.600   116739108.90108  22214705.740    90965572.70146
  23725876.380   124680332.16306  23725879.500    97153525.50745
  24419872.020   128327299.83005  24419876.000    99995306.71245
  21843801.520   114789975.66408  21843803.320    89446750.97648
  22868536.000   120175021.65808  22868537.380    93642910.52546
  21109137.600   110929309.26808  21109137.700    86438436.86149
  24967892.700   131207370.95905  24967893.840   102239634.68141
  20722777.880   108899008.50509  20722777.440    84856400.10749
  20309685.520   106728145.77209  20309689.380    83164826.72149
  23219610.440   122019901.39807  23219614.580    95080477.81445
 15 03 01 02 36 30.0000000  0 10G04G11G14G16G18G19G21G22G27G32
  22201732.600   116670951.81608  22201735.880    90912463.32146
  23709383.000   124593658.12506  23709386.080    97085987.35545
  24405336.600   128250915.80105  24405340.580    99935786.68144
  21859341.280   114871637.50708  21859343.020    89510383.55847
  22882583.820   120248843.59308  22882585.200    93700434.10646
  21099738.620   110879917.22609  21099738.720    86399949.56649
  24981111.640   131276837.55405  24981112.960   102293764.51843
  20726626.700   108919234.26709  20726626.220    84872160.44749
  20308570.540   106722286.16609  20308574.360    83160260.79249
  23198195.680   121907366.21407  23198199.840    94992788.22445
 15 03 01 02 37  0.0000000  0 10G04G11G14G16G18G19G21G22G27G32
  22188803.800   116603011.01308  22188807.140    90859522.47246
  23692905.320   124507066.91706  23692908.260    97018513.72545
  24390814.100   128174598.92305  24390818.020    99876319.01844
  21874951.760   114953670.90708  21874953.460    89574305.66847
  22896683.540   120322938.00808  22896684.920    93758170.01646
  21090389.040   110830784.81708  21090389.120    86361664.58349
  24994328.280   131346292.02305  24994329.660   102347884.89044
  20730570.680   108939960.31809  20730570.220    84888310.62349
  20307527.680   106716805.52909  20307531.460    83155990.16449
  23176818.060   121795026.41507  23176822.200    94905250.71845
 15 03 01 02 37 30.0000000  0 10G04G11G14G16G18G19G21G22G27G32
  22175916.000   116535285.54308  22175919.420    90806749.40546
  23676443.260   124420557.99006  23676446.140    96951104.20845
  24376304.940   128098351.04105  24376308.580    99816905.06444
  21890632.400   115036073.18408  21890634.100    89638515.21447
  22910834.480   120397301.97107  22910835.940    93816115.95346
  21081088.960   110781912.71408  21081089.060    86323582.43149
  25007542.420   131415732.79205  25007543.740   102401994.54143
  20734609.360   108961184.24808  20734609.020    84904848.75449
  20306556.940   106711704.11409  20306560.720    83152015.03849
  23155478.120   121682884.32807  23155482.240    94817867.31346
 15 03 01 02 38  0.0000000  0  9G04G11G14G16G18G19G22G27G32
  22163069.680   116467777.58608  22163073.080    90754145.83746
  23659997.120   124334133.04906  23659999.940    96883760.13544
  24361809.720   128022176.81105  24361813.320    99757548.55444
  21906382.980   115118843.31108  21906384.820    89703011.40348
  22925036.580   120471934.95107  22925038.100    93874271.52246
  21071839.080   110733304.26709  21071839.160    86285705.73149
  20738742.880   108982906.62009  20738742.680    84921775.28249
  20305658.880   106706984.72209  20305662.640    83148337.58949
  23134176.540   121570943.96207  23134180.620    94730641.09445
 15 03 01 02 38 30.0000000  0  9G04G11G14G16G18G19G22G27G32
  22150264.740   116400486.95408  22150268.120    90701711.60946
  23643567.140   124247793.19906  23643569.860    96816482.35945
  24347329.000   127946079.04705  24347332.440    99698251.62144
  21922202.980   115201977.80208  21922204.860    89767791.51347
  22939289.540   120546834.77208  22939291.040    93932635.01946
  21062639.620   110684960.86008  21062639.720    86248035.54749
  20742971.100   109005126.39508  20742971.020    84939089.39849
  20304833.680   106702648.31909  20304837.480    83144958.57049
  23112913.860   121459207.90807  23112917.720    94643574.08145
 15 03 01 02 39  0.0000000  0  9G04G11G14G16G18G19G22G27G32
  22137501.080   116333413.05508  22137504.400    90649446.28346
  23627153.240   124161537.92006  23627155.880    96749270.49444
  24332863.120   127870059.51205  24332866.360    99639015.62244
  21938091.660   115285473.15008  21938093.580    89832852.80347
  22953592.700   120621998.41407  22953594.280    93991204.09146
  21053490.680   110636883.04209  21053490.800    86210572.31949
  20747293.540   109027840.98309  20747293.500    84956789.08249
  20304081.380   106698695.02409  20304085.200    83141878.07849
  23091690.340   121347677.78107  23091694.080    94556667.57245
 15 03 01 02 39 30.0000000  0  9G04G11G14G16G18G19G22G27G32
  22124778.520   116266555.28308  22124781.740    90597349.35446
  23610755.360   124075366.74106  23610757.900    96682124.17545
  24318412.640   127794120.73905  24318415.620    99579842.58145
  21954048.520   115369326.57608  21954050.440    89898193.11547
  22967945.580   120697423.31307  22967947.240    94049976.73346
  21044392.340   110589071.12908  21044392.480    86173316.29149
  20751709.880   109051048.83309  20751709.800    84974873.12949
  20303402.080   106695125.45509  20303405.920    83139096.59749
  23070506.400   121236355.59807  23070510.000    94469923.10445
 15 03 01 02 40  0.0000000  0  9G04G11G14G16G18G19G22G27G32
  22112098.560   116199921.28108  22112101.660    90545426.79046
  23594374.900   123989287.67306  23594377.420    96615049.62144
  24303979.400   127718272.72605  24303982.040    99520740.26244
  21970074.400   115453542.92908  21970076.300    89963816.22447
  22982349.100   120773114.30607  22982350.800    94108956.72546
  21035346.400   110541534.46409  21035346.540    86136274.74149
  20756221.260   109074756.01409  20756221.100    84993346.26349
  20302797.400   106691947.97109  20302801.260    83136620.63049
  23049363.940   121125251.35507  23049367.460    94383348.42745
 15 03 01 02 40 30.0000000  0 10G01G04G11G14G16G18G19G22G27G32
  24575633.480   129145823.84504  24575641.940   100633144.76253
  22099458.320   116133496.34808  22099461.380    90493667.13746
  23578009.280   123903286.54506  23578011.800    96548035.80044
  24289561.120   127642503.94605  24289563.680    99461699.69144
  21986165.900   115538104.32208  21986167.760    90029708.19847
  22996800.080   120849054.57907  22996801.760    94168130.96246
  21026350.360   110494260.03708  21026350.500    86099437.53649
  20760824.620   109098946.58209  20760824.360    85012196.06649
  20302264.760   106689149.04209  20302268.640    83134439.64449
  23028260.580   121014352.95707  23028264.160    94296934.16445
 15 03 01 02 41  0.0000000  0 10G01G04G11G14G16G18G19G22G27G32
  24560344.540   129065478.64304  24560352.800   100570538.27144
  22086861.280   116067298.74808  22086864.400    90442084.62646
  23561662.000   123817381.81106  23561664.600    96481097.09145
  24275161.760   127566835.50005  24275164.360    99402737.25144
  22002325.960   115623026.34608  22002327.820    90095881.17947
  23011301.540   120925260.42307  23011303.220    94227512.14346
  21017407.940   110447267.31508  21017408.060    86062819.83849
  20765523.200   109123637.56309  20765522.820    85031435.79849
  20301807.820   106686747.80409  20301811.720    83132568.54549
  23007200.240   120903681.11107  23007204.000    94210696.43046
 15 03 01 02 41 30.0000000  0 10G01G04G11G14G16G18G19G22G27G32
  24545075.220   128985235.82004  24545083.320   100508011.52745
  22074304.280   116001311.67208  22074307.460    90390666.15446
  23545329.940   123731556.99206  23545332.680    96414220.67044
  24260778.240   127491250.95605  24260780.180    99343849.76344
  22018550.920   115708289.38108  22018552.800    90162319.88947
  23025849.840   121001712.40007  23025851.500    94287085.11046
  21008516.220   110400540.93508  21008516.320    86026409.67549
  20770313.420   109148810.34209  20770312.960    85051050.95849
  20301423.500   106684728.17509  20301427.380    83130994.80749
  22986180.220   120793221.21407  22986184.140    94124623.81846
 15 03 01 02 42  0.0000000  0 10G01G04G11G14G16G18G19G22G27G32
  24529826.560   128905102.27304  24529834.560   100445569.91144
  22061788.620   115935542.03908  22061791.840    90339417.12046
  23529014.680   123645819.70606  23529017.300    96347412.44744
  24246413.480   127415764.12605  24246415.720    99285028.87143
  22034841.440   115793896.95908  22034843.380    90229027.07547
  23040445.880   121078415.26307  23040447.520    94346853.57346
  20999676.700   110354088.92308  20999676.820    85990213.31749
  20775196.400   109174470.58309  20775195.920    85071045.95749
  20301113.320   106683098.21609  20301117.200    83129724.70749
  22965202.440   120682982.84607  22965206.480    94038723.83145
 15 03 01 02 42 30.0000000  0 10G01G04G11G14G16G18G19G22G27G32
  24514598.840   128825080.02004  24514606.820   100383215.03544
  22049314.800   115869991.91208  22049318.080    90288339.14446
  23512716.440   123560172.01106  23512718.980    96280674.04044
  24232067.960   127340377.83405  24232070.560    99226286.26744
  22051197.560   115879848.85308  22051199.520    90296002.56047
  23055089.600   121155368.88807  23055091.240    94406817.43346
  20990890.020   110307914.64008  20990890.140    85954233.35849
  20780172.240   109200618.70109  20780171.740    85091421.12149
  20300877.820   106681860.78909  20300881.760    83128760.47249
  22944267.740   120572970.54607  22944271.800    93953000.00545
 15 03 01 02 43  0.0000000  0 10G01G04G11G14G16G18G19G22G27G32
  24499392.020   128745167.48604  24499400.160   100320945.66844
  22036882.500   115804659.70008  22036885.720    90237430.97446
  23496435.100   123474612.67906  23496437.560    96214004.48644
  24217741.860   127265093.32805  24217744.520    99167623.03844
  22067618.340   115966140.27108  22067620.320    90363242.60848
  23069780.360   121232569.34807  23069782.000    94466973.63946
  20982156.200   110262018.19008  20982156.320    85918469.89849
  20785240.380   109227251.93309  20785239.920    85112174.29549
  20300716.880   106681015.28009  20300720.880    83128101.63649
  22923376.280   120463185.15207  22923380.380    93867452.99745
 15 03 01 02 43 30.0000000  0 10G01G04G11G14G16G18G19G22G27G32
  24484206.120   128665365.44304  24484214.160   100258762.36643
  22024491.860   115739546.36308  22024495.020    90186693.35047
  23480170.820   123389143.13706  23480173.320    96147404.90544
  24203435.820   127189914.30005  24203438.640    99109041.99344
  22084103.380   116052769.53408  22084105.400    90430745.91147
  23084517.840   121310015.02307  23084519.500    94527320.92146
  20973475.700   110216401.86208  20973475.800    85882924.71649
  20790400.700   109254369.70309  20790400.280    85133305.02649
  20300630.860   106680563.40209  20300634.860    83127749.52349
  22902528.720   120353629.88507  22902532.740    93782085.25346
 15 03 01 02 44  0.0000000  0 10G01G04G11G14G16G18G19G22G27G32
  24469041.300   128585673.79704  24469049.420   100196665.10644
  22012142.780   115674651.66508  22012145.900    90136126.09746
  23463923.620   123303763.59306  23463926.140    96080875.42744
  24189150.400   127114843.44806  24189153.300    99050545.23444
  22100652.200   116139734.03308  22100654.280    90498510.43347
  23099301.580   121387703.81807  23099303.260    94587857.63946
  20964848.680   110171066.84708  20964848.820    85847598.74149
  20795652.940   109281970.28709  20795652.500    85154811.97949
  20300619.940   106680506.01209  20300623.940    83127704.80349
  22881725.500   120244307.23807  22881729.380    93696898.79945
 15 03 01 02 44 30.0000000  0 10G01G04G11G14G16G18G19G22G27G32
  24453897.400   128506092.54104  24453905.460   100134653.83644
  21999835.340   115609975.89708  21999838.440    90085729.43646
  23447693.620   123218474.57006  23447696.200    96014416.50145
  24174886.180   127039883.35806  24174889.080    98992134.79245
  22117264.140   116227030.20208  22117266.200    90566533.41547
  23114131.200   121465633.72107  23114132.880    94648582.23946
  20956275.480   110126014.59308  20956275.660    85812493.09649
  20800996.780   109310052.46609  20800996.360    85176694.20349
  20300684.300   106680844.11609  20300688.260    83127968.25549
  22860967.000   120135219.65507  22860970.700    93611895.47146
 15 03 01 02 45  0.0000000  0 10G01G04G11G14G16G18G19G22G27G32
  24438774.520   128426621.92905  24438782.440   100072728.84642
  21987569.520   115545519.08708  21987572.720    90035503.38547
  23431480.980   123133276.77106  23431483.700    95948028.65145
  24160643.660   126965037.42506  24160646.500    98933813.27844
  22133938.780   116314655.92908  22133940.800    90634813.18347
  23129006.200   121543802.61207  23129007.960    94709493.06446
  20947756.440   110081246.79108  20947756.620    85777609.10349
  20806431.980   109338614.78409  20806431.580    85198950.55949
  20300824.120   106681578.82009  20300828.020    83128540.74949
  22840253.780   120026369.99207  22840257.260    93527077.58546
 15 03 01 02 45 30.0000000  0 10G01G04G11G14G16G18G19G22G27G32
  24423672.780   128347262.39405  24423680.440   100010890.36043
  21975345.440   115481281.79608  21975348.740    89985448.38246
  23415285.820   123048170.93306  23415288.640    95881712.45245
  24146423.520   126890309.02306  24146426.200    98875583.36345
  22150675.620   116402608.60408  22150677.600    90703347.71247
  23143926.380   121622208.69007  23143928.100    94770588.70946
  20939291.920   110036765.32708  20939292.060    85742948.23049
  20811958.300   109367656.00209  20811957.940    85221580.08349
  20301039.680   106682711.49809  20301043.540    83129423.35149
  22819586.240   119917761.07407  22819589.560    93442447.28845
 15 03 01 02 46  0.0000000  0 10G01G04G11G14G16G18G19G22G27G32
  24408592.420   128268015.26104  24408600.040    99949139.45344
  21963163.420   115417265.69508  21963166.900    89935565.74347
  23399108.500   122963159.07906  23399111.400    95815469.46745
  24132226.320   126815702.09906  24132229.080    98817448.13944
  22167474.400   116490886.65708  22167476.280    90772135.78747
  23158891.480   121700850.37207  23158893.060    94831867.94246
  20930882.380   109992572.97808  20930882.520    85708512.64449
  20817575.760   109397176.23509  20817575.460    85244582.86849
  20301331.400   106684244.44209  20301335.220    83130617.84749
  22798965.140   119809396.77507  22798968.440    93358007.57046
 15 03 01 02 46 30.0000000  0 10G01G04G11G14G16G18G19G22G27G32
  24393532.980   128188878.24404  24393540.600    99887474.39543
  21951022.980   115353468.06708  21951026.600    89885853.33047
  23382948.700   122878239.06106  23382951.700    95749298.06845
  24118052.380   126741217.38405  24118054.960    98759408.09344
  22184334.220   116579485.38108  22184336.040    90841173.72547
  23173900.660   121779723.95107  23173902.180    94893327.88646
  20922527.760   109948669.29508  20922527.960    85674301.99449
  20823283.700   109427171.84309  20823283.440    85267956.07449
  20301699.020   106686176.24309  20301702.860    83132123.14249
  22778390.520   119701277.28907  22778393.920    93273758.64946
 15 03 01 09 43  0.0000000  0  9G02G03G06G07G09G10G20G23G30
  23529062.420   123646057.37507  23529065.280    96347590.20944
  22815488.880   119896201.18507  22815498.620    93425652.58545
  20780760.620   109203633.33109  20780768.320    85093772.41948
  21385823.760   112383261.27208  21385829.120    87571394.85947
  20463637.840   107537142.12909  20463644.120    83795201.10448
  21300959.420   111937296.45008  21300964.740    87223889.79547
  20742410.680   109002103.63508  20742415.060    84936722.03248
  21696165.500   114014118.21008  21696168.640    88842182.89346
  23372878.860   122825307.61207  23372889.420    95708068.26145
 15 03 01 09 43 30.0000000  0  9G02G03G06G07G09G10G20G23G30
  23512394.900   123558469.16907  23512397.900    96279339.64545
  22828923.140   119966798.39507  22828932.740    93480663.21645
  20778637.400   109192475.77709  20778645.120    85085078.18848
  21372412.600   112312785.29508  21372418.040    87516478.54247
  20467252.940   107556139.38209  20467259.200    83810004.12148
  21289383.820   111876466.31608  21289389.160    87176489.67646
  20733154.340   108953461.42408  20733158.780    84898818.99247
  21707333.040   114072804.33108  21707336.280    88887912.25046
  23352401.000   122717695.96007  23352411.560    95624215.09744
 15 03 01 09 44  0.0000000  0  9G02G03G06G07G09G10G20G23G30
  23495782.160   123471168.84407  23495785.300    96211313.40144
  22842397.060   120037603.69507  22842406.500    93535835.99045
  20776626.380   109181908.01309  20776634.120    85076843.52448
  21359079.380   112242718.96108  21359084.840    87461881.42447
  20470925.220   107575437.16809  20470931.420    83825041.31148
  21277849.140   111815851.35508  21277854.520    87129257.23347
  20723947.120   108905077.22208  20723951.580    84861116.99248
  21718531.080   114131650.62308  21718534.420    88933766.40546
  23331949.480   122610223.06407  23331960.140    95540470.06245
 15 03 01 09 44 30.0000000  0  9G02G03G06G07G09G10G20G23G30
  23479225.260   123384162.16707  23479228.580    96143515.97045
  22855911.140   120108620.24707  22855920.480    93591173.39345
  20774728.360   109171933.95609  20774736.060    85069071.49448
  21345825.160   112173067.87808  21345830.600    87407607.87348
  20474655.060   107595037.50909  20474661.180    83840314.25849
  21266356.340   111755456.43908  21266361.660    87082196.24747
  20714789.900   108856955.79808  20714794.320    84823619.75448
  21729760.080   114190659.50008  21729763.440    88979747.25547
  23311525.540   122502895.00507  23311536.280    95456837.87045
 15 03 01 09 45  0.0000000  0  9G02G03G06G07G09G10G20G23G30
  23462725.880   123297457.93207  23462729.360    96075954.23245
  22869466.500   120179854.17607  22869476.020    93646680.18546
  20772944.640   109162560.50209  20772952.320    85061767.47448
  21332651.500   112103840.05008  21332656.920    87353664.13848
  20478443.420   107614945.46709  20478449.520    83855826.90849
  21254906.820   111695288.98608  21254912.080    87035312.50847
  20705684.260   108809105.13008  20705688.560    84786333.49448
  21741021.020   114249835.90508  21741024.340    89025858.65547
  23291130.920   122395720.73307  23291141.660    95373325.52945
 15 03 01 09 45 30.0000000  0  9G02G03G06G07G09G10G20G23G30
  23446283.000   123211050.42107  23446286.520    96008623.70345
  22883061.600   120251297.00807  22883071.360    93702349.74745
  20771273.780   109153779.98409  20771281.380    85054925.48748
  21319557.260   112035029.55508  21319562.600    87300045.59047
  20482288.540   107635151.50509  20482294.540    83871571.82948
  21243499.300   111635342.12708  21243504.460    86988600.66346
  20696628.860   108761518.41908  20696633.000    84749252.91748
  21752312.100   114309170.35608  21752315.300    89072093.21246
  23270764.520   122288694.74407  23270775.320    95289928.73345
 15 03 01 09 46  0.0000000  0  9G02G03G06G07G09G10G20G23G30
  23429898.120   123124947.95806  23429901.720    95941530.85144
  22896697.540   120322954.09107  22896707.460    93758186.25245
  20769716.920   109145598.47709  20769724.380    85048550.24848
  21306543.920   111966644.03608  21306549.100    87246758.19347
  20486191.200   107655659.87909  20486197.060    83887552.32548
  21232135.160   111575622.93208  21232140.100    86942066.20747
  20687625.000   108714202.51308  20687628.960    84712383.35048
  21763634.000   114368666.76108  21763637.000    89118453.95546
  23250427.880   122181825.20307  23250438.640    95206653.85345
 15 03 01 09 46 30.0000000  0  9G02G03G06G07G09G10G20G23G30
  23413571.460   123039150.66007  23413575.060    95874675.82245
  22910373.880   120394823.15207  22910383.920    93814187.93846
  20768273.760   109138014.48609  20768281.120    85042640.60848
  21293611.400   111898683.36308  21293616.520    87193801.84848
  20490150.720   107676467.15609  20490156.480    83903765.73449
  21220814.120   111516130.38408  21220818.980    86895708.36947
  20678672.560   108667156.96508  20678676.440    84675724.45548
  21774986.180   114428322.34108  21774989.040    89164938.72947
  23230121.060   122075112.75307  23230131.840    95123501.37345
 15 03 01 09 47  0.0000000  0  9G02G03G06G07G09G10G20G23G30
  23397303.140   122953659.80607  23397306.820    95808059.54845
  22924090.360   120466902.82107  22924100.500    93870353.72546
  20766944.140   109131027.16809  20766951.500    85037195.91348
  21280759.980   111831148.93208  21280765.120    87141177.64048
  20494166.660   107697570.96809  20494172.440    83920210.21249
  21209536.280   111456864.65908  21209541.120    86849527.28747
  20669771.620   108620382.07908  20669775.500    84639276.47148
  21786368.140   114488134.59308  21786370.980    89211545.57847
  23209844.400   121968558.88407  23209855.200    95040472.49945
 15 03 01 09 47 30.0000000  0  9G02G03G06G07G09G10G20G23G30
  23381093.560   122868477.68607  23381097.260    95741683.87645
  22937846.780   120539192.16407  22937856.880    93926682.89546
  20765728.020   109124636.34609  20765735.360    85032216.01548
  21267989.800   111764041.24308  21267994.860    87088885.95348
  20498238.680   107718969.31809  20498244.420    83936884.19948
  21198301.700   111397826.46908  21198306.480    86803523.49847
  20660922.400   108573878.84008  20660926.240    84603040.15748
  21797779.520   114548101.35308  21797782.280    89258272.82947
  23189598.260   121862165.59407  23189609.020    94957568.75745
 15 03 01 09 48  0.0000000  0  9G02G03G06G07G09G10G20G23G30
  23364943.620   122783609.40407  23364947.300    95675552.72745
  22951643.680   120611694.28507  22951653.520    93983177.83945
  20764626.160   109118845.78309  20764633.400    85027703.85148
  21255302.000   111697366.17808  21255306.900    87036931.37547
  20502367.120   107740664.19609  20502372.780    83953789.24848
  21187111.300   111339020.65908  21187116.000    86757700.79147
  20652125.780   108527652.24608  20652129.500    84567019.41548
  21809220.720   114608224.74708  21809223.320    89305122.12746
  23169383.820   121755938.82507  23169394.340    94874794.77946
 15 03 01 09 48 30.0000000  0  9G02G03G06G07G09G10G20G23G30
  23348853.460   122699054.85107  23348857.060    95609666.05845
  22965480.340   120684406.05907  22965490.080    94039836.15445
  20763638.040   109113653.04809  20763645.260    85023657.52448
  21242696.320   111631122.71508  21242701.140    86985313.11048
  20506551.180   107762651.44809  20506556.840    83970922.11849
  21175964.800   111280445.53208  21175969.500    86712057.83847
  20643381.440   108481700.32408  20643385.120    84531212.71048
  21820690.960   114668500.75308  21820693.480    89352090.33946
  23149201.080   121649878.41507  23149211.460    94792150.43645
 15 03 01 09 49  0.0000000  0  9G02G03G06G07G09G10G20G23G30
  23332823.680   122614817.89107  23332827.300    95544026.83246
  22979357.080   120757328.50707  22979366.780    94096658.63045
  20762763.960   109109059.71609  20762771.240    85020078.26148
  21230173.380   111565314.05008  21230178.200    86934033.65448
  20510790.880   107784931.03309  20510796.620    83988282.78349
  21164862.680   111222103.72408  21164867.480    86666596.69247
  20634689.940   108436026.01508  20634693.640    84495622.32948
  21832190.200   114728929.31708  21832192.780    89399177.43147
  23129050.780   121543988.22807  23129061.020    94709638.74445
 15 03 01 09 49 30.0000000  0  9G02G03G06G07G09G10G20G23G30
  23316854.620   122530899.73007  23316858.180    95478636.04745
  22993273.640   120830460.08507  22993283.380    94153644.06245
  20762003.780   109105064.87009  20762011.160    85016965.34549
  21217733.320   111499940.87808  21217738.180    86883093.53248
  20515085.680   107807500.36709  20515091.540    84005869.23249
  21153805.020   111163995.38908  21153809.920    86621317.47447
  20626051.300   108390629.63108  20626055.060    84460248.52048
  21843717.980   114789507.80008  21843720.680    89446381.35047
  23108933.180   121438269.65307  23108943.300    94627260.77646
 15 03 01 09 50  0.0000000  0  9G02G03G06G07G09G10G20G23G30
  23300946.660   122447302.65507  23300950.220    95413495.44445
  23007230.020   120903800.55607  23007239.900    94210792.29045
  20761357.560   109101668.85809  20761365.040    85014319.05148
  21205376.460   111435005.10908  21205381.380    86832494.24848
  20519435.420   107830358.18109  20519441.340    84023680.47749
  21142792.100   111106121.98308  21142797.040    86576221.31447
  20617465.840   108345512.69508  20617469.660    84425092.45648
  21855274.140   114850235.43908  21855277.000    89493701.49247
  23088848.760   121332725.39507  23088858.820    94545018.62245
 15 03 01 09 50 30.0000000  0  9G02G03G06G07G09G10G20G23G30
  23285100.600   122364030.99807  23285104.200    95348608.41845
  23021226.500   120977351.50907  23021236.460    94268104.51846
  20760825.740   109098873.85209  20760833.280    85012141.06848
  21193103.500   111370510.58708  21193108.520    86782238.78248
  20523840.180   107853505.02009  20523846.140    84041716.93249
  21131824.500   111048486.64308  21131829.420    86531310.65747
  20608934.080   108300678.24108  20608938.000    84390156.51548
  21866858.700   114911112.39508  21866861.660    89541137.99346
  23068798.340   121227359.93107  23068808.460    94462915.79546
 15 03 01 09 51  0.0000000  0  9G02G03G06G07G09G10G20G23G30
  23269316.540   122281085.50807  23269320.280    95283975.55645
  23035262.700   121051110.84207  23035272.720    94325579.12746
  20760407.960   109096678.23809  20760415.560    85010430.14748
  21180914.520   111306457.45308  21180919.640    86732327.26048
  20528299.320   107876937.72809  20528305.340    84059976.14649
  21120902.060   110991088.83108  21120907.000    86486585.09347
  20600456.060   108256126.35808  20600460.120    84355440.74848
  21878471.100   114972135.65608  21878474.100    89588688.49447
  23048782.100   121122174.07507  23048792.260    94380952.91546
 15 03 01 09 51 30.0000000  0  9G02G03G06G07G09G10G20G23G30
  23253595.200   122198469.62407  23253599.080    95219599.54146
  23049338.680   121125079.30807  23049348.760    94383216.68646
  20760104.500   109095083.29809  20760112.160    85009187.27749
  21168810.100   111242848.51808  21168815.320    86682761.87048
  20532812.820   107900656.03909  20532818.920    84078457.91449
  21110025.260   110933930.95808  21110030.300    86442046.48748
  20592032.280   108211859.31308  20592036.460    84320946.93248
  21890111.340   115033305.29608  21890114.420    89636353.06947
  23028800.780   121017171.48707  23028810.940    94299132.83346
 15 03 01 09 52  0.0000000  0  9G02G03G06G07G09G10G20G23G30
  23237937.000   122116185.03307  23237940.920    95155481.67146
  23063454.160   121199255.67307  23063464.560    94441016.25046
  20759915.240   109094088.34609  20759922.960    85008411.93949
  21156790.380   111179684.63408  21156795.760    86633543.28148
  20537380.240   107924657.73009  20537386.440    84097160.50249
  21099194.220   110877013.63208  21099199.380    86397695.32848
  20583662.900   108167877.77708  20583667.160    84286675.60448
  21901779.040   115094619.10608  21901782.220    89684129.98347
  23008854.680   120912353.97207  23008864.900    94217456.97246
 15 03 01 09 52 30.0000000  0  9G02G03G06G07G09G10G20G23G30
  23222342.360   122034234.58907  23222346.360    95091624.16445
  23077609.260   121273640.33507  23077619.940    94498978.10746
  20759840.360   109093694.25509  20759848.140    85008104.79049
  21144855.880   111116968.45808  21144861.380    86584673.54448
  20542001.440   107948942.17109  20542007.780    84116083.39849
  21088409.360   110820338.80508  21088414.620    86353533.12548
  20575348.320   108124183.94408  20575352.640    84252628.44248
  21913474.000   115156076.46708  21913477.420    89732018.74247
  22988944.360   120807724.82607  22988954.720    94135927.87046
 15 03 01 09 53  0.0000000  0  9G02G03G06G07G09G10G20G23G30
  23206812.360   121952623.26207  23206816.380    95028030.92946
  23091804.440   121348235.29607  23091815.180    94557103.84445
  20759880.280   109093903.43209  20759888.100    85008267.72949
  21133007.440   111054704.54808  21133013.060    86536156.23748
  20546676.620   107973510.34509  20546683.080    84135227.39849
  21077671.360   110763910.09508  21077676.680    86309562.70248
  20567089.160   108080781.35508  20567093.520    84218808.23148
  21925196.500   115217678.61808  21925200.120    89780020.34247
  22969070.780   120703288.93107  22969081.340    94054549.37346
 15 03 01 09 53 30.0000000  0  9G02G03G06G07G09G10G20G23G30
  23191346.420   121871348.99407  23191350.440    94964700.32446
  23106038.720   121423035.93007  23106049.400    94615389.84446
  20760034.160   109094711.79109  20760042.020    85008897.55348
  21121244.440   110992889.71008  21121250.120    86487988.84948
  20551404.780   107998356.64909  20551411.220    84154588.11449
  21066979.660   110707724.74008  21066985.020    86265781.89647
  20558884.860   108037667.27308  20558889.240    84185212.82848
  21936945.520   115279419.88508  21936949.240    89828130.33647
  22949233.620   120599044.70007  22949244.320    93973320.20146
 15 03 01 09 54  0.0000000  0  9G02G03G06G07G09G10G20G23G30
  23175945.800   121790418.25007  23175949.840    94901637.41346
  23120312.760   121498045.74207  23120323.420    94673838.82646
  20760302.760   109096123.16409  20760310.660    85009997.25849
  21109567.980   110931529.77508  21109573.680    86440175.92748
  20556186.300   108023483.54909  20556192.740    84174167.47549
  21056335.240   110651787.71008  21056340.600    86222194.59347
  20550736.480   107994847.14508  20550740.840    84151846.47648
  21948721.600   115341303.05408  21948725.280    89876350.90847
  22929434.120   120494998.53507  22929444.920    93892245.35746
 15 03 01 09 54 30.0000000  0  9G02G03G06G07G09G10G20G23G30
  23160610.380   121709830.14307  23160614.460    94838841.48746
  23134625.920   121573261.26907  23134636.600    94732448.09546
  20760685.520   109098134.53409  20760693.440    85011564.48949
  21097977.840   110870623.32308  21097983.480    86392716.37048
  20561020.380   108048886.64809  20561026.800    84193962.05349
  21045737.760   110596097.56308  21045743.120    86178799.67048
  20542643.700   107952319.29108  20542648.040    84118707.87048
  21960523.880   115403323.91508  21960527.520    89924678.77047
  22909672.200   120391149.95807  22909683.040    93811324.47446
 15 03 01 09 55  0.0000000  0  9G02G03G06G07G09G10G20G23G30
  23145340.900   121629588.44707  23145344.980    94776315.49246
  23148978.440   121648683.64306  23148989.200    94791218.54846
  20761182.720   109100747.42209  20761190.660    85013600.44449
  21086474.680   110810173.80908  21086480.260    86345612.87748
  20565907.000   108074566.10109  20565913.420    84213971.97649
  21035187.780   110540657.07308  21035193.100    86135599.27548
  20534607.140   107910086.69408  20534611.440    84085799.33949
  21972352.340   115465482.60608  21972356.020    89973114.04347
  22889948.680   120287503.06507  22889959.520    93730560.76046
 15 03 01 09 55 30.0000000  0  9G02G03G06G07G09G10G20G23G30
  23130138.380   121549698.28907  23130142.480    94714063.42446
  23163370.680   121724315.07206  23163381.780    94850151.89046
  20761794.880   109103964.35309  20761802.920    85016107.07248
  21075059.280   110750185.40608  21075064.840    86298868.69448
  20570846.420   108100523.12309  20570852.960    84234198.17349
  21024686.060   110485470.18308  21024691.420    86092596.49048
  20526627.520   107868153.30808  20526631.820    84053123.94948
  21984207.260   115527780.45008  21984211.060    90021657.73647
  22870264.640   120184063.02307  22870275.380    93649958.23246
 15 03 01 09 56  0.0000000  0  9G02G03G06G07G09G10G20G23G30
  23115002.080   121470155.89707  23115006.160    94652082.34146
  23177801.400   121800149.02806  23177812.880    94909243.02946
  20762520.860   109107779.16109  20762528.940    85019079.58548
  21063730.800   110690653.68108  21063736.300    86252480.36648
  20575837.260   108126750.18009  20575843.880    84254634.79849
  21014231.660   110430531.95608  21014237.040    86049787.46947
  20518703.920   107826514.41708  20518708.260    84020678.04748
  21996087.320   115590210.14508  21996091.140    90070304.17647
  22850619.400   120080826.26207  22850629.900    93569514.11346
 15 03 01 09 56 30.0000000  0  9G02G03G06G07G09G10G20G23G30
  23099933.200   121390967.94907  23099937.240    94590377.44446
  23192271.560   121876189.66806  23192283.320    94968495.23945
  20763361.480   109112196.32409  20763369.600    85022521.46448
  21052490.420   110631584.94108  21052495.860    86206452.80548
  20580880.140   108153250.53609  20580886.800    84275284.38349
  21003825.720   110375848.37808  21003831.160    86007176.87447
  20510837.560   107785176.27708  20510841.920    83988466.49948
  22007993.220   115652775.41508  22007996.960    90119056.26946
  22831014.220   119977799.90707  22831024.440    93489233.94945
 15 03 01 09 57  0.0000000  0  9G02G03G06G07G09G10G20G23G30
  23084932.240   121312137.23507  23084936.300    94528950.90846
  23206781.080   121952436.91106  23206793.020    95027908.45145
  20764316.820   109117216.14409  20764324.920    85026432.94848
  21041338.460   110572981.14308  21041343.860    86160787.53248
  20585974.880   108180023.19709  20585981.520    84296146.14948
  20993468.620   110321421.32108  20993474.040    85964766.16647
  20503028.600   107744140.12608  20503033.020    83956490.26348
  22019924.640   115715474.85908  22019928.340    90167912.90546
  22811449.580   119874986.90907  22811459.520    93409120.03346
 15 03 01 09 57 30.0000000  0  9G02G03G06G07G09G10G20G23G30
  23069999.540   121233665.52507  23070003.580    94467804.10446
  23221329.800   122028889.65806  23221341.740    95087481.81345
  20765386.640   109122837.64909  20765394.700    85030813.27548
  21030275.140   110514843.13608  21030280.480    86115485.20948
  20591121.040   108207065.99009  20591127.640    84317218.41348
  20983160.440   110267251.30108  20983165.800    85922555.74547
  20495277.340   107703407.07908  20495281.740    83924750.21048
  22031881.220   115778306.56408  22031884.840    90216872.60146
  22791925.760   119772389.02807  22791935.580    93329173.74146
 15 03 01 09 58  0.0000000  0  9G02G03G06G07G09G10G20G23G30
  23055135.600   121155555.67307  23055139.700    94406939.27345
  23235917.620   122105548.00806  23235929.440    95147215.36946
  20766571.040   109129061.33509  20766579.060    85035662.84748
  21019300.880   110457173.13408  21019306.120    86070547.56148
  20596318.460   108234378.20409  20596324.960    84338500.61148
  20972901.480   110213340.03208  20972906.800    85880546.95147
  20487584.120   107662978.99808  20487588.440    83893247.79148
  22043862.880   115841270.09808  22043866.420    90265935.01346
  22772443.360   119670009.48407  22772453.220    93249397.56746
 15 03 01 09 58 30.0000000  0  9G02G03G06G07G09G10G20G23G30
  23040341.000   121077810.04607  23040345.060    94346358.25046
  23250544.500   122182411.63806  23250556.200    95207108.90845
  20767869.980   109135887.04809  20767877.960    85040981.53348
  21008416.060   110399972.99209  21008421.240    86025976.04148
  20601566.840   108261958.53309  20601573.280    84359991.73349
  20962692.040   110159689.13108  20962697.340    85838741.03647
  20479949.280   107622857.49608  20479953.520    83861984.26948
  22055869.400   115904364.23208  22055872.840    90315099.18946
  22753002.900   119567850.81407  22753013.000    93169793.49246
 15 03 01 09 59  0.0000000  0  9G02G03G06G07G09G10G20G23G30
  23025616.020   121000430.06607  23025620.060    94286062.15446
  23265210.180   122259479.30806  23265221.740    95267161.44646
  20769283.260   109143313.76409  20769291.240    85046768.53949
  20997620.780   110343243.35508  20997625.920    85981771.14748
  20606865.820   108289804.80509  20606872.240    84381690.08649
  20952532.240   110106299.08708  20952537.520    85797138.39248
  20472372.920   107583043.26908  20472377.100    83830960.18448
  22067900.420   115967587.18208  22067903.780    90364363.73647
  22733604.800   119465914.83407  22733615.260    93090362.95346
 15 03 01 09 59 30.0000000  0  9G02G03G06G07G09G10G20G23G30
  23010961.020   120923417.50607  23010965.060    94226052.35646
  23279914.460   122336749.77806  23279925.900    95327372.00545
  20770810.720   109151340.50209  20770818.720    85053023.09749
  20986915.160   110286984.97608  20986920.300    85937933.46848
  20612215.000   108317914.98309  20612221.440    84403594.08049
  20942422.180   110053170.56808  20942427.460    85755739.53848
  20464855.120   107543536.76608  20464859.220    83800175.87948
  22079955.580   116030937.06808  22079958.900    90413727.19247
  22714249.520   119364203.38107  22714260.220    93011107.36946
 15 03 01 10 00  0.0000000  0  9G02G03G06G07G09G10G20G23G30
  22996376.380   120846774.36107  22996380.360    94166330.41147
  23294657.260   122414222.62506  23294668.600    95387740.28146
  20772452.300   109159966.99709  20772460.300    85059744.99949
  20976299.440   110231199.35608  20976304.640    85894464.15648
  20617614.180   108346287.63709  20617620.600    84425702.59849
  20932362.180   110000304.93008  20932367.440    85714545.52048
  20457396.160   107504339.61708  20457400.240    83769632.63848
  22092034.600   116094412.49208  22092037.940    90463188.45847
  22694937.620   119262718.91607  22694948.340    92932028.67446
 15 03 01 10 00 30.0000000  0  9G02G03G06G07G09G10G20G23G30
  22981862.540   120770503.23307  22981866.460    94106898.35146
  23309438.440   122491897.26706  23309449.720    95448265.77145
  20774207.940   109169192.82209  20774215.940    85066933.91448
  20965773.920   110175887.81708  20965779.200    85851364.26548
  20623063.040   108374921.32909  20623069.460    84448014.51949
  20922352.480   109947703.51708  20922357.740    85673557.39448
  20449996.260   107465452.97208  20450000.380    83739331.34448
  22104137.240   116158012.23408  22104140.640    90512746.59047
  22675669.540   119161463.90008  22675679.980    92853128.77246
 15 03 01 10 01  0.0000000  0  9G02G03G06G07G09G10G20G23G30
  22967420.580   120694610.17907  22967424.440    94047760.89246
  23324258.720   122569777.35806  23324269.980    95508951.36045
  20776078.360   109179021.77209  20776086.320    85074592.79748
  20955339.740   110121056.16708  20955345.080    85808638.31548
  20628562.060   108403818.76709  20628568.460    84470531.96249
  20912394.000   109895371.48508  20912399.280    85632779.18747
  20442656.540   107426882.55408  20442660.720    83709276.46648
  22116264.140   116221739.31108  22116267.560    90562403.95546
  22656446.500   119060444.94708  22656456.520    92774412.82446
 15 03 01 10 01 30.0000000  0  9G02G03G06G07G09G10G20G23G30
  22953050.420   120619094.50807  22953054.220    93988917.51346
  23339117.420   122647859.35006  23339128.680    95569794.28045
  20778062.940   109189450.46609  20778070.800    85082719.01748
  20944996.620   110066702.86208  20945001.960    85766285.09248
  20634110.480   108432975.65309  20634116.820    84493251.57148
  20902486.500   109843307.45508  20902491.760    85592209.81347
  20435376.680   107388626.58708  20435380.860    83679466.61848
  22128414.400   116285589.58208  22128417.920    90612157.30446
  22637268.280   118959661.61207  22637277.820    92695880.47146
 15 03 01 10 02  0.0000000  0  9G02G03G06G07G09G10G20G23G30
  22938752.880   120543960.50407  22938756.620    93930371.53245
  23354014.780   122726144.92406  23354026.080    95630795.81146
  20780162.000   109200480.60409  20780169.740    85091313.88548
  20934745.240   110012831.52308  20934750.520    85724307.42948
  20639708.400   108462392.71109  20639714.640    84516173.90848
  20892630.720   109791515.02408  20892635.920    85551852.06847
  20428157.420   107350688.92808  20428161.520    83649904.79748
  22140588.340   116349564.16808  22140591.900    90662007.52846
  22618135.640   118859118.48507  22618144.860    92617535.28846
 15 03 01 10 02 30.0000000  0  9G02G03G06G07G09G10G20G23G30
  22924528.080   120469208.56507  22924531.700    93872123.26846
  23368950.340   122804631.47706  23368961.740    95691953.96845
  20782375.040   109212109.73209  20782382.700    85100375.50748
  20924585.560   109959441.55608  20924590.660    85682704.85948
  20645355.180   108492066.51209  20645361.300    84539296.31248
  20882826.500   109739993.29808  20882831.580    85511705.26147
  20420998.540   107313068.62308  20421002.540    83620590.26248
  22152785.360   116413659.51008  22152788.860    90711951.84446
  22599048.620   118758816.04607  22599057.740    92539377.64446
 15 03 01 10 03  0.0000000  0  9G02G03G06G07G09G10G20G23G30
  22910376.940   120394843.59107  22910380.420    93814176.52346
  23383924.540   122883321.24606  23383936.060    95753270.45745
  20784702.460   109224340.14909  20784710.080    85109905.65548
  20914518.260   109906537.00608  20914523.160    85641480.54348
  20651051.060   108521998.49009  20651057.140    84562619.88448
  20873074.560   109688746.33608  20873079.540    85471772.54947
  20413900.760   107275769.44308  20413904.700    83591525.95548
  22165005.720   116477877.36208  22165009.160    90761991.63146
  22580008.160   118658759.50807  22580017.500    92461411.61146
 15 03 01 10 03 30.0000000  0  9G02G03G06G07G09G10G20G23G30
  22896299.560   120320866.25307  22896303.000    93756531.84446
  23398937.000   122962212.22406  23398948.740    95814743.73245
  20787143.920   109237169.88809  20787151.520    85119902.81048
  20904543.260   109854117.72808  20904548.040    85600634.35548
  20656795.560   108552185.74109  20656801.600    84586142.37648
  20863374.900   109637773.94308  20863379.820    85432053.79147
  20406864.200   107238792.01508  20406868.100    83562712.36548
  22177248.880   116542215.01108  22177252.300    90812124.76146
  22561014.620   118558949.94207  22561024.340    92383638.01546
 15 03 01 10 04  0.0000000  0  9G02G03G06G07G09G10G20G23G30
  22882295.820   120247275.84707  22882299.240    93699188.67546
  23413987.200   123041300.99106  23413998.920    95876371.12045
  20789698.720   109250595.46809  20789706.360    85130364.26148
  20894660.280   109802182.20508  20894665.000    85560165.12448
  20662587.820   108582623.98109  20662593.880    84609860.44148
  20853727.200   109587074.66408  20853732.100    85392547.84948
  20399888.500   107202134.57208  20399892.440    83534148.11548
  22189514.120   116606668.59608  22189517.480    90862348.23646
  22542068.080   118459386.85507  22542078.100    92306056.47646
 15 03 01 10 04 30.0000000  0  9G02G03G06G07G09G10G20G23G30
  22868366.520   120174076.60107  22868369.960    93642150.29946
  23429075.480   123120588.83006  23429087.200    95938153.64246
  20792367.140   109264618.30909  20792374.900    85141291.10948
  20884869.980   109750733.83908  20884874.700    85520075.49448
  20668427.960   108613313.77209  20668434.040    84633774.52449
  20844132.100   109536651.89208  20844137.020    85353257.36548
  20392974.340   107165800.47108  20392978.380    83505835.81348
  22201801.560   116671238.79408  22201804.880    90912662.57746
  22523169.500   118360074.64607  22523179.600    92228670.42847
 15 03 01 10 05  0.0000000  0  9G02G03G06G07G09G10G20G23G30
  22854512.300   120101271.86007  22854515.740    93585419.32446
  23444201.800   123200076.43606  23444213.400    96000091.78746
  20795149.340   109279239.00009  20795157.220    85152683.81048
  20875172.820   109699775.12908  20875177.620    85480367.41948
  20674315.920   108644254.89809  20674322.020    84657884.45649
  20834590.060   109486507.94108  20834595.000    85314184.14448
  20386122.200   107129792.14608  20386126.320    83477777.36149
  22214111.160   116735925.50308  22214114.560    90963067.70346
  22504319.580   118261016.92008  22504329.520    92151482.67747
 15 03 01 10 05 30.0000000  0  9G02G03G06G07G09G10G20G23G30
  22840733.720   120028865.20907  22840737.260    93528998.56546
  23459366.240   123279764.59006  23459377.720    96062186.22346
  20798045.480   109294458.30009  20798053.420    85164542.96249
  20865569.360   109649308.69808  20865574.240    85441042.94448
  20680251.660   108675447.36709  20680257.840    84682190.23349
  20825101.600   109436645.64008  20825106.620    85275330.39748
  20379332.600   107094112.48608  20379336.760    83449975.01249
  22226443.000   116800729.11608  22226446.440    91013563.92646
  22485518.900   118162217.51508  22485528.540    92074496.21947
 15 03 01 10 06  0.0000000  0  9G02G03G06G07G09G10G20G23G30
  22827031.040   119956857.65807  22827034.760    93472888.80747
  23474568.520   123359651.72306  23474579.920    96124435.69745
  20801055.240   109310274.64609  20801063.240    85176867.34649
  20856059.620   109599334.74609  20856064.580    85402102.21848
  20686234.780   108706888.88809  20686241.040    84706690.08449
  20815666.820   109387065.52808  20815671.920    85236696.53948
  20372605.580   107058761.66808  20372609.740    83422428.90449
  22238796.620   116865647.60608  22238800.180    91064149.66146
  22466767.640   118063677.97808  22466776.940    91997712.24947
 15 03 01 10 06 30.0000000  0  9G02G03G06G07G09G10G20G23G30
  22813405.060   119885252.90907  22813408.880    93417092.91246
  23489808.740   123439738.76006  23489820.140    96186840.91545
  20804178.820   109326688.80509  20804186.820    85189657.55749
  20846644.100   109549855.86709  20846649.120    85363547.27248
  20692265.300   108738579.49009  20692271.640    84731384.02949
  20806286.160   109337769.99008  20806291.320    85198284.42448
  20365941.720   107023742.63208  20365945.860    83395141.33149
  22251172.120   116930681.08808  22251175.820    91114824.99647
  22448066.420   117965402.19608  22448075.540    91921133.80847
 15 03 01 10 07  0.0000000  0  9G02G03G06G07G09G10G20G23G30
  22799856.020   119814052.37907  22799859.860    93361611.98346
  23505086.700   123520024.39406  23505098.140    96249400.91145
  20807415.920   109343699.41709  20807423.860    85202912.53348
  20837322.960   109500872.87509  20837328.000    85325378.72948
  20698342.860   108770517.13109  20698349.200    84756270.46849
  20796959.840   109288759.92108  20796965.040    85160094.75348
  20359341.120   106989056.05008  20359345.260    83368112.80949
  22263569.160   116995827.78108  22263572.980    91165588.54747
  22429415.540   117867391.91407  22429424.700    91844762.24847
 15 03 01 10 07 30.0000000  0  9G02G03G06G07G09G10G20G23G30
  22786384.200   119743257.64207  22786387.980    93306447.25946
  23520402.200   123600507.23206  23520413.720    96312114.56245
  20810766.240   109361304.98709  20810774.140    85216631.10948
  20828096.240   109452386.26008  20828101.280    85287596.97448
  20704467.020   108802699.67509  20704473.380    84781347.74449
  20787687.920   109240035.68408  20787693.160    85122127.81448
  20352803.880   106954702.47508  20352808.020    83341343.78049
  22275987.340   117061085.90208  22275991.300    91216438.92046
  22410815.360   117769648.78308  22410824.700    91768598.84746
 15 03 01 10 08  0.0000000  0  9G02G03G06G07G09G10G20G23G30
  22772990.080   119672870.91107  22772993.760    93251600.46446
  23535755.280   123681186.91406  23535766.800    96374981.57045
  20814229.620   109379504.96909  20814237.500    85230812.86248
  20818964.180   109404397.29708  20818969.260    85250203.00248
  20710637.540   108835125.96609  20710643.940    84806614.94949
  20778470.700   109191599.04008  20778475.960    85084384.96748
  20346330.320   106920683.67408  20346334.440    83314835.61148
  22288426.540   117126454.42608  22288430.640    91267375.32646
  22392266.520   117672175.49708  22392276.080    91692645.71147
 15 03 01 10 08 30.0000000  0  9G02G03G06G07G09G10G20G23G30
  22759673.740   119602893.22207  22759677.440    93197072.40546
  23551145.520   123762061.92306  23551157.060    96438000.81845
  20817805.780   109398297.76209  20817813.660    85245456.54648
  20809926.840   109356906.16208  20809931.920    85213196.94748
  20716854.020   108867793.81809  20716860.440    84832070.38548
  20769308.320   109143450.33208  20769313.520    85046866.49448
  20339920.560   106887000.02408  20339924.640    83288588.59748
  22300886.500   117191931.61608  22300890.620    91318396.42346
  22373769.460   117574973.50008  22373779.100    91616903.97947
 15 03 01 10 09  0.0000000  0  9G02G03G06G07G09G10G20G23G30
  22746435.820   119533327.48807  22746439.480    93142865.33346
  23566572.900   123843132.16706  23566584.520    96501172.16045
  20821494.660   109417682.99709  20821502.540    85260561.87048
  20800984.580   109309914.65808  20800989.700    85176580.21748
  20723116.280   108900702.22409  20723122.720    84857713.26248
  20760201.060   109095591.46808  20760206.240    85009573.87648
  20333574.900   106853653.26608  20333578.940    83262604.10448
  22313367.060   117257516.83608  22313371.160    91369501.67946
  22355324.740   117478045.71908  22355334.320    91541375.91547
 15 03 01 10 09 30.0000000  0  9G02G03G06G07G09G10G20G23G30
  22733276.940   119464177.01207  22733280.460    93088981.84446
  23582037.620   123924398.42206  23582049.360    96564496.23844
  20825296.420   109437661.35109  20825304.320    85276129.36648
  20792137.960   109263425.59508  20792143.060    85140354.99648
  20729424.380   108933851.40809  20729430.800    84883543.76348
  20751149.560   109048025.45408  20751154.720    84972509.45448
  20327293.860   106820646.11308  20327297.840    83236884.23448
  22325868.260   117323210.39508  22325872.240    91420691.36646
  22336933.040   117381396.03908  22336942.420    91466064.56146
 15 03 01 10 10  0.0000000  0  9G02G03G06G07G09G10G20G23G30
  22720197.520   119395443.91208  22720200.920    93035423.58245
  23597539.500   124005859.94506  23597551.280    96627972.47545
  20829210.880   109458231.78609  20829218.780    85292158.21948
  20783387.160   109217439.77509  20783392.200    85104521.91648
  20735778.020   108967239.79109  20735784.420    84909560.64548
  20742154.020   109000753.43309  20742159.080    84935674.12148
  20321077.620   106787979.62208  20321081.540    83211429.81348
  22338389.820   117389011.01408  22338393.700    91471964.47646
  22318594.680   117285026.69508  22318603.860    91390971.64747
 15 03 01 10 10 30.0000000  0  9G02G03G06G07G09G10G20G23G30
  22707198.260   119327132.14807  22707201.600    92982193.63846
  23613078.780   124087518.17006  23613090.680    96691602.01545
  20833238.260   109479395.58209  20833246.200    85308649.42748
  20774732.720   109171960.25808  20774737.680    85069083.35348
  20742177.300   109000868.15809  20742183.720    84935764.52748
  20733215.020   108953778.56008  20733220.000    84899070.32948
  20314926.980   106755657.80408  20314930.880    83186243.97048
  22350931.960   117454919.54008  22350935.740    91523321.65646
  22300310.380   117188942.20008  22300319.480    91316100.70846
 15 03 01 10 11  0.0000000  0  9G02G03G06G07G09G10G20G23G30
  22694279.200   119259241.80908  22694282.520    92929292.07146
  23628654.860   124169370.21106  23628666.980    96755382.58745
  20837377.960   109501149.57409  20837385.900    85325600.52448
  20766174.400   109126985.85609  20766179.320    85034038.38648
  20748621.580   109034732.92009  20748628.000    84962152.61048
  20724332.420   108907100.09008  20724337.380    84862697.50548
  20308841.740   106723679.57608  20308845.620    83161325.86048
  22363494.040   117520932.92008  22363497.720    91574760.55146
  22282080.180   117093142.69008  22282089.280    91241451.81947
 15 03 01 10 11 30.0000000  0  9G02G03G06G07G09G10G20G23G30
  22681440.780   119191775.42008  22681444.140    92876720.86746
  23644267.900   124251416.10506  23644280.160    96819314.19245
  20841629.960   109523493.46909  20841637.880    85343011.29048
  20757712.540   109082518.59208  20757717.460    84999388.59448
  20755110.740   109068833.34509  20755117.140    84988724.33348
  20715506.600   108860720.10408  20715511.600    84826557.26648
  20302822.240   106692046.88708  20302826.140    83136677.00248
  22376075.980   117587050.70408  22376079.620    91626280.79446
  22263904.700   116997631.25408  22263913.900    91167027.39347
 15 03 01 10 12  0.0000000  0  9G02G03G06G07G09G10G20G23G30
  22668683.480   119124735.54808  22668686.900    92824482.01146
  23659917.800   124333655.25006  23659930.120    96883396.41845
  20845994.080   109546426.48109  20846001.980    85360881.10048
  20749347.340   109038559.45108  20749352.320    84965134.74048
  20761644.520   109103168.25409  20761650.920    85015478.76549
  20706737.820   108814639.89808  20706742.860    84790650.62348
  20296868.740   106660761.07508  20296872.700    83112298.43548
  22388677.540   117653271.84408  22388681.200    91677881.57846
  22245784.500   116902410.33408  22245793.840    91092829.34646
 15 03 01 10 12 30.0000000  0  9G02G03G06G07G09G10G20G23G30
  22656007.500   119058122.85508  22656010.900    92772576.02746
  23675604.300   124416086.38006  23675616.620    96947628.21545
  20850469.940   109569946.91609  20850477.860    85379208.64649
  20741078.880   108995108.64409  20741083.900    84931276.98948
  20768222.520   109137735.63009  20768228.940    85042414.33749
  20698026.300   108768860.41308  20698031.320    84754978.30648
  20290981.440   106629823.01308  20290985.440    83088190.84249
  22401298.460   117719594.63808  22401302.160    91729561.57546
  22227720.000   116807481.64208  22227729.400    91018859.01447
 15 03 01 10 13  0.0000000  0  9G02G03G06G07G09G10G20G23G30
  22643413.260   118991939.61907  22643416.600    92721004.66646
  23691327.140   124498708.67006  23691339.440    97012008.96345
  20855057.380   109594053.75609  20855065.340    85397993.12948
  20732907.420   108952167.33809  20732912.440    84897816.25148
  20774844.480   109172534.08409  20774850.940    85069529.97049
  20689372.200   108723382.86308  20689377.220    84719541.26748
  20285160.540   106599233.94308  20285164.600    83064355.19049
  22413938.500   117786018.05008  22413942.300    91781319.97746
  22209711.780   116712847.51808  22209721.100    90945118.21647
 15 03 01 10 13 30.0000000  0  9G02G03G06G07G09G10G20G23G30
  22630901.780   118926191.35007  22630905.140    92669772.24746
  23707086.800   124581524.97306  23707099.040    97076540.87345
  20859756.880   109618749.46609  20859764.920    85417236.46849
  20724833.780   108909739.97809  20724838.780    84864755.99649
  20781510.820   109207565.80009  20781517.300    85096827.36549
  20680776.480   108678212.09408  20680781.520    84684343.27148
  20279406.920   106568998.57408  20279411.060    83040795.15049
  22426598.100   117852544.48408  22426602.040    91833158.65546
  22191760.760   116618513.79608  22191770.040    90871611.50147
 15 03 01 10 14  0.0000000  0  9G02G03G06G07G09G10G20G23G30
  22618472.840   118860876.73507  22618476.180    92618877.74847
  23722882.360   124664531.07506  23722894.840    97141220.68845
  20864567.540   109644029.44009  20864575.660    85436935.08549
  20716857.460   108867823.91609  20716862.420    84832094.15849
  20788220.620   109242825.88509  20788227.120    85124302.71249
  20672238.680   108633345.79909  20672243.780    84649382.53048
  20273720.220   106539114.86108  20273724.440    83017509.12149
  22439276.540   117919169.99708  22439280.560    91885074.54846
  22173866.720   116524479.30308  22173875.920    90798337.95947
 15 03 01 10 14 30.0000000  0  9G02G03G06G07G09G10G20G23G30
  22606127.700   118796003.03607  22606131.160    92568326.82246
  23738714.800   124747731.84206  23738727.660    97206052.17245
  20869490.220   109669898.19809  20869498.420    85457092.50049
  20708979.680   108826425.65809  20708984.640    84799835.80849
  20794974.700   109278318.58409  20794981.240    85151959.31849
  20663760.180   108588790.93409  20663765.280    84614664.45948
  20268101.700   106509589.50708  20268105.960    82994502.34049
  22451974.520   117985898.13208  22451978.540    91937070.41046
  22156031.020   116430751.91508  22156040.240    90725303.70847
 15 03 01 10 15  0.0000000  0  9G02G03G06G07G09G10G20G23G30
  22593865.960   118731567.36507  22593869.540    92518117.21447
  23754583.140   124831121.33305  23754596.440    97271030.74445
  20874523.780   109696349.41909  20874532.000    85477703.77549
  20701199.600   108785541.03309  20701204.580    84767977.69149
  20801771.820   109314037.41209  20801778.380    85179792.13049
  20655340.240   108544543.79509  20655345.340    84580186.17448
  20262550.680   106480418.70508  20262554.960    82971771.83149
  22464690.940   118052722.99708  22464694.960    91989141.64846
  22138253.080   116337328.86608  22138262.420    90652506.61147
 15 03 01 10 15 30.0000000  0  9G02G03G06G07G09G10G20G23G30
  22581687.940   118667571.54808  22581691.660    92468250.35447
  23770487.420   124914699.24306  23770501.000    97336156.10645
  20879668.020   109723382.33609  20879676.220    85498768.32049
  20693517.440   108745171.16209  20693522.480    84736520.68249
  20808611.820   109349981.40509  20808618.360    85207800.39349
  20646979.200   108500606.11009  20646984.300    84545949.02148
  20257067.400   106451603.89008  20257071.680    82949318.70849
  22477425.660   118119644.13208  22477429.760    92041287.89846
  22120533.460   116244212.76408  22120542.920    90579948.69647
 15 03 01 10 16  0.0000000  0  9G02G03G06G07G09G10G20G23G30
  22569594.240   118604018.88607  22569598.080    92418728.79547
  23786427.840   124998465.64106  23786441.420    97401428.32945
  20884922.860   109750996.56709  20884931.080    85520285.84249
  20685933.520   108705317.75309  20685938.640    84705466.11249
  20815494.540   109386150.00409  20815501.100    85235983.67049
  20638677.460   108456980.19509  20638682.620    84511954.79948
  20251652.380   106423147.57108  20251656.640    82927144.93449
  22490178.600   118186661.24208  22490182.820    92093508.91846
  22102872.880   116151406.75208  22102882.380    90507632.40047
 15 03 01 10 16 30.0000000  0  9G02G03G06G07G09G10G20G23G30
  22557585.020   118540910.17707  22557588.920    92369553.18247
  23802404.060   125082419.08906  23802417.500    97466846.32644
  20890287.960   109779190.26609  20890296.220    85542254.89449
  20678447.900   108665980.98809  20678453.060    84674814.11649
  20822419.620   109422541.22709  20822426.200    85264340.42249
  20630435.140   108413666.41909  20630440.320    84478203.81148
  20246305.620   106395049.92108  20246309.860    82905250.64749
  22502949.480   118253772.70108  22502953.840    92145803.45546
  22085271.780   116058912.43408  22085281.160    90435558.99647
 15 03 01 10 17  0.0000000  0  9G02G03G06G07G09G10G20G23G30
  22545661.020   118478248.99808  22545664.840    92320726.28947
  23818416.120   125166560.56306  23818429.300    97532410.81345
  20895763.420   109807963.89209  20895771.720    85564675.84649
  20671061.140   108627163.50209  20671066.280    84644566.75549
  20829387.140   109459155.46309  20829393.720    85292870.95149
  20622252.760   108370667.75908  20622257.980    84444698.37048
  20241027.720   106367314.03508  20241031.920    82883638.25449
  22515738.460   118320979.00808  22515742.820    92198171.90246
  22067730.860   115966733.82808  22067740.020    90363731.60347
 15 03 01 10 17 30.0000000  0  9G02G03G06G07G09G10G20G23G30
  22533822.460   118416037.07407  22533826.240    92272249.46946
  23834463.680   125250888.72906  23834476.660    97598120.79645
  20901348.900   109837315.63509  20901357.220    85587547.27548
  20663773.220   108588865.29809  20663778.320    84614724.02549
  20836396.680   109495990.78409  20836403.280    85321573.74949
  20614130.440   108327984.84208  20614135.680    84411438.96748
  20235818.740   106339940.58708  20235822.960    82862308.28049
  22528545.280   118388278.76808  22528549.600    92250613.16746
  22050250.320   115874872.60708  22050259.320    90292151.52747
 15 03 01 10 18  0.0000000  0  9G02G03G06G07G09G10G20G23G30
  22522070.020   118354277.52408  22522073.760    92224125.13947
  23850546.780   125335404.18206  23850559.700    97663976.71545
  20907044.400   109867245.53209  20907052.720    85610869.22149
  20656584.580   108551088.71109  20656589.620    84585287.75049
  20843448.300   109533047.26809  20843454.940    85350448.87649
  20606068.720   108285620.48108  20606074.000    84378427.78448
  20230679.340   106312932.77908  20230683.560    82841263.22149
  22541370.000   118455672.42508  22541374.240    92303127.59046
  22032830.840   115783332.43008  22032839.720    90220821.60947
 15 03 01 10 18 30.0000000  0  9G02G03G06G07G09G10G20G23G30
  22510404.120   118292972.31707  22510407.760    92176354.84747
  23866665.240   125420106.19406  23866678.180    97729978.00945
  20912849.720   109897752.47609  20912858.040    85634640.81148
  20649495.340   108513834.41609  20649500.320    84556258.45249
  20850541.780   109570323.72809  20850548.480    85379495.41849
  20598067.940   108243576.38208  20598073.260    84345666.16548
  20225609.660   106286291.42008  20225613.920    82820503.71249
  22554212.420   118523158.96208  22554216.540    92355714.40246
  22015472.780   115692115.69508  22015481.740    90149743.72447
 15 03 01 10 19  0.0000000  0  9G02G03G06G07G09G10G20G23G30
  22498825.040   118232123.88308  22498828.680    92128940.48347
  23882819.220   125504995.01806  23882832.220    97796124.87244
  20918764.760   109928836.00609  20918773.120    85658861.69649
  20642505.840   108477104.37509  20642510.780    84527637.66149
  20857677.080   109607819.73109  20857683.780    85408713.03149
  20590128.460   108201854.49508  20590133.800    84313155.60848
  20220610.220   106260019.00708  20220614.500    82800031.69449
  22567072.520   118590738.62608  22567076.560    92408373.77646
  21998176.760   115601225.53508  21998185.880    90078920.30447
 15 03 01 10 19 30.0000000  0  9G02G03G06G07G09G10G20G23G30
  22487333.180   118171733.88507  22487336.860    92081883.33847
  23899008.340   125590069.09506  23899021.540    97862416.08645
  20924789.140   109960494.07609  20924797.540    85683530.27349
  20635616.080   108440898.53909  20635621.040    84499425.34249
  20864853.800   109645533.29409  20864860.460    85438100.18049
  20582250.440   108160455.57008  20582255.800    84280896.72848
  20215681.100   106234116.04708  20215685.340    82779847.56749
  22579949.920   118658409.29708  22579953.940    92461104.07046
  21980943.140   115510663.54608  21980952.460    90008352.59647
 15 03 01 10 20  0.0000000  0  9G02G03G06G07G09G10G20G23G30
  22475928.820   118111803.65607  22475932.540    92035184.46047
  23915232.460   125675327.31806  23915246.020    97928850.77845
  20930922.520   109992724.97509  20930930.940    85708645.21248
  20628826.060   108405216.84309  20628831.060    84471621.43549
  20872071.620   109683462.80809  20872078.240    85467655.60049
  20574434.100   108119380.63908  20574439.500    84248890.30448
  20210822.400   106208583.31608  20210826.620    82759951.92949
  22592844.380   118726169.61108  22592848.380    92513904.22146
  21963772.380   115420431.57808  21963781.800    89938042.05447
 15 03 01 10 20 30.0000000  0  9G02G03G06G07G09G10G20G23G30
  22464612.160   118052334.51907  22464615.920    91988844.87047
  23931491.440   125760768.55905  23931505.240    97995428.09445
  20937164.600   110025526.99809  20937173.020    85734205.18549
  20622135.880   108370059.96709  20622140.940    84444226.47549
  20879330.180   109721606.63009  20879336.800    85497378.02249
  20566679.700   108078630.86308  20566685.080    84217137.24948
  20206034.340   106183421.94408  20206038.560    82740345.67049
  22605755.660   118794018.64008  22605759.760    92566773.50846
  21946664.880   115330531.58408  21946674.300    89867990.20347
 15 03 01 10 21  0.0000000  0  9G02G03G06G07G09G10G20G23G30
  22453383.660   117993328.68107  22453387.500    91942866.30647
  23947785.180   125846392.38306  23947799.200    98062147.66045
  20943515.180   110058899.01909  20943523.540    85760209.30648
  20615545.740   108335428.80809  20615550.860    84417241.16049
  20886629.300   109759963.76709  20886635.960    85527266.65749
  20558987.460   108038207.67708  20558992.800    84185638.67348
  20201317.220   106158633.31408  20201321.440    82721029.85749
  22618683.780   118861955.66808  22618687.920    92619711.35646
  21929621.140   115240966.06108  21929630.400    89798198.97048
 15 03 01 10 21 30.0000000  0  9G02G03G06G07G09G10G20G23G30
  22442243.560   117934787.27907  22442247.380    91897249.62746
  23964113.440   125932197.33306  23964127.620    98129008.36745
  20949973.820   110092839.04909  20949982.160    85786656.03648
  20609055.660   108301323.49909  20609060.800    84390665.59549
  20893968.640   109798532.37509  20893975.380    85557320.07349
  20551357.500   107998111.83008  20551362.820    84154395.15748
  20196671.140   106134218.14608  20196675.360    82702005.05549
  22631628.380   118929979.10908  22631632.540    92672716.53846
  21912641.400   115151736.67508  21912650.500    89728669.66448
 15 03 01 10 22  0.0000000  0  9G02G03G06G07G09G10G20G23G30
  22431192.760   117876714.94907  22431196.500    91851998.46747
  23980476.560   126018185.29405  23980490.820    98196011.66644
  20956540.760   110127348.28709  20956549.120    85813546.30448
  20602666.280   108267747.22509  20602671.460    84364502.27149
  20901348.520   109837313.90309  20901355.300    85587539.40749
  20543790.560   107958347.37109  20543795.880    84123409.87548
  20192096.880   106110180.49708  20192101.160    82683274.42149
  22644589.720   118998090.71208  22644593.940    92725790.40646
  21895726.540   115062848.36808  21895735.560    89659406.13448
 15 03 01 10 22 30.0000000  0  9G02G03G06G07G09G10G20G23G30
  22420231.400   117819112.43707  22420235.060    91807113.38947
  23996874.240   126104354.45205  23996888.560    98263156.17245
  20963215.560   110162424.21409  20963223.900    85840878.15648
  20596377.560   108234699.69709  20596382.720    84338750.95449
  20908768.460   109876306.00109  20908775.300    85617922.81049
  20536286.720   107918914.54908  20536292.060    84092683.01148
  20187594.500   106086520.54508  20187598.820    82664838.09349
  22657567.420   119066288.60708  22657571.720    92778931.51346
  21878876.720   114974302.27108  21878885.740    89590409.24948
 15 03 01 10 23  0.0000000  0  9G02G03G06G07G09G10G20G23G30
  22409359.560   117761980.30607  22409363.180    91762594.84747
  24013306.200   126190703.00105  24013320.380    98330440.42046
  20969997.680   110198064.36909  20970006.060    85868649.66449
  20590189.380   108202180.43909  20590194.520    84313411.27949
  20916228.040   109915506.47209  20916234.940    85648468.58949
  20528846.060   107879813.73009  20528851.420    84062214.84448
  20183164.020   106063238.36308  20183168.380    82646696.13149
  22670561.200   119134570.89008  22670565.540    92832138.36646
  21862092.200   114886099.63508  21862101.300    89521679.99848
 15 03 01 10 23 30.0000000  0  9G02G03G06G07G09G10G20G23G30
  22398577.840   117705321.88308  22398581.500    91718445.43647
  24029772.460   126277231.45006  24029786.480    98397864.86846
  20976887.120   110234268.60209  20976895.580    85896860.72049
  20584102.060   108170191.38809  20584107.180    84288484.75249
  20923727.320   109954915.41709  20923734.280    85679176.81549
  20521469.140   107841047.65409  20521474.480    84032007.51448
  20178805.940   106040336.29308  20178810.280    82628850.35049
  22683571.020   119202937.85408  22683575.440    92885411.20146
  21845373.720   114798244.03908  21845382.900    89453221.16648
 15 03 01 10 24  0.0000000  0  9G02G03G06G07G09G10G20G23G30
  22387886.880   117649140.32008  22387890.560    91674667.59347
  24046273.140   126363940.51306  24046286.920    98465430.04245
  20983883.880   110271036.79809  20983892.420    85925511.22349
  20578116.000   108138734.75109  20578121.180    84263973.09749
  20931266.340   109994533.07708  20931273.320    85710047.67449
  20514156.480   107802619.19609  20514161.780    84002063.26148
  20174520.800   106017817.53608  20174525.120    82611303.25249
  22696596.940   119271390.11608  22696601.580    92938750.49846
  21828722.020   114710739.10408  21828731.240    89385035.57648
 15 03 01 10 24 30.0000000  0  9G02G03G06G07G09G10G20G23G30
  22377286.440   117593434.27908  22377290.080    91631260.29147
  24062807.440   126450826.38706  24062821.020    98533133.00944
  20990987.080   110308364.53109  20990995.700    85954597.73849
  20572230.760   108107807.70809  20572235.920    84239874.11749
  20938844.280   110034355.33909  20938851.280    85741077.96549
  20506907.720   107764526.60009  20506913.000    83972380.72548
  20170308.280   105995680.43408  20170312.620    82594053.54649
  22709638.400   119339924.21807  22709643.320    92992153.56345
  21812136.980   114623584.18008  21812146.160    89317122.73148
 15 03 01 10 25  0.0000000  0  9G02G03G06G07G09G10G20G23G30
  22366777.440   117538208.73908  22366781.060    91588227.41247
  24079375.620   126537891.12806  24079389.260    98600975.33144
  20998197.020   110346253.04309  20998205.700    85984121.21948
  20566447.020   108077413.88609  20566452.180    84216190.63849
  20946461.480   110074383.79609  20946468.480    85772268.93549
  20499723.660   107726774.24609  20499728.920    83942963.31248
  20166169.140   105973928.90708  20166173.460    82577104.29649
  22722695.800   119408541.75207  22722700.940    93045621.64046
  21795619.520   114536784.24508  21795628.640    89249486.49948
 15 03 01 10 25 30.0000000  0  9G02G03G06G07G09G10G20G23G30
  22356360.160   117483465.42608  22356363.780    91545570.29647
  24095977.580   126625134.11606  24095991.480    98668956.57144
  21005513.380   110384700.91009  21005522.100    86014080.54949
  20560764.900   108047554.11509  20560770.060    84192923.30249
  20954117.740   110114617.40909  20954124.720    85803619.76749
  20492604.640   107689363.81709  20492609.920    83913812.32848
  20162103.620   105952564.25008  20162107.940    82560456.50349
  22735769.100   119477242.44408  22735774.360    93099154.53046
  21779170.020   114450341.69408  21779179.040    89182128.74348
 15 03 01 10 26  0.0000000  0  9G02G03G06G07G09G10G20G23G30
  22346034.720   117429204.90408  22346038.360    91503289.36147
  24112612.920   126712553.46805  24112627.240    98737075.23145
  21012935.720   110423705.52009  21012944.440    86044473.70948
  20555184.300   108018227.74409  20555189.460    84170071.60049
  20961812.620   110155053.99509  20961819.600    85835128.75149
  20485550.720   107652295.49009  20485556.040    83884927.91448
  20158111.720   105931586.52908  20158116.020    82544110.21749
  22748857.900   119546024.13208  22748863.200    93152750.53246
  21762788.680   114364257.67308  21762797.660    89115050.36148
 15 03 01 10 26 30.0000000  0  9G02G03G06G07G09G10G20G23G30
  22335801.400   117375428.52308  22335805.060    91461385.69247
  24129281.520   126800148.07705  24129296.380    98805330.44544
  21020463.660   110463264.92809  21020472.360    86075299.16648
  20549705.220   107989434.93909  20549710.400    84147635.66949
  20969545.840   110195692.07509  20969552.820    85866794.75449
  20478562.180   107615570.28909  20478567.480    83856310.87048
  20154193.700   105910997.00308  20154197.980    82528066.42649
  22761962.020   119614885.75908  22761967.280    93206408.83246
  21746475.860   114278534.02208  21746484.860    89048252.78648
 15 03 01 10 27  0.0000000  0  9G02G03G06G07G09G10G20G23G30
  22325660.700   117322139.01408  22325664.420    91419861.40947
  24145983.560   126887918.02406  24145998.840    98873722.30244
  21028097.080   110503378.46609  21028105.760    86106556.41848
  20544327.920   107961177.08709  20544333.140    84125616.58449
  20977317.340   110236531.42809  20977324.340    85898617.59449
  20471639.460   107579190.72409  20471644.640    83827963.15348
  20150350.060   105890798.27908  20150354.320    82512327.15849
  22775081.460   119683827.43908  22775086.600    93260129.50946
  21730232.200   114193173.93708  21730241.280    88981738.51448
 15 03 01 10 27 30.0000000  0  9G02G03G06G07G09G10G20G23G30
  22315612.380   117269334.85408  22315616.140    91378715.32347
  24162718.520   126975859.36306  24162733.860    98942247.69845
  21035835.020   110544041.21109  21035843.680    86138241.62248
  20539051.920   107933451.40409  20539057.160    84104012.17549
  20985126.280   110277567.68709  20985133.340    85930593.86949
  20464782.060   107543154.71708  20464787.220    83799883.14648
  20146580.220   105870987.65408  20146584.480    82496890.30049
  22788215.360   119752845.07008  22788220.400    93313909.37546
  21714057.600   114108176.36108  21714066.720    88915506.72148
 15 03 01 10 28  0.0000000  0  9G02G03G06G07G09G10G20G23G30
  22305657.340   117217020.73708  22305661.080    91337951.08047
  24179486.700   127063974.30606  24179501.860    99010908.35445
  21043677.720   110585254.59908  21043686.380    86170355.89748
  20533877.820   107906261.41409  20533883.060    84082825.19249
  20992973.080   110318802.73909  20992980.160    85962725.05049
  20457990.860   107507466.73609  20457996.060    83772074.33148
  20142885.080   105851569.63308  20142889.360    82481759.37749
  22801364.200   119821941.27208  22801369.140    93367750.46546
  21697953.020   114023546.54208  21697962.180    88849561.48748
 15 03 01 10 28 30.0000000  0  9G02G03G06G07G09G10G20G23G30
  22295795.900   117165198.59308  22295799.640    91297570.19947
  24196287.700   127152261.86805  24196302.540    99079703.49944
  21051624.880   110627016.82809  21051633.520    86202897.83748
  20528805.740   107879607.32009  20528810.900    84062055.78849
  21000857.480   110360235.36809  21000864.560    85995010.19049
  20451266.140   107472128.21208  20451271.400    83744537.81748
  20139264.900   105832545.56208  20139269.200    82466935.43149
  22814527.740   119891114.93808  22814532.560    93421651.90046
  21681918.840   113939286.49708  21681928.000    88783904.38948
 15 03 01 10 29  0.0000000  0  9G02G03G06G07G09G10G20G23G30
  22286028.720   117113871.85008  22286032.480    91257575.34947
  24213121.840   127240723.69506  24213136.460    99148634.43744
  21059676.620   110669328.57709  21059685.220    86235867.96548
  20523836.140   107853491.97209  20523841.240    84041706.19149
  21008779.740   110401866.84409  21008786.800    86027450.27949
  20444608.620   107437142.92408  20444613.940    83717276.55648
  20135720.280   105813918.79908  20135724.640    82452421.08149
  22827706.280   119960367.73508  22827711.060    93475615.01246
  21665955.920   113855400.79408  21665965.040    88718538.98448
 15 03 01 10 29 30.0000000  0  9G02G03G06G07G09G10G20G23G30
  22276355.460   117063038.79908  22276359.260    91217965.19747
  24229988.340   127329355.22306  24230002.660    99217697.60045
  21067831.920   110712184.43709  21067840.440    86269262.07448
  20518968.420   107827912.09109  20518973.480    84021773.84349
  21016738.920   110443692.32009  21016745.960    86060041.52848
  20438017.880   107402508.49408  20438023.240    83690288.68648
  20132250.820   105795686.86608  20132255.220    82438214.38849
  22840899.040   120029695.31008  22840903.800    93529636.37046
  21650063.960   113771887.90908  21650073.000    88653464.08548
 15 03 01 10 30  0.0000000  0  9G02G03G06G07G09G10G20G23G30
  22266777.140   117012704.59308  22266780.960    91178743.76247
  24246887.540   127418159.08805  24246901.680    99286895.07144
  21076091.080   110755586.16109  21076099.540    86303081.53448
  20514203.320   107802871.51909  20514208.360    84002261.72949
  21024735.460   110485714.25609  21024742.500    86092785.86749
  20431494.860   107368229.74209  20431500.240    83663577.97048
  20128857.480   105777854.79908  20128861.880    82424319.27349
  22854106.420   120099100.18008  22854111.260    93583717.95646
  21634243.980   113688753.47708  21634252.980    88588684.09048
 15 03 01 10 30 30.0000000  0  9G02G03G06G07G09G10G20G23G30
  22257293.900   116962870.08808  22257297.760    91139911.70147
  24263819.140   127507133.95905  24263833.260    99356225.77544
  21084453.640   110799531.38509  21084462.080    86337324.49548
  20509540.840   107778370.15809  20509545.880    83983169.78449
  21032769.040   110527930.90609  21032776.080    86125681.92849
  20425039.700   107334307.47909  20425045.040    83637145.04248
  20125540.340   105760423.08208  20125544.720    82410736.11749
  22867328.140   120168581.01108  22867333.040    93637858.73646
  21618496.260   113605999.02808  21618505.200    88524200.18348
 15 03 01 10 31  0.0000000  0  9G02G03G06G07G09G10G20G23G30
  22247905.880   116913535.89308  22247909.740    91101469.50047
  24280782.700   127596277.91805  24280797.320    99425688.26144
  21092919.080   110844017.34609  21092927.540    86371988.81748
  20504980.760   107754407.13009  20504985.840    83964497.31549
  21040839.300   110570340.20909  21040846.360    86158728.11448
  20418652.500   107300742.45609  20418657.820    83610990.48548
  20122299.380   105743392.00608  20122303.820    82397465.15249
  22880564.000   120238136.25608  22880569.020    93692057.49745
  21602821.080   113523625.72208  21602829.940    88460013.26748
 15 03 01 10 31 30.0000000  0  9G02G03G06G07G09G10G20G23G30
  22238613.400   116864703.78608  22238617.240    91063418.52647
  24297778.100   127685590.20204  24297793.120    99495281.90845
  21101487.020   110889042.22508  21101495.560    86407073.07748
  20500523.180   107730982.73909  20500528.340    83946244.56349
  21048946.020   110612941.10308  21048953.100    86191923.58648
  20412333.420   107267535.41209  20412338.720    83585114.87848
  20119134.940   105726762.75108  20119139.380    82384507.28949
  22893814.060   120307765.41808  22893819.100    93746313.85445
  21587218.820   113441635.68108  21587227.620    88396124.99748
 15 03 01 10 32  0.0000000  0  9G02G03G06G07G09G10G20G23G30
  22229416.940   116816376.03408  22229420.720    91025760.55247
  24314805.540   127775070.99404  24314821.180    99565006.85245
  21110157.400   110934605.34508  21110166.020    86442576.74848
  20496168.360   107708098.28409  20496173.560    83928412.54149
  21057089.180   110655733.62708  21057096.280    86225268.37948
  20406082.920   107234689.02808  20406088.280    83559520.30648
  20116047.380   105710537.58008  20116051.820    82371864.29449
  22907078.180   120377468.82307  22907083.320    93800628.05645
  21571690.120   113360032.13508  21571698.840    88332537.89248
 15 03 01 10 32 30.0000000  0  9G02G03G06G07G09G10G20G23G30
  22220316.260   116768551.51208  22220319.980    90988494.70347
  24331864.440   127864716.39704  24331880.700    99634860.06743
  21118929.280   110980701.73009  21118937.960    86478495.94848
  20491915.800   107685751.21609  20491921.040    83910999.26249
  21065268.000   110698713.55308  21065275.080    86258759.20848
  20399900.740   107202201.66609  20399906.160    83534205.49248
  20113036.360   105694714.55708  20113040.800    82359534.66349
  22920355.640   120447242.50107  22920360.900    93854997.01346
  21556234.780   113278814.05108  21556243.460    88269251.15148
 15 03 01 10 33  0.0000000  0  9G02G03G06G07G09G10G20G23G30
  22211311.980   116721233.56408  22211315.660    90951623.58947
  24348954.980   127954527.36305  24348971.460    99704842.28344
  21127802.680   111027331.38409  21127811.380    86514830.68548
  20487765.900   107663943.47109  20487771.120    83894006.24049
  21073482.660   110741881.72508  21073489.720    86292396.71848
  20393787.560   107170076.73009  20393792.980    83509173.08348
  20110102.500   105679296.95308  20110106.920    82347520.93949
  22933646.720   120517087.39108  22933652.060    93909421.47146
  21540853.520   113197985.39408  21540862.240    88206267.86048
 15 03 01 10 33 30.0000000  0  9G02G03G06G07G09G10G20G23G30
  22202404.120   116674422.32308  22202407.780    90915147.30147
  24366076.960   128044501.79905  24366093.260    99774951.90445
  21136776.980   111074491.15509  21136785.660    86551578.50148
  20483718.480   107642674.17709  20483723.640    83877432.78149
  21081732.660   110785235.78308  21081739.740    86326179.07548
  20387743.360   107138314.21609  20387748.760    83484423.07848
  20107245.740   105664284.53408  20107250.160    82335822.94549
  22946951.140   120587001.99307  22946956.540    93963900.25546
  21525546.580   113117546.98108  21525555.280    88143588.64948
 15 03 01 10 34  0.0000000  0  9G02G03G06G07G09G10G20G23G30
  22193593.420   116628121.89308  22193597.140    90879069.04647
  24383230.520   128134641.28305  24383246.640    99845190.11144
  21145852.200   111122181.60508  21145860.920    86588739.83248
  20479773.960   107621945.71309  20479779.100    83861280.74849
  21090018.320   110828777.20508  21090025.400    86360107.43348
  20381768.920   107106918.16909  20381774.280    83459958.63048
  20104466.780   105649680.82408  20104471.160    82324443.42549
  22960269.180   120656988.02708  22960274.620    94018434.70646
  21510314.760   113037503.35308  21510323.440    88081217.06248
 15 03 01 10 34 30.0000000  0  9G02G03G06G07G09G10G20G23G30
  22184880.080   116582333.05008  22184883.860    90843389.43947
  24400415.300   128224944.39605  24400431.100    99915555.81345
  21155027.920   111170400.28708  21155036.640    86626312.77148
  20475932.340   107601757.76909  20475937.400    83845549.90149
  21098339.320   110872504.40208  21098346.440    86394180.54348
  20375864.300   107075889.14209  20375869.620    83435780.17448
  20101765.780   105635486.71808  20101770.100    82313383.07149
  22973600.680   120727044.62108  22973606.140    94073024.13346
  21495158.340   112957856.03608  21495167.020    88019154.29248
 15 03 01 10 35  0.0000000  0  9G02G03G06G07G09G10G20G23G30
  22176264.600   116537058.52608  22176268.480    90808110.59147
  24417631.140   128315411.64505  24417646.880    99986049.40645
  21164304.020   111219146.56108  21164312.760    86664296.82348
  20472193.900   107582111.92209  20472198.880    83830241.46049
  21106695.720   110916417.62808  21106702.880    86428398.61448
  20370030.080   107045229.92809  20370035.360    83411889.88348
  20099143.140   105621704.49508  20099147.440    82302643.66249
  22986945.700   120797171.94708  22986951.100    94127668.68846
  21480078.000   112878608.37508  21480086.640    87957402.93948
 15 03 01 10 35 30.0000000  0  9G02G03G06G07G09G10G20G23G30
  22167746.940   116492298.11208  22167750.880    90773232.33847
  24434877.540   128406040.29105  24434893.400   100056668.76045
  21173679.860   111268416.74308  21173688.580    86702689.11048
  20468558.340   107563006.70209  20468563.260    83815354.28849
  21115087.040   110960514.09609  21115094.200    86462759.47048
  20364266.140   107014940.18409  20364271.420    83388287.49048
  20096598.760   105608333.59308  20096603.040    82292224.76549
  23000303.740   120867367.47308  23000309.020    94182366.40146
  21465073.780   112799760.63508  21465082.340    87895963.21148
 15 03 01 10 36  0.0000000  0 10G02G03G05G06G07G09G10G20G23G30
  22159328.280   116448057.70008  22159332.160    90738759.28147
  24452155.280   128496833.84305  24452171.300   100127416.60645
  24680277.860   129695734.26506  24680286.080   101061646.09145
  21183155.840   111318213.15408  21183164.560    86741491.45348
  20465026.440   107544446.34709  20465031.320    83800891.68549
  21123513.920   111004797.18208  21123521.000    86497265.74848
  20358573.540   106985025.44809  20358578.840    83364977.31448
  20094133.680   105595379.61808  20094138.020    82282130.74449
  23013675.420   120937635.30608  23013680.640    94237120.45446
  21450146.840   112721319.23308  21450155.340    87834840.11348
 15 03 01 10 36 30.0000000  0 10G02G03G05G06G07G09G10G20G23G30
  22151009.160   116404340.41108  22151013.020    90704693.86547
  24469464.460   128587793.08705  24469480.680   100198293.53944
  24662116.880   129600298.07305  24662125.160   100987280.25646
  21192731.920   111368535.55508  21192740.660    86780703.64848
  20461598.540   107526432.75309  20461603.460    83786855.12849
  21131976.420   111049267.54909  21131983.440    86531917.95248
  20352952.960   106955489.10409  20352958.240    83341961.98748
  20091748.460   105582845.41508  20091752.860    82272363.82849
  23027060.880   121007976.38707  23027066.220    94291931.57646
  21435297.880   112643287.88408  21435306.400    87774036.53448
 15 03 01 10 37  0.0000000  0 10G02G03G05G06G07G09G10G20G23G30
  22142786.720   116361131.04708  22142790.540    90671024.22747
  24486801.880   128678900.50105  24486818.120   100269285.96344
  24643952.000   129504841.49405  24643960.500   100912898.54546
  21202404.560   111419365.33808  21202413.320    86820311.20748
  20458271.500   107508949.19009  20458276.460    83773231.57849
  21140471.200   111093907.62809  21140478.200    86566702.40248
  20347401.460   106926315.76609  20347406.700    83319229.51848
  20089440.180   105570715.52108  20089444.640    82262911.95549
  23040457.000   121078373.48507  23040462.360    94346786.35245
  21420524.140   112565652.00308  21420532.700    87713541.11148
 15 03 01 10 37 30.0000000  0 10G02G03G05G06G07G09G10G20G23G30
  22134663.940   116318445.38008  22134667.700    90637762.66847
  24504170.040   128770169.85505  24504186.500   100340404.56145
  24625786.380   129409380.77405  24625795.000   100838513.58545
  21212176.100   111470714.95908  21212184.900    86860323.84248
  20455048.120   107492010.57609  20455053.140    83760032.66749
  21149000.840   111138730.89209  21149007.820    86601629.59048
  20341922.080   106897521.26509  20341927.260    83296792.24448
  20087211.840   105559005.54208  20087216.300    82253787.28449
  23053866.440   121148840.38207  23053871.820    94401695.51645
  21405828.780   112488428.10508  21405837.420    87653366.71848
 15 03 01 10 38  0.0000000  0 10G02G03G05G06G07G09G10G20G23G30
  22126639.840   116276278.45208  22126643.580    90604905.32447
  24521568.060   128861705.82505  24521584.920   100411780.57544
  24607619.080   129313910.87905  24607627.640   100764121.51245
  21222045.000   111522576.17408  21222053.880    86900735.12448
  20451927.320   107475610.84509  20451932.360    83747253.66649
  21157563.940   111183730.20408  21157570.940    86636693.95848
  20336513.800   106869100.59609  20336518.960    83274646.27648
  20085062.500   105547710.51308  20085066.940    82244985.95049
  23067287.940   121219370.53308  23067293.340    94456653.96045
  21391211.040   112411611.98608  21391219.720    87593510.06948
 15 03 01 10 38 30.0000000  0 10G02G03G05G06G07G09G10G20G23G30
  22118716.440   116234640.79408  22118720.200    90572460.41447
  24538996.500   128953292.50905  24539013.600   100483146.40944
  24589451.940   129218441.82906  24589460.400   100689730.09644
  21232012.540   111574955.78708  21232021.480    86941550.35048
  20448910.680   107459758.50009  20448915.720    83734901.20449
  21166162.000   111228913.39908  21166169.000    86671901.60648
  20331178.660   106841064.25909  20331183.780    83252799.78648
  20082994.000   105536840.34908  20082998.420    82236515.68049
  23080723.100   121289972.15508  23080728.400    94511668.10345
  21376673.000   112335214.43508  21376681.660    87533979.58248
 15 03 01 10 39  0.0000000  0 10G02G03G05G06G07G09G10G20G23G30
  22110891.780   116193522.08508  22110895.580    90540419.87047
  24556453.660   129045029.48205  24556470.680   100554629.32645
  24571282.900   129122963.00306  24571291.440   100615331.05645
  21242076.160   111627840.22308  21242085.140    86982758.93848
  20445996.100   107444442.29709  20446001.120    83722966.50849
  21174792.700   111274268.04608  21174799.720    86707242.84748
  20325914.680   106813401.92009  20325919.800    83231244.72548
  20081004.380   105526384.78608  20081008.820    82228368.47049
  23094169.540   121360633.09407  23094174.760    94566728.46045
  21362212.840   112259225.95808  21362221.500    87474767.84848
 15 03 01 10 39 30.0000000  0 10G02G03G05G06G07G09G10G20G23G30
  22103167.600   116152931.65008  22103171.460    90508790.96847
  24573940.860   129136923.70405  24573957.900   100626234.78545
  24553113.840   129027484.05106  24553122.400   100540931.92445
  21252236.960   111681235.26408  21252245.960    87024365.40048
  20443185.060   107429670.10909  20443190.060    83711455.73049
  21183457.340   111319801.04508  21183464.440    86742723.06048
  20320723.660   106786122.96509  20320728.820    83209988.40948
  20079095.340   105516352.69208  20079099.780    82220551.23949
  23107628.620   121431360.74707  23107633.880    94621840.79045
  21347832.420   112183656.43008  21347841.060    87415882.57448
 15 03 01 10 40  0.0000000  0 10G02G03G05G06G07G09G10G20G23G30
  22095544.040   116112869.58508  22095547.900    90477573.78447
  24591457.540   129228973.29905  24591474.660   100697961.31645
  24534944.660   128932004.61805  24534953.280   100466532.40845
  21262494.320   111735137.78108  21262503.280    87066367.30048
  20440477.320   107415440.61609  20440482.320    83700367.82449
  21192155.480   111365510.45508  21192162.700    86778340.72948
  20315605.600   106759227.60509  20315610.800    83189030.99848
  20077266.880   105506744.11708  20077271.340    82213064.02449
  23121100.080   121502153.35907  23121105.480    94677003.74945
  21333531.880   112108506.72208  21333540.500    87357324.43348
 15 03 01 10 40 30.0000000  0 10G02G03G05G06G07G09G10G20G23G30
  22088020.880   116073334.87908  22088024.660    90446767.53047
  24609003.120   129321174.81705  24609020.420   100769806.28045
  24516775.400   128836524.37006  24516783.880   100392132.26145
  21272847.420   111789543.26108  21272856.320    87108761.11948
  20437872.460   107401751.72409  20437877.440    83689701.17549
  21200886.580   111411392.94508  21200893.880    86814093.27148
  20310560.340   106732714.79209  20310565.580    83168371.68348
  20075518.800   105497557.99208  20075523.260    82205905.98149
  23134583.380   121573007.86107  23134588.840    94732214.92746
  21319311.160   112033776.41008  21319319.760    87299093.09748
 15 03 01 10 41  0.0000000  0  9G02G05G06G07G09G10G20G23G30
  22080598.220   116034328.22408  22080601.940    90416372.74947
  24498606.040   128741043.56606  24498614.440   100317731.67045
  21283295.680   111844448.96408  21283304.580    87151544.72548
  20435370.280   107388602.45609  20435375.240    83679455.01149
  21209650.360   111457447.01108  21209657.740    86849979.51048
  20305588.020   106706585.31609  20305593.320    83148011.07548
  20073851.160   105488794.52108  20073855.640    82199077.28749
  23148078.320   121643923.44507  23148083.780    94787473.71546
  21305170.480   111959466.78208  21305179.080    87241189.56348
 15 03 01 10 41 30.0000000  0  9G02G05G06G07G09G10G20G23G30
  22073277.480   115995857.15808  22073281.140    90386395.31147
  24480438.040   128645569.98706  24480446.460   100243336.70745
  21293839.920   111899859.09108  21293848.860    87194721.39348
  20432971.960   107375999.23909  20432976.920    83669634.34149
  21218447.860   111503678.06808  21218455.260    86886003.66048
  20300690.140   106680847.05309  20300695.500    83127955.30548
  20072265.400   105480461.35908  20072269.900    82192583.89549
  23161585.960   121714906.01307  23161591.580    94842784.69646
  21291111.440   111885586.21509  21291120.000    87183620.36348
 15 03 01 10 42  0.0000000  0  9G02G05G06G07G09G10G20G23G30
  22066057.740   115957917.18108  22066061.420    90356831.71547
  24462270.620   128550099.20906  24462279.000   100168943.95045
  21304478.620   111955765.65008  21304487.600    87238284.88548
  20430676.400   107363936.11509  20430681.380    83660234.52349
  21227277.820   111550079.38708  21227285.160    86922160.49248
  20295865.880   106655495.45609  20295871.240    83108200.83648
  20070760.640   105472553.60508  20070765.120    82186421.98949
  23175105.060   121785949.00007  23175110.780    94898142.76246
  21277133.260   111812130.70908  21277141.800    87126382.38048
 15 03 01 10 42 30.0000000  0  9G02G05G06G07G09G10G20G23G30
  22058939.560   115920511.03808  22058943.300    90327684.09547
  24444104.160   128454633.89806  24444112.600   100094555.43746
  21315211.660   112012167.99308  21315220.680    87282234.71348
  20428483.900   107352414.49009  20428488.880    83651256.65149
  21236140.300   111596651.57908  21236147.580    86958450.45648
  20291115.700   106630533.26309  20291121.040    83088749.80149
  20069337.380   105465074.04008  20069341.820    82180593.74649
  23188635.900   121857053.54807  23188641.620    94953548.79846
  21263236.620   111739103.72208  21263245.140    87069478.31948
 15 03 01 10 43  0.0000000  0  9G02G05G06G07G09G10G20G23G30
  22051923.260   115883640.43708  22051927.060    90298953.77347
  24425939.040   128359175.82206  24425947.500   100020172.56846
  21326038.740   112069064.50608  21326047.760    87326569.60648
  20426394.560   107341434.91509  20426399.540    83642701.15549
  21245035.260   111643394.38708  21245042.500    86994873.36448
  20286440.040   106605962.52509  20286445.340    83069603.79648
  20067995.880   105458024.17108  20068000.300    82175100.33149
  23202178.420   121928219.60807  23202184.140    95009002.75746
  21249421.960   111666507.70608  21249430.440    87012910.07348
 15 03 01 10 43 30.0000000  0  9G02G05G06G07G09G10G20G23G30
  22045008.960   115847305.89508  22045012.820    90270641.16347
  24407775.540   128263726.10906  24407783.960    99945796.24146
  21336959.300   112126452.30308  21336968.320    87371287.31348
  20424408.180   107330996.30509  20424413.120    83634567.18349
  21253962.400   111690306.24308  21253969.600    87031428.00048
  20281838.980   106581783.92209  20281844.260    83050763.35548
  20066736.240   105451404.37908  20066740.620    82169942.04349
  23215732.420   121999446.18007  23215738.140    95064503.85745
  21235689.580   111594343.91709  21235697.980    86956678.63048
 15 03 01 10 44  0.0000000  0  9G02G05G06G07G09G10G20G23G30
  22038196.840   115811508.12308  22038200.700    90242746.82247
  24389613.820   128168285.77806  24389622.220    99871427.22246
  21347972.840   112184328.56708  21347981.880    87416385.64048
  20422524.660   107321098.28309  20422529.600    83626854.45549
  21262921.380   111737385.68608  21262928.580    87068113.22048
  20277312.700   106557998.12909  20277317.960    83032228.99548
  20065558.580   105445215.52408  20065562.940    82165119.55549
  23229297.760   122070732.09207  23229303.500    95120051.21645
  21222039.660   111522613.55809  21222048.040    86900784.92848
 15 03 01 10 44 30.0000000  0  9G02G05G06G07G09G10G20G23G30
  22031487.400   115776249.91908  22031491.280    90215272.91647
  24371454.340   128072857.35605  24371462.740    99797067.48646
  21359079.220   112242692.65708  21359088.280    87461864.10348
  20420744.260   107311742.19109  20420749.180    83619564.00949
  21271912.420   111784633.48408  21271919.580    87104929.63348
  20272861.740   106534608.10808  20272866.960    83014003.02949
  20064463.320   105439459.82308  20064467.680    82160634.59349
  23242874.520   122142078.48207  23242880.320    95175645.67945
  21208472.920   111451320.12609  21208481.260    86845231.68248
 15 03 01 10 45  0.0000000  0  9G02G05G06G07G09G10G20G23G30
  22024880.540   115741530.74908  22024884.400    90188219.03347
  24353297.040   127977440.50206  24353305.520    99722716.76746
  21370277.620   112301540.38408  21370286.740    87507719.42348
  20419066.560   107302925.78709  20419071.460    83612694.10149
  21280934.900   111832046.82308  21280942.100    87141875.03748
  20268485.940   106511613.20508  20268491.160    82996084.94848
  20063450.320   105434136.64008  20063454.720    82156486.66049
  23256462.420   122213483.05007  23256468.240    95231285.47345
  21194989.300   111380463.54309  21194997.640    86790018.83648
 15 03 01 10 45 30.0000000  0  9G02G05G06G07G09G10G20G23G30
  22018376.700   115707352.83108  22018380.500    90161586.91047
  24335142.400   127882037.96906  24335150.960    99648377.19646
  21381567.920   112360871.23708  21381577.100    87553951.20348
  20417491.820   107294650.48309  20417496.720    83606245.82549
  21289989.080   111879626.61608  21289996.320    87178950.15148
  20264185.860   106489016.36408  20264191.100    82978477.04449
  20062520.120   105429248.60008  20062524.560    82152677.80249
  23270061.660   122284947.02607  23270067.500    95286971.54545
  21181589.460   111310047.37109  21181597.860    86735149.16748
 15 03 01 10 46  0.0000000  0  9G02G05G06G07G09G10G20G23G30
  22011975.800   115673716.05308  22011979.560    90135376.45247
  24316990.620   127786650.22806  24316999.160    99574049.18346
  21392949.440   112420681.53608  21392958.660    87600556.57848
  20416019.740   107286914.91609  20416024.660    83600218.12249
  21299074.480   111927370.67308  21299081.800    87216153.25748
  20259961.520   106466817.58608  20259966.800    82961179.31349
  20061672.760   105424795.54908  20061677.140    82149207.90049
  23283671.860   122356468.48407  23283677.700    95342702.41045
  21168273.540   111240072.06709  21168281.960    86680623.02248
 15 03 01 10 46 30.0000000  0  9G02G05G06G07G09G10G20G23G30
  22005678.180   115640622.14908  22005681.940    90109589.02147
  24298842.020   127691278.91206  24298850.500    99499733.94545
  21404421.900   112480969.50508  21404431.140    87647534.16348
  20414650.300   107279718.93809  20414655.240    83594610.88149
  21308191.060   111975278.66108  21308198.440    87253484.10848
  20255813.360   106445018.78409  20255818.620    82944193.24849
  20060908.420   105420778.78408  20060912.780    82146077.96449
  23297293.060   122428047.60907  23297298.900    95398478.19545
  21155041.940   111170539.91009  21155050.380    86626442.18848
 15 03 01 10 47  0.0000000  0  9G02G05G06G07G09G10G20G23G30
  21999484.160   115608072.55408  21999487.900    90084225.72547
  24280697.000   127595926.27006  24280705.420    99425433.25145
  21415984.880   112541733.16708  21415994.120    87694882.42048
  20413383.600   107273062.91309  20413388.560    83589424.38349
  21317338.780   112023350.10208  21317346.180    87290942.32848
  20251741.620   106423621.69109  20251746.860    82927520.20749
  20060227.400   105417199.80508  20060231.700    82143289.16149
  23310925.240   122499684.23607  23310931.060    95454298.79346
  21141895.120   111101453.08909  21141903.520    86572608.37148
 15 03 01 10 47 30.0000000  0  9G02G05G06G07G09G10G20G23G30
  21993394.180   115576069.50708  21993397.920    90059288.30247
  24262555.980   127500594.74206  24262564.340    99351149.01546
  21427638.100   112602971.21208  21427647.360    87742600.32448
  20412219.820   107266947.58909  20412224.800    83584659.20749
  21326517.660   112071585.22908  21326525.060    87328528.10348
  20247746.820   106402628.76709  20247752.020    82911162.09949
  20059630.060   105414060.67008  20059634.340    82140843.08649
  23324568.360   122571378.98507  23324574.360    95510164.67746
  21128833.600   111032814.36909  21128841.920    86519123.72048
 15 03 01 10 48  0.0000000  0  9G02G05G06G07G09G10G20G23G30
  21987408.040   115544612.18108  21987411.780    90034776.12547
  24244418.920   127405283.89106  24244427.200    99276880.87345
  21439380.900   112664679.86208  21439390.120    87790684.93048
  20411158.600   107261371.07109  20411163.580    83580313.88549
  21335727.300   112119981.77508  21335734.660    87366239.65848
  20243828.900   106382039.81109  20243834.020    82895118.77549
  20059116.280   105411360.85408  20059120.580    82138739.34349
  23338222.180   122643130.11207  23338228.320    95566074.51146
  21115857.440   110964624.04909  21115865.660    86465988.46548
 15 03 01 10 48 30.0000000  0  9G02G05G06G07G09G10G20G23G30
  21981525.940   115513701.84208  21981529.740    90010690.17247
  24226286.020   127309995.31506  24226294.340    99202630.10645
  21451212.800   112726856.64808  21451222.000    87839134.32548
  20410199.840   107256332.87909  20410204.820    83576388.04049
  21344967.500   112168538.90408  21344974.800    87404076.34548
  20239987.980   106361855.72509  20239993.100    82879390.93249
  20058686.260   105409101.31708  20058690.620    82136978.67049
  23351886.640   122714937.15007  23351892.840    95622027.90646
  21102966.920   110896883.85409  21102975.060    86413203.95548
 15 03 01 10 49  0.0000000  0  9G02G05G06G07G09G10G20G23G30
  21975748.080   115483339.46908  21975752.000    89987031.21348
  24208157.680   127214730.64806  24208166.040    99128397.96946
  21463133.340   112789499.38708  21463142.600    87887946.79248
  20409343.500   107251832.70909  20409348.440    83572881.42849
  21354238.080   112217255.96008  21354245.400    87442037.65548
  20236224.320   106342077.98109  20236229.500    82863979.72249
  20058340.180   105407283.03808  20058344.620    82135561.83549
  23365561.660   122786799.72907  23365568.040    95678024.58545
  21090162.360   110829595.65309  21090170.500    86360771.64949
 15 03 01 10 49 30.0000000  0  9G02G05G06G07G09G10G20G23G30
  21970074.700   115453525.92308  21970078.680    89963799.91647
  24190034.240   127119491.71706  24190042.620    99054185.89746
  21475142.140   112852605.69208  21475151.440    87937120.49148
  20408589.560   107247870.43309  20408594.440    83569793.95949
  21363538.980   112266132.20408  21363546.260    87480123.00748
  20232538.320   106322708.19109  20232543.540    82848886.39549
  20058078.260   105405907.00208  20058082.780    82134489.60749
  23379247.220   122858717.31907  23379253.700    95734064.10945
  21077444.100   110762761.20509  21077452.260    86308692.91648
 15 03 01 10 50  0.0000000  0  9G02G05G06G07G09G10G20G23G30
  21964505.800   115424261.31408  21964509.800    89940996.36148
  24171915.760   127024278.89506  24171924.200    98979994.17246
  21487238.560   112916172.43008  21487247.880    87986652.95648
  20407937.780   107244445.00909  20407942.600    83567124.80949
  21372869.840   112315166.09408  21372877.120    87518331.20048
  20228930.040   106303746.72208  20228935.280    82834111.24149
  20057900.580   105404973.57308  20057905.160    82133762.26749
  23392943.260   122930689.10007  23392949.640    95790145.88146
  21064812.340   110696381.44409  21064820.540    86256968.48149
 15 03 01 10 50 30.0000000  0  9G02G05G06G07G09G10G20G23G30
  21959041.820   115395547.87108  21959045.780    89918622.28148
  24153802.860   126929095.04206  24153811.260    98905825.03646
  21499422.300   112980198.16108  21499431.640    88036543.07748
  20407388.220   107241556.85209  20407393.000    83564874.31849
  21382230.740   112364357.87408  21382238.020    87556662.42748
  20225399.980   106285196.05809  20225405.200    82819656.20349
  20057807.540   105404484.71108  20057812.100    82133381.34549
  23406649.800   123002715.55707  23406655.980    95846270.26445
  21052267.640   110630459.08909  21052275.900    86205600.47149
 15 03 01 10 51  0.0000000  0  9G02G05G06G07G09G10G20G23G30
  21953682.760   115367385.67908  21953686.680    89896677.73648
  24135695.580   126833940.71906  24135703.940    98831678.90345
  21511692.800   113044679.70808  21511702.100    88086788.37748
  20406940.640   107239204.64609  20406945.360    83563041.44049
  21391621.380   112413706.03108  21391628.680    87595115.50548
  20221948.160   106267056.53208  20221953.380    82805521.53049
  20057799.120   105404440.37108  20057803.620    82133346.80349
  23420366.520   123074795.75207  23420372.480    95902436.50245
  21039810.200   110564995.05009  21039818.460    86154589.58749
 15 03 01 10 51 30.0000000  0  9G02G05G06G07G09G10G20G23G30
  21948428.940   115339776.54808  21948432.800    89875164.14747
  24117594.440   126738818.71306  24117602.700    98757557.95145
  21524049.780   113109615.70608  21524059.040    88137387.79048
  20406595.180   107237389.33309  20406599.900    83561626.92949
  21401041.880   112463210.89008  21401049.180    87633690.70048
  20218575.020   106249330.49608  20218580.220    82791709.05549
  20057875.760   105404842.74108  20057880.160    82133660.34249
  23434093.500   123146930.27807  23434099.400    95958645.07445
  21027440.500   110499992.06609  21027448.740    86103937.97149
 15 03 01 10 52  0.0000000  0  9G02G05G06G07G09G10G20G23G30
  21943280.700   115312722.10908  21943284.480    89854082.78347
  24099499.840   126643731.15606  24099508.080    98683463.84945
  21536492.900   113175004.52208  21536502.180    88188340.04348
  20406351.860   107236110.93009  20406356.620    83560630.78749
  21410492.180   112512872.53108  21410499.480    87672388.05848
  20215280.940   106232019.89409  20215286.120    82778220.29049
  20058037.700   105405693.53408  20058042.020    82134323.31049
  23447830.800   123219119.61207  23447836.700    96014896.34845
  21015159.040   110435452.61609  21015167.240    86053647.55349
 15 03 01 10 52 30.0000000  0  9G02G05G06G07G09G10G20G23G30
  21938237.860   115286221.69008  21938241.560    89833433.11447
  24081411.700   126548677.75106  24081419.980    98609396.34146
  21549021.360   113240842.10508  21549030.740    88239641.98848
  20406210.320   107235367.45609  20406215.140    83560051.47949
  21419971.880   112562688.64608  21419979.160    87711205.78948
  20212065.860   106215124.55109  20212071.020    82765055.10649
  20058284.740   105406991.95108  20058289.100    82135335.07849
  23461578.140   123291361.69407  23461583.920    96071188.72945
  21002965.800   110371376.76509  21002973.940    86003718.38749
 15 03 01 10 53  0.0000000  0  9G02G05G06G07G09G10G20G23G30
  21933300.800   115260276.98908  21933304.340    89813216.47047
  24063330.580   126453661.31006  24063338.900    98535357.65646
  21561634.860   113307126.53208  21561644.360    88291292.12848
  20406170.640   107235159.12209  20406175.500    83559889.16649
  21429480.940   112612659.08308  21429488.220    87750143.77048
  20208930.140   106198646.13909  20208935.260    82752214.80349
  20058617.200   105408739.39008  20058621.620    82136696.73049
  23475335.480   123363656.81707  23475341.240    96127522.43845
  20990861.160   110307766.67409  20990869.240    85954152.14949
 15 03 01 10 53 30.0000000  0  9G02G05G06G07G09G10G20G23G30
  21928469.400   115234887.56608  21928472.820    89793432.50447
  24045256.580   126358682.16206  24045264.860    98461348.01846
  21574332.780   113373854.36808  21574342.340    88343287.78548
  20406232.520   107235484.22509  20406237.380    83560142.52049
  21439019.080   112662782.17608  21439026.380    87789200.70148
  20205873.800   106182585.02709  20205878.900    82739699.66149
  20059035.140   105410936.01808  20059039.600    82138408.40749
  23489102.660   123436003.75707  23489108.420    96183896.50145
  20978845.300   110244623.00009  20978853.280    85904949.35649
 15 03 01 10 54  0.0000000  0  9G02G05G06G07G09G10G20G23G30
  21923743.840   115210054.63308  21923747.260    89774082.17547
  24027190.040   126263742.33706  24027198.220    98387369.02145
  21587114.680   113441023.55108  21587124.280    88395627.34248
  20406395.880   107236342.71109  20406400.740    83560811.50149
  21448586.220   112713057.68108  21448593.540    87828376.40148
  20202897.220   106166942.90709  20202902.280    82727511.00749
  20059538.820   105413583.02408  20059543.300    82140471.02849
  23502879.740   123508402.64407  23502885.580    96240311.04445
  20966918.580   110181947.82109  20966926.500    85856111.62049
 15 03 01 10 54 30.0000000  0  9G02G05G06G07G09G10G20G23G30
  21919124.280   115185778.83208  21919127.740    89755165.97847
  24009131.360   126168843.58006  24009139.340    98313422.03845
  21599980.140   113508631.71008  21599989.740    88448308.96148
  20406660.660   107237734.18209  20406665.500    83561895.79449
  21458182.240   112763485.00908  21458189.580    87867670.41448
  20200000.580   106151721.09509  20200005.660    82715649.86149
  20060128.540   105416681.90808  20060133.020    82142885.75749
  23516666.660   123580853.21107  23516672.620    96296765.87746
  20955081.320   110119742.81809  20955089.220    85807640.25749
 15 03 01 10 55  0.0000000  0  9G02G05G06G07G09G10G20G23G30
  21914610.820   115162060.60208  21914614.320    89736684.24947
  23991080.700   126073987.08906  23991088.540    98239507.98045
  21612928.560   113576675.69108  21612938.140    88501330.18648
  20407026.640   107239657.45609  20407031.440    83563394.48449
  21467806.920   112814062.90808  21467814.280    87907081.74748
  20197184.060   106136920.32409  20197189.160    82704116.79749
  20060804.200   105420232.20508  20060808.660    82145652.23449
  23530463.340   123653354.68307  23530469.360    96353260.37645
  20943333.720   110058008.96609  20943341.620    85759536.03049
 15 03 01 10 55 30.0000000  0  9G02G05G06G07G09G10G20G23G30
  21910203.640   115138900.86208  21910207.140    89718637.71147
  23973038.360   125979174.49106  23973046.120    98165628.11945
  21625959.440   113645153.15408  21625969.000    88554689.18248
  20407493.740   107242112.21509  20407498.520    83565307.32049
  21477460.120   112864790.84508  21477467.520    87946609.99248
  20194447.920   106122541.98008  20194453.020    82692912.90049
  20061565.960   105424235.12808  20061570.400    82148771.40849
  23544269.620   123725906.83807  23544275.760    96409794.35445
  20931676.120   109996748.00109  20931683.980    85711800.28549
 15 03 01 10 56  0.0000000  0  9G02G05G06G07G09G10G20G23G30
  21905902.960   115116300.98808  21905906.500    89701027.44247
  23955004.880   125884408.37606  23955012.600    98091784.49845
  21639072.520   113714062.43508  21639082.040    88608384.66248
  20408061.980   107245098.64409  20408066.760    83567634.43849
  21487141.900   112915669.02408  21487149.300    87986255.30548
  20191792.520   106108587.96108  20191797.660    82682039.64749
  20062414.160   105428692.45508  20062418.600    82152244.65349
  23558085.600   123798510.26907  23558091.900    96466368.32145
  20920108.940   109935962.28809  20920116.760    85664434.87249
 15 03 01 10 56 30.0000000  0  9G02G05G06G07G09G10G20G23G30
  21901708.760   115094260.87008  21901712.420    89683853.34747
  23936980.420   125789689.44706  23936988.100    98017977.64445
  21652267.120   113783400.12608  21652276.600    88662413.96948
  20408731.060   107248615.06609  20408735.860    83570374.54049
  21496851.980   112966695.94908  21496859.360    88026016.52348
  20189217.940   106095058.62009  20189223.100    82671497.30349
  20063348.800   105433603.98108  20063353.200    82156071.82549
  23571911.180   123871163.95907  23571917.620    96522981.43945
  20908632.320   109875652.55609  20908640.100    85617440.34949
 15 03 01 10 57  0.0000000  0  9G02G05G06G07G09G10G20G23G30
  21897620.740   115072778.42208  21897624.460    89667113.79547
  23918964.820   125695016.87206  23918972.420    97944206.88345
  21665542.260   113853160.95608  21665551.680    88716773.00148
  20409500.400   107252658.21209  20409505.180    83573525.07449
  21506589.720   113017868.29108  21506597.160    88065891.04948
  20186723.940   106081952.49608  20186729.060    82661284.73949
  20064369.520   105438967.99308  20064373.920    82160251.57449
  23585745.860   123943864.79907  23585752.320    96579631.29945
  20897246.020   109815817.60509  20897253.800    85570815.78849
 15 03 01 10 57 30.0000000  0  9G02G05G06G07G09G10G20G23G30
  21893639.900   115051858.91408  21893643.620    89650812.89847
  23900959.080   125600396.35306  23900966.640    97870476.71745
  21678898.280   113923346.82908  21678907.640    88771463.23248
  20410370.760   107257232.19509  20410375.540    83577089.24949
  21516355.860   113069189.89308  21516363.360    88105881.88348
  20184311.560   106069275.45809  20184316.680    82651406.52849
  20065477.360   105444789.81808  20065481.740    82164788.05749
  23599590.400   124016617.04207  23599596.900    96636321.20345
  20885951.180   109756463.41409  20885959.000    85524565.84149
 15 03 01 10 58  0.0000000  0  9G02G05G06G07G09G10G20G23G30
  21889766.120   115031501.64008  21889769.740    89634950.09748
  23882963.400   125505829.05806  23882970.900    97796787.99346
  21692334.440   113993953.94808  21692343.780    88826481.70148
  20411341.760   107262334.97309  20411346.520    83581065.47349
  21526150.040   113120658.89008  21526157.600    88145987.56648
  20181980.800   106057027.39508  20181985.960    82641862.57849
  20066672.240   105451069.03408  20066676.600    82169680.94749
  23613444.340   124089419.25807  23613450.840    96693050.04045
  20874747.860   109697590.21409  20874755.740    85478690.68949
 15 03 01 10 58 30.0000000  0  9G02G05G06G07G09G10G20G23G30
  21885999.420   115011707.28708  21886003.000    89619525.94347
  23864978.160   125411316.51406  23864985.660    97723141.94346
  21705850.280   114064979.78808  21705859.580    88881826.45648
  20412413.300   107267966.08809  20412418.060    83585453.38649
  21535972.200   113172274.73408  21535979.800    88186207.67548
  20179731.880   106045209.45609  20179737.080    82632653.79949
  20067954.360   105457806.50208  20067958.660    82174930.91149
  23627307.740   124162271.35207  23627314.140    96749817.73445
  20863636.380   109639199.59209  20863644.320    85433191.57349
 15 03 01 10 59  0.0000000  0  9G02G05G06G07G09G10G20G23G30
  21882339.680   114992474.87708  21882343.200    89604539.66147
  23847003.380   125316859.05207  23847010.940    97649538.81246
  21719444.960   114136420.20608  21719454.280    88937494.25548
  20413584.880   107274122.83509  20413589.620    83590250.88049
  21545821.960   113224035.29808  21545829.540    88226540.54448
  20177564.780   106033821.36809  20177569.980    82623779.96449
  20069323.540   105465001.52308  20069327.840    82180537.40949
  23641180.200   124235171.24807  23641186.500    96806622.68044
  20852616.760   109581291.42909  20852624.720    85388068.40149
 15 03 01 10 59 30.0000000  0  9G02G05G06G07G09G10G20G23G30
  21878787.180   114973806.04808  21878790.640    89589992.52047
  23829039.600   125222459.07607  23829047.220    97575980.47946
  21733118.240   114208273.63308  21733127.580    88993483.87948
  20414856.540   107280805.56409  20414861.280    83595458.22549
  21555699.340   113275941.01308  21555706.900    88266986.51448
  20175479.940   106022865.21809  20175485.080    82615242.70749
  20070780.120   105472655.71308  20070784.400    82186501.69949
  23655061.940   124308120.14507  23655068.180    96863465.78545
  20841689.480   109523868.22409  20841697.400    85343323.11649
 15 03 01 11 00  0.0000000  0  9G02G05G06G07G09G10G20G23G30
  21875341.800   114955700.55108  21875345.260    89575884.34747
  23811087.020   125128117.78907  23811094.720    97502467.88246
  21746869.440   114280536.78708  21746878.860    89049792.76548
  20416228.200   107288013.75709  20416232.940    83601075.03249
  21565604.100   113327990.65208  21565611.660    88307544.62648
  20173477.400   106012341.70209  20173482.520    82607042.57249
  20072324.080   105480769.19408  20072328.360    82192823.87749
  23668952.820   124381117.03807  23668959.000    96920346.30045
  20830854.640   109466930.75109  20830862.500    85298956.32749
 15 03 01 11 00 30.0000000  0  9G02G05G06G07G09G10G20G23G30
  21872003.720   114938159.30908  21872007.220    89562215.84647
  23793146.020   125033837.39007  23793153.840    97429002.73046
  21760698.140   114353207.25308  21760707.680    89106419.03948
  20417699.480   107295745.60909  20417704.220    83607099.87449
  21575536.180   113380183.80308  21575543.760    88348214.56548
  20171557.400   106002252.06808  20171562.500    82599180.52649
  20073955.640   105489342.85808  20073959.920    82199504.63849
  23682852.740   124454161.70006  23682858.960    96977264.06645
  20820112.520   109410480.61609  20820120.320    85254969.27849
 15 03 01 11 01  0.0000000  0  9G02G05G06G07G09G10G20G23G30
  21868772.960   114921182.08908  21868776.520    89548986.85047
  23775216.840   124939618.99206  23775224.700    97355585.87946
  21774603.820   114426281.83508  21774613.400    89163360.20448
  20419270.220   107304000.20309  20419274.980    83613532.05249
  21585495.400   113432519.39808  21585502.960    88388995.49848
  20169720.080   105992596.82608  20169725.180    82591656.96749
  20075674.840   105498377.10708  20075679.140    82206544.29449
  23696761.620   124527253.63106  23696767.960    97034218.63645
  20809463.260   109354518.67109  20809471.020    85211362.64249
 15 03 01 11 01 30.0000000  0  9G02G05G06G07G09G10G20G23G30
  21865649.520   114904768.74708  21865653.160    89536197.24147
  23757299.600   124845463.46506  23757307.460    97282218.01146
  21788585.820   114499757.23908  21788595.420    89220613.70648
  20420940.240   107312776.41109  20420944.980    83620370.67849
  21595481.480   113484996.18208  21595489.000    88429886.44648
  20167965.540   105983376.59808  20167970.600    82584472.38049
  20077481.620   105507871.92608  20077485.980    82213942.83649
  23710679.500   124600392.05106  23710686.020    97091209.46344
  20798907.000   109299045.60209  20798914.740    85168136.94249
 15 03 01 11 02  0.0000000  0  9G02G05G06G07G09G10G20G23G30
  21862633.580   114888920.26708  21862637.300    89523847.79047
  23739394.760   124751373.49206  23739402.560    97208901.23646
  21802643.700   114573631.38408  21802653.280    89278177.90448
  20422709.480   107322073.83809  20422714.180    83627615.44949
  21605494.440   113537614.23208  21605501.900    88470887.46848
  20166294.060   105974592.83008  20166299.100    82577627.89649
  20079376.320   105517828.54208  20079380.680    82221701.22249
  23724606.340   124673577.08006  23724613.040    97148236.59645
  20788444.140   109244063.41709  20788451.900    85125293.74649
 15 03 01 11 02 30.0000000  0  9G02G05G06G07G09G10G20G23G30
  21859725.320   114873637.19708  21859729.020    89511938.90947
  23721502.700   124657350.89406  23721510.440    97135636.96446
  21816777.040   114647901.84108  21816786.540    89336050.91548
  20424577.840   107331892.01309  20424582.500    83635265.98949
  21615534.200   113590373.19608  21615541.660    88511998.29048
  20164705.920   105966247.16408  20164710.960    82571124.78949
  20081359.040   105528247.96108  20081363.440    82229820.23349
  23738542.160   124746808.90007  23738549.020    97205300.19045
  20778075.000   109189573.64409  20778082.780    85082834.25249
 15 03 01 11 03  0.0000000  0  9G02G05G06G07G09G10G20G23G30
  21856924.620   114858919.24108  21856928.280    89500470.37847
  23703623.720   124563396.85906  23703631.440    97062426.11345
  21830985.040   114722565.07808  21830994.500    89394229.97748
  20426544.920   107342228.98009  20426549.540    83643320.79349
  21625600.520   113643271.69208  21625607.960    88553217.84148
  20163201.200   105958340.10108  20163206.300    82564963.45649
  20083429.800   105539129.88908  20083434.160    82238299.64749
  23752486.720   124820086.53107  23752493.600    97262399.46545
  20767799.680   109135576.75409  20767807.440    85040758.81149
 15 03 01 11 03 30.0000000  0  9G02G05G06G07G09G10G20G23G30
  21854231.940   114844768.57608  21854235.520    89489443.89447
  23685758.480   124469514.75206  23685766.200    96989271.31646
  21845267.580   114797620.16408  21845277.040    89452714.38148
  20428610.820   107353085.49209  20428615.440    83651780.42949
  21635693.620   113696310.93808  21635701.020    88594547.07148
  20161780.400   105950874.09108  20161785.580    82559145.79449
  20085589.020   105550476.65308  20085593.320    82247141.26849
  23766440.240   124893411.42307  23766447.260    97319535.57845
  20757618.740   109082075.83709  20757626.480    84999069.84849
 15 03 01 11 04  0.0000000  0  9G02G05G06G07G09G10G20G23G30
  21851646.820   114831183.31308  21851650.320    89478857.97948
  23667906.980   124375704.61206  23667914.640    96916172.61045
  21859623.740   114873062.36508  21859633.200    89511500.43048
  20430775.140   107364459.07309  20430779.760    83660642.97449
  21645813.040   113749488.40008  21645820.380    88635983.99748
  20160443.360   105943848.26108  20160448.600    82553671.12949
  20087836.500   105562287.22208  20087840.780    82256344.29449
  23780402.420   124966781.81007  23780409.480    97376707.14545
  20747532.060   109029070.12609  20747539.740    84957766.75449
 15 03 01 11 04 30.0000000  0  9G02G05G06G07G09G10G20G23G30
  21849169.880   114818166.54908  21849173.320    89468715.06247
  23650069.860   124281970.48106  23650077.520    96843133.12446
  21874053.500   114948891.62808  21874063.060    89570588.09048
  20433038.140   107376351.32309  20433042.760    83669909.67149
  21655959.120   113802806.20208  21655966.460    88677530.27948
  20159190.880   105937266.44508  20159196.100    82548542.45249
  20090172.860   105574564.85308  20090177.120    82265911.27149
  23794373.640   125040199.82406  23794380.700    97433915.83645
  20737540.380   108976563.55609  20737547.980    84916852.59549
 15 03 01 11 05  0.0000000  0  9G02G05G06G07G09G10G20G23G30
  21846800.760   114805716.60508  21846804.140    89459013.82147
  23632247.300   124188312.64106  23632254.880    96770153.08146
  21888556.020   115025103.19008  21888565.720    89629973.64148
  20435399.280   107388759.25309  20435403.880    83679578.19049
  21666131.440   113856261.78208  21666138.760    88719183.92448
  20158022.740   105931127.88808  20158027.940    82543759.17349
  20092597.820   105587308.07808  20092602.100    82275841.04649
  23808353.340   125113663.23907  23808360.380    97491159.89545
  20727643.500   108924555.32409  20727651.060    84876326.74749
 15 03 01 11 05 30.0000000  0  9G02G05G06G07G09G10G20G23G30
  21844539.500   114793833.58008  21844542.800    89449754.33747
  23614439.560   124094732.72706  23614447.040    96697233.76446
  21903130.860   115101694.31008  21903140.660    89689654.95348
  20437858.380   107401681.79209  20437862.920    83689647.70349
  21676329.920   113909854.63508  21676337.200    88760944.54548
  20156939.100   105925433.14308  20156944.240    82539321.72349
  20095111.460   105600517.19008  20095115.740    82286133.85549
  23822341.600   125187171.79407  23822348.700    97548439.13744
  20717841.680   108873046.65909  20717849.220    84836190.17649
 15 03 01 11 06  0.0000000  0  9G02G05G06G07G09G10G20G23G30
  21842386.020   114782517.02908  21842389.240    89440936.26847
  23596646.860   124001232.09606  23596654.300    96624376.22546
  21917777.380   115178661.70308  21917787.240    89749629.46748
  20440415.140   107415117.60209  20440419.640    83700117.15149
  21686554.300   113963583.68108  21686561.520    88802811.29348
  20155940.060   105920183.02908  20155945.140    82535230.74249
  20097713.780   105614192.59508  20097718.120    82296790.01049
  23836338.260   125260724.99407  23836345.520    97605753.14145
  20708135.040   108822038.23709  20708142.600    84796443.40149
 15 03 01 11 06 30.0000000  0  9G02G05G06G07G09G10G20G23G30
  21840340.600   114771768.71608  21840343.840    89432560.98047
  23578869.880   123907813.86906  23578877.260    96551582.90246
  21932495.280   115256003.83108  21932505.160    89809895.97848
  20443069.580   107429066.79609  20443074.060    83710986.64149
  21696804.660   114017449.66108  21696811.920    88844784.73848
  20155026.020   105915379.73708  20155031.080    82531487.92949
  20100405.220   105628336.12908  20100409.580    82307810.94549
  23850343.560   125334323.91006  23850351.240    97663102.78244
  20698524.100   108771532.45409  20698531.660    84757088.28849
 15 03 01 11 07  0.0000000  0  9G02G05G06G07G09G10G20G23G30
  21838402.720   114761585.99408  21838406.100    89424626.41847
  23561108.360   123814476.83206  23561115.760    96478852.84246
  21947283.420   115333715.06108  21947293.280    89870450.10848
  20445821.000   107443525.60609  20445825.460    83722253.22549
  21707080.440   114071449.20408  21707087.760    88886862.25948
  20154196.640   105911021.28708  20154201.700    82528091.75348
  20103185.200   105642945.05608  20103189.580    82319194.52849
  23864357.020   125407965.64406  23864365.020    97720485.79944
  20689008.460   108721527.60909  20689016.040    84718123.51549
 15 03 01 11 07 30.0000000  0  9G02G05G06G07G09G10G20G23G30
  21836573.020   114751971.79408  21836576.580    89417134.86447
  23543363.200   123721226.02306  23543370.760    96406189.98646
  21962141.740   115411795.55508  21962151.580    89931291.96848
  20448669.760   107458495.88109  20448674.220    83733918.35249
  21717382.120   114125584.84508  21717389.480    88929045.84548
  20153452.660   105907111.78208  20153457.720    82525045.40048
  20106054.500   105658023.14308  20106058.840    82330943.69449
  23878379.300   125481652.96506  23878387.360    97777904.34644
  20679588.920   108672027.79709  20679596.520    84679552.27849
 15 03 01 11 08  0.0000000  0  9G02G05G06G07G09G10G20G23G30
  21834851.100   114742923.50808  21834854.760    89410084.27747
  23525634.240   123628060.66307  23525641.980    96333593.73546
  21977069.260   115490239.92908  21977079.100    89992417.36847
  20451615.180   107473974.12809  20451619.640    83745979.29749
  21727709.060   114179853.32308  21727716.460    88971332.94248
  20152793.780   105903649.50708  20152798.880    82522347.54049
  20109012.660   105673568.34208  20109017.020    82343056.84049
  23892409.860   125555382.94106  23892417.900    97835356.09945
  20670265.200   108623031.53609  20670272.800    84641373.41849
 15 03 01 11 08 30.0000000  0  9G02G05G06G07G09G10G20G23G30
  21833237.180   114734442.23608  21833240.860    89403475.51947
  23507922.160   123534983.53807  23507929.940    96261066.22446
  21992065.640   115569046.27808  21992075.440    90053824.82447
  20454657.220   107489960.14509  20454661.720    83758435.90549
  21738061.380   114234255.13508  21738068.820    89013723.94048
  20152220.360   105900636.20408  20152225.480    82519999.52649
  20112060.000   105689582.13808  20112064.360    82355535.12349
  23906448.740   125629156.21706  23906456.700    97892841.62144
  20661037.680   108574540.84609  20661045.260    84603588.50849
 15 03 01 11 09  0.0000000  0  9G02G05G06G07G09G10G20G23G30
  21831731.300   114726528.29908  21831734.900    89397308.83447
  23490227.440   123441997.09607  23490235.040    96188609.38946
  22007130.480   115648212.17608  22007140.200    90115512.44947
  20457795.700   107506453.06609  20457800.320    83771287.49949
  21748439.040   114288790.18808  21748446.540    89056218.75748
  20151732.660   105898073.27109  20151737.780    82518002.45148
  20115196.660   105706065.55208  20115201.020    82368379.34849
  23920495.960   125702973.34507  23920503.840    97950361.27745
  20651906.660   108526557.15109  20651914.180    84566198.66149
 15 03 01 11 09 30.0000000  0  9G02G05G06G07G09G10G20G23G30
  21830333.360   114719181.41808  21830336.860    89391584.01247
  23472550.100   123349102.40207  23472557.580    96116224.03846
  22022263.100   115727733.81308  22022272.700    90177477.26147
  20461030.340   107523451.02209  20461035.000    83784532.63549
  21758841.760   114343456.97608  21758849.340    89098816.22648
  20151330.720   105895960.85409  20151335.780    82516356.42349
  20118422.460   105723017.51408  20118426.840    82381588.67549
  23934551.340   125776833.00307  23934559.020    98007914.11845
  20642872.120   108479080.54409  20642879.600    84529203.95949
 15 03 01 11 10  0.0000000  0  9G02G05G06G07G09G10G20G23G30
  21829043.620   114712403.17708  21829046.980    89386302.28447
  23454890.960   123256303.01907  23454898.240    96043912.95346
  22037463.220   115807610.46608  22037472.780    90239718.71447
  20464361.220   107540954.87509  20464365.940    83798171.97949
  21769269.860   114398257.18508  21769277.480    89141517.65348
  20151015.120   105894302.05509  20151020.100    82515063.86849
  20121738.060   105740441.09108  20121742.420    82395165.49249
  23948615.180   125850737.25207  23948622.740    98065501.67445
  20633934.660   108432114.20009  20633942.120    84492606.86849
 15 03 01 11 10 30.0000000  0  9G02G05G06G07G09G10G20G23G30
  21827861.840   114706192.68908  21827865.120    89381462.96547
  23437250.100   123163599.88107  23437257.240    95971676.86546
  22052730.200   115887838.50408  22052739.800    90302233.97847
  20467788.000   107558962.77309  20467792.780    83812204.09249
  21779723.120   114453189.53408  21779730.800    89184322.04048
  20150785.820   105893096.99409  20150790.760    82514124.86849
  20125143.320   105758335.99708  20125147.700    82409109.57549
  23962687.260   125924685.40107  23962694.820    98123123.43544
  20625094.360   108385658.31309  20625101.800    84456407.52849
 15 03 01 11 11  0.0000000  0  9G02G05G06G07G09G10G20G23G30
  21826788.420   114700552.11808  21826791.700    89377067.74247
  23419628.260   123070997.25407  23419635.500    95899519.08746
  22068063.880   115968417.17808  22068073.580    90365022.47048
  20471310.860   107577475.64609  20471315.660    83826629.70549
  21790201.860   114508255.66108  21790209.520    89227230.67348
  20150643.340   105892348.38508  20150648.260    82513541.54948
  20128638.640   105776704.27008  20128643.080    82423422.51149
  23976767.780   125998678.97006  23976775.540    98180780.60445
  20616351.800   108339715.98609  20616359.220    84420608.37449
 15 03 01 11 11 30.0000000  0  9G02G05G06G07G09G10G20G23G30
  21825822.700   114695477.81608  21825826.000    89373113.76147
  23402025.240   122978493.49807  23402032.580    95827438.36546
  22083462.940   116049339.76708  22083472.780    90428078.94047
  20474928.880   107596488.56608  20474933.680    83841444.97049
  21800705.220   114563451.25908  21800712.920    89270240.20148
  20150587.160   105892053.38108  20150592.100    82513311.68748
  20132223.460   105795542.52908  20132227.880    82438101.66749
  23990856.120   126072714.11406  23990864.180    98238470.15144
  20607706.400   108294284.34509  20607713.840    84385207.15849
 15 03 01 11 12  0.0000000  0  9G02G05G06G07G09G10G20G23G30
  21824965.040   114690971.81508  21824968.460    89369602.61847
  23384441.860   122886092.91707  23384449.240    95755438.03346
  22098927.320   116130605.65608  22098937.260    90491402.91147
  20478642.220   107616002.40508  20478647.000    83856650.58149
  21811233.600   114618778.11708  21811241.320    89313352.00848
  20150617.880   105892215.20208  20150622.860    82513437.79249
  20135898.280   105814853.62508  20135902.620    82453149.26549
  24004952.740   126146793.29606  24004961.100    98296194.01045
  20599158.780   108249366.60009  20599166.220    84350206.38449
 15 03 01 11 12 30.0000000  0  9G02G05G06G07G09G10G20G23G30
  21824214.840   114687030.26808  21824218.360    89366531.29947
  23366877.700   122793793.49807  23366885.100    95683516.52646
  22114455.840   116212208.33708  22114465.780    90554989.32447
  20482450.000   107636012.46808  20482454.760    83872242.85949
  21821786.180   114674232.18608  21821793.920    89356562.94448
  20150735.080   105892831.13109  20150740.060    82513917.74548
  20139662.400   105834634.29408  20139666.760    82468562.75849
  24019057.080   126220912.54206  24019065.620    98353949.10545
  20590708.440   108204960.06109  20590715.880    84315603.95149
 15 03 01 11 13  0.0000000  0  9G02G05G06G07G09G10G20G23G30
  21823572.480   114683655.09008  21823576.080    89363901.30847
  23349333.480   122701598.94207  23349340.900    95611676.73446
  22130048.340   116294146.93708  22130058.220    90618837.48547
  20486352.340   107656519.52408  20486357.080    83888222.41049
  21832363.260   114729814.95608  21832371.000    89399874.16148
  20150939.260   105893903.74709  20150944.160    82514753.56049
  20143516.300   105854886.83808  20143520.680    82484343.95149
  24033169.520   126295073.56806  24033178.100    98411736.73345
  20582355.960   108161067.60609  20582363.360    84281402.10449
 15 03 01 11 13 30.0000000  0  9G02G05G06G07G09G10G20G23G30
  21823037.760   114680845.11508  21823041.360    89361711.73647
  23331809.540   122609510.74407  23331816.960    95539919.82146
  22145704.060   116376417.78508  22145713.880    90682944.53647
  20490348.940   107677521.93808  20490353.660    83904587.96249
  21842964.660   114785525.26608  21842972.360    89443284.75348
  20151230.360   105895433.24409  20151235.220    82515945.38748
  20147459.960   105875610.77708  20147464.320    82500492.47149
  24047290.020   126369275.77706  24047298.480    98469556.46045
  20574101.360   108117689.36109  20574108.680    84247600.94449
