     2.11           OBSERVATION DATA    G                   RINEX VERSION / TYPE
SPIDER V4,0,0,3554                      2015 03 13 02:55    PGM / RUN BY / DATE 
EMHD                                                        MARKER NAME         
EMHD                                                        MARKER NUMBER       
                                                            OBSERVER / AGENCY   
462397              LEICA GRX1200PRO    8.20/2.127          REC # / TYPE / VERS 
103297              LEIAT504                                ANT # / TYPE        
  5146535.6892   265261.6083  3747697.6292                  APPROX POSITION XYZ 
        0.0470        0.0000        0.0000                  ANTENNA: DELTA H/E/N
     1     1                                                WAVELENGTH FACT L1/2
     4    C1    L1    P2    L2                              # / TYPES OF OBSERV 
    30.000                                                  INTERVAL            
  2015    03    01    00    00    0.0000000     GPS         TIME OF FIRST OBS   
  2015    03    01    23    59   30.0000000     GPS         TIME OF LAST OBS    
    16                                                      LEAP SECONDS        
    30                                                      # OF SATELLITES     
   G 1   778   778   778   778                              PRN / # OF OBS      
   G 2   874   874   874   874                              PRN / # OF OBS      
   G 3   783   783   783   783                              PRN / # OF OBS      
   G 4   817   817   817   817                              PRN / # OF OBS      
   G 5   646   646   646   646                              PRN / # OF OBS      
   G 6   684   684   684   684                              PRN / # OF OBS      
   G 7   640   640   639   639                              PRN / # OF OBS      
   G 9   741   741   741   741                              PRN / # OF OBS      
   G10   720   720   720   720                              PRN / # OF OBS      
   G11   750   750   750   750                              PRN / # OF OBS      
   G12   802   802   802   802                              PRN / # OF OBS      
   G13   766   766   766   766                              PRN / # OF OBS      
   G14   806   806   806   806                              PRN / # OF OBS      
   G15   705   705   705   705                              PRN / # OF OBS      
   G16   642   642   642   642                              PRN / # OF OBS      
   G17   910   910   909   909                              PRN / # OF OBS      
   G18   821   821   821   821                              PRN / # OF OBS      
   G19   753   753   752   752                              PRN / # OF OBS      
   G20   735   735   735   735                              PRN / # OF OBS      
   G21   628   628   628   628                              PRN / # OF OBS      
   G22   706   706   706   706                              PRN / # OF OBS      
   G23   730   730   729   729                              PRN / # OF OBS      
   G24   736   736   736   736                              PRN / # OF OBS      
   G25   780   780   780   780                              PRN / # OF OBS      
   G27   788   788   788   788                              PRN / # OF OBS      
   G28   827   827   827   827                              PRN / # OF OBS      
   G29   730   730   730   730                              PRN / # OF OBS      
   G30   663   663   663   663                              PRN / # OF OBS      
   G31   794   794   794   794                              PRN / # OF OBS      
   G32   730   730   730   730                              PRN / # OF OBS      
BIT 2 OF LLI FLAGS DATA COLLECTED UNDER A/S CONDITION       COMMENT             
SNR is mapped to RINEX snr flag value [2-9]                 COMMENT             
Lx:     = 25dBHz -> 1; 26-27dBHz -> 2; 28-31dBHz -> 3       COMMENT             
       32-35dBHz -> 4; 36-38dBHz -> 5; 39-41dBHz -> 6       COMMENT             
       42-44dBHz -> 7; 45-48dBHz -> 8; >=49dBHz -> 9        COMMENT             
                                                            END OF HEADER       
 15 03 01 00 00  0.0000000  0  7G16G18G21G22G27G29G31
  21470983.560   112830807.67607  21470980.940    87920114.46848
  22613137.880   118832871.72906  22613136.320    92597057.28546
  21399247.160   112453816.09807  21399244.380    87626347.17848
  23859929.100   125384775.27504  23859928.520    97702415.06746
  22631598.120   118929884.88906  22631598.940    92672655.36647
  24221838.520   127286602.47804  24221837.820    99184355.65844
  23106749.860   121426772.06905  23106748.900    94618248.94647
 15 03 01 00 00 30.0000000  0  7G16G18G21G22G27G29G31
  21458491.620   112765162.21707  21458489.080    87868962.16848
  22602007.280   118774380.49106  22602005.720    92551479.73446
  21407172.100   112495461.69207  21407169.300    87658798.29448
  23842203.380   125291627.09605  23842202.800    97629832.08545
  22619628.380   118866983.54606  22619629.260    92623641.37247
  24236326.700   127362738.02804  24236326.040    99243681.99146
  23124606.840   121520610.37805  23124605.780    94691369.81747
 15 03 01 00 01  0.0000000  0  7G16G18G21G22G27G29G31
  21446056.080   112699813.26607  21446053.620    87818040.91848
  22590935.700   118716199.15606  22590934.040    92506143.64946
  21415158.640   112537431.00107  21415155.780    87691501.64848
  23824482.440   125198502.87304  23824481.700    97557267.58545
  22607681.560   118804202.06106  22607682.320    92574720.76047
  24250818.120   127438890.65504  24250817.200    99303021.63246
  23142493.460   121614604.67205  23142492.340    94764612.10446
 15 03 01 00 01 30.0000000  0  7G16G18G21G22G27G29G31
  21433676.860   112634759.90507  21433674.420    87767349.99348
  22579922.980   118658327.42106  22579921.280    92461048.82146
  21423205.900   112579719.52807  21423203.020    87724453.74048
  23806766.280   125105403.00905  23806765.340    97484722.33746
  22595756.900   118741537.39706  22595757.620    92525891.19147
  24265312.100   127515056.94404  24265311.140    99362371.92247
  23160408.680   121708749.37406  23160407.400    94837971.46847
 15 03 01 00 02  0.0000000  0  7G16G18G21G22G27G29G31
  21421354.800   112570006.72707  21421352.320    87716892.97848
  22568970.040   118600769.73506  22568968.360    92416198.69646
  21431314.060   112622328.35107  21431311.240    87757655.41548
  23789055.580   125012332.38405  23789054.460    97412199.99745
  22583854.880   118678992.00406  22583855.480    92477154.55247
  24279809.040   127591239.64304  24279808.320    99421735.03345
  23178352.340   121803043.91405  23178351.140    94911447.58047
 15 03 01 00 02 30.0000000  0  7G16G18G21G22G27G29G31
  21409089.760   112505553.43307  21409087.280    87666669.63048
  22558076.940   118543525.89206  22558075.180    92371593.12946
  21439482.440   112665253.53307  21439479.660    87791103.60248
  23771350.340   124919290.86504  23771349.240    97339700.03445
  22571975.060   118616563.66706  22571975.600    92428509.13147
  24294308.620   127667436.29604  24294308.100    99481108.95045
  23196323.580   121897483.28105  23196322.540    94985036.63847
 15 03 01 00 03  0.0000000  0  7G16G18G21G22G27G29G31
  21396881.980   112441401.11407  21396879.480    87616680.81548
  22547243.940   118486597.39106  22547241.980    92327233.26946
  21447710.420   112708491.85207  21447707.640    87824795.79548
  23753651.060   124826280.40504  23753649.900    97267224.50744
  22560117.220   118554251.13106  22560117.840    92379953.94147
  24308810.720   127743645.39604  24308810.340    99540492.65445
  23214321.600   121992063.25206  23214320.680    95058735.36847
 15 03 01 00 03 30.0000000  0  7G16G18G21G22G27G29G31
  21384731.820   112377551.79907  21384729.340    87566928.10348
  22536471.340   118429986.25806  22536469.340    92283120.72846
  21455997.580   112752041.42607  21455994.820    87858730.52448
  23735957.920   124733302.56804  23735956.640    97194774.08945
  22548281.460   118492054.25206  22548282.180    92331488.87547
  24323315.400   127819866.80004  24323314.860    99599885.88945
  23232345.640   122086780.45005  23232344.720    95132540.91946
 15 03 01 00 04  0.0000000  0  7G16G18G21G22G27G29G31
  21372640.060   112314009.24307  21372637.560    87517414.42148
  22525759.660   118373696.09706  22525757.760    92239258.29646
  21464343.960   112795901.91007  21464341.180    87892907.52048
  23718271.960   124640361.72505  23718270.440    97122352.25146
  22536468.100   118429974.67906  22536468.960    92283115.21447
  24337822.660   127896102.13304  24337822.200    99659289.98545
  23250395.480   122181633.38105  23250394.600    95206452.13446
 15 03 01 00 04 30.0000000  0  7G16G18G21G22G27G29G31
  21360607.740   112250779.25807  21360605.240    87468144.30748
  22515110.200   118317733.31906  22515108.400    92195650.95746
  21472749.940   112840075.38307  21472747.060    87927328.41148
  23700594.760   124547466.23704  23700593.120    97049966.52146
  22524677.700   118368015.96106  22524678.680    92234835.73547
  24352333.040   127972354.57904  24352332.760    99718707.41845
  23268471.420   122276622.73705  23268470.580    95280469.61147
 15 03 01 00 05  0.0000000  0  7G16G18G21G22G27G29G31
  21348634.280   112187858.32507  21348631.780    87419115.02048
  22504522.300   118262094.40206  22504520.680    92152295.97546
  21481214.100   112884554.65007  21481211.220    87961987.57148
  23682925.020   124454611.51304  23682923.480    96977612.47546
  22512909.340   118306172.84806  22512910.240    92186646.33447
  24366845.720   128048619.13004  24366845.480    99778134.31646
  23286571.800   122371740.25605  23286570.920    95354586.91347
 15 03 01 00 05 30.0000000  0  7G16G18G21G22G27G29G31
  21336720.460   112125250.78307  21336718.000    87370329.92548
  22493997.040   118206783.89706  22493995.500    92109196.90146
  21489736.440   112929339.95407  21489733.620    87996885.20548
  23665263.700   124361802.15604  23665262.380    96905293.56545
  22501163.240   118244447.40406  22501164.180    92138548.62047
  24381361.120   128124897.89804  24381360.820    99837572.26244
  23304696.420   122466985.14905  23304695.620    95428803.55547
 15 03 01 00 06  0.0000000  0  7G16G18G21G22G27G29G31
  21324866.820   112062959.51907  21324864.400    87321791.28848
  22483534.960   118151804.65206  22483533.280    92066355.95946
  21498316.780   112974429.94507  21498313.940    88032020.26048
  23647611.500   124269041.81404  23647610.340    96833012.77243
  22489439.640   118182840.47406  22489440.660    92090543.25247
  24395879.380   128201191.32804  24395879.000    99897021.63545
  23322844.840   122562355.05905  23322844.060    95503117.55446
 15 03 01 00 06 30.0000000  0  7G16G18G21G22G27G29G31
  21313073.640   112000986.08707  21313071.260    87273500.31248
  22473136.200   118097158.33406  22473134.320    92023774.43946
  21506954.820   113019822.93607  21506951.940    88067391.42048
  23629969.360   124176332.93104  23629968.320    96760772.28646
  22477738.560   118121351.33506  22477739.620    92042629.66647
  24410400.200   128277498.67904  24410399.760    99956481.87443
  23341016.380   122657846.21105  23341015.500    95577525.91247
 15 03 01 00 07  0.0000000  0  7G16G18G21G22G27G29G31
  21301340.880   111939329.93507  21301338.480    87225456.56448
  22462800.520   118042844.41606  22462798.660    91981451.93446
  21515649.500   113065514.03207  21515646.700    88102994.87048
  23612337.140   124083675.38604  23612335.980    96688571.87245
  22466059.500   118059977.32906  22466060.600    91994805.80948
  24424923.120   128353817.03904  24424922.720   100015950.70745
  23359210.100   122753453.18605  23359208.960    95652024.54446
 15 03 01 00 07 30.0000000  0  7G16G18G21G22G27G29G31
  21289669.500   111877996.18807  21289667.020    87177664.03248
  22452528.940   117988867.47406  22452527.120    91939391.99846
  21524401.100   113111504.26607  21524398.380    88138831.40948
  23594715.680   123991075.09704  23594714.660    96616416.32745
  22454403.000   117998721.40906  22454404.060    91947073.95447
  24439448.720   128430149.43204  24439448.280   100075430.45144
  23377425.960   122849176.03305  23377424.720    95726613.53646
 15 03 01 00 08  0.0000000  0  7G16G18G21G22G27G29G31
  21278060.020   111816987.96407  21278057.540    87130125.16448
  22442322.280   117935231.63206  22442320.440    91897597.85146
  21533209.480   113157792.67307  21533206.760    88174900.29448
  23577105.640   123898535.01305  23577104.640    96544307.58446
  22442769.080   117937584.89706  22442770.160    91899435.13948
  24453977.160   128506496.82404  24453976.700   100134921.88446
  23395663.440   122945012.51405  23395662.100    95801291.00246
 15 03 01 00 08 30.0000000  0  7G16G18G21G22G27G29G31
  21266512.700   111756306.39907  21266510.220    87082840.83548
  22432180.880   117881937.94706  22432179.060    91856070.32946
  21542074.300   113204377.28807  21542071.560    88211199.99248
  23559507.360   123806056.65205  23559506.400    96472246.87345
  22431157.740   117876566.66006  22431158.700    91851888.49247
  24468508.380   128582858.40904  24468507.900   100194424.39944
  23413921.720   123040958.95405  23413920.420    95876054.10446
 15 03 01 00 09  0.0000000  0  7G16G18G21G22G27G29G31
  21255028.020   111695954.33207  21255025.620    87035813.26348
  22422105.220   117828989.06906  22422103.300    91814811.49246
  21550995.260   113251256.79507  21550992.500    88247729.47048
  23541921.420   123713643.65604  23541920.460    96400237.06246
  22419569.060   117815667.49306  22419570.000    91804434.62347
  24483042.380   128659234.73404  24483041.800   100253938.38845
  23432200.480   123137013.06705  23432199.240    95950901.10446
 15 03 01 00 09 30.0000000  0  7G16G18G21G22G27G29G31
  21243606.020   111635931.44007  21243603.640    86989042.18548
  22412094.880   117776384.44806  22412092.960    91773820.90146
  21559971.280   113298426.45007  21559968.620    88284485.03948
  23524348.000   123621295.98204  23524347.000    96328278.09546
  22408002.580   117754884.72106  22408003.400    91757071.46047
  24497578.620   128735623.08304  24497578.100   100313461.73046
  23450498.700   123233169.10705  23450497.420    96025827.46347
 15 03 01 00 10  0.0000000  0  7G16G18G21G22G27G29G31
  21232247.620   111576242.78407  21232245.260    86942531.55448
  22402150.940   117724129.30506  22402149.140    91733102.63147
  21569002.700   113345887.40807  21569000.160    88321467.59648
  23506788.200   123529019.60904  23506787.260    96256374.69645
  22396458.800   117694221.55106  22396459.460    91709801.49647
  24512117.600   128812026.28604  24512117.180   100372996.67345
  23468816.360   123329427.37305  23468815.120    96100833.51346
 15 03 01 00 10 30.0000000  0  6G16G18G21G22G27G31
  21220945.080   111516847.67507  21220942.760    86896249.66748
  22392265.680   117672182.47806  22392263.940    91692624.61446
  21578081.020   113393594.93007  21578078.580    88358642.28048
  23489234.340   123436774.16905  23489233.120    96184495.38045
  22384929.500   117633635.17506  22384930.120    91662591.36647
  23487144.600   123425742.08405  23487143.560    96175883.61546
 15 03 01 00 11  0.0000000  0  7G16G18G21G22G27G29G31
  21209724.560   111457883.24507  21209722.200    86850303.36448
  22382465.400   117620681.99006  22382463.720    91652494.38246
  21587231.720   113441682.52407  21587229.300    88396113.12848
  23471712.640   123344697.55305  23471711.180    96112747.59346
  22373440.460   117573260.78206  22373441.080    91615546.41947
  24541205.780   128964903.08204  24541204.900   100492128.57845
  23505508.700   123522245.15805  23505507.900    96251080.47046
 15 03 01 00 11 30.0000000  0  6G16G18G21G22G27G31
  21198549.720   111399158.98007  21198547.300    86804544.21148
  22372713.740   117569436.84706  22372711.980    91612563.12046
  21596417.760   113489955.64807  21596415.360    88433728.54148
  23454186.780   123252599.49104  23454185.180    96040983.08646
  22361955.020   117512905.37806  22361955.740    91568516.25748
  23523871.380   123618740.73905  23523870.740    96326271.50446
 15 03 01 00 12  0.0000000  0  6G16G18G21G22G27G31
  21187451.820   111340839.13007  21187449.340    86759100.17848
  22363042.060   117518611.74706  22363040.340    91572959.16546
  21605669.800   113538575.31507  21605667.420    88471613.98448
  23436688.080   123160644.95405  23436686.500    95969330.39745
  22350504.260   117452731.76606  22350505.120    91521627.76347
  23542263.260   123715388.74305  23542262.580    96401581.29946
 15 03 01 00 12 30.0000000  0  6G16G18G21G22G27G31
  21176417.160   111282851.43507  21176414.600    86713914.96548
  22353436.580   117468134.27806  22353434.880    91533626.09846
  21614973.180   113587464.54707  21614970.760    88509709.47548
  23419203.200   123068762.39604  23419201.560    95897733.79146
  22339073.980   117392665.35806  22339074.860    91474822.79848
  23560669.280   123812111.41505  23560668.640    96476949.27346
 15 03 01 00 13  0.0000000  0  6G16G18G21G22G27G31
  21165445.860   111225196.86907  21165443.240    86668989.33848
  22343897.380   117418004.97606  22343895.580    91494564.32746
  21624327.400   113636620.78507  21624324.860    88548013.03148
  23401732.360   122976953.49704  23401730.660    95826194.55546
  22327664.060   117332705.25106  22327664.840    91428100.65748
  23579088.580   123908904.73505  23579088.160    96552372.32446
 15 03 01 00 13 30.0000000  0  6G16G18G21G22G27G31
  21154542.840   111167901.18607  21154540.200    86624343.36348
  22334429.180   117368249.59106  22334427.380    91455793.90746
  21633736.600   113686065.83107  21633733.920    88586541.63848
  23384280.620   122885244.20805  23384278.760    95754732.97246
  22316278.840   117272874.85606  22316279.580    91381479.61247
  23597525.320   124005789.47005  23597525.120    96627866.61847
 15 03 01 00 14  0.0000000  0  6G16G18G21G22G27G31
  21143706.700   111110956.74207  21143704.060    86579971.07948
  22325030.620   117318860.22606  22325028.800    91417308.71746
  21643198.280   113735787.04007  21643195.560    88625285.42348
  23366846.540   122793627.53805  23366844.540    95683343.49146
  22304916.420   117213164.59206  22304917.160    91334952.17447
  23615977.080   124102752.51505  23615976.900    96703421.92246
 15 03 01 00 14 30.0000000  0  6G16G18G21G22G27G31
  21132939.840   111054376.71807  21132937.280    86535882.76348
  22315704.400   117269850.48906  22315702.520    91379119.31546
  21652714.440   113785794.68807  21652711.720    88664252.41148
  23349432.540   122702117.27605  23349430.540    95612036.98145
  22293578.760   117153585.53806  22293579.640    91288526.96448
  23634445.420   124199802.11905  23634445.040    96779044.70946
 15 03 01 00 15  0.0000000  0  6G16G18G21G22G27G31
  21122239.300   110998145.14007  21122236.800    86492065.96248
  22306447.280   117221204.01006  22306445.340    91341212.98947
  21662281.340   113836068.90807  21662278.600    88703427.12048
  23332035.860   122610698.00605  23332033.880    95540801.32046
  22282262.600   117094119.97706  22282263.560    91242190.19847
  23652926.200   124296917.69405  23652925.900    96854718.94046
 15 03 01 00 15 30.0000000  0  6G16G18G21G22G27G31
  21111605.440   110942263.92307  21111602.920    86448522.16248
  22297259.640   117172922.94906  22297257.720    91303591.40346
  21671898.440   113886607.44107  21671895.720    88742807.78548
  23314656.960   122519372.29505  23314654.920    95469638.57745
  22270968.160   117034767.61206  22270969.040    91195941.62047
  23671418.740   124394095.90404  23671418.640    96930442.05946
 15 03 01 00 16  0.0000000  0  6G16G18G21G22G27G31
  21101039.320   110886738.43807  21101036.720    86405255.56148
  22288142.460   117125012.24706  22288140.700    91266258.40147
  21681566.200   113937412.41207  21681563.540    88782396.06348
  23297297.140   122428146.09905  23297294.960    95398553.36046
  22259696.080   116975531.85906  22259696.800    91149783.92148
  23689923.300   124491337.30605  23689923.320    97006214.50446
 15 03 01 00 16 30.0000000  0  6G16G18G21G22G27G31
  21090542.920   110831579.37908  21090540.260    86362274.47348
  22279097.840   117077482.34506  22279096.160    91229222.13246
  21691285.640   113988488.69507  21691283.060    88822195.75248
  23279958.400   122337030.52305  23279956.140    95327554.34245
  22248447.760   116916421.22306  22248448.400    91103723.72047
  23708440.780   124588647.04704  23708440.960    97082040.21345
 15 03 01 00 17  0.0000000  0  6G16G18G21G22G27G31
  21080115.260   110776781.49507  21080112.560    86319574.83648
  22270124.740   117030328.23706  22270123.120    91192478.69046
  21701055.340   114039828.68607  21701052.840    88862200.93048
  23262639.900   122246020.92605  23262637.540    95256637.89146
  22237221.900   116857428.62606  22237222.520    91057755.47548
  23726969.180   124686014.98704  23726969.620    97157911.24945
 15 03 01 00 17 30.0000000  0  6G16G18G21G22G27G31
  21069756.800   110722347.54707  21069754.120    86277158.78348
  22261223.580   116983552.43306  22261221.960    91156030.02846
  21710875.120   114091431.45607  21710872.580    88902410.86648
  23245342.180   122155120.82805  23245339.720    95185806.80046
  22226018.660   116798554.92606  22226019.240    91011879.89847
  23745508.240   124783439.03004  23745508.840    97233826.06146
 15 03 01 00 18  0.0000000  0  7G16G18G19G21G22G27G31
  21059469.440   110668287.11807  21059466.720    86235033.77848
  22252396.080   116937164.24306  22252394.500    91119883.39947
  24402036.280   128233565.36614                                
  21720745.820   114143302.06407  21720743.220    88942829.51348
  23228067.020   122064340.63205  23228064.680    95115069.09346
  22214839.460   116739807.70006  22214840.000    90966102.86948
  23764058.820   124880923.38004  23764059.660    97309787.77845
 15 03 01 00 18 30.0000000  0  7G16G18G19G21G22G27G31
  21049254.900   110614609.17707  21049252.100    86193206.81148
  22243644.040   116891172.86706  22243642.680    91084045.98746
  24386908.540   128154070.87603  24386908.200    99860312.54445
  21730668.460   114195445.96207  21730665.780    88983461.11048
  23210816.560   121973689.98005  23210814.260    95044432.33246
  22203685.540   116681194.01706  22203686.160    90920429.90048
  23782621.660   124978472.35405  23782622.740    97385799.83046
 15 03 01 00 19  0.0000000  0  7G16G18G19G21G22G27G31
  21039107.400   110561283.73407  21039104.600    86151654.52148
  22234961.840   116845547.81106  22234960.580    91048494.00346
  24371792.140   128074634.55104  24371791.700    99798414.17545
  21740636.660   114247828.91307  21740633.920    89024278.97948
  23193585.120   121883138.85805  23193582.860    94973873.13146
  22192550.900   116622681.72506  22192551.600    90874835.92847
  23801190.260   125076050.71704  23801191.380    97461834.74245
 15 03 01 00 19 30.0000000  0  7G16G18G19G21G22G27G31
  21029030.080   110508327.11007  21029027.300    86110389.61948
  22226352.440   116800305.09806  22226351.180    91013239.96447
  24356689.940   127995270.76104  24356688.980    99736572.38841
  21750652.700   114300463.11907  21750649.940    89065292.63948
  23176375.940   121792704.49805  23176373.800    94903404.89746
  22181438.360   116564285.21706  22181439.080    90829332.18548
  23819766.640   125173670.01104  23819767.880    97537901.49746
 15 03 01 00 20  0.0000000  0  7G16G18G19G21G22G27G31
  21019025.380   110455752.21707  21019022.660    86069422.17448
  22217818.300   116755457.61106  22217817.020    90978293.89946
  24341603.680   127915991.01004  24341602.560    99674792.27345
  21760718.280   114353357.98107  21760715.560    89106509.39348
  23159191.580   121702400.43905  23159189.600    94833038.21046
  22170349.980   116506015.43906  22170350.680    90783927.18848
  23838352.420   125271337.86404  23838353.520    97614006.12346
 15 03 01 00 20 30.0000000  0  7G16G18G19G21G22G27G31
  21009092.760   110403556.25607  21009090.100    86028749.99748
  22209358.700   116711002.19906  22209357.380    90943653.34146
  24326532.060   127836788.97604  24326530.940    99613076.52945
  21770832.120   114406506.42207  21770829.400    89147923.74748
  23142031.580   121612224.68205  23142029.720    94762771.48546
  22159284.820   116447867.73106  22159285.540    90738617.31248
  23856945.940   125369046.80404  23856947.060    97690142.73245
 15 03 01 00 21  0.0000000  0  7G16G18G19G21G22G27G31
  20999233.960   110351748.16007  20999231.340    85988380.05848
  22200975.400   116666948.16206  22200974.040    90909325.54047
  24311476.520   127757672.69304  24311475.300    99551427.57645
  21780995.320   114459914.23307  21780992.520    89189540.21648
  23124897.920   121522186.95705  23124896.000    94692612.30446
  22148244.260   116389849.26706  22148244.980    90693408.15248
  23875548.080   125466800.92604  23875549.160    97766314.56245
 15 03 01 00 21 30.0000000  0  7G16G18G19G21G22G27G31
  20989448.160   110300323.48607  20989445.560    85948308.87848
  22192667.620   116623290.58606  22192666.160    90875306.66647
  24296435.720   127678635.39703  24296435.100    99489840.15845
  21791206.120   114513572.11807  21791203.240    89231351.54948
  23107789.860   121432283.28205  23107787.780    94622557.59346
  22137227.060   116331953.58206  22137227.800    90648294.64648
  23894157.160   125564590.75104  23894158.060    97842514.18746
 15 03 01 00 22  0.0000000  0  7G16G18G19G21G22G27G31
  20979735.420   110249282.67707  20979732.840    85908536.81548
  22184435.220   116580029.28206  22184433.760    90841596.57147
  24281409.440   127599664.64704  24281409.340    99428310.19846
  21801464.000   114567477.73307  21801461.160    89273355.91248
  23090707.400   121342514.71405  23090705.200    94552608.15146
  22126232.920   116274179.16306  22126233.620    90603275.64648
  23912772.180   125662411.48904  23912772.940    97918737.84746
 15 03 01 00 22 30.0000000  0  7G16G18G19G21G22G27G31
  20970093.300   110198613.13107  20970090.760    85869054.05048
  22176275.880   116537151.77406  22176274.440    90808185.55147
  24266396.440   127520767.36504  24266395.700    99366831.88145
  21811765.780   114621613.96007  21811763.000    89315539.96348
  23073648.360   121252869.21405  23073645.980    94482754.60546
  22115258.980   116216511.47806  22115259.740    90558339.82348
  23931389.760   125760245.69304  23931390.500    97994971.96045
 15 03 01 00 23  0.0000000  0  7G16G18G19G21G22G27G31
  20960527.800   110148346.18707  20960525.300    85829885.00248
  22168195.520   116494689.36406  22168194.080    90775097.98347
  24251400.620   127441962.09704  24251399.580    99305425.31744
  21822116.720   114676008.55907  21822113.980    89357925.35548
  23056618.880   121163378.78905  23056616.420    94413021.90546
  22104311.060   116158979.96506  22104311.780    90513510.10348
  23950015.020   125858120.14804  23950015.680    98071237.55546
 15 03 01 00 23 30.0000000  0  7G16G18G19G21G22G27G31
  20951035.480   110098463.72408  20951033.040    85791015.54648
  22160190.720   116452623.75606  22160189.180    90742319.60347
  24236418.680   127363229.09004  24236417.100    99244075.01345
  21832512.520   114730639.08207  21832509.760    89400494.58648
  23039615.580   121074026.40205  23039613.140    94343396.75045
  22093385.340   116101564.83206  22093385.980    90468771.06548
  23968643.440   125956011.68204  23968644.140    98147516.42446
 15 03 01 00 24  0.0000000  0  7G16G18G19G21G22G27G31
  20941618.120   110048975.00807  20941615.680    85752452.91348
  22152263.100   116410963.55306  22152261.460    90709857.13247
  24221451.780   127284575.44804  24221449.680    99182786.56543
  21842954.240   114785511.17007  21842951.480    89443252.05448
  23022640.220   120984821.75205  23022637.960    94273886.72347
  22082483.100   116044273.35806  22082483.800    90424128.39548
  23987275.800   126053924.51404  23987276.580    98223811.92146
 15 03 01 00 24 30.0000000  0  7G16G18G19G21G22G27G31
  20932277.220   109999888.18707  20932274.780    85714203.44048
  22144414.160   116369716.91406  22144412.480    90677716.91447
  24206500.720   127206007.42804  24206498.680    99121564.84645
  21853442.940   114840629.75707  21853440.200    89486201.58948
  23005694.700   120895773.39405  23005692.460    94204498.46446
  22071605.620   115987111.82006  22071606.320    90379586.95948
  24005912.760   126151861.75104  24005913.640    98300126.37446
 15 03 01 00 25  0.0000000  0  7G16G18G19G21G22G27G31
  20923013.140   109951205.04707  20923010.680    85676268.52348
  22136644.160   116328885.11206  22136642.480    90645899.95347
  24191565.260   127127524.50303  24191563.680    99060409.41646
  21863977.940   114895991.72207  21863975.320    89529340.76548
  22988779.580   120806884.08805  22988777.280    94135234.14046
  22060752.840   115930080.18906  22060753.540    90335146.75248
  24024553.840   126249820.52804  24024554.800    98376457.63546
 15 03 01 00 25 30.0000000  0  7G16G18G19G21G22G27G31
  20913823.960   109902915.82207  20913821.520    85638640.55848
  22128951.180   116288458.22406  22128949.540    90614398.49246
  24176643.840   127049114.83604  24176642.740    98999311.09346
  21874556.860   114951583.92507  21874554.220    89572659.34448
  22971893.020   120718144.32505  22971890.540    94066086.35047
  22049922.480   115873166.74906  22049923.240    90290798.64148
  24043196.260   126347785.96404  24043197.280    98452794.07845
 15 03 01 00 26  0.0000000  0  6G16G18G21G22G27G31
  20904713.680   109855041.04808  20904711.260    85601335.54148
  22121339.080   116248456.56306  22121337.400    90583228.39547
  21885182.820   115007423.52407  21885180.180    89616170.71747
  22955039.160   120629576.26505  22955036.520    93997072.34847
  22039118.320   115816390.46306  22039119.060    90246557.40448
  24061842.960   126445774.22204  24061844.080    98529148.29645
 15 03 01 00 26 30.0000000  0  7G16G18G19G21G22G27G31
  20895674.920   109807541.99708  20895672.460    85564323.28948
  22113800.520   116208840.85507  22113798.720    90552359.03347
  24146846.300   126892536.28304  24146846.060    98877298.93646
  21895847.700   115063467.64507  21895845.000    89659841.45848
  22938210.660   120541141.21205  22938207.820    93928162.00046
  22028332.600   115759710.43406  22028333.200    90202391.18248
  24080485.460   126543740.90804  24080486.600    98605485.67745
 15 03 01 00 27  0.0000000  0  7G16G18G19G21G22G27G31
  20886713.220   109760447.74607  20886710.720    85527626.46848
  22106340.860   116169639.79406  22106338.940    90521812.76347
  24131968.480   126814349.25604  24131967.160    98816374.04144
  21906556.140   115119740.69307  21906553.420    89703690.57648
  22921413.100   120452869.11506  22921410.160    93859378.62946
  22017570.380   115703154.23906  22017570.920    90158321.44748
  24099128.600   126641711.17804  24099129.960    98681825.80345
 15 03 01 00 27 30.0000000  0  7G16G18G19G21G22G27G31
  20877831.540   109713774.09407  20877829.000    85491257.38748
  22098963.160   116130869.70306  22098961.280    90491602.32547
  24117107.880   126736254.87604  24117106.160    98755521.38644
  21917310.640   115176255.99007  21917307.980    89747728.45848
  22904649.720   120364776.48006  22904646.580    93790735.08846
  22006834.360   115646735.91506  22006834.780    90114359.14748
  24117774.480   126739695.56304  24117776.020    98758176.92246
 15 03 01 00 28  0.0000000  0  7G16G18G19G21G22G27G31
  20869028.780   109667515.28607  20869026.240    85455211.56748
  22091666.240   116092524.11107  22091664.380    90461722.65647
  24102262.920   126658244.97204  24102261.260    98694734.53046
  21928109.340   115233003.54707  21928106.740    89791947.31347
  22887919.360   120276858.16305  22887916.260    93722227.38446
  21996123.040   115590447.68006  21996123.400    90070498.21848
  24136421.160   126837683.22704  24136422.780    98834530.62846
 15 03 01 00 28 30.0000000  0  7G16G18G19G21G22G27G31
  20860303.280   109621662.41908  20860300.740    85419482.06048
  22084448.280   116054593.36506  22084446.300    90432166.25547
  24087432.040   126580308.96304  24087430.560    98634005.31345
  21938949.800   115289970.50407  21938947.220    89836337.14348
  22871220.480   120189106.11205  22871217.560    93653849.23246
  21985434.440   115534279.01806  21985434.840    90026730.46248
  24155066.240   126935660.88604  24155067.700    98910876.52646
 15 03 01 00 29  0.0000000  0  7G16G18G19G21G22G27G31
  20851656.220   109576221.59408  20851653.660    85384073.62548
  22077310.340   116017083.28407  22077308.300    90402937.64546
  24072616.240   126502451.14604  24072614.620    98573336.97245
  21949832.600   115347159.88007  21949829.960    89880900.28547
  22854554.660   120101527.13705  22854551.700    93585605.94446
  21974769.380   115478234.27006  21974769.880    89983059.25448
  24173709.540   127033629.85004  24173711.020    98987215.63744
 15 03 01 00 29 30.0000000  0  7G16G18G19G21G22G27G31
  20843088.780   109531199.14607  20843086.180    85348991.19848
  22070253.660   115980000.15906  22070251.580    90374041.71846
  24057816.160   126424676.11904  24057814.460    98512733.16045
  21960758.060   115404573.46007  21960755.380    89925638.13647
  22837923.180   120014128.47705  22837920.020    93517503.15346
  21964128.820   115422318.07806  21964129.420    89939488.22048
  24192351.160   127131591.65404  24192352.780    99063549.23845
 15 03 01 00 30  0.0000000  0  7G16G18G19G21G22G27G31
  20834601.080   109486595.75307  20834598.400    85314235.30748
  22063278.160   115943344.08806  22063276.200    90345478.56247
  24043031.340   126346982.31704  24043029.600    98452192.60644
  21971725.620   115462208.20907  21971722.940    89970548.32148
  22821326.240   119926911.25205  22821323.080    93449541.74746
  21953512.500   115366529.23706  21953513.160    89896016.42448
  24210990.780   127229542.22804  24210992.520    99139874.16045
 15 03 01 00 30 30.0000000  0  7G16G18G19G21G22G27G31
  20826193.120   109442411.58008  20826190.400    85279806.08248
  22056383.880   115907115.10306  22056382.020    90317248.20546
  24028261.740   126269368.52204  24028260.200    98391714.40346
  21982734.640   115520060.84207  21982732.000    90015628.28348
  22804764.000   119839876.51606  22804760.900    93381722.53046
  21942920.160   115310866.51706  21942920.920    89852642.90548
  24229627.420   127327476.96304  24229628.980    99216186.68545
 15 03 01 00 31  0.0000000  0  7G16G18G19G21G22G27G31
  20817865.580   109398649.90707  20817862.820    85245706.07748
  22049571.520   115871316.21206  22049569.780    90289352.97747
  24013507.480   126191835.66804  24013506.000    98331299.27246
  21993784.940   115578130.61006  21993782.360    90060877.43947
  22788237.360   119753028.53705  22788234.200    93314048.83146
  21932352.060   115255331.20206  21932352.900    89809368.65248
  24248260.700   127425394.38104  24248262.400    99292485.80146
 15 03 01 00 31 30.0000000  0  7G16G18G19G21G22G27G31
  20809617.620   109355306.69007  20809614.880    85211932.14748
  22042840.180   115835942.94507  22042838.500    90261789.41747
  23998767.740   126114377.93004  23998766.120    98270942.67745
  22004875.240   115636410.55606  22004872.640    90106290.37847
  22771745.520   119666364.00806  22771742.400    93246518.09546
  21921807.180   115199917.68306  21921808.060    89766189.30748
  24266889.020   127523285.55704  24266890.780    99368764.36845
 15 03 01 00 32  0.0000000  0  7G16G18G19G21G22G27G31
  20801450.980   109312391.08507  20801448.320    85178491.41648
  22036191.480   115801003.69307  22036189.700    90234564.05247
  23984043.740   126037002.42504  23984041.880    98210650.14945
  22016006.380   115694905.41206  22016003.760    90151870.78548
  22755290.500   119579892.51006  22755287.480    93179137.77446
  21911286.880   115144633.32806  21911287.720    89723110.60548
  24285513.060   127621154.85404  24285514.920    99445025.95945
 15 03 01 00 32 30.0000000  0  7G16G18G19G21G22G27G31
  20793366.020   109269904.49407  20793363.380    85145384.98248
  22029625.620   115766499.77107  22029623.720    90207677.89247
  23969335.400   125959708.94104  23969333.240    98150421.53845
  22027177.920   115753612.74306  22027175.400    90197616.75447
  22738872.600   119493616.38006  22738869.700    93111909.67746
  21900791.180   115089477.96006  21900791.920    89680132.40948
  24304132.440   127718999.21404  24304134.400    99521268.08445
 15 03 01 00 33  0.0000000  0  7G16G18G19G21G22G27G31
  20785363.120   109227849.28907  20785360.540    85112614.69648
  22023142.920   115732432.80807  22023140.980    90181132.22547
  23954642.540   125882498.09004  23954640.260    98090257.33045
  22038389.620   115812531.23406  22038387.260    90243527.24248
  22722492.540   119407538.95206  22722489.620    93044836.41547
  21890320.200   115034452.35506  21890320.820    89637255.33048
  24322746.680   127816816.16004  24322748.620    99597488.81145
 15 03 01 00 33 30.0000000  0  7G16G18G19G21G22G27G31
  20777442.400   109186225.89507  20777439.880    85080180.88248
  22016743.440   115698803.12707  22016741.480    90154927.28947
  23939965.040   125805368.29204  23939962.840    98030156.25945
  22049641.040   115871657.99706  22049638.780    90289600.02447
  22706150.620   119321661.42006  22706147.640    92977918.90346
  21879873.680   114979555.19907  21879874.220    89594478.34648
  24341354.960   127914601.51904  24341356.780    99673684.92844
 15 03 01 00 34  0.0000000  0  7G16G18G19G21G22G27G31
  20769603.540   109145032.79907  20769601.120    85048082.37648
  22010426.660   115665608.62407  22010424.780    90129061.45847
  23925302.540   125728316.77304  23925300.280    97970116.16845
  22060931.300   115930988.15906  22060928.960    90335831.31048
  22689846.660   119235983.10406  22689843.480    92911156.62747
  21869450.960   114924783.59606  21869451.500    89551799.19548
  24359956.040   128012349.32704  24359957.940    99749851.83645
 15 03 01 00 34 30.0000000  0  7G16G18G19G21G22G27G31
  20761847.620   109104275.30107  20761845.260    85016323.28548
  22004193.740   115632854.51307  22004191.800    90103538.79747
  23910655.500   125651346.41004  23910653.340    97910139.37645
  22072260.520   115990523.03707  22072258.000    90382222.12147
  22673581.700   119150510.01706  22673578.340    92844554.28247
  21859052.780   114870141.02207  21859053.380    89509220.58948
  24378549.860   128110059.94104  24378551.740    99825989.65545
 15 03 01 00 35  0.0000000  0  7G16G18G19G21G22G27G31
  20754175.680   109063958.94707  20754173.360    84984907.94949
  21998045.560   115600545.82207  21998043.640    90078363.20646
  23896024.560   125574461.25604  23896022.680    97850228.91345
  22083628.920   116050264.32406  22083626.260    90428773.77647
  22657356.840   119065248.43106  22657353.520    92778116.73747
  21848679.920   114815631.49807  21848680.600    89466745.65048
  24397136.780   128207734.47804  24397138.860    99902099.46945
 15 03 01 00 35 30.0000000  0  7G16G18G19G21G22G27G31
  20746587.160   109024080.55107  20746584.760    84953833.87649
  21991981.440   115568678.70607  21991979.500    90053531.70447
  23881409.100   125497656.30304  23881407.220    97790380.95346
  22095035.160   116110205.31406  22095032.620    90475481.03247
  22641171.760   118980195.80506  22641168.500    92711842.01347
  21838331.540   114761250.25007  21838332.160    89424370.65948
  24415715.260   128305365.03404  24415717.720    99978174.98145
 15 03 01 00 36  0.0000000  0  7G16G18G19G21G22G27G31
  20739082.380   108984642.59807  20739079.960    84923103.00548
  21986001.760   115537255.28407  21985999.860    90029045.94047
  23866808.900   125420931.86304  23866807.080    97730595.71846
  22106479.260   116170344.70106  22106476.820    90522342.87447
  22625027.160   118895355.88006  22625024.040    92645733.02746
  21828007.740   114706998.10707  21828008.280    89382096.28948
  24434285.160   128402949.61004  24434287.720   100054214.69246
 15 03 01 00 36 30.0000000  0  7G16G18G19G21G22G27G31
  20731661.440   108945645.25807  20731659.000    84892715.46348
  21980106.400   115506275.21507  21980104.560    90004905.63847
  23852223.920   125344286.54304  23852221.960    97670872.18246
  22117960.640   116230679.21907  22117958.200    90569356.77647
  22608923.320   118810729.59506  22608920.200    92579790.51747
  21817708.160   114652873.74606  21817708.720    89339921.47648
  24452845.600   128500483.67004  24452847.960   100130215.06245
 15 03 01 00 37  0.0000000  0  7G16G18G19G21G22G27G31
  20724326.140   108907097.88807  20724323.720    84862678.55249
  21974297.160   115475747.49007  21974295.360    89981117.81047
  23837655.220   125267728.37504  23837653.220    97611216.50846
  22129480.280   116291214.72706  22129477.800    90616527.29348
  22592862.140   118726327.23006  22592859.020    92514022.49446
  21807434.400   114598885.12707  21807434.940    89297852.44548
  24471397.400   128597972.09004  24471399.520   100206179.88044
 15 03 01 00 37 30.0000000  0  7G16G18G19G21G22G27G31
  20717075.280   108868994.46207  20717072.880    84832987.57048
  21968572.840   115445665.83007  21968571.060    89957677.57047
  23823101.680   125191249.37604  23823099.640    97551622.58145
  22141036.340   116351941.85106  22141033.760    90663847.12447
  22576842.500   118642143.40906  22576839.320    92448424.76446
  21797185.080   114545024.66907  21797185.580    89255883.27348
  24489938.440   128695404.51804  24489940.380   100282101.08044
 15 03 01 00 38  0.0000000  0  7G16G18G19G21G22G27G31
  20709910.280   108831342.06407  20709907.880    84803648.04848
  21962934.640   115416036.83407  21962932.820    89934590.05947
  23808564.300   125114855.08904  23808561.960    97492094.60245
  22152629.440   116412864.03906  22152626.840    90711318.95547
  22560865.880   118558186.31406  22560862.760    92383003.70547
  21786961.280   114491298.16907  21786961.720    89214018.48248
  24508468.780   128792783.34204  24508471.180   100357980.45045
 15 03 01 00 38 30.0000000  0  7G16G18G19G21G22G27G31
  20702831.020   108794140.12607  20702828.520    84774659.52548
  21957382.240   115386858.99307  21957380.420    89911854.08547
  23794042.320   125038542.84304  23794040.120    97432630.59745
  22164258.880   116473977.08306  22164256.200    90758939.50047
  22544932.460   118474455.90506  22544929.260    92317759.27747
  21776762.460   114437703.12607  21776762.880    89172256.13448
  24526988.040   128890103.29004  24526990.860   100433813.99246
 15 03 01 00 39  0.0000000  0  6G16G18G19G21G22G27
  20695837.420   108757388.48107  20695834.840    84746021.88149
  21951915.580   115358132.04207  21951913.900    89889469.46447
  23779535.740   124962311.05204  23779533.580    97373229.24645
  22175923.980   116535277.05006  22175921.220    90806705.70047
  22529042.380   118390953.20206  22529039.120    92252692.29247
  21766588.420   114384238.16907  21766588.820    89130595.14148
 15 03 01 00 39 30.0000000  0  6G16G18G19G21G22G27
  20688929.680   108721088.15207  20688927.100    84717735.91248
  21946534.820   115329856.21007  21946533.240    89867436.35647
  23765044.380   124886159.23804  23765042.400    97313890.24546
  22187624.180   116596761.67006  22187621.420    90854615.78347
  22513195.920   118307679.92706  22513192.720    92187804.08847
  21756439.060   114330902.92007  21756439.440    89089035.22348
 15 03 01 00 40  0.0000000  0  6G16G18G19G21G22G27
  20682108.460   108685242.58207  20682105.920    84689804.30049
  21941240.540   115302034.51807  21941238.940    89845757.13447
  23750568.820   124810088.98604  23750566.720    97254614.77646
  22199359.420   116658430.86106  22199356.780    90902669.67847
  22497394.040   118224640.79406  22497390.840    92123098.31446
  21746314.780   114277699.37807  21746315.080    89047577.93548
 15 03 01 00 40 30.0000000  0  7G16G18G19G21G22G27G31
  20675377.000   108649868.64507  20675374.480    84662240.20149
  21936035.780   115274683.14907  21936034.040    89824444.39147
  23736111.620   124734115.32304  23736109.540    97195414.57245
  22211132.220   116720297.66606  22211129.680    90950877.57247
  22481640.040   118141852.97606  22481636.840    92058588.38547
  21736218.400   114224642.68207  21736218.700    89006235.07048
  24600943.320   129278830.70804  24600946.360   100736763.25044
 15 03 01 00 41  0.0000000  0  7G16G18G19G21G22G27G31
  20668731.620   108614947.00007  20668729.100    84635028.52849
  21930916.860   115247782.83507  21930915.080    89803483.11647
  23721668.620   124658217.09504  23721666.760    97136273.16745
  22222938.300   116782339.26906  22222935.800    90999221.65647
  22465930.440   118059298.27906  22465927.220    91994260.09647
  21726146.060   114171712.39107  21726146.360    88964990.70848
  24619399.200   129375817.84004  24619402.380   100812337.43647
 15 03 01 00 41 30.0000000  0  7G16G18G19G21G22G27G31
  20662173.700   108580484.98507  20662171.180    84608175.00949
  21925885.000   115221339.96907  21925883.160    89782878.29847
  23707241.140   124582400.45704  23707239.280    97077195.32546
  22234778.540   116844560.00306  22234775.960    91047705.34247
  22450266.760   117976984.83806  22450263.480    91930119.80847
  21716098.980   114118914.42407  21716099.200    88923849.44548
  24637840.820   129472726.46104  24637843.680   100887857.00045
 15 03 01 00 42  0.0000000  0  7G16G18G19G21G22G27G31
  20655704.520   108546489.09607  20655702.000    84581684.70749
  21920941.320   115195360.61907  21920939.440    89762634.65847
  23692829.980   124506670.23304  23692828.220    97018184.82046
  22246653.480   116906962.99006  22246650.800    91096331.04047
  22434650.340   117894920.50906  22434647.120    91866173.63547
  21706078.040   114066253.96607  21706078.200    88882815.34648
  24656268.240   129569563.24404  24656271.700   100963314.06845
 15 03 01 00 42 30.0000000  0  7G16G18G19G21G22G27G31
  20649323.500   108512956.47607  20649320.960    84555555.39249
  21916085.200   115169841.43407  21916083.320    89742749.59947
  23678434.460   124431022.36604  23678432.820    96959238.49845
  22258561.780   116969541.72306  22258559.140    91145093.67147
  22419080.860   117813103.38506  22419077.740    91802420.07747
  21696082.360   114013726.77507  21696082.520    88841885.08648
  24674680.480   129666318.93604  24674683.640   101038707.90945
 15 03 01 00 43  0.0000000  0  7G16G18G19G21G22G27G31
  20643030.900   108479888.38507  20643028.360    84529788.04649
  21911316.800   115144783.12307  21911314.900    89723223.65547
  23664054.620   124355456.10104  23664052.980    96900355.74945
  22270503.140   117032294.24006  22270500.600    91193991.70847
  22403558.700   117731534.85906  22403555.640    91738860.24247
  21686112.060   113961332.95807  21686112.260    88801058.75148
  24693076.900   129762990.09304  24693079.940   101114036.02844
 15 03 01 00 43 30.0000000  0  6G16G18G19G21G22G27
  20636825.240   108447277.39207  20636822.760    84504376.88749
  21906634.460   115120177.18107  21906632.500    89704050.21347
  23649688.780   124279962.12504  23649686.720    96841529.33245
  22282475.440   117095209.27506  22282472.960    91243016.40447
  22388082.900   117650209.33606  22388079.800    91675489.76047
  21676165.460   113909063.30307  21676165.720    88760329.16548
 15 03 01 00 44  0.0000000  0  6G16G18G19G21G22G27
  20630712.460   108415154.44307  20630710.000    84479346.01849
  21902044.200   115096054.78707  21902042.120    89685253.55447
  23635342.280   124204570.63804  23635339.860    96782782.78045
  22294484.120   117158314.86506  22294481.500    91292189.58547
  22372659.480   117569158.62206  22372656.300    91612333.40647
  21666248.220   113856947.82107  21666248.500    88719719.71948
 15 03 01 00 44 30.0000000  0  6G16G18G19G21G22G27
  20624688.680   108383499.49707  20624686.240    84454679.83249
  21897541.880   115072395.16707  21897539.880    89666817.50347
  23621011.040   124129260.03304  23621008.680    96724099.22746
  22306524.560   117221587.18706  22306521.840    91341492.69347
  22357284.640   117488363.50306  22357281.480    91549376.22447
  21656356.200   113804965.37307  21656356.600    88679213.93148
 15 03 01 00 45  0.0000000  0  6G16G18G19G21G22G27
  20618755.160   108352318.91507  20618752.720    84430383.27049
  21893128.580   115049203.78607  21893126.700    89648746.31247
  23606695.960   124054034.19304  23606693.740    96665481.73246
  22318597.280   117285029.50606  22318594.600    91390928.25047
  22341959.740   117407830.71706  22341956.580    91486623.44947
  21646490.440   113753120.65107  21646490.920    88638815.45948
 15 03 01 00 45 30.0000000  0  6G16G18G19G21G22G27
  20612912.520   108321615.59507  20612910.020    84406458.60649
  21888804.760   115026482.84407  21888802.980    89631041.69047
  23592397.240   123978894.80304  23592395.080    96606931.59747
  22330702.180   117348641.55006  22330699.700    91440496.05247
  22326685.680   117327564.68006  22326682.440    91424078.52447
  21636651.300   113701415.29607  21636651.740    88598525.58448
 15 03 01 00 46  0.0000000  0  6G16G18G19G21G22G27
  20607160.480   108291388.22907  20607157.940    84382904.81449
  21884570.300   115004230.66707  21884568.460    89613702.35347
  23578114.440   123903839.37204  23578112.540    96548446.91146
  22342838.360   117412418.15806  22342836.040    91490192.09247
  22311462.340   117247564.96806  22311459.040    91361741.13147
  21626838.220   113649847.00707  21626838.660    88558342.52148
 15 03 01 00 46 30.0000000  0  6G16G18G19G21G22G27
  20601499.220   108261638.04107  20601496.700    84359722.85149
  21880425.300   114982448.12507  21880423.300    89596728.97047
  23563847.600   123828867.52604  23563846.020    96490027.35846
  22355005.680   117476357.82006  22355003.340    91540015.19047
  22296290.060   117167833.87606  22296286.680    91299613.06247
  21617051.140   113598415.83307  21617051.680    88518266.30248
 15 03 01 00 47  0.0000000  0  6G16G18G19G21G22G27
  20595928.880   108232365.84107  20595926.380    84336913.34949
  21876369.660   114961135.74507  21876367.620    89580121.93647
  23549596.900   123753979.41904  23549595.320    96431673.04447
  22367203.680   117540458.44606  22367201.200    91589963.73447
  22281169.220   117088373.84506  22281165.860    91237696.20347
  21607290.180   113547121.94207  21607290.740    88478297.04448
 15 03 01 00 47 30.0000000  0  6G16G18G19G21G22G27
  20590450.220   108203575.29107  20590447.720    84314479.15249
  21872403.960   114940295.96107  21872401.960    89563883.15347
  23535362.500   123679176.13504  23535360.840    96373384.84746
  22379432.060   117604719.08406  22379429.480    91640036.94947
  22266100.560   117009188.41706  22266097.320    91175993.31247
  21597555.660   113495966.80407  21597556.220    88438435.91848
 15 03 01 00 48  0.0000000  0  6G16G18G19G21G22G27
  20585063.960   108175270.29807  20585061.460    84292423.31449
  21868528.920   114919932.15007  21868526.900    89548015.26047
  23521144.760   123604460.42504  23521142.660    96315164.85045
  22391691.140   117669141.07406  22391688.520    91690235.89147
  22251085.260   116930282.94506  22251082.100    91114508.57047
  21587848.200   113444953.64707  21587848.740    88398685.41848
 15 03 01 00 48 30.0000000  0  6G16G18G19G21G22G27
  20579770.100   108147450.85207  20579767.620    84270745.82649
  21864744.340   114900043.50407  21864742.220    89532517.63747
  23506943.340   123529831.17804  23506941.120    96257012.25746
  22403980.460   117733721.46906  22403977.780    91740558.26547
  22236123.540   116851658.29006  22236120.360    91053242.65247
  21578167.520   113394081.24407  21578168.100    88359044.59948
 15 03 01 00 49  0.0000000  0  6G16G18G19G21G22G27
  20574569.260   108120120.44307  20574566.840    84249449.40349
  21861050.780   114880633.57807  21861048.600    89517393.03847
  23492758.540   123455290.39704  23492756.280    96198928.55745
  22416299.960   117798460.40006  22416297.260    91791004.17347
  22221216.160   116773319.43206  22221212.960    90992199.42947
  21568514.160   113343352.22707  21568514.660    88319515.50348
 15 03 01 00 49 30.0000000  0  6G16G18G19G21G22G27
  20569461.080   108093277.00207  20569458.700    84228532.43549
  21857447.640   114861699.27007  21857445.440    89502639.05247
  23478590.020   123380834.60805  23478587.700    96140911.11446
  22428648.520   117863352.53906  22428645.960    91841569.45847
  22206362.900   116695265.17906  22206359.660    90931377.96647
  21558887.480   113292763.21907  21558887.860    88280095.51848
 15 03 01 00 50  0.0000000  0  6G16G18G19G21G22G27
  20564445.860   108066922.00307  20564443.500    84207996.07349
  21853935.140   114843241.10307  21853932.940    89488256.08747
  23464437.800   123306463.91704  23464435.640    96082959.99846
  22441025.960   117928396.45706  22441023.480    91892253.01447
  22191564.180   116617497.92706  22191561.000    90870780.15047
  21549287.520   113242314.71907  21549287.740    88240785.01448
 15 03 01 00 50 30.0000000  0  6G16G18G19G21G22G27
  20559524.520   108041060.25007  20559522.140    84187844.05749
  21850514.120   114825263.87307  21850511.940    89474247.87347
  23450302.460   123232181.94405  23450300.240    96025078.00445
  22453432.500   117993593.38506  22453430.060    91943055.79947
  22176821.220   116540023.58506  22176818.040    90810410.56647
  21539714.920   113192010.55807  21539715.140    88201586.98348
 15 03 01 00 51  0.0000000  0  6G16G18G19G21G22G27
  20554696.980   108015691.71307  20554694.680    84168076.37149
  21847184.400   114807766.59707  21847182.300    89460613.65447
  23436183.620   123157987.19605  23436181.360    95967264.00746
  22465867.640   118058940.52706  22465865.200    91993975.64947
  22162134.220   116462842.92406  22162130.900    90750269.84247
  21530169.560   113141849.55207  21530169.840    88162500.50348
 15 03 01 00 51 30.0000000  0  6G16G18G19G21G22G27
  20549963.760   107990818.49507  20549961.500    84148694.64249
  21843946.380   114790751.05007  21843944.380    89447354.80247
  23422081.500   123083880.64405  23422079.040    95909518.67745
  22478331.180   118124436.77206  22478328.700    92045011.67247
  22147503.800   116385959.47406  22147500.380    90690360.69647
  21520651.720   113091832.91007  21520651.960    88123526.51348
 15 03 01 00 52  0.0000000  0  6G16G18G19G21G22G27
  20545325.060   107966441.85707  20545322.780    84129699.85749
  21840800.100   114774217.27607  21840798.180    89434471.35947
  23407996.120   123009862.17705  23407993.540    95851842.00646
  22490822.600   118190079.30906  22490820.040    92096161.69547
  22132930.280   116309375.51206  22132926.940    90630684.92847
  21511161.360   113041960.83207  21511161.540    88084665.17848
 15 03 01 00 52 30.0000000  0  6G16G18G19G21G22G27
  20540780.660   107942560.76107  20540778.320    84111091.20949
  21837745.240   114758164.05407  21837743.320    89421962.37147
  23393927.160   122935929.28805  23393924.520    95794232.01846
  22503341.380   118255865.79706  22503338.800    92147423.87547
  22118413.820   116233091.45706  22118410.580    90571242.83647
  21501698.060   112992231.43307  21501698.300    88045915.01548
 15 03 01 00 53  0.0000000  0  6G16G18G19G21G22G27
  20536331.420   107919180.01007  20536329.100    84092872.44649
  21834782.560   114742595.05007  21834780.580    89409830.70247
  23379875.160   122862086.16804  23379872.560    95736691.97846
  22515887.740   118321797.20406  22515885.160    92198798.99547
  22103955.540   116157112.67506  22103952.200    90512038.62947
  21492262.660   112942648.42607  21492262.980    88007278.91248
 15 03 01 00 53 30.0000000  0  6G16G18G19G21G22G27
  20531977.220   107896298.66307  20531974.920    84075042.82549
  21831911.760   114727509.23607  21831909.820    89398075.53647
  23365839.820   122788330.05005  23365837.200    95679219.73246
  22528460.920   118387869.60306  22528458.360    92250283.97747
  22089555.400   116081439.48606  22089552.000    90453072.55947
  21482854.760   112893210.05007  21482855.200    87968755.52548
 15 03 01 00 54  0.0000000  0  6G16G18G19G21G22G27
  20527718.720   107873920.19507  20527716.440    84057605.05949
  21829133.440   114712908.94507  21829131.500    89386698.69447
  23351821.440   122714662.89805  23351818.760    95621816.81146
  22541060.940   118454083.28106  22541058.440    92301879.04147
  22075214.300   116006076.40206  22075210.860    90394348.11347
  21473474.900   112843918.71107  21473475.380    87930346.70848
 15 03 01 00 54 30.0000000  0  6G16G18G19G21G22G27
  20523556.320   107852046.44807  20523554.020    84040560.58249
  21826447.880   114698795.90607  21826445.920    89375701.54447
  23337820.200   122641086.12405  23337817.380    95564484.31346
  22553687.640   118520437.31806  22553685.220    92353583.47347
  22060932.840   115931026.66606  22060929.380    90335867.83847
  21464123.360   112794775.76607  21464123.740    87892053.52448
 15 03 01 00 55  0.0000000  0  6G16G18G19G21G22G27
  20519489.760   107830676.33407  20519487.420    84023908.54149
  21823854.700   114685168.25907  21823852.660    89365082.61247
  23323835.820   122567597.58805  23323833.000    95507220.56646
  22566340.340   118586927.58506  22566337.880    92405394.06647
  22046710.900   115856290.32906  22046707.480    90277631.77447
  21454799.640   112745779.21107  21454799.940    87853874.40948
 15 03 01 00 55 30.0000000  0  6G16G18G19G21G22G27
  20515519.440   107809811.97507  20515517.060    84007650.60349
  21821354.020   114672027.07107  21821351.920    89354842.73647
  23309868.360   122494197.91905  23309865.420    95450026.08946
  22579018.820   118653553.14506  22579016.320    92457310.07747
  22032549.140   115781870.19306  22032545.720    90219642.09747
  21445504.060   112696930.14807  21445504.300    87815810.21848
 15 03 01 00 56  0.0000000  0  6G16G18G19G21G22G27
  20511645.900   107789456.69807  20511643.580    83991789.34849
  21818946.360   114659375.14207  21818944.280    89344984.10847
  23295918.060   122420888.96005  23295915.140    95392902.27846
  22591723.100   118720314.25806  22591720.520    92509331.71347
  22018448.540   115707770.97706  22018445.080    90161902.49547
  21436236.940   112648230.98007  21436237.160    87777862.83848
 15 03 01 00 56 30.0000000  0  6G16G18G19G21G22G27
  20507869.460   107769611.55807  20507867.180    83976325.60049
  21816631.900   114647212.88007  21816629.800    89335507.03747
  23281984.980   122347671.25005  23281982.320    95335849.57646
  22604452.860   118787209.68506  22604450.280    92561458.02247
  22004409.440   115633995.11906  22004405.940    90104414.84847
  21426998.420   112599682.18307  21426998.620    87740032.62048
 15 03 01 00 57  0.0000000  0  6G16G18G19G21G22G27
  20504190.020   107750275.67407  20504187.700    83961258.67549
  21814410.320   114635538.60807  21814408.200    89326410.20947
  23268068.940   122274542.53605  23268066.300    95278866.19246
  22617207.380   118854235.28506  22617204.760    92613685.76046
  21990431.880   115560542.74006  21990428.380    90047179.26747
  21417788.180   112551282.16807  21417788.400    87702318.33948
 15 03 01 00 57 30.0000000  0  6G16G18G19G21G22G27
  20500607.860   107731450.91207  20500605.500    83946590.03049
  21812281.840   114624353.61707  21812279.780    89317694.64447
  23254170.120   122201503.62905  23254167.480    95221952.82147
  22629986.500   118921390.00606  22629983.860    92666014.10447
  21976516.460   115487416.79307  21976512.900    89990198.05247
  21408606.420   112503031.95407  21408606.680    87664720.79048
 15 03 01 00 58  0.0000000  0  6G16G18G19G21G22G27
  20497123.180   107713138.73007  20497120.820    83932320.79749
  21810246.640   114613658.72207  21810244.600    89309360.96547
  23240288.520   122128555.02605  23240285.700    95165109.79046
  22642789.980   118988672.70506  22642787.400    92718442.16347
  21962663.640   115414619.97106  21962660.040    89933473.29347
  21399453.360   112454932.35207  21399453.640    87627240.59948
 15 03 01 00 58 30.0000000  0  6G16G18G19G21G22G27
  20493736.500   107695341.79507  20493734.160    83918453.05449
  21808305.120   114603455.84207  21808303.060    89301410.68747
  23226424.280   122055698.40005  23226421.420    95108338.46147
  22655617.840   119056083.03406  22655615.160    92770969.69847
  21948874.280   115342156.25906  21948870.600    89877008.10647
  21390329.300   112406985.26907  21390329.620    87589879.25448
 15 03 01 00 59  0.0000000  0  6G16G18G19G21G22G27
  20490447.680   107678059.21307  20490445.340    83904986.10749
  21806456.920   114593743.37007  21806454.800    89293842.53547
  23212577.240   121982931.77105  23212574.380    95051637.25546
  22668469.200   119123617.23906  22668466.540    92823593.74647
  21935148.240   115270025.70307  21935144.580    89820802.51447
  21381233.920   112359189.06307  21381234.260    87552635.47648
 15 03 01 00 59 30.0000000  0  6G16G18G19G21G22G27
  20487257.840   107661296.74807  20487255.520    83891924.44449
  21804702.980   114584526.36807  21804700.860    89286660.46447
  23198748.140   121910259.97805  23198745.300    94995009.94746
  22681344.640   119191278.54606  22681342.060    92876316.83447
  21921486.980   115198235.54107  21921483.340    89764862.16647
  21372168.260   112311549.01107  21372168.580    87515513.37448
 15 03 01 01 00  0.0000000  0  6G16G18G19G21G22G27
  20484166.200   107645049.99407  20484163.880    83879264.63549
  21803042.540   114575800.51607  21803040.380    89279861.10947
  23184936.200   121837678.15105  23184933.460    94938452.74546
  22694243.040   119259060.10306  22694240.460    92929133.61946
  21907889.960   115126782.96606  21907886.360    89709184.87147
  21363131.500   112264060.59007  21363131.760    87478509.43048
 15 03 01 01 00 30.0000000  0  6G16G18G19G21G22G27
  20481173.740   107629324.13807  20481171.360    83867010.71949
  21801476.140   114567569.17307  21801473.960    89273447.08847
  23171142.020   121765189.70305  23171139.360    94881968.30546
  22707164.740   119326964.19706  22707162.140    92982045.89246
  21894358.300   115055673.66007  21894354.680    89653775.06147
  21354124.300   112216727.52407  21354124.540    87441626.54048
 15 03 01 01 01  0.0000000  0  6G16G18G19G21G22G27
  20478280.080   107614117.55507  20478277.660    83855161.43249
  21800003.400   114559830.16407  21800001.220    89267416.70847
  23157365.280   121692792.52405  23157362.620    94825554.97547
  22720108.880   119394986.31706  22720106.220    93035050.14346
  21880892.000   114984907.49207  21880888.240    89598632.62147
  21345146.320   112169547.95507  21345146.560    87404863.25248
 15 03 01 01 01 30.0000000  0  6G16G18G19G21G22G27
  20475485.540   107599432.01707  20475483.100    83843718.15349
  21798624.680   114552584.95207  21798622.480    89261771.09647
  23143606.060   121620487.33005  23143603.560    94769213.33046
  22733075.260   119463125.24106  22733072.620    93088145.40446
  21867491.520   114914487.03407  21867487.600    89543759.57648
  21336197.760   112122523.05207  21336198.020    87368220.49048
 15 03 01 01 02  0.0000000  0  6G16G18G19G21G22G27
  20472790.980   107585272.22407  20472788.620    83832684.55449
  21797340.640   114545837.27607  21797338.460    89256513.17947
  23129864.960   121548277.90305  23129862.500    94712946.29846
  22746064.380   119531383.46106  22746061.760    93141333.62446
  21854157.960   114844418.85107  21854154.020    89489161.03947
  21327279.440   112075656.95607  21327279.680    87331701.47148
 15 03 01 01 02 30.0000000  0  6G16G18G19G21G22G27
  20470196.120   107571636.08507  20470193.760    83822058.99449
  21796150.700   114539584.29307  21796148.540    89251640.73147
  23116141.560   121476161.61405  23116139.020    94656751.84446
  22759075.260   119599756.39406  22759072.720    93194611.23047
  21840891.180   114774701.98707  21840887.220    89434836.24147
  21318390.860   112028947.14807  21318391.060    87295304.24048
 15 03 01 01 03  0.0000000  0  6G16G18G19G21G22G27
  20467701.200   107558525.05507  20467698.820    83811842.60749
  21795055.160   114533827.02107  21795052.980    89247154.55947
  23102436.160   121404139.43005  23102433.520    94600630.72546
  22772107.840   119668242.95606  22772105.340    93247977.37247
  21827691.720   114705339.38407  21827687.860    89380787.49447
  21309532.220   111982394.91407  21309532.440    87259029.79948
 15 03 01 01 03 30.0000000  0  6G16G18G19G21G22G27
  20465306.160   107545938.75407  20465303.680    83802035.09949
  21794053.740   114528564.15307  21794051.480    89243053.64447
  23088748.240   121332209.34805  23088745.720    94544581.36246
  22785161.380   119736839.65406  22785158.820    93301429.32447
  21814559.940   114636331.61707  21814556.040    89327015.24547
  21300703.320   111935999.01007  21300703.600    87222877.15948
 15 03 01 01 04  0.0000000  0  6G16G18G19G21G22G27
  20463011.760   107533881.53707  20463009.220    83792639.86649
  21793147.040   114523799.33607  21793144.700    89239340.80647
  23075078.520   121260375.05405  23075076.120    94488606.64946
  22798236.220   119805548.56206  22798233.680    93354968.72146
  21801496.920   114567684.21407  21801492.820    89273523.79647
  21291905.000   111889763.32207  21291905.240    87186849.37048
 15 03 01 01 04 30.0000000  0  6G16G18G19G21G22G27
  20460817.560   107522351.07807  20460815.040    83783655.10049
  21792334.440   114519529.07907  21792332.100    89236013.34647
  23061426.660   121188633.74905  23061424.140    94432704.37247
  22811331.460   119874364.90906  22811328.960    93408591.85146
  21788502.320   114499396.24907  21788498.100    89220312.43547
  21283136.700   111843685.23907  21283136.900    87150944.39648
 15 03 01 01 05  0.0000000  0  6G16G18G19G21G22G27
  20458723.820   107511348.83607  20458721.380    83775081.92549
  21791616.100   114515754.58607  21791613.800    89233072.19447
  23047792.720   121116986.08005  23047789.860    94376875.04746
  22824446.940   119943287.36705  22824444.420    93462297.64946
  21775576.500   114431470.60207  21775572.340    89167383.39747
  21274398.540   111797765.81207  21274398.700    87115163.04248
 15 03 01 01 05 30.0000000  0  6G16G18G19G21G22G27
  20456732.300   107500883.33607  20456729.880    83766926.99149
  21790993.660   114512483.91507  21790991.400    89230523.63347
  23034177.860   121045439.85205  23034174.960    94321124.81946
  22837583.840   120012322.31605  22837581.300    93516091.10146
  21762721.280   114363916.75007  21762717.280    89114744.06847
  21265692.080   111752013.19207  21265692.220    87079511.66948
 15 03 01 01 06  0.0000000  0  6G16G18G19G21G22G27
  20454841.860   107490948.87807  20454839.420    83759185.85549
  21790465.840   114509710.38907  21790463.600    89228362.45647
  23020581.100   120973989.00305  23020578.400    94265448.88247
  22850740.620   120081461.40106  22850738.000    93569965.70747
  21749936.120   114296730.86207  21749932.180    89062391.45847
  21257016.240   111706421.39307  21257016.360    87043985.61148
 15 03 01 01 06 30.0000000  0  6G16G18G19G21G22G27
  20453052.440   107481545.21207  20453049.960    83751858.32649
  21790032.500   114507432.90907  21790030.260    89226587.81547
  23007002.240   120902632.39805  23006999.760    94209846.39047
  22863916.800   120150702.36806  22863914.140    93623919.70446
  21737221.220   114229913.66607  21737217.260    89010326.15047
  21248370.840   111660990.04507  21248371.040    87008584.58448
 15 03 01 01 07  0.0000000  0  6G16G18G19G21G22G27
  20451364.220   107472673.62707  20451361.760    83744945.40949
  21789693.760   114505652.29607  21789691.440    89225200.34047
  22993441.480   120831370.60705  22993438.960    94154317.77047
  22877112.120   120220043.71206  22877109.480    93677951.90546
  21724577.040   114163468.04107  21724573.020    88958550.37747
  21239756.180   111615720.02207  21239756.440    86973309.25949
 15 03 01 01 07 30.0000000  0  6G16G18G19G21G22G27
  20449778.200   107464339.22307  20449775.760    83738451.06549
  21789450.260   114504372.64507  21789447.920    89224203.22247
  22979899.680   120760208.27205  22979897.120    94098866.63547
  22890327.100   120289488.21506  22890324.380    93732064.48346
  21712004.700   114097400.20407  21712000.680    88907068.97848
  21231173.140   111570616.03107  21231173.420    86938163.30948
 15 03 01 01 08  0.0000000  0  6G16G18G19G21G22G27
  20448293.620   107456537.88107  20448291.180    83732372.10049
  21789301.080   114503588.95807  21789298.800    89223592.56247
  22966375.980   120689140.40005  22966373.400    94043489.11747
  22903560.400   120359029.30606  22903557.660    93786252.33747
  21699503.760   114031707.40207  21699499.800    88855879.81248
  21222620.880   111525673.80207  21222621.140    86903143.40848
 15 03 01 01 08 30.0000000  0  6G16G18G19G21G22G27
  20446911.520   107449275.28507  20446909.160    83726712.93649
  21789247.340   114503306.57707  21789245.100    89223372.54047
  22952871.160   120618172.03905  22952868.620    93988189.13746
  22916812.700   120428670.64406  22916810.020    93840518.30446
  21687075.480   113966396.63607  21687071.600    88804988.34348
  21214100.420   111480898.83707  21214100.660    86868253.84248
 15 03 01 01 09  0.0000000  0  6G16G18G19G21G22G27
  20445631.660   107442549.67807  20445629.340    83721472.19949
  21789288.540   114503522.88707  21789286.320    89223541.10247
  22939384.920   120547301.42205  22939382.300    93932965.32947
  22930083.300   120498408.10706  22930080.680    93894859.18747
  21674719.820   113901467.17607  21674715.900    88754393.98948
  21205611.440   111436289.25107  21205611.700    86833493.14048
 15 03 01 01 09 30.0000000  0  6G16G18G19G21G22G27
  20444454.780   107436365.11807  20444452.500    83716653.06849
  21789425.220   114504241.20607  21789422.980    89224100.84547
  22925917.880   120476531.82805  22925915.160    93877820.23547
  22943372.440   120568243.60505  22943369.960    93949276.43446
  21662437.880   113836925.40807  21662433.900    88704101.74048
  21197154.740   111391849.02607  21197155.040    86798864.40848
 15 03 01 01 10  0.0000000  0  6G16G18G19G21G22G27
  20443380.320   107430718.52807  20443378.020    83712253.12549
  21789656.780   114505458.30307  21789654.540    89225049.24547
  22912469.460   120405860.16605  22912466.700    93822751.45746
  22956679.300   120638172.13406  22956677.020    94003766.18247
  21650229.360   113772769.79107  21650225.360    88654110.37948
  21188729.700   111347575.39407  21188730.080    86764365.49048
 15 03 01 01 10 30.0000000  0  6G16G18G19G21G22G27
  20442408.540   107425611.47707  20442406.160    83708273.60549
  21789983.160   114507174.01507  21789981.020    89226386.16947
  22899039.760   120335286.52505  22899037.060    93767759.05647
  22970003.680   120708192.13106  22970001.440    94058327.21347
  21638094.680   113709001.85407  21638090.660    88604421.11448
  21180336.440   111303468.68407  21180336.860    86729996.64148
 15 03 01 01 11  0.0000000  0  6G16G18G19G21G22G27
  20441540.100   107421047.21807  20441537.560    83704717.03249
  21790404.940   114509391.14807  21790402.920    89228113.81847
  22885629.340   120264814.51805  22885626.680    93712845.85147
  22983345.720   120778304.99306  22983343.440    94112960.60146
  21626034.860   113645626.81207  21626030.780    88555037.99147
  21171975.700   111259532.59907  21171976.080    86695760.74549
 15 03 01 01 11 30.0000000  0  6G16G18G19G21G22G27
  20440775.820   107417030.85007  20440773.220    83701587.39649
  21790923.020   114512113.96107  21790921.040    89230235.49847
  22872239.160   120194448.53105  22872236.440    93658015.26446
  22996706.000   120848513.69105  22996703.660    94167668.66647
  21614051.100   113582651.65707  21614047.060    88505966.47448
  21163648.460   111215772.33407  21163648.740    86661661.85448
 15 03 01 01 12  0.0000000  0  7G04G16G18G19G21G22G27
  24568175.960   129106632.87504  24568177.800   100602582.16146
  20440113.600   107413550.84407  20440110.980    83698875.70049
  21791535.060   114515330.26807  21791533.040    89232741.72747
  22858866.760   120124176.31305  22858863.920    93603257.74447
  23010081.960   120918804.67505  23010079.560    94222440.84046
  21602141.380   113520065.82907  21602137.360    88457198.32848
  21155352.400   111172176.20007  21155352.620    86627690.85048
 15 03 01 01 12 30.0000000  0  6G16G18G19G21G22G27
  20439552.600   107410603.09807  20439550.080    83696578.75649
  21792240.200   114519035.62007  21792238.060    89235629.02447
  22845511.440   120053993.73305  22845508.560    93548570.06247
  23023472.340   120989171.55506  23023469.920    94277272.16147
  21590305.180   113457866.34407  21590301.160    88408731.22348
  21147086.780   111128740.05807  21147087.000    86593844.51649
 15 03 01 01 13  0.0000000  0  7G04G16G18G19G21G22G27
  24530133.640   128906727.96304  24530138.320   100446822.85044
  20439101.460   107408232.66207  20439099.020    83694731.65949
  21793046.780   114523274.28507  21793044.580    89238931.89147
  22832181.800   119983945.68105  22832178.820    93493987.21046
  23036885.420   121059657.69205  23036883.000    94332196.42046
  21578551.520   113396100.44107  21578547.480    88360601.97448
  21138860.300   111085509.24807  21138860.440    86560158.18149
 15 03 01 01 13 30.0000000  0  6G16G18G19G21G22G27
  20438747.600   107406373.09407  20438745.160    83693282.64549
  21793941.940   114527978.76007  21793939.760    89242597.72947
  22818864.940   119913965.24905  22818861.920    93439457.04247
  23050308.060   121130194.21305  23050305.600    94387159.94246
  21566867.980   113334703.01907  21566863.960    88312759.85648
  21130660.200   111042417.25607  21130660.300    86526580.02448
 15 03 01 01 14  0.0000000  0  7G04G16G18G19G21G22G27
  24492200.220   128707382.93504  24492203.840   100291478.55144
  20438498.880   107405065.84907  20438496.380    83692264.01149
  21794933.520   114533189.71707  21794931.400    89246658.22547
  22805568.880   119844093.63205  22805565.780    93385011.66147
  23063747.860   121200821.01405  23063745.360    94442193.79947
  21555262.620   113273716.57207  21555258.600    88265237.98048
  21122494.400   110999505.56907  21122494.460    86493142.35648
 15 03 01 01 14 30.0000000  0  6G16G18G19G21G22G27
  20438353.800   107404303.35907  20438351.280    83691669.85849
  21796020.040   114538899.25007  21796017.880    89251107.22447
  22792292.060   119774323.29105  22792288.880    93330645.18446
  23077202.940   121271528.22305  23077200.460    94497290.31346
  21543734.240   113213135.19107  21543730.340    88218031.74648
  21114361.460   110956766.76207  21114361.540    86459839.40048
 15 03 01 01 15  0.0000000  0  7G04G16G18G19G21G22G27
  24454384.480   128508660.35303  24454387.060   100136629.99445
  20438318.780   107404119.05907  20438316.220    83691526.24549
  21797207.600   114545139.83307  21797205.420    89255970.02647
  22779040.740   119704686.86905  22779037.540    93276383.09747
  23090679.320   121342346.99205  23090676.860    94552473.76147
  21532289.600   113152993.85307  21532285.800    88171168.39048
  21106267.760   110914234.30207  21106267.920    86426697.23848
 15 03 01 01 15 30.0000000  0  6G16G18G19G21G22G27
  20438378.920   107404434.89807  20438376.340    83691772.35249
  21798481.220   114551832.53807  21798479.020    89261185.13847
  22765799.880   119635106.20306  22765796.620    93222164.44747
  23104161.720   121413197.46305  23104159.420    94607681.89846
  21520914.140   113093215.88307  21520910.400    88124588.18548
  21098198.540   110871830.32807  21098198.700    86393655.19049
 15 03 01 01 16  0.0000000  0  6G16G18G19G21G22G27
  20438548.040   107405323.49007  20438545.440    83692464.76249
  21799854.460   114559048.89807  21799852.300    89266808.28547
  22752583.460   119565653.89105  22752580.060    93168045.79346
  23117663.620   121484150.15405  23117661.440    94662969.69946
  21509621.960   113033875.05607  21509618.200    88078348.60348
  21090167.600   110829627.64507  21090167.780    86360769.99949
 15 03 01 01 16 30.0000000  0  6G16G18G19G21G22G27
  20438820.320   107406754.67507  20438817.780    83693579.96949
  21801321.580   114566759.15107  21801319.520    89272816.27947
  22739385.780   119496300.04805  22739382.500    93114003.88947
  23131178.980   121555174.22305  23131177.020    94718313.11146
  21498407.600   112974943.07307  21498403.840    88032427.60648
  21082169.340   110787596.87607  21082169.600    86328018.76249
 15 03 01 01 17  0.0000000  0  7G04G16G18G19G21G22G27
  24379089.480   128112980.88104  24379093.200    99828318.57345
  20439204.740   107408775.05007  20439202.240    83695154.28149
  21802891.280   114575008.30407  21802889.240    89279244.20447
  22726215.420   119427090.13505  22726212.260    93060074.12647
  23144716.320   121626313.36405  23144714.340    94773746.20446
  21487280.100   112916467.86007  21487276.400    87986862.52648
  21074212.560   110745783.97207  21074212.820    86295437.29149
 15 03 01 01 17 30.0000000  0  7G04G16G18G19G21G22G27
  24360338.540   128014443.50304  24360342.860    99751536.57745
  20439687.180   107411310.31307  20439684.640    83697129.80649
  21804549.400   114583721.59607  21804547.280    89286033.79547
  22713058.480   119357950.39805  22713055.300    93006199.04147
  23158260.980   121697491.25605  23158258.940    94829209.49246
  21476225.760   112858376.82507  21476222.020    87941596.80648
  21066283.260   110704115.18807  21066283.420    86262968.12748
 15 03 01 01 18  0.0000000  0  7G04G16G18G19G21G22G27
  24341617.400   127916066.81904  24341619.840    99674867.44643
  20440274.940   107414399.16207  20440272.420    83699536.69849
  21806303.080   114592937.02607  21806300.900    89293214.66647
  22699922.320   119288919.39905  22699919.180    92952408.69047
  23171820.200   121768745.01005  23171817.940    94884731.88145
  21465252.140   112800709.99407  21465248.260    87896661.64748
  21058388.780   110662629.61007  21058388.960    86230641.71549
 15 03 01 01 18 30.0000000  0  7G04G16G18G19G21G22G27
  24322925.480   127817840.72104  24322928.720    99598327.86445
  20440967.140   107418036.69207  20440964.640    83702371.13549
  21808151.100   114602648.62107  21808148.940    89300782.15347
  22686805.860   119219992.13805  22686802.820    92898699.17347
  23185392.480   121840068.21205  23185390.340    94940308.40246
  21454358.420   112743463.43207  21454354.520    87852053.96348
  21050528.360   110621322.62407  21050528.560    86198454.46449
 15 03 01 01 19  0.0000000  0  7G04G16G18G19G21G22G27
  24304264.080   127719776.22604  24304267.880    99521914.27745
  20441765.220   107422230.48407  20441762.720    83705639.02449
  21810094.920   114612863.71107  21810092.780    89308741.96347
  22673710.560   119151176.48705  22673707.660    92845076.63147
  23198979.180   121911466.93905  23198977.180    94995943.74746
  21443546.560   112686647.40507  21443542.780    87807781.76448
  21042703.440   110580202.34007  21042703.660    86166412.69849
 15 03 01 01 19 30.0000000  0  7G04G16G18G19G21G22G27
  24285631.960   127621864.71004  24285636.000    99445619.84745
  20442667.400   107426971.61907  20442664.920    83709333.41549
  21812132.660   114623572.06507  21812130.520    89317086.14947
  22660634.760   119082463.10405  22660631.860    92791533.75447
  23212578.200   121982930.25505  23212576.240    95051629.45346
  21432815.160   112630253.69307  21432811.480    87763838.63548
  21034912.320   110539259.97707  21034912.560    86134509.56949
 15 03 01 01 20  0.0000000  0  7G04G16G18G19G21G22G27
  24267030.520   127524114.17904  24267034.500    99369450.79945
  20443675.060   107432267.03707  20443672.600    83713459.70749
  21814265.620   114634780.63807  21814263.460    89325820.11047
  22647579.920   119013859.22906  22647576.920    92738076.23547
  23226190.460   122054463.36405  23226188.500    95107369.50346
  21422165.920   112574291.15507  21422162.220    87720231.49548
  21027156.520   110498503.15507  21027156.740    86102751.02049
 15 03 01 01 20 30.0000000  0  6G16G18G19G21G22G27
  20444785.000   107438099.40107  20444782.460    83718004.40449
  21816490.140   114646470.50407  21816487.940    89334929.10147
  22634542.600   118945347.09006  22634539.520    92684690.19447
  23239812.360   122126047.05305  23239810.340    95163149.00246
  21411595.640   112518743.46707  21411591.800    87676947.61548
  21019432.760   110457914.53207  21019432.920    86071123.53249
 15 03 01 01 21  0.0000000  0  7G04G16G18G19G21G22G27
  24229920.420   127329089.38404  24229923.460    99217484.60645
  20446006.580   107444518.55307  20446004.020    83723006.33549
  21818815.740   114658691.69807  21818813.540    89344452.12447
  22621532.260   118876977.50706  22621529.220    92631415.23647
  23253453.200   122197730.19005  23253451.100    95219005.97645
  21401114.100   112463662.62407  21401110.180    87634027.51048
  21011750.680   110417545.03707  21011750.840    86039666.79349
 15 03 01 01 21 30.0000000  0  7G04G16G18G19G21G22G27
  24211410.520   127231820.73804  24211413.280    99141691.08244
  20447330.000   107451473.07707  20447327.440    83728425.44449
  21821232.400   114671391.23207  21821230.160    89354347.87947
  22608539.040   118808698.21606  22608536.000    92578210.62847
  23267102.800   122269458.98905  23267100.500    95274898.53246
  21390711.740   112408998.46007  21390707.860    87591432.09548
  21004100.460   110377342.96707  21004100.640    86008340.51949
 15 03 01 01 22  0.0000000  0  7G04G16G18G19G21G22G27
  24192931.980   127134716.28504  24192934.680    99066025.52144
  20448759.080   107458982.89907  20448756.520    83734277.24749
  21823743.820   114684588.78907  21823741.580    89364631.68947
  22595566.920   118740529.68406  22595563.920    92525092.33047
  23280764.740   122341252.21105  23280762.260    95330841.32145
  21380392.780   112354772.33707  21380388.980    87549177.99648
  20996486.080   110337329.08107  20996486.240    85977160.87149
 15 03 01 01 22 30.0000000  0  7G04G16G18G19G21G22G27
  24174484.840   127037775.84704  24174487.460    98990487.71144
  20450293.640   107467047.00607  20450291.060    83740560.96149
  21826349.740   114698282.80407  21826347.500    89375302.34747
  22582615.720   118672471.03606  22582612.820    92472059.65447
  23294438.520   122413107.38305  23294435.800    95386832.38045
  21370157.400   112300985.12307  21370153.680    87507265.91848
  20988907.480   110297503.09007  20988907.600    85946127.64449
 15 03 01 01 23  0.0000000  0  7G04G16G18G19G21G22G27
  24156069.400   126941003.08904  24156071.620    98915080.61743
  20451934.280   107475668.51707  20451931.660    83747279.01549
  21829050.600   114712475.12307  21829048.200    89386361.30947
  22569686.060   118604525.50606  22569683.160    92419115.12047
  23308124.200   122485025.69305  23308121.440    95442872.61446
  21360006.380   112247641.14807  21360002.660    87465699.21748
  20981365.340   110257868.42007  20981365.360    85915243.49449
 15 03 01 01 23 30.0000000  0  7G04G16G18G19G21G22G27
  24137685.960   126844399.07004  24137688.040    98839804.98443
  20453681.060   107484847.84707  20453678.440    83754431.73449
  21831846.300   114727166.01607  21831843.720    89397808.77247
  22556778.040   118536693.64206  22556775.020    92366259.15347
  23321821.560   122557006.22905  23321819.020    95498961.32946
  21349940.020   112194742.25807  21349936.260    87424479.33348
  20973859.800   110218426.20407  20973859.720    85884509.31249
 15 03 01 01 24  0.0000000  0  7G04G16G18G19G21G22G27
  24119333.760   126747958.20804  24119335.840    98764656.52046
  20455532.720   107494578.25707  20455530.100    83762013.85949
  21834735.340   114742348.22607  21834732.740    89409639.08247
  22543890.640   118468969.77206  22543887.500    92313487.33947
  23335529.480   122629041.76705  23335527.060    95555092.88446
  21339957.540   112142284.29507  21339953.720    87383603.02748
  20966389.740   110179170.81407  20966389.660    85853920.70449
 15 03 01 01 24 30.0000000  0  7G04G16G18G19G21G22G27
  24101013.780   126651686.51504  24101015.660    98689639.82744
  20457490.420   107504865.86907  20457487.800    83770030.18149
  21837718.620   114758026.14607  21837716.160    89421855.65047
  22531024.860   118401359.51506  22531021.800    92260804.06147
  23349248.440   122701135.71605  23349246.260    95611269.96146
  21330060.260   112090274.05007  21330056.420    87343075.58648
  20958956.340   110140108.22507  20958956.320    85823482.33149
 15 03 01 01 25  0.0000000  0  7G04G16G18G19G21G22G27
  24082726.200   126555585.35104  24082728.120    98614756.05144
  20459554.080   107515710.69707  20459551.520    83778480.68749
  21840796.280   114774200.16007  21840793.960    89434458.77347
  22518180.780   118333863.32706  22518177.780    92208209.66847
  23362978.240   122773286.90705  23362976.220    95667491.65846
  21320248.560   112038713.29507  21320244.680    87302898.40148
  20951559.880   110101239.44707  20951559.860    85793194.98049
 15 03 01 01 25 30.0000000  0  7G04G16G18G19G21G22G27
  24064471.060   126459654.01604  24064472.780    98540004.58141
  20461723.620   107527111.45707  20461721.000    83787364.39049
  21843967.880   114790867.18107  21843965.620    89447446.07247
  22505358.180   118266480.22506  22505355.220    92155703.38547
  23376718.600   122845492.87805  23376716.380    95723756.06346
  21310522.440   111987602.28407  21310518.580    87263071.66348
  20944200.140   110062563.84907  20944200.200    85763058.15949
 15 03 01 01 26  0.0000000  0  7G04G16G18G19G21G22G27
  24046248.340   126363894.69204  24046250.240    98465387.21445
  20463999.280   107539069.80807  20463996.600    83796682.57349
  21847233.700   114808028.95207  21847231.420    89460818.89747
  22492557.540   118199212.51806  22492554.660    92103287.03147
  23390469.420   122917753.81505  23390467.080    95780063.27846
  21300882.700   111936944.71407  21300878.700    87223598.24948
  20936877.600   110024083.97007  20936877.760    85733073.84449
 15 03 01 01 26 30.0000000  0  7G04G16G18G19G21G22G27
  24028058.640   126268309.42004  24028060.800    98390905.34044
  20466381.160   107551586.48807  20466378.480    83806435.82449
  21850593.740   114825685.84507  21850591.420    89474577.52147
  22479779.020   118132061.34506  22479776.240    92050961.46848
  23404230.600   122990069.73405  23404228.340    95836413.35045
  21291329.620   111886742.59807  21291325.500    87184479.74248
  20929592.600   109985801.25807  20929592.740    85703243.16949
 15 03 01 01 27  0.0000000  0  7G04G16G18G19G21G22G27
  24009901.620   126172895.25704  24009904.080    98316556.84446
  20468868.540   107564657.65507  20468865.860    83816621.14249
  21854047.020   114843833.34807  21854044.800    89488718.43747
  22467022.000   118065023.17206  22467019.200    91998723.96047
  23418001.280   123062435.26205  23417999.140    95892802.08946
  21281862.780   111836994.00307  21281858.600    87145714.62948
  20922344.660   109947712.97107  20922344.740    85673563.99549
 15 03 01 01 27 30.0000000  0  7G04G16G18G19G21G22G27
  23991777.700   126077654.21604  23991780.420    98242343.26144
  20471461.720   107578285.05007  20471459.080    83827239.88049
  21857593.720   114862471.62907  21857591.540    89503241.77347
  22454286.880   117998099.58606  22454283.940    91946575.73747
  23431781.440   123134850.46504  23431779.300    95949229.51846
  21272482.740   111787701.69407  21272478.560    87107305.05848
  20915134.060   109909821.00408  20915134.100    85644037.79749
 15 03 01 01 28  0.0000000  0  7G04G16G18G19G21G22G27
  23973687.440   125982590.72104  23973690.320    98168268.02145
  20474161.400   107592472.14007  20474158.820    83838294.74849
  21861234.400   114881603.54507  21861232.220    89518149.76947
  22441574.340   117931294.85306  22441571.320    91894520.14047
  23445571.420   123207317.82505  23445569.480    96005697.55546
  21263190.560   111738870.88507  21263186.400    87069255.10148
  20907961.660   109872129.90108  20907961.680    85614668.12349
 15 03 01 01 28 30.0000000  0  7G04G16G18G19G21G22G27
  23955630.600   125887702.80804  23955633.540    98094329.59044
  20476967.080   107607216.08307  20476964.520    83849783.52849
  21864968.420   114901225.91807  21864966.240    89533439.93447
  22428884.020   117864606.86906  22428881.000    91842555.51047
  23459370.640   123279832.86305  23459368.640    96062202.78247
  21253986.060   111690500.94007  21253981.900    87031564.25548
  20900827.180   109834637.83407  20900827.180    85585453.53649
 15 03 01 01 29  0.0000000  0  7G04G16G18G19G21G22G27
  23937607.260   125792990.29704  23937610.120    98020527.78844
  20479878.460   107622515.32207  20479875.880    83861705.00549
  21868795.400   114921336.75507  21868793.220    89549110.72447
  22416215.780   117798034.83906  22416212.680    91790681.23647
  23473178.660   123352394.02205  23473176.660    96118743.91946
  21244869.200   111642591.78007  21244865.060    86994232.46148
  20893730.460   109797344.38208  20893730.460    85556393.71349
 15 03 01 01 29 30.0000000  0  7G04G16G18G19G21G22G27
  23919617.920   125698456.71304  23919620.920    97946865.50846
  20482896.140   107638373.27207  20482893.560    83874061.84549
  21872715.860   114941938.63807  21872713.660    89565164.14647
  22403570.160   117731582.32206  22403567.080    91738900.08547
  23486995.860   123425002.78705  23486993.720    96175322.18746
  21235840.980   111595148.15607  21235836.800    86957263.42648
  20886672.220   109760253.30407  20886672.240    85527491.58049
 15 03 01 01 30  0.0000000  0  7G04G16G18G19G21G22G27
  23901662.460   125604100.10204  23901665.480    97873341.04446
  20486019.460   107654786.50807  20486016.920    83886851.37849
  21876729.000   114963027.77307  21876726.800    89581597.24547
  22390946.880   117665246.84806  22390943.800    91687210.13847
  23500821.280   123497654.93205  23500818.920    96231934.22446
  21226901.020   111548168.66107  21226896.900    86920656.04848
  20879652.100   109723362.59208  20879652.160    85498745.58649
 15 03 01 01 30 30.0000000  0  7G04G16G18G19G21G22G27
  23883741.660   125509925.51804  23883744.440    97799958.41945
  20489249.300   107671759.43207  20489246.740    83900077.01849
  21880835.400   114984607.23007  21880833.220    89598412.41347
  22378346.760   117599033.08106  22378343.660    91635615.02547
  23514655.320   123570353.21905  23514652.800    96288582.22745
  21218050.500   111501659.04607  21218046.400    86884414.81448
  20872671.100   109686677.34508  20872671.140    85470159.68949
 15 03 01 01 31  0.0000000  0  7G04G16G18G19G21G22G27
  23865855.440   125415932.54804  23865857.820    97726717.34544
  20492585.360   107689290.61407  20492582.840    83913737.67649
  21885034.680   115006675.15507  21885032.500    89615608.19947
  22365769.640   117532940.25806  22365766.580    91584114.15547
  23528497.660   123643095.77404  23528495.160    96345264.75645
  21209289.360   111455618.97407  21209285.280    86848539.45748
  20865729.180   109650197.35607  20865729.200    85441733.73849
 15 03 01 01 31 30.0000000  0  7G04G16G18G19G21G22G27
  23848003.800   125322122.29804  23848006.260    97653618.63146
  20496027.700   107707380.33307  20496025.220    83927833.55849
  21889326.860   115029231.04107  21889324.640    89633184.22147
  22353215.740   117466969.33106  22353212.680    91532708.27047
  23542348.220   123715881.58905  23542345.780    96401980.96345
  21200618.140   111410051.61307  21200614.080    86813032.44148
  20858826.520   109613923.71207  20858826.540    85413468.57749
 15 03 01 01 32  0.0000000  0  7G04G16G18G19G21G22G27
  23830186.620   125228493.28104  23830189.000    97580661.11945
  20499575.820   107726025.74807  20499573.320    83942362.44549
  21893711.380   115052271.81007  21893709.140    89651138.07547
  22340684.740   117401118.80006  22340681.680    91481396.18847
  23556206.400   123788707.09705  23556203.880    96458728.13745
  21192036.600   111364955.45207  21192032.500    86777892.60048
  20851962.800   109577854.93307  20851962.920    85385363.04949
 15 03 01 01 32 30.0000000  0  7G04G16G18G19G21G22G27
  23812404.480   125135048.09904  23812406.660    97507846.89045
  20503230.080   107745228.88007  20503227.540    83957325.91249
  21898188.400   115075798.58007  21898186.100    89669470.62747
  22328177.000   117335390.46906  22328173.980    91430179.34447
  23570072.300   123861572.91505  23570069.780    96515506.69645
  21183545.340   111320333.76607  21183541.220    86743122.47048
  20845138.580   109541993.78508  20845138.800    85357419.30849
 15 03 01 01 33  0.0000000  0  7G04G16G18G19G21G22G27
  23794657.140   125041785.69404  23794659.160    97435175.05044
  20506989.980   107764987.49007  20506987.460    83972722.23649
  21902757.360   115099808.41107  21902754.960    89688179.59747
  22315692.400   117269783.16106  22315689.300    91379056.79947
  23583945.380   123934476.17705  23583942.800    96572314.45346
  21175144.300   111276186.16907  21175140.200    86708721.76348
  20838353.700   109506339.22307  20838353.980    85329636.54549
 15 03 01 01 33 30.0000000  0  7G04G16G18G19G21G22G27
  23776945.160   124948709.15504  23776947.120    97362647.99345
  20510855.940   107785303.52507  20510853.460    83988552.90249
  21907418.500   115124302.85207  21907416.100    89707266.17447
  22303231.520   117204299.92206  22303228.200    91328030.92447
  23597825.760   124007418.27305  23597823.300    96629152.45745
  21166834.200   111232516.46907  21166830.140    86674693.44848
  20831608.760   109470894.61608  20831609.080    85302017.38049
 15 03 01 01 34  0.0000000  0  7G04G16G18G19G21G22G27
  23759269.020   124855821.65004  23759270.960    97290268.31245
  20514828.440   107806179.01707  20514825.940    84004819.51349
  21912172.140   115149283.30907  21912169.800    89726731.48047
  22290794.660   117138943.44006  22290791.280    91277103.83847
  23611713.760   124080400.00604  23611711.380    96686021.31745
  21158615.740   111189328.29907  21158611.680    86641040.34548
  20824904.460   109435663.12708  20824904.720    85274564.29049
 15 03 01 01 34 30.0000000  0  7G04G16G18G19G21G22G27
  23741628.400   124763121.31304  23741630.420    97218034.43544
  20518906.960   107827611.57407  20518904.440    84021520.19749
  21917017.620   115174746.52307  21917015.400    89746572.94547
  22278381.360   117073711.90206  22278378.080    91226274.10947
  23625608.660   124153417.67804  23625606.300    96742918.19246
  21150488.800   111146620.86207  21150484.640    86607761.84348
  20818240.480   109400643.18408  20818240.580    85247276.02949
 15 03 01 01 35  0.0000000  0  7G04G16G18G19G21G22G27
  23724023.420   124670607.67004  23724025.380    97145946.02145
  20523091.060   107849599.17107  20523088.520    84038653.38149
  21921954.600   115200690.26507  21921952.420    89766788.85447
  22265991.660   117008604.64006  22265988.540    91175541.20447
  23639509.940   124226469.54504  23639507.560    96799841.71244
  21142453.280   111104393.87807  21142449.060    86574857.72848
  20811616.640   109365834.27608  20811616.620    85220152.21949
 15 03 01 01 35 30.0000000  0  7G04G16G18G19G21G22G27
  23706454.440   124578282.62204  23706456.220    97074004.62946
  20527381.000   107872142.88607  20527378.440    84056219.90649
  21926983.060   115227114.51207  21926980.800    89787379.18747
  22253626.040   116943623.23106  22253623.000    91124906.36447
  23653417.580   124299555.23304  23653415.440    96856791.58545
  21134509.680   111062650.03307  21134505.500    86542330.07148
  20805033.380   109331238.67208  20805033.280    85193194.62249
 15 03 01 01 36  0.0000000  0  7G04G16G18G19G21G22G27
  23688921.760   124486149.14104  23688923.740    97002212.43544
  20531776.980   107895244.20907  20531774.480    84074220.93349
  21932103.140   115254020.52007  21932100.780    89808344.92547
  22241284.960   116878770.22106  22241281.860    91074371.58047
  23667331.720   124372675.65704  23667329.760    96913768.51444
  21126658.660   111021392.71807  21126654.500    86510181.53348
  20798491.200   109296859.32608  20798491.120    85166405.53049
 15 03 01 01 36 30.0000000  0  7G04G16G18G19G21G22G27
  23671425.060   124394204.50704  23671427.200    96930567.40245
  20536278.360   107918899.33907  20536275.940    84092653.49749
  21937313.940   115281403.84207  21937311.620    89829682.58347
  22228967.900   116814042.99806  22228964.640    91023934.81947
  23681251.780   124445826.30504  23681249.800    96970769.04746
  21118899.840   110980619.70707  21118895.620    86478410.37648
  20791989.640   109262693.65308  20791989.580    85139782.94349
 15 03 01 01 37  0.0000000  0  7G04G16G18G19G21G22G27
  23653964.620   124302450.79704  23653967.160    96859071.16844
  20540885.320   107943109.35507  20540882.960    84111518.43149
  21942615.680   115309264.97907  21942613.420    89851392.55247
  22216675.040   116749443.40706  22216671.700    90973597.51247
  23695177.740   124519007.63505  23695175.720    97027793.45446
  21111233.700   110940333.79107  21111229.380    86447018.77348
  20785529.220   109228744.06408  20785529.180    85113328.72649
 15 03 01 01 37 30.0000000  0  7G04G16G18G19G21G22G27
  23636541.100   124210890.77204  23636543.780    96787725.83544
  20545598.340   107967876.38707  20545595.980    84130817.40549
  21948008.560   115337604.63907  21948006.240    89873475.41447
  22204407.000   116684974.18506  22204403.600    90923361.78247
  23709109.720   124592220.52905  23709107.580    97084842.52044
  21103660.940   110900538.81307  21103656.640    86416009.71848
  20779110.480   109195013.50208  20779110.440    85087045.18649
 15 03 01 01 38  0.0000000  0  7G04G16G18G19G21G22G27
  23619154.260   124119523.09604  23619156.920    96716530.38745
  20550416.780   107993197.29807  20550414.380    84150547.97849
  21953491.900   115366419.68007  21953489.540    89895928.70547
  22192163.400   116620633.68506  22192159.960    90873226.36447
  23723047.100   124665461.54205  23723044.780    97141913.42945
  21096181.320   110861233.35207  21096177.060    86385382.10748
  20772733.160   109161500.65108  20772733.120    85060931.28849
 15 03 01 01 38 30.0000000  0  7G04G16G18G19G21G22G27
  23601804.220   124028348.34904  23601806.720    96645485.26345
  20555340.480   108019071.51307  20555338.060    84170709.69449
  21959065.480   115395709.13307  21959063.060    89918751.66147
  22179944.480   116556422.79306  22179940.980    90823191.93847
  23736989.680   124738730.01604  23736987.320    97199005.75746
  21088795.160   110822418.70607  21088790.860    86355136.94248
  20766397.520   109128206.64308  20766397.440    85034987.91649
 15 03 01 01 39  0.0000000  0  7G04G16G18G19G21G22G27
  23584491.440   123937369.32304  23584493.840    96574592.66745
  20560369.700   108045500.38707  20560367.320    84191303.61449
  21964729.480   115425474.06607  21964727.080    89941945.12847
  22167750.660   116492343.80006  22167747.180    90773260.29147
  23750937.660   124812026.75404  23750935.200    97256120.08846
  21081503.080   110784098.31507  21081498.720    86325276.91648
  20760104.080   109095134.34508  20760104.000    85009217.30049
 15 03 01 01 39 30.0000000  0  7G04G16G18G19G21G22G27
  23567216.100   123846587.20104  23567218.480    96503853.50644
  20565504.580   108072484.35807  20565502.240    84212330.07949
  21970483.820   115455713.84707  21970481.500    89965508.59447
  22155582.100   116428397.79806  22155578.680    90723432.26748
  23764890.820   124885351.23104  23764888.500    97313256.04046
  21074305.240   110746273.50207  21074300.880    86295803.05648
  20753853.080   109062285.11308  20753853.040    84983620.50549
 15 03 01 01 40  0.0000000  0  7G04G16G18G19G21G22G27
  23549977.800   123755999.39104  23549979.860    96433265.71746
  20570744.320   108100019.47807  20570742.000    84233786.00649
  21976327.820   115486424.18007  21976325.540    89989438.72547
  22143438.400   116364582.24506  22143434.960    90673705.89947
  23778848.480   124958699.19304  23778846.160    97370410.27147
  21067201.460   110708942.63207  21067196.980    86266714.09148
  20747644.160   109029656.83508  20747644.120    84958195.88649
 15 03 01 01 40 30.0000000  0  7G04G16G18G19G21G22G27
  23532778.080   123665614.66804  23532779.840    96362836.19145
  20576090.400   108128113.27607  20576088.060    84255677.26549
  21982262.700   115517611.65407  21982260.420    90013740.65947
  22131321.280   116300905.89506  22131317.720    90624087.99847
  23792810.740   125032067.48604  23792809.720    97427577.14546
  21060193.300   110672114.63907  21060188.820    86238016.97448
  20741478.940   108997258.26908  20741478.900    84932950.25949
 15 03 01 01 41  0.0000000  0  7G04G16G18G19G21G22G27
  23515614.820   123575421.66904  23515616.640    96292556.07844
  20581540.440   108156753.10107  20581538.040    84277994.00149
  21988285.860   115549263.51507  21988283.660    90038404.45647
  22119228.420   116237357.21606  22119224.760    90574569.58848
  23806777.780   125105463.01404  23806776.280    97484768.44345
  21053278.740   110635778.69607  21053274.380    86209703.27148
  20735355.320   108965078.48408  20735355.280    84907875.11649
 15 03 01 01 41 30.0000000  0  7G04G16G18G19G21G22G27
  23498489.460   123485427.93104  23498491.400    96222431.20845
  20587095.560   108185945.14307  20587093.080    84300741.03749
  21994398.260   115581384.90707  21994396.140    90063434.11947
  22107161.120   116173943.64906  22107157.520    90525156.45448
  23820749.400   125178881.63404  23820747.420    97541977.75544
  21046459.240   110599942.51307  21046455.000    86181778.98448
  20729274.780   108933125.23308  20729274.760    84882976.49349
 15 03 01 01 42  0.0000000  0  7G04G16G18G19G21G22G27
  23481402.420   123395635.17104  23481404.380    96152462.95945
  20592755.840   108215689.94207  20592753.340    84323918.78849
  22000600.020   115613976.06907  22000597.860    90088829.82847
  22095119.820   116110666.86306  22095116.340    90475849.89748
  23834725.140   125252323.17005  23834722.900    97599204.95746
  21039735.400   110564608.74407  21039731.180    86154246.19448
  20723237.720   108901400.49708  20723237.720    84858255.92849
 15 03 01 01 42 30.0000000  0  7G04G16G18G19G21G22G27
  23464353.660   123306044.33104  23464355.640    96082652.03845
  20598521.160   108245986.62507  20598518.620    84347526.58449
  22006891.120   115647035.93907  22006888.860    90114590.78047
  22083104.800   116047528.10406  22083101.400    90426650.90448
  23848705.000   125325787.36204  23848702.540    97656449.80445
  21033107.480   110529778.78507  21033103.220    86127105.98448
  20717244.460   108869905.68008  20717244.420    84833714.52449
 15 03 01 01 43  0.0000000  0  7G04G16G18G19G21G22G27
  23447343.040   123216652.67305  23447344.640    96012996.33945
  20604390.660   108276831.21007  20604388.180    84371561.31449
  22013270.660   115680559.98507  22013268.220    90140713.42247
  22071115.620   115984524.31406  22071112.080    90377557.06948
  23862688.260   125399269.77604  23862685.560    97713708.83046
  21026574.880   110495449.80607  21026570.620    86100356.14748
  20711294.460   108838638.12708  20711294.380    84809350.20749
 15 03 01 01 43 30.0000000  0  7G04G16G18G19G21G22G27
  23430370.980   123127463.49604  23430372.420    95943498.41245
  20610364.920   108308226.08007  20610362.420    84396024.84149
  22019738.780   115714549.70207  22019736.220    90167198.93047
  22059152.680   115921658.55306  22059149.060    90328570.79847
  23876675.200   125472771.66904  23876672.380    97770983.06545
  21020138.340   110461625.89607  21020134.140    86073999.87448
  20705388.400   108807601.51408  20705388.300    84785165.84249
 15 03 01 01 44  0.0000000  0  7G04G16G18G19G21G22G27
  23413437.680   123038478.68805  23413439.060    95874159.72644
  20616443.960   108340171.47207  20616441.400    84420917.34649
  22026295.380   115749004.77007  22026292.800    90194047.04347
  22047216.400   115858933.25206  22047212.820    90279693.97747
  23890665.840   125546293.57704  23890663.120    97828272.85145
  21013798.300   110428309.14207  21013794.180    86048038.78348
  20699526.740   108776798.24108  20699526.660    84761163.31049
 15 03 01 01 44 30.0000000  0  7G04G16G18G19G21G22G27
  23396543.120   122949697.06004  23396544.140    95804979.32545
  20622627.280   108372664.95907  20622624.720    84446236.93649
  22032939.940   115783922.17907  22032937.360    90221255.41847
  22035306.540   115796346.93806  22035302.980    90230925.45647
  23904659.720   125619832.59304  23904657.100    97885575.94445
  21007554.640   110395498.56307  21007550.500    86022472.11548
  20693709.280   108746227.24508  20693709.200    84737341.76149
 15 03 01 01 45  0.0000000  0  7G04G16G18G19G21G22G27
  23379687.060   122861118.51104  23379687.980    95735957.24245
  20628914.600   108405705.05907  20628912.100    84471982.45849
  22039672.080   115819300.32407  22039669.640    90248822.80347
  22023423.200   115733899.81506  22023419.660    90182265.38648
  23918656.740   125693386.82604  23918654.180    97942890.91445
  21001407.420   110363194.85907  21001403.280    85997300.41648
  20687936.060   108715888.88308  20687935.960    84713701.49349
 15 03 01 01 45 30.0000000  0  7G04G16G18G19G21G22G27
  23362870.240   122772746.48404  23362871.300    95667096.02746
  20635306.220   108439293.26707  20635303.760    84498155.08249
  22046492.040   115855139.77107  22046489.700    90276749.65547
  22011567.000   115671595.00306  22011563.400    90133716.21947
  23932656.980   125766958.28904  23932654.400    98000219.31146
  20995357.360   110331401.48207  20995353.180    85972526.37648
  20682207.800   108685786.82008  20682207.700    84690245.34849
 15 03 01 01 46  0.0000000  0  7G04G16G18G19G21G22G27
  23346092.500   122684578.89205  23346093.540    95598394.11345
  20641801.560   108473426.62507  20641799.120    84524752.49349
  22053399.300   115891437.70607  22053397.000    90305033.76947
  21999737.560   115609430.90506  21999733.880    90085276.69348
  23946659.820   125840543.43704  23946657.200    98057558.37245
  20989404.020   110300116.80007  20989399.860    85948148.71948
  20676524.220   108655919.54808  20676524.120    84666972.15549
 15 03 01 01 46 30.0000000  0  7G04G16G18G19G21G22G27
  23329354.040   122596617.52005  23329354.980    95529852.89945
  20648400.680   108508105.34807  20648398.240    84551774.86649
  22060393.680   115928193.40007  22060391.340    90333674.58447
  21987935.180   115547409.21606  21987931.560    90036948.13248
  23960665.340   125914142.37304  23960662.700    98114908.19345
  20983547.860   110269342.77107  20983543.740    85924168.96648
  20670885.720   108626289.12208  20670885.620    84643883.52449
 15 03 01 01 47  0.0000000  0  7G04G16G18G19G21G22G27
  23312655.260   122508864.93805  23312656.120    95461474.38845
  20655103.760   108543330.41307  20655101.360    84579222.95949
  22067475.300   115965407.47807  22067472.920    90362672.57847
  21976160.420   115485532.44206  21976156.880    89988732.49948
  23974673.660   125987756.23204  23974671.000    98172269.61744
  20977789.500   110239082.13607  20977785.300    85900589.26648
  20665292.880   108596898.43908  20665292.740    84620981.70349
 15 03 01 01 47 30.0000000  0  7G04G16G18G19G21G22G27
  23295996.000   122421320.57005  23295996.840    95393258.11545
  20661910.420   108579099.73907  20661908.100    84607095.15149
  22074643.740   116003077.45307  22074641.340    90392025.81447
  21964413.180   115423800.17206  21964409.660    89940629.46448
  23988684.360   126061382.72904  23988681.720    98229640.92343
  20972128.900   110209335.00107  20972124.620    85877409.70148
  20659745.640   108567747.42308  20659745.460    84598266.63849
 15 03 01 01 48  0.0000000  0  7G04G16G18G19G21G22G27
  23279376.460   122333984.37105  23279377.160    95325204.04345
  20668820.480   108615412.17107  20668818.160    84635390.54449
  22081898.500   116041201.20407  22081896.040    90421732.64347
  21952693.360   115362212.43006  21952689.920    89892639.05148
  24002697.180   126135020.38204  24002694.440    98287020.91744
  20966566.000   110180101.51507  20966561.660    85854630.37648
  20654244.040   108538836.46108  20654243.900    84575738.62649
 15 03 01 01 48 30.0000000  0  7G04G16G18G19G21G22G27
  23262797.300   122246859.85805  23262797.740    95257314.93145
  20675834.180   108652269.00107  20675831.760    84664110.14149
  22089239.880   116079780.26407  22089237.400    90451794.25647
  21941001.720   115300772.97306  21940998.260    89844764.18248
  24016712.360   126208671.14704  24016709.640    98344411.12144
  20961101.460   110151385.27107  20961097.140    85832254.10048
  20648788.840   108510169.34708  20648788.720    84553400.62549
 15 03 01 01 49  0.0000000  0  7G04G16G18G19G21G22G27
  23246258.120   122159946.80005  23246258.660    95189590.59146
  20682951.260   108689669.03307  20682948.720    84693253.01748
  22096667.440   116118812.66507  22096665.020    90482209.12547
  21929338.340   115239482.06206  21929334.980    89797005.06048
  24030729.660   126282333.37504  24030727.140    98401810.24244
  20955735.400   110123186.44807  20955731.040    85810281.00648
  20643380.120   108481746.45008  20643380.040    84531252.92149
 15 03 01 01 49 30.0000000  0  7G04G16G18G19G21G22G27
  23229758.560   122073241.98605  23229759.240    95122028.49645
  20690170.680   108727607.15407  20690168.080    84722815.18049
  22104180.160   116158292.63007  22104177.820    90512972.74447
  21917702.640   115178336.19307  21917699.300    89749358.95248
  24044748.300   126356002.09104  24044745.800    98459214.46945
  20950467.180   110095501.69207  20950462.760    85788708.48948
  20638017.240   108453564.65408  20638017.220    84509293.09149
 15 03 01 01 50  0.0000000  0  7G04G16G18G19G21G22G27
  23213299.180   121986747.84205  23213300.040    95054630.54345
  20697492.600   108766083.86207  20697489.980    84752797.02249
  22111778.260   116198221.07007  22111775.920    90544085.82647
  21906095.020   115117337.59406  21906091.600    89701827.61548
  24058768.520   126429678.40304  24058766.280    98516624.54545
  20945297.300   110068333.72907  20945292.820    85767538.66848
  20632700.900   108425627.01908  20632700.880    84487523.51649
 15 03 01 01 50 30.0000000  0  7G04G16G18G19G21G22G27
  23196880.100   121900465.54005  23196881.000    94987397.70046
  20704917.060   108805099.81207  20704914.480    84783199.05549
  22119461.660   116238597.38307  22119459.240    90575547.90547
  21894515.700   115056488.29506  21894512.280    89654412.60448
  24072790.260   126503362.31104  24072787.860    98574040.59446
  20940225.920   110041684.28007  20940221.560    85746772.87448
  20627431.400   108397935.46008  20627431.360    84465945.69049
 15 03 01 01 51  0.0000000  0  7G04G16G18G19G21G22G27
  23180501.900   121814398.00505  23180502.580    94920332.18646
  20712444.260   108844655.76207  20712441.740    84814021.86149
  22127230.340   116279421.89107  22127227.820    90607359.21647
  21882965.360   114995791.13506  21882961.940    89607116.14048
  24086813.540   126577054.99804  24086810.900    98631463.43244
  20935253.820   110015556.09607  20935249.520    85726413.26548
  20622209.280   108370492.99008  20622209.220    84444561.95549
 15 03 01 01 51 30.0000000  0  7G04G16G18G19G21G22G27
  23164164.380   121728544.24405  23164164.940    94853433.25046
  20720073.760   108884749.03207  20720071.220    84845263.36349
  22135083.720   116320691.62607  22135081.180    90639517.45847
  21871443.840   114935245.15007  21871440.400    89559937.46948
  24100838.120   126650754.13004  24100835.460    98688891.34746
  20930380.880   109989948.76007  20930376.560    85706459.51148
  20617034.480   108343299.18508  20617034.420    84423371.99149
 15 03 01 01 52  0.0000000  0  7G04G16G18G19G21G22G27
  23147867.520   121642903.45305  23147867.960    94786700.24645
  20727805.000   108925377.15107  20727802.480    84876921.63048
  22143021.300   116362403.83307  22143018.740    90672020.48647
  21859951.120   114874849.95207  21859947.580    89512876.30848
  24114863.300   126724457.35304  24114860.820    98746322.42045
  20925606.840   109964861.15307  20925602.500    85686910.74448
  20611906.900   108316353.62308  20611906.840    84402375.46249
 15 03 01 01 52 30.0000000  0  7G04G16G18G19G21G22G27
  23131611.680   121557479.00005  23131612.140    94720135.84046
  20735638.380   108966541.79107  20735635.860    84908997.96049
  22151043.400   116404560.22107  22151040.840    90704869.62847
  21848487.680   114814609.33906  21848484.140    89465935.59348
  24128889.820   126798166.90804  24128887.220    98803758.40844
  20920932.420   109940296.95207  20920928.040    85667769.82948
  20606827.360   108289660.41008  20606827.260    84381575.56049
 15 03 01 01 53  0.0000000  0  7G04G16G18G19G21G22G27
  23115397.060   121472271.03505  23115397.460    94653740.12846
  20743573.660   109008241.87407  20743571.160    84941491.52149
  22159149.600   116447158.55007  22159147.000    90738063.15047
  21837053.620   114754523.32906  21837050.120    89419115.34648
  24142917.140   126871881.18004  24142914.480    98861198.06844
  20916357.680   109916256.62807  20916353.280    85649037.12748
  20601795.920   108263219.98508  20601795.780    84360972.64249
 15 03 01 01 53 30.0000000  0  7G04G16G18G19G21G22G27
  23099223.580   121387280.10905  23099224.140    94587513.52645
  20751610.420   109050475.67707  20751607.980    84974400.97448
  22167339.620   116490197.47707  22167337.000    90771599.98847
  21825649.260   114694592.78707  21825645.660    89372416.24348
  24156945.160   126945599.45304  24156942.720    98918640.88245
  20911882.740   109892740.55207  20911878.340    85630712.92948
  20596812.800   108237033.45508  20596812.620    84340567.56149
 15 03 01 01 54  0.0000000  0  7G04G16G18G19G21G22G27
  23083090.500   121302500.83505  23083091.060    94521451.84246
  20759747.500   109093236.44507  20759745.080    85007721.04049
  22175611.920   116533669.22806  22175609.360    90805474.09147
  21814273.540   114634812.80407  21814269.860    89325834.46548
  24170973.540   127019321.49404  24170971.120    98976084.96844
  20907506.620   109869743.71507  20907502.200    85612793.33648
  20591877.060   108211095.97408  20591876.840    84320356.54549
 15 03 01 01 54 30.0000000  0  7G04G16G18G19G21G22G27
  23066999.980   121217944.80805  23067000.480    94455564.11644
  20767986.820   109136534.35007  20767984.400    85041459.65849
  22183968.380   116577583.63306  22183966.000    90839693.11347
  21802928.580   114575195.14406  21802924.980    89279379.17648
  24185002.400   127093045.04404  24184999.660    99033531.88445
  20903231.360   109847277.17007  20903226.940    85595286.95548
  20586991.000   108185419.59008  20586990.760    84300348.98349
 15 03 01 01 55  0.0000000  0  7G04G16G18G19G21G22G27
  23050950.520   121133604.60205  23050951.080    94389844.56845
  20776326.520   109180359.80907  20776324.160    85075609.35849
  22192407.320   116621930.89106  22192405.020    90874249.41347
  21791613.100   114515732.51006  21791609.620    89233044.67748
  24199031.180   127166767.11104  24199028.480    99090977.64446
  20899055.680   109825334.02507  20899051.260    85578188.41848
  20582153.280   108159997.26508  20582153.040    84280539.39249
 15 03 01 01 55 30.0000000  0  7G04G16G18G19G21G22G27
  23034942.600   121049482.21005  23034943.160    94324294.75245
  20784766.620   109224713.05707  20784764.340    85110170.32248
  22200928.720   116666711.22906  22200926.440    90909143.20446
  21780327.640   114456427.43806  21780324.240    89186832.95048
  24213060.000   127240488.97104  24213057.640    99148423.21544
  20894980.020   109803916.51407  20894975.640    85561499.46648
  20577364.440   108134831.93308  20577364.220    84260930.05349
 15 03 01 01 56  0.0000000  0  7G04G16G18G19G21G22G27
  23018978.320   120965589.35705  23018978.900    94258923.78246
  20793309.080   109269604.32907  20793306.920    85145150.52048
  22209534.380   116711934.10106  22209532.080    90944381.81847
  21769074.540   114397292.05307  21769071.100    89140753.45748
  24227090.680   127314220.64504  24227088.080    99205876.51045
  20891006.600   109783036.12707  20891002.260    85545229.05148
  20572626.800   108109935.61908  20572626.600    84241530.33449
 15 03 01 01 56 30.0000000  0  7G04G16G18G19G21G22G27
  23003052.820   120881900.22705  23003053.260    94193711.54244
  20801948.680   109315005.90707  20801946.580    85180528.36448
  22218218.900   116757571.48806  22218216.520    90979943.43247
  21757848.760   114338300.54407  21757845.380    89094786.07748
  24241117.940   127387934.85404  24241115.580    99263316.13744
  20887130.400   109762666.39807  20887126.040    85529356.55448
  20567935.480   108085282.91308  20567935.300    84222320.44349
 15 03 01 01 57  0.0000000  0  7G04G16G18G19G21G22G27
  22987170.920   120798440.76205  22987171.400    94128678.27746
  20810690.020   109360942.01107  20810687.960    85216322.72149
  22226986.760   116803647.33706  22226984.460    91015846.69147
  21746655.300   114279479.14006  21746652.080    89048951.23448
  24255146.600   127461656.45604  24255144.240    99320761.54345
  20883356.520   109742834.48807  20883352.160    85513903.13448
  20563295.640   108060900.42608  20563295.460    84203321.10949
 15 03 01 01 57 30.0000000  0  7G04G16G18G19G21G22G27
  22971331.220   120715203.44205  22971331.860    94063818.14846
  20819531.300   109407403.07807  20819529.200    85252526.14448
  22235836.180   116850152.01006  22235834.060    91052084.09547
  21735493.040   114220820.98907  21735489.840    89003243.59848
  24269175.060   127535376.82604  24269172.760    99378205.96544
  20879683.440   109723532.55107  20879679.100    85498862.67748
  20558705.940   108036781.36608  20558705.780    84184527.03849
 15 03 01 01 58  0.0000000  0  7G04G16G18G19G21G22G27
  22955533.420   120632186.19905  22955534.100    93999129.46146
  20828471.660   109454385.00807  20828469.560    85289135.42548
  22244766.420   116897081.32106  22244764.440    91088652.39147
  21724361.500   114162324.05707  21724358.160    88957661.60248
  24283202.680   127609092.23604  24283200.280    99435646.48944
  20876110.660   109704757.87207  20876106.400    85484233.07448
  20554166.000   108012924.06208  20554165.920    84165936.94149
 15 03 01 01 58 30.0000000  0  7G04G16G18G19G21G22G27
  22939778.120   120549392.09305  22939778.760    93934614.65646
  20837511.580   109501890.02607  20837509.480    85326152.31148
  22253777.720   116944436.41606  22253775.820    91125552.47246
  21713261.240   114103991.67107  21713257.760    88912207.81948
  24297229.720   127682804.75504  24297227.340    99493084.83445
  20872638.860   109686513.47407  20872634.600    85470016.67348
  20549676.600   107989332.20308  20549676.560    84147553.68549
 15 03 01 01 59  0.0000000  0  7G04G16G18G19G21G22G27
  22924065.700   120466823.53905  22924066.320    93870275.59845
  20846651.060   109549918.09707  20846648.940    85363576.77748
  22262870.120   116992217.22206  22262868.140    91162784.27447
  21702192.800   114045827.12007  21702189.360    88866884.81348
  24311256.280   127756515.27204  24311254.040    99550521.62143
  20869268.520   109668802.02907  20869264.200    85456215.56548
  20545238.280   107966008.75808  20545238.260    84129379.58049
 15 03 01 01 59 30.0000000  0  7G04G16G18G19G21G22G27
  22908395.560   120384477.00105  22908396.220    93806109.55145
  20855888.940   109598463.41907  20855886.820    85401404.28848
  22272042.500   117040417.87906  22272040.280    91200343.24646
  21691155.740   113987826.87807  21691152.240    88821689.83448
  24325281.700   127830219.42204  24325279.360    99607953.39144
  20865998.900   109651619.94407  20865994.500    85442826.94648
  20540850.480   107942950.73208  20540850.460    84111412.28949
 15 03 01 02 00  0.0000000  0  6G04G16G18G19G22G27
  22892768.480   120302356.50405  22892769.120    93742119.62146
  20865225.740   109647528.60807  20865223.640    85439636.89348
  22281295.200   117089040.66706  22281292.760    91238231.14546
  21680150.860   113929995.53107  21680147.320    88776626.46248
  20862830.680   109634971.35107  20862826.320    85429854.02848
  20536514.100   107920162.87508  20536514.080    84093655.52749
 15 03 01 02 00 30.0000000  0  7G04G16G18G19G21G22G27
  22877182.960   120220453.88105  22877183.400    93678299.49346
  20874659.620   109697103.71407  20874657.460    85478266.83148
  22290626.200   117138075.16406  22290623.660    91276439.85046
  21669176.680   113872325.81007  21669173.140    88731689.04448
  24353329.320   127977606.43004  24353327.040    99722802.94143
  20859762.460   109618847.70907  20859758.100    85417290.16448
  20532227.660   107897637.63108  20532227.640    84076103.39349
 15 03 01 02 01  0.0000000  0  7G04G16G18G19G21G22G27
  22861642.020   120138785.75305  22861642.380    93614662.08145
  20884193.320   109747203.22707  20884191.060    85517305.40748
  22300038.240   117187535.70506  22300035.660    91314980.52646
  21658236.380   113814834.18207  21658232.800    88686890.38848
  24367351.720   128051296.26604  24367349.400    99780223.59846
  20856797.320   109603265.38307  20856792.900    85405148.10648
  20527994.420   107875392.19308  20527994.440    84058769.29249
 15 03 01 02 01 30.0000000  0  7G04G16G18G19G21G22G27
  22846143.120   120057337.95805  22846143.280    93551196.35945
  20893823.720   109797811.13407  20893821.400    85556740.12648
  22309528.200   117237405.93406  22309525.660    91353840.45246
  21647327.300   113757506.68807  21647323.700    88642219.63148
  24381371.860   128124973.09304  24381369.280    99837634.08844
  20853932.400   109588210.11907  20853928.000    85393416.75248
  20523811.880   107853412.92808  20523811.920    84041642.59849
 15 03 01 02 02  0.0000000  0  7G04G16G18G19G21G22G27
  22830687.680   119976119.38305  22830687.780    93487909.22746
  20903552.160   109848934.43707  20903549.820    85596576.45548
  22319097.540   117287692.95806  22319095.000    91393025.14047
  21636451.480   113700353.85707  21636447.880    88597684.98748
  24395391.320   128198645.70204  24395388.680    99895041.27843
  20851169.440   109573691.14707  20851165.100    85382103.27548
  20519681.860   107831709.56608  20519681.940    84024730.89849
 15 03 01 02 02 30.0000000  0  7G04G16G18G19G21G22G27
  22815275.340   119895127.32305  22815275.400    93424798.60345
  20913377.700   109900568.23707  20913375.400    85636810.57348
  22328745.220   117338391.65406  22328742.740    91432530.61946
  21625608.220   113643371.98907  21625604.620    88553283.54748
  24409408.900   128272308.71404  24409406.300    99952441.04145
  20848507.900   109559704.75007  20848503.560    85371204.80248
  20515603.940   107810279.82108  20515603.980    84008032.40149
 15 03 01 02 03  0.0000000  0  7G04G16G18G19G21G22G27
  22799906.840   119814366.15705  22799906.980    93361867.91644
  20923300.960   109952715.08407  20923298.600    85677444.46748
  22338471.660   117389504.33606  22338469.180    91472358.68747
  21614798.400   113586566.29907  21614794.840    88509019.39548
  24423425.260   128345965.78704  24423422.760   100009836.16741
  20845948.660   109546255.52907  20845944.280    85360724.90248
  20511579.120   107789128.90508  20511579.100    83991551.17249
 15 03 01 02 03 30.0000000  0  7G04G16G18G19G21G22G27
  22784581.340   119733831.00405  22784581.520    93299113.33146
  20933320.640   110005368.48207  20933318.220    85718473.07948
  22348275.480   117441023.52606  22348272.940    91512503.51546
  21604021.380   113529932.91007  21604017.820    88464889.49448
  24437439.480   128419611.26304  24437437.080   100067222.26645
  20843490.680   109533338.30807  20843486.220    85350659.55448
  20507606.520   107768252.44608  20507606.460    83975283.81249
 15 03 01 02 04  0.0000000  0  7G04G16G18G19G21G22G27
  22769300.340   119653529.98405  22769300.720    93236541.18446
  20943437.840   110058534.45907  20943435.380    85759901.09848
  22358157.760   117492955.15306  22358155.200    91552969.72646
  21593278.820   113473480.33707  21593275.200    88420900.49148
  24451452.980   128493251.92404  24451450.680   100124604.57644
  20841135.320   109520961.07607  20841130.920    85341014.96948
  20503687.800   107747659.37308  20503687.720    83959237.26349
 15 03 01 02 04 30.0000000  0  8G04G11G16G18G19G21G22G27
  22754060.940   119573447.43505  22754061.420    93174139.27145
  24393203.440   128187149.56604  24393203.180    99886087.89746
  20953649.160   110112195.10807  20953646.640    85801714.58148
  22368115.260   117545281.88806  22368112.700    91593743.80347
  21582567.720   113417193.18407  21582564.060    88377040.39048
  24465462.320   128566871.03304  24465460.060   100181970.09646
  20838879.700   109509107.92507  20838875.300    85331778.76348
  20499820.080   107727334.68208  20499820.040    83943399.85049
 15 03 01 02 05  0.0000000  0  7G04G16G18G19G21G22G27
  22738864.840   119493591.56905  22738865.220    93111913.97446
  20963955.760   110166356.67507  20963953.240    85843918.38748
  22378149.000   117598009.53106  22378146.480    91634830.26646
  21571889.800   113361080.32807  21571886.120    88333316.10548
  24479468.800   128640475.72904  24479466.300   100239324.38745
  20836725.300   109497786.80807  20836720.900    85322957.12748
  20496005.140   107707287.19008  20496005.120    83927778.43649
 15 03 01 02 05 30.0000000  0  7G04G16G18G19G21G22G27
  22723714.860   119413977.55605  22723715.100    93049877.16146
  20974360.220   110221032.44707  20974357.680    85886522.87148
  22388261.540   117651151.03306  22388259.040    91676239.23946
  21561248.000   113305157.26307  21561244.300    88289739.70348
  24493475.420   128714080.18104  24493472.760   100296678.49144
  20834674.860   109487011.94607  20834670.460    85314561.14148
  20492245.940   107687532.54208  20492245.900    83912385.21049
 15 03 01 02 06  0.0000000  0  8G04G11G16G18G19G21G22G27
  22708606.840   119334583.90705  22708606.900    92988012.06645
  24341925.900   127917685.54104  24341926.620    99676111.92945
  20984857.980   110276198.81607  20984855.500    85929509.64148
  22398448.340   117704682.72306  22398445.740    91717952.25546
  21550638.380   113249403.24407  21550634.640    88246295.02948
  24507477.400   128787663.65504  24507474.760   100354012.67646
  20832724.460   109476762.82507  20832720.120    85306574.82548
  20488538.560   107668050.19408  20488538.500    83897204.16449
 15 03 01 02 06 30.0000000  0  8G04G11G16G18G19G21G22G27
  22693544.960   119255432.83905  22693544.860    92926335.98446
  24324866.640   127828041.11603  24324867.400    99606259.16343
  20995452.920   110331875.69907  20995450.440    85972894.20948
  22408713.020   117758624.13306  22408710.380    91759984.51246
  21540065.240   113193840.93407  21540061.420    88202999.73948
  24521478.840   128861240.49413  24521477.840   100411351.60855
  20830878.120   109467060.47607  20830873.820    85299014.56648
  20484887.340   107648862.93508  20484887.280    83882253.05749
 15 03 01 02 07  0.0000000  0  8G04G11G16G18G19G21G22G27
  22678527.600   119176516.54905  22678527.540    92864842.82746
  24307824.360   127738485.31303  24307825.300    99536475.57044
  21006143.140   110388053.08707  21006140.680    86016668.78548
  22419053.740   117812965.57006  22419051.160    91802328.49646
  21529527.180   113138462.92907  21529523.320    88159848.05548
  24535478.460   128934809.62703  24535477.360   100468678.17945
  20829134.340   109457896.83207  20829130.020    85291874.07648
  20481290.940   107629963.65708  20481290.840    83867526.35349
 15 03 01 02 07 30.0000000  0  6G04G16G18G19G22G27
  22663553.600   119097828.34205  22663553.660    92803527.41346
  21016927.100   110444723.18707  21016924.660    86060827.29448
  22429469.080   117867698.57406  22429466.520    91844977.58946
  21519023.160   113083263.69207  21519019.220    88116835.67748
  20827491.840   109449265.08707  20827487.420    85285148.05548
  20477748.220   107611346.50408  20477748.100    83853019.48649
 15 03 01 02 08  0.0000000  0  8G04G11G16G18G19G22G27G32
  22648616.740   119019335.07005  22648616.800    92742363.88845
  24273782.300   127559586.38804  24273780.260    99397073.98243
  21027798.020   110501850.41507  21027795.640    86105342.00148
  22439952.140   117922787.11106  22439949.560    91887903.71146
  21508546.880   113028210.36907  21508542.920    88073937.00048
  20825944.220   109441131.89807  20825939.680    85278810.51748
  20474252.980   107592979.02208  20474252.860    83838707.16749
  24331948.200   127865255.00904  24331950.060    99635259.34844
 15 03 01 02 08 30.0000000  0  8G04G11G16G18G19G22G27G32
  22633732.880   118941120.07305  22633732.780    92681417.21146
  24256789.940   127470293.11204  24256787.840    99327494.88244
  21038771.400   110559515.80607  21038769.020    86150276.06148
  22450518.320   117978312.46006  22450515.720    91931170.22147
  21498114.340   112973387.14907  21498110.420    88031217.62048
  20824507.180   109433580.07007  20824502.580    85272925.99148
  20470821.300   107574945.28008  20470821.140    83824654.90349
  24309345.160   127746477.10604  24309346.920    99542705.46344
 15 03 01 02 09  0.0000000  0  8G04G11G16G18G19G22G27G32
  22618891.740   118863129.63705  22618891.540    92620645.49446
  24239812.780   127381077.08004  24239811.900    99257971.83943
  21049836.520   110617663.07507  21049834.060    86195585.60448
  22461157.000   118034218.62506  22461154.260    91974733.47346
  21487715.400   112918740.46607  21487711.520    87988635.79948
  20823170.400   109426555.18107  20823165.740    85267452.06148
  20467442.980   107557192.04408  20467442.800    83810821.21849
  24286748.080   127627729.96304  24286749.800    99450175.60344
 15 03 01 02 09 30.0000000  0  8G04G11G16G18G19G22G27G32
  22604096.080   118785377.72705  22604095.840    92560059.65546
  24222853.160   127291954.01104  24222852.220    99188525.34241
  21060995.620   110676304.53607  21060993.200    86241280.23648
  22471870.280   118090517.47006  22471867.500    92018602.68846
  21477352.820   112864284.90107  21477348.980    87946202.90248
  20821936.480   109420070.80807  20821931.800    85262399.31648
  20464120.820   107539734.11208  20464120.620    83797217.63949
  24264159.760   127509030.01804  24264161.700    99357682.49146
 15 03 01 02 10  0.0000000  0  9G04G11G16G18G19G21G22G27G32
  22589345.400   118707862.76205  22589345.260    92499658.44545
  24205910.460   127202921.52704  24205909.460    99119149.44943
  21072248.020   110735436.32907  21072245.660    86287356.94848
  22482657.520   118147205.31606  22482654.860    92062775.03446
  21467026.440   112810019.87807  21467022.700    87903918.48948
  24619409.940   129375871.05504  24619406.240   100812354.59344
  20820805.080   109414125.50607  20820800.480    85257766.62548
  20460854.680   107522570.70408  20460854.520    83783843.56149
  24241580.400   127390377.98304  24241582.940    99265226.70044
 15 03 01 02 10 30.0000000  0  7G04G16G18G19G22G27G32
  22574638.780   118630579.18305  22574638.680    92439437.53046
  21083592.140   110795050.34007  21083589.880    86333809.40948
  22493517.160   118204273.81906  22493514.700    92107243.98746
  21456735.320   112755940.22407  21456731.700    87861778.51348
  20819774.980   109408712.82407  20819770.520    85253548.95748
  20457643.660   107505696.80908  20457643.540    83770695.07549
  24219009.660   127271770.35804  24219012.440    99172805.55746
 15 03 01 02 11  0.0000000  0  9G04G11G16G18G19G21G22G27G32
  22559976.400   118553528.10105  22559976.320    92379397.78946
  24172074.880   127025110.11014  24172073.920    98980601.86855
  21095028.040   110855146.46007  21095025.820    86380637.53848
  22504449.280   118261722.38206  22504446.780    92152009.10546
  21446479.920   112702048.06407  21446476.380    87819784.63548
  24647362.700   129522764.81403  24647360.340   100926821.00745
  20818846.440   109403833.72607  20818842.080    85249747.07548
  20454488.200   107489114.67108  20454488.100    83757773.93249
  24196448.660   127153192.02304  24196449.320    99080419.93745
 15 03 01 02 11 30.0000000  0  7G04G16G18G19G22G27G32
  22545358.620   118476711.28805  22545358.460    92319540.58946
  21106555.520   110915724.00007  21106553.340    86427840.79848
  22515453.540   118319549.84106  22515450.940    92197069.47546
  21436260.700   112648345.69007  21436257.180    87777938.63948
  20818019.740   109399489.23307  20818015.300    85246361.76848
  20451388.680   107472826.51708  20451388.580    83745081.86749
  24173897.320   127034684.49104  24173898.440    98988076.73141
 15 03 01 02 12  0.0000000  0  9G04G11G16G18G19G21G22G27G32
  22530786.280   118400133.40805  22530786.100    92259869.56746
  24138305.000   126847648.66604  24138303.980    98842318.05346
  21118174.940   110976784.71107  21118172.820    86475420.55848
  22526530.460   118377759.34006  22526527.860    92242427.51846
  21426078.520   112594838.01207  21426075.020    87736244.36348
  24675300.440   129669578.26914  24675299.100   101041223.99554
  20817295.500   109395683.34807  20817291.000    85243396.15348
  20448346.080   107456837.64908  20448346.000    83732623.00849
  24151357.060   126916235.83304  24151358.560    98895779.35541
 15 03 01 02 12 30.0000000  0  9G04G11G16G18G19G21G22G27G32
  22516259.860   118323796.80306  22516259.740    92200386.55546
  24121447.840   126759061.93204  24121447.660    98773289.54344
  21129886.500   111038329.21907  21129884.400    86523377.30348
  22537680.020   118436350.97606  22537677.440    92288083.32646
  21415934.060   112541528.45007  21415930.520    87694704.45848
  24689266.400   129742967.22004  24689263.780   101098406.60745
  20816674.200   109392418.46007  20816669.700    85240852.10348
  20445361.120   107441151.46808  20445361.020    83720400.01249
  24128828.880   126797850.87304  24128830.460    98803531.62846
 15 03 01 02 13  0.0000000  0  9G04G11G16G18G19G21G22G27G32
  22501777.620   118247692.23905  22501777.540    92141084.34946
  24104606.620   126670560.87604  24104606.220    98704327.74144
  21141688.060   111100346.59607  21141685.940    86571702.51848
  22548899.980   118495312.56306  22548897.480    92334027.42646
  21405825.740   112488408.65707  21405822.100    87653312.42648
  24703226.120   129816329.52004  24703223.320   101155569.97445
  20816153.920   109389684.51207  20816149.480    85238721.76048
  20442432.120   107425759.32208  20442432.000    83708406.13249
  24106311.500   126679524.57104  24106311.880    98711320.00645
 15 03 01 02 13 30.0000000  0  9G04G11G16G18G19G21G22G27G32
  22487341.800   118171832.05505  22487341.800    92081972.57546
  24087783.780   126582157.29804  24087783.380    98635441.95745
  21153581.440   111162846.57207  21153579.320    86620403.77848
  22560192.420   118554654.62506  22560189.960    92380267.97346
  21395755.920   112435491.31607  21395752.200    87612078.14648
  24717183.880   129889678.90804  24717181.500   101212725.32744
  20815736.940   109387493.25107  20815732.500    85237014.29248
  20439561.620   107410674.31408  20439561.400    83696651.58149
  24083807.520   126561267.53604  24083808.360    98619171.93343
 15 03 01 02 14  0.0000000  0  9G04G11G16G18G19G21G22G27G32
  22472950.340   118096204.83405  22472950.400    92023042.33946
  24070977.600   126493840.28404  24070977.300    98566623.58644
  21165564.000   111225814.93007  21165561.840    86669470.01448
  22571554.680   118614363.69706  22571552.260    92426794.51846
  21385722.560   112382766.01407  21385718.900    87570993.50848
  24731137.160   129963003.07204  24731135.040   101269861.05644
  20815421.020   109385832.91807  20815416.500    85235720.54248
  20436747.500   107395885.96408  20436747.260    83685128.19349
  24061315.820   126443073.00504  24061316.980    98527072.50544
 15 03 01 02 14 30.0000000  0  9G04G11G16G18G19G21G22G27G32
  22458604.220   118020815.90905  22458604.320    91964297.77146
  24054188.860   126405615.09904  24054188.520    98497876.78145
  21177636.340   111289255.15007  21177634.140    86718903.93348
  22582987.220   118674442.32906  22582984.920    92473609.02946
  21375726.800   112330238.29307  21375723.220    87530062.82748
  24745086.500   130036306.65204  24745084.340   101326980.69443
  20815206.820   109384707.54707  20815202.300    85234843.64448
  20433990.900   107381399.98608  20433990.680    83673840.42249
  24038837.360   126324948.11004  24038838.580    98435027.32344
 15 03 01 02 15  0.0000000  0  9G04G11G16G18G19G21G22G27G32
  22444304.100   117945669.01505  22444304.400    91905741.79646
  24037418.320   126317485.92304  24037417.740    98429204.78845
  21189798.840   111353169.52907  21189796.680    86768707.33448
  22594490.400   118734892.39706  22594488.200    92520712.97846
  21365769.720   112277913.37407  21365766.080    87489290.18148
  24759032.220   130109591.84804  24759030.160   101384085.99644
  20815095.260   109384121.48707  20815090.760    85234386.97848
  20431292.780   107367221.51108  20431292.620    83662792.26049
  24016373.260   126206899.41904  24016374.400    98343041.55945
 15 03 01 02 15 30.0000000  0  9G04G11G16G18G19G21G22G27G32
  22430049.280   117870759.38305  22430049.460    91847370.70246
  24020664.920   126229447.28904  24020664.300    98360603.34944
  21202049.980   111417549.97507  21202047.880    86818873.89448
  22606062.880   118795706.26806  22606060.620    92568100.40246
  21355850.440   112225786.99507  21355846.660    87448672.23248
  24772973.420   130182853.51104  24772971.460   101441173.05442
  20815085.180   109384068.45807  20815080.700    85234345.65949
  20428652.300   107353345.96608  20428652.220    83651980.15349
  23993922.900   126088911.22204  23993924.040    98251106.03345
 15 03 01 02 16  0.0000000  0  9G04G11G16G18G19G21G22G27G32
  22415840.460   117796091.81106  22415840.540    91789188.22946
  24003930.100   126141504.28104  24003928.840    98292076.38543
  21214390.280   111482399.12007  21214388.220    86869405.68548
  22617705.180   118856886.80806  22617702.880    92615773.54946
  21345969.880   112173864.46707  21345966.040    87408213.13248
  24786910.940   130256095.41604  24786908.760   101498244.60044
  20815177.520   109384553.11407  20815172.980    85234723.32848
  20426070.600   107339779.21908  20426070.560    83641408.66049
  23971487.960   125971016.77904  23971489.080    98159240.41444
 15 03 01 02 16 30.0000000  0  9G04G11G16G18G19G21G22G27G32
  22401676.960   117721661.92706  22401676.940    91731190.96446
  23987212.660   126053653.00504  23987211.380    98223620.90945
  21226818.620   111547710.63207  21226816.580    86920297.75048
  22629415.940   118918427.51106  22629413.640    92663727.34446
  21336127.600   112122142.68507  21336123.680    87367910.45448
  24800843.840   130329312.53504  24800841.400   101555296.89245
  20815371.200   109385570.53607  20815366.620    85235516.13648
  20423547.060   107326517.85908  20423547.000    83631075.13249
  23949068.200   125853201.46404  23949069.180    98067436.54845
 15 03 01 02 17  0.0000000  0  8G04G11G16G18G19G21G22G27
  22387560.380   117647478.90906  22387560.300    91673386.06846
  23970514.200   125965901.86604  23970513.180    98155243.48045
  21239336.280   111613491.53707  21239334.280    86971555.58448
  22641196.500   118980335.06106  22641194.240    92711966.99146
  21326325.280   112070630.95907  21326321.340    87327771.46448
  24814773.540   130402513.22604  24814770.840   101612336.39141
  20815667.720   109387128.98507  20815663.160    85236730.52048
  20421083.440   107313571.40908  20421083.360    83620986.99649
 15 03 01 02 17 30.0000000  0  9G04G11G16G18G19G21G22G27G32
  22373488.180   117573529.24005  22373488.140    91615763.00547
  23953832.360   125878237.94504  23953831.260    98086934.02745
  21251940.200   111679725.63707  21251938.260    87023166.55048
  22653043.920   119042593.56506  22653041.640    92760480.10646
  21316560.620   112019316.97507  21316556.640    87287786.55548
  24828697.380   130475683.63403  24828694.840   101669352.25343
  20816064.420   109389214.14707  20816059.880    85238355.33248
  20418677.340   107300927.28608  20418677.280    83611134.43349
  23904277.840   125617820.91604  23904279.240    97884024.53744
 15 03 01 02 18  0.0000000  0  9G04G11G16G18G19G21G22G27G32
  22359462.500   117499824.50605  22359462.620    91558330.79446
  23937169.140   125790672.92104  23937168.380    98018701.59746
  21264632.220   111746422.14207  21264630.200    87075137.83448
  22664960.020   119105212.47906  22664957.720    92809274.05047
  21306835.880   111968213.05007  21306831.880    87247965.32348
  24842617.380   130548834.13203  24842614.880   101726352.55841
  20816563.520   109391836.88007  20816558.920    85240399.02848
  20416331.180   107288598.05408  20416331.100    83601527.23849
  23881908.040   125500267.96604  23881909.520    97792425.00646
 15 03 01 02 18 30.0000000  0  8G04G11G16G18G19G22G27G32
  22345481.820   117426356.47805  22345482.160    91501083.00047
  23920523.400   125703198.59704  23920522.700    97950539.82245
  21277410.180   111813570.63107  21277408.120    87127461.32048
  22676942.760   119168181.70806  22676940.440    92858340.96846
  21297149.780   111917312.27507  21297145.720    87208302.39248
  20817163.300   109394988.30307  20817158.640    85242854.70149
  20414043.540   107276576.30308  20414043.420    83592159.64549
  23859555.100   125382802.40604  23859556.660    97700893.59045
 15 03 01 02 19  0.0000000  0  8G04G11G16G18G19G22G27G32
  22331548.120   117353134.98905  22331548.600    91444027.34446
  23903896.520   125615824.92704  23903895.920    97882456.55845
  21290275.580   111881178.78807  21290273.500    87180142.97248
  22688993.520   119231508.34406  22688991.120    92907686.38146
  21287504.280   111866624.72207  21287500.180    87168805.61448
  20817865.440   109398678.19807  20817860.820    85245729.94948
  20411816.420   107264872.68208  20411816.280    83583039.93849
  23837221.200   125265436.61704  23837222.540    97609439.91745
 15 03 01 02 19 30.0000000  0  8G04G11G16G18G19G22G27G32
  22317660.780   117280156.47806  22317661.240    91387161.00446
  23887288.160   125528547.96104  23887287.820    97814448.57543
  21303227.220   111949240.37307  21303225.200    87233177.95548
  22701111.120   119295186.36206  22701108.660    92957305.61946
  21277898.800   111816147.54207  21277894.700    87129472.75748
  20818669.020   109402901.50107  20818664.520    85249020.83848
  20409649.280   107253484.15908  20409649.120    83574165.76449
  23814905.780   125148168.91904  23814906.960    97518062.56044
 15 03 01 02 20  0.0000000  0  8G04G11G16G18G19G22G27G32
  22303820.360   117207424.13606  22303820.740    91330486.49546
  23870698.700   125441371.32604  23870698.580    97746518.81645
  21316265.480   112017756.56307  21316263.460    87286567.17748
  22713295.720   119359216.90906  22713293.280    93007199.55446
  21268334.160   111765885.10907  21268330.120    87090307.24548
  20819574.640   109407661.04207  20819570.220    85252729.57748
  20407542.920   107242415.02008  20407542.760    83565540.45749
  23792610.120   125031005.42504  23792611.200    97426766.50944
 15 03 01 02 20 30.0000000  0  8G04G11G16G18G19G22G27G32
  22290025.500   117134931.44706  22290025.740    91273998.72246
  23854127.400   125354288.80104  23854126.840    97678662.39145
  21329388.460   112086718.13307  21329386.420    87340303.44648
  22725545.700   119423590.88106  22725543.220    93057361.08846
  21258809.240   111715831.60607  21258805.280    87051304.51948
  20820581.020   109412949.41007  20820576.500    85256850.40048
  20405496.180   107231659.35508  20405496.020    83557159.42249
  23770333.460   124913941.86404  23770334.500    97335548.31046
 15 03 01 02 21  0.0000000  0  8G04G11G16G18G19G22G27G32
  22276277.080   117062683.45106  22276277.220    91217701.62346
  23837574.960   125267305.28404  23837574.300    97610883.02945
  21342596.620   112156127.57207  21342594.600    87394388.70248
  22737861.500   119488311.26206  22737859.100    93107792.55246
  21249325.280   111665993.01007  21249321.340    87012469.27248
  20821688.900   109418770.99407  20821684.260    85261386.71348
  20403510.240   107221223.10208  20403510.100    83549027.27449
  23748077.260   124796985.68204  23748078.340    97244413.76345
 15 03 01 02 21 30.0000000  0  8G04G11G16G18G19G22G27G32
  22262575.240   116990680.38206  22262575.400    91161595.37846
  23821041.220   125180421.06604  23821040.840    97543181.12844
  21355889.700   112225983.38907  21355887.720    87448821.79248
  22750242.800   119553376.08206  22750240.560    93158492.40946
  21239882.420   111616370.57407  21239878.520    86973802.45348
  20822897.940   109425125.01207  20822893.380    85266337.90248
  20401585.300   107211107.41908  20401585.140    83541144.92149
  23725842.100   124680139.73104  23725843.200    97153365.11443
 15 03 01 02 22  0.0000000  0  8G04G11G16G18G19G22G27G32
  22248919.820   116918920.65206  22248919.960    91105678.74947
  23804526.220   125093634.84304  23804526.160    97475555.59944
  21369266.860   112296280.92907  21369264.940    87503599.07148
  22762688.960   119618781.31706  22762686.820    93209457.50546
  21230480.460   111566963.39807  21230476.640    86935303.37048
  20824207.760   109432009.20907  20824203.440    85271702.21148
  20399721.220   107201311.43408  20399721.000    83533511.68249
  23703628.020   124563404.63104  23703629.160    97062402.81745
 15 03 01 02 22 30.0000000  0  8G04G11G16G18G19G22G27G32
  22235310.180   116847401.37506  22235310.260    91049949.48146
  23788029.720   125006943.88104  23788029.240    97408004.24745
  21382727.260   112367015.47407  21382725.300    87558716.87648
  22775199.080   119684521.79206  22775196.880    93260683.84547
  21221119.100   111517769.55307  21221115.340    86896970.51548
  20825617.940   109439419.93807  20825613.680    85277476.80448
  20397917.540   107191833.10208  20397917.320    83526125.96749
  23681435.180   124446780.14904  23681435.980    96971526.70846
 15 03 01 02 23  0.0000000  0  8G04G11G16G18G19G22G27G32
  22221747.800   116776130.43406  22221747.780    90994413.71246
  23771552.540   124920356.05804  23771552.060    97340533.29645
  21396271.780   112438192.22307  21396269.780    87614179.26048
  22787774.120   119750603.22806  22787771.760    93312175.86946
  21211800.080   111468798.08007  21211796.380    86858810.93248
  20827129.820   109447364.35107  20827125.420    85283667.27148
  20396175.980   107182681.25008  20396175.760    83518994.65049
  23659265.400   124330276.52004  23659266.000    96880744.73945
 15 03 01 02 23 30.0000000  0  8G04G11G16G18G19G22G27G32
  22208232.300   116705105.91806  22208232.240    90939069.96646
  23755094.680   124833869.71704  23755094.200    97273141.40344
  21409899.640   112509806.93007  21409897.640    87669982.90448
  22800413.000   119817021.13506  22800410.600    93363930.06646
  21202523.200   111420047.84907  21202519.460    86820823.74948
  20828742.640   109455839.40707  20828738.080    85290271.22148
  20394496.320   107173854.78508  20394496.140    83512116.88549
  23637118.760   124213894.55804  23637119.100    96790057.61745
 15 03 01 02 24  0.0000000  0  8G04G11G16G18G19G22G27G32
  22194763.540   116634326.51606  22194763.320    90883917.21546
  23738655.920   124747483.43704  23738655.540    97205827.50945
  21423610.100   112581855.45807  21423608.040    87726124.59048
  22813115.280   119883772.46305  22813112.900    93415944.08046
  21193288.320   111371518.28507  21193284.520    86783008.52348
  20830455.920   109464843.18807  20830451.380    85297287.16048
  20392878.460   107165353.07808  20392878.340    83505492.17649
  23614995.280   124097635.11404  23614995.440    96699465.94744
 15 03 01 02 24 30.0000000  0  8G04G11G16G18G19G22G27G32
  22181341.800   116563794.21506  22181341.400    90828957.01646
  23722236.480   124661199.32204  23722235.920    97138593.15445
  21437403.000   112654337.24007  21437400.920    87782603.88048
  22825880.800   119950856.14705  22825878.380    93468217.07046
  21184096.020   111323212.34807  21184092.200    86745367.54048
  20832269.960   109474376.47607  20832265.520    85304715.70149
  20391323.000   107157179.01008  20391322.880    83499122.76849
  23592895.940   123981502.78504  23592896.020    96608973.30545
 15 03 01 02 25  0.0000000  0  8G04G11G16G18G19G22G27G32
  22167966.420   116493506.22106  22167966.080    90774187.18746
  23705836.260   124575014.92804  23705835.440    97071436.55744
  21451277.520   112727247.99307  21451275.400    87839417.43548
  22838708.640   120018267.27705  22838706.260    93520745.22746
  21174945.920   111275128.16407  21174942.080    86707899.35348
  20834184.260   109484435.68607  20834179.780    85312554.04749
  20389829.540   107149330.70908  20389829.380    83493007.20549
  23570820.760   123865497.33304  23570820.660    96518579.54945
 15 03 01 02 25 30.0000000  0  8G04G11G16G18G19G22G27G32
  22154638.260   116423466.66206  22154637.880    90719610.93846
  23689455.780   124488934.48304  23689454.940    97004360.94545
  21465233.920   112800588.72607  21465231.720    87896566.03848
  22851599.240   120086007.73506  22851596.800    93573530.00746
  21165839.040   111227270.99007  21165835.180    86670608.05648
  20836199.420   109495024.36507  20836194.760    85320804.97348
  20388399.040   107141813.07108  20388398.820    83487149.30549
  23548770.900   123749625.30104  23548770.940    96428289.77945
 15 03 01 02 26  0.0000000  0  8G04G11G16G18G19G22G27G32
  22141357.200   116353674.63606  22141356.800    90665227.56646
  23673094.580   124402957.16504  23673093.740    96937365.71544
  21479271.340   112874355.68507  21479269.140    87954046.76948
  22864551.840   120154074.18106  22864549.340    93626568.79046
  21156775.260   111179640.62507  21156771.440    86633493.49948
  20838314.720   109506140.25207  20838310.000    85329466.71648
  20387031.400   107134625.91108  20387031.160    83481548.91749
  23526746.740   123633888.10104  23526746.960    96338105.01946
 15 03 01 02 26 30.0000000  0  8G04G11G16G18G19G22G27G32
  22128122.600   116284126.95306  22128122.240    90611034.61146
  23656752.600   124317080.40104  23656751.860    96870448.80244
  21493388.940   112948543.94207  21493386.700    88011855.77648
  22877565.580   120222461.64906  22877563.100    93679857.71846
  21147754.300   111132235.48407  21147750.540    86596554.43548
  20840529.460   109517779.64807  20840524.820    85338536.37748
  20385726.240   107127767.30208  20385726.000    83476204.54649
  23504748.300   123518285.60004  23504748.380    96248025.22345
 15 03 01 02 27  0.0000000  0  8G04G11G16G18G19G22G27G32
  22114935.600   116214829.24206  22114935.320    90557036.42746
  23640430.860   124231309.51204  23640430.420    96803614.44146
  21507587.200   113023156.15007  21507584.960    88069995.13848
  22890641.040   120291173.25806  22890638.560    93733399.24046
  21138777.440   111085061.74207  21138773.700    86559795.68448
  20842844.680   109529946.74807  20842840.120    85348017.23448
  20384484.780   107121243.24108  20384484.520    83471120.85849
  23482776.900   123402825.34204  23482776.900    96158056.21844
 15 03 01 02 27 30.0000000  0  8G04G11G16G18G19G22G27G32
  22101795.820   116145779.04206  22101795.400    90503231.11446
  23624128.820   124145642.33804  23624128.480    96736860.86645
  21521865.240   113098187.55107  21521863.000    88128461.14148
  22903777.220   120360204.08405  22903774.700    93787189.48046
  21129844.400   111038117.96907  21129840.540    86523216.13148
  20845259.900   109542638.49407  20845255.360    85357906.91448
  20383306.680   107115052.43308  20383306.440    83466296.84849
  23460832.660   123287507.75104  23460832.780    96068198.42045
 15 03 01 02 28  0.0000000  0  8G04G11G16G18G19G22G27G32
  22088703.100   116076976.02706  22088702.500    90449618.40647
  23607846.580   124060078.59504  23607846.140    96670187.87644
  21536222.460   113173635.02607  21536220.220    88187251.36248
  22916973.480   120429551.32505  22916971.160    93841226.27046
  21120955.200   110991404.67407  21120951.260    86486816.17348
  20847774.620   109555853.26607  20847770.140    85368204.14548
  20382192.040   107109195.25708  20382191.860    83461732.81749
  23438915.880   123172334.91404  23438916.140    95978453.42945
 15 03 01 02 28 30.0000000  0  9G01G04G11G16G18G19G22G27G32
  24555634.220   129040729.71203  24555639.180   100551236.01646
  22075657.760   116008421.92906  22075657.060    90396199.67146
  23591584.460   123974620.54604  23591584.080    96603597.28746
  21550658.820   113249498.59407  21550656.620    88246365.81448
  22930229.920   120499214.80205  22930227.620    93895509.48946
  21112110.400   110944924.86607  21112106.420    86450598.15048
  20850388.900   109569591.86007  20850384.560    85378909.54748
  20381141.360   107103674.36408  20381141.260    83457430.82949
  23417027.440   123057311.15804  23417027.880    95888824.56145
 15 03 01 02 29  0.0000000  0  8G04G11G16G18G19G22G27G32
  22062659.380   115940115.12306  22062658.680    90342973.61546
  23575341.860   123889266.44704  23575341.580    96537087.61845
  21565173.520   113325773.42407  21565171.240    88305800.72448
  22943545.820   120569190.35205  22943543.540    93950035.87645
  21103309.860   110898677.88407  21103305.940    86414561.55448
  20853102.440   109583852.05307  20853098.120    85390021.38448
  20380154.580   107098488.92908  20380154.540    83453390.22849
  23395167.620   122942437.51204  23395168.160    95799312.72945
 15 03 01 02 29 30.0000000  0  9G01G04G11G16G18G19G22G27G32
  24523925.160   128874100.91103  24523929.820   100421392.36445
  22049707.940   115872055.31206  22049707.420    90289940.02346
  23559119.200   123804016.27404  23559118.700    96470658.97746
  21579765.880   113402456.33607  21579763.520    88365553.62048
  22956920.780   120639475.39806  22956918.280    94004803.44045
  21094553.680   110852664.03907  21094549.780    86378706.61648
  20855915.020   109598632.06107  20855910.560    85401538.28448
  20379231.760   107093639.38008  20379231.720    83449611.35649
  23373336.740   122827715.88404  23373337.340    95709919.31846
 15 03 01 02 30  0.0000000  0  9G01G04G11G16G18G19G22G27G32
  24508109.760   128790991.20103  24508114.320   100356631.68444
  22036804.380   115804246.62306  22036803.880    90237102.10846
  23542917.180   123718874.39404  23542916.460    96404314.71545
  21594436.200   113479549.44607  21594433.880    88425626.15148
  22970355.040   120710071.84706  22970352.280    94059813.68445
  21085842.920   110806888.88107  21085839.060    86343037.67448
  20858827.240   109613934.98407  20858822.580    85413462.65448
  20378373.880   107089130.89908  20378373.800    83446098.25249
  23351535.940   122713153.00004  23351536.600    95620649.56545
 15 03 01 02 30 30.0000000  0  8G04G11G16G18G19G22G27G32
  22023948.120   115736686.10806  22023947.580    90184457.59846
  23526735.220   123633838.14404  23526734.700    96338052.78146
  21609183.520   113557047.33007  21609181.280    88486014.09048
  22983847.460   120780974.30406  22983844.540    94115062.36945
  21077177.220   110761350.56707  21077173.360    86307553.27949
  20861838.120   109629756.88407  20861833.420    85425791.41748
  20377580.480   107084961.25908  20377580.360    83442849.18049
  23329765.460   122598748.71504  23329766.040    95531503.40445
 15 03 01 02 31  0.0000000  0  8G04G11G16G18G19G22G27G32
  22011139.340   115669375.34106  22011138.740    90132007.67646
  23510573.980   123548909.37704  23510573.320    96271874.56844
  21624007.660   113634948.95607  21624005.500    88546716.63547
  22997397.880   120852182.07905  22997394.960    94170548.95346
  21068557.080   110716051.56507  21068553.240    86272255.36648
  20864947.600   109646097.95607  20864943.080    85438524.71648
  20376852.020   107081132.96608  20376851.860    83439866.09649
  23308025.940   122484506.99504  23308026.460    95442483.96446
 15 03 01 02 31 30.0000000  0  8G04G11G16G18G19G22G27G32
  21998378.340   115602315.87306  21998377.680    90079753.58446
  23494433.380   123464089.78004  23494432.420    96205781.42145
  21638908.400   113713252.85207  21638906.260    88607732.63448
  23011006.160   120923694.44605  23011003.380    94226272.86345
  21059983.060   110670994.64407  21059979.180    86237146.08148
  20868156.140   109662959.31007  20868151.700    85451663.43148
  20376188.940   107077648.41808  20376188.760    83437150.86449
  23286318.300   122370432.19904  23286318.720    95353594.67145
 15 03 01 02 32  0.0000000  0  8G04G11G16G18G19G22G27G32
  21985665.060   115535506.98606  21985664.260    90027694.73846
  23478313.300   123379378.95804  23478312.420    96139773.07445
  21653885.220   113791956.58007  21653883.120    88669060.18547
  23024671.800   120995508.34205  23024669.100    94282231.72046
  21051455.120   110626180.04507  21051451.200    86202225.62548
  20871463.480   109680338.87307  20871458.880    85465205.95448
  20375591.220   107074507.75608  20375591.100    83434703.59549
  23264642.620   122256526.18104  23264643.140    95264836.95445
 15 03 01 02 32 30.0000000  0  8G04G11G16G18G19G22G27G32
  21972999.020   115468946.52606  21972998.160    89975829.47447
  23462213.680   123294774.88404  23462212.820    96073847.86745
  21668937.120   113871054.72507  21668935.020    88730695.08148
  23038394.040   121067619.46505  23038391.440    94338422.16946
  21042973.080   110581606.66607  21042969.160    86167493.12648
  20874868.760   109698233.13907  20874864.000    85479149.55248
  20375058.660   107071709.50008  20375058.600    83432523.13849
  23242999.040   122142788.75804  23242999.520    95176210.53445
 15 03 01 02 33  0.0000000  0  8G04G11G16G18G19G22G27G32
  21960380.700   115402637.49506  21960379.960    89924160.14146
  23446134.880   123210280.59304  23446134.100    96008008.20045
  21684064.200   113950548.04607  21684062.120    88792637.90648
  23052173.000   121140028.33405  23052170.380    94394844.66245
  21034537.800   110537278.90507  21034533.840    86132952.02548
  20878372.260   109716644.35307  20878367.520    85493495.95948
  20374592.040   107069257.85208  20374592.080    83430612.76149
  23221388.680   122029226.17704  23221389.140    95087720.40445
 15 03 01 02 33 30.0000000  0  8G04G11G16G18G19G22G27G32
  21947809.820   115336577.36406  21947809.060    89872684.73646
  23430076.740   123125894.03004  23430075.840    95942252.52344
  21699265.420   114030430.84107  21699263.340    88854884.22147
  23066007.800   121212730.40105  23066005.160    94451495.62446
  21026149.000   110493195.31407  21026145.020    86098601.18748
  20881973.360   109735568.68407  20881968.720    85508242.18748
  20374191.080   107067150.90608  20374191.140    83428970.98349
  23199811.480   121915838.09604  23199811.900    94999366.15546
 15 03 01 02 34  0.0000000  0  8G04G11G16G18G19G22G27G32
  21935287.140   115270770.55106  21935286.400    89821406.74046
  23414039.980   123041620.00305  23414039.000    95876584.48944
  21714541.140   114110705.37807  21714539.100    88917435.77848
  23079898.800   121285727.82605  23079896.020    94508376.74245
  21017807.560   110449360.83007  21017803.660    86064444.45048
  20885672.760   109755009.30707  20885668.200    85523390.72848
  20373856.840   107065394.12208  20373856.800    83427602.06049
  23178268.860   121802631.67305  23178269.380    94911153.45945
 15 03 01 02 34 30.0000000  0  9G01G04G11G16G18G19G22G27G32
  24366937.620   128049121.38004  24366940.640    99778551.09345
  21922812.380   115205215.75506  21922811.700    89770325.09947
  23398024.460   122957457.50505  23398023.440    95811003.39346
  21729890.680   114191367.91507  21729888.700    88980289.68348
  23093845.240   121359016.61005  23093842.480    94565484.89645
  21009513.600   110405775.60707  21009509.740    86030481.94849
  20889470.020   109774963.71207  20889465.420    85538939.62348
  20373589.140   107063986.75708  20373589.000    83426505.41249
  23156761.140   121689608.12504  23156761.760    94823083.27245
 15 03 01 02 35  0.0000000  0  8G04G11G16G18G19G22G27G32
  21910385.060   115139909.93406  21910384.400    89719437.47947
  23382029.580   122873403.49304  23382028.480    95745506.81044
  21745313.000   114272412.63607  21745311.040    89043441.38847
  23107846.020   121432591.46905  23107843.380    94622815.94645
  21001266.720   110362437.63707  21001262.840    85996712.10949
  20893364.260   109795427.82907  20893359.580    85554885.69948
  20373387.580   107062926.73508  20373387.340    83425679.41949
  23135288.080   121576766.82704  23135288.720    94735155.05845
 15 03 01 02 35 30.0000000  0  8G04G11G16G18G19G22G27G32
  21898005.940   115074857.37406  21898005.260    89668747.20746
  23366056.240   122789462.77805  23366054.840    95680098.51045
  21760808.340   114353841.28407  21760806.400    89106892.26448
  23121901.720   121506454.85205  23121899.080    94680371.83345
  20993067.920   110319352.39007  20993064.000    85963139.20149
  20897355.960   109816404.56707  20897351.260    85571231.21148
  20373253.060   107062219.33908  20373252.760    83425128.19949
  23113850.960   121464115.02104  23113851.800    94647374.53246
 15 03 01 02 36  0.0000000  0  9G01G04G11G16G18G19G22G27G32
  24320351.560   127804307.44704  24320354.940    99587788.26044
  21885675.080   115010058.14706  21885674.320    89618254.32347
  23350104.320   122705635.55105  23350102.900    95614778.66245
  21776376.280   114435651.29507  21776374.300    89170640.29648
  23136011.840   121580604.30605  23136009.300    94738150.61945
  20984917.400   110276521.22907  20984913.520    85929764.27948
  20901445.000   109837892.83207  20901440.340    85587975.32048
  20373185.680   107061865.34208  20373185.440    83424852.35949
  23092450.340   121351655.13905  23092451.220    94559743.54145
 15 03 01 02 36 30.0000000  0  9G01G04G11G16G18G19G22G27G32
  24304875.740   127722979.87204  24304879.340    99524416.27144
  21873391.440   114945507.56906  21873390.740    89567955.20046
  23334173.120   122621917.49705  23334171.860    95549543.86346
  21792015.320   114517834.93907  21792013.320    89234679.48147
  23150175.020   121655032.51905  23150172.500    94796146.62045
  20976814.480   110233940.44607  20976810.600    85896584.45648
  20905630.240   109859886.38507  20905625.620    85605113.15448
  20373184.760   107061860.74608  20373184.580    83424848.77849
  23071085.780   121239385.06104  23071086.680    94472260.43346
 15 03 01 02 37  0.0000000  0  9G01G04G11G16G18G19G22G27G32
  24289427.580   127641798.29704  24289431.080    99461158.01245
  21861157.020   114881216.07806  21861156.460    89517857.96146
  23318264.820   122538319.39705  23318263.540    95484402.54045
  21807726.940   114600399.91007  21807724.900    89299015.79147
  23164392.840   121729747.81005  23164390.260    94854366.32346
  20968761.400   110191621.49007  20968757.480    85863608.65948
  20909913.560   109882395.01107  20909908.900    85622652.35348
  20373252.420   107062217.01408  20373252.320    83425126.39349
  23049759.900   121127317.86405  23049760.980    94384935.41646
 15 03 01 02 37 30.0000000  0  9G01G04G11G16G18G19G22G27G32
  24274003.220   127560744.07003  24274007.060    99397998.98745
  21848968.400   114817164.90706  21848967.920    89467947.97246
  23302375.740   122454822.82405  23302374.560    95419340.32044
  21823507.240   114683325.84107  21823505.180    89363633.37347
  23178661.360   121804729.44605  23178658.720    94912793.56445
  20960754.900   110149547.07207  20960750.940    85830823.40648
  20914290.960   109905398.57407  20914286.380    85640577.21348
  20373385.420   107062916.47208  20373385.380    83425671.42649
  23028469.940   121015437.75405  23028471.000    94297756.15746
 15 03 01 02 38  0.0000000  0  9G01G04G11G16G18G19G22G27G32
  24258606.520   127479835.34504  24258610.500    99334953.34744
  21836829.060   114753372.28406  21836828.560    89418239.46247
  23286509.420   122371445.58805  23286508.300    95354371.08445
  21839359.120   114766627.83807  21839357.040    89428543.99847
  23192983.520   121879992.91005  23192980.900    94971440.42745
  20952798.540   110107736.36807  20952794.620    85798243.65149
  20918765.580   109928913.69407  20918761.140    85658900.67948
  20373587.360   107063977.77408  20373587.280    83426498.40849
  23007219.500   120903765.00805  23007220.380    94210738.48047
 15 03 01 02 38 30.0000000  0  9G01G04G11G16G18G19G22G27G32
  24243236.460   127399064.96604  24243240.260    99272015.49044
  21824737.620   114689830.93406  21824737.040    89368726.74546
  23270664.860   122288181.64205  23270663.500    95289490.14945
  21855280.580   114850295.52307  21855278.500    89493739.57648
  23207357.540   121955529.02105  23207355.020    95030299.73945
  20944891.300   110066183.53107  20944887.360    85765864.82149
  20923336.080   109952932.36707  20923331.680    85677616.53048
  20373857.040   107065394.75008  20373856.880    83427602.54349
  22986007.740   120792295.24805  22986008.320    94123878.93945
 15 03 01 02 39  0.0000000  0  9G01G04G11G16G18G19G22G27G32
  24227893.480   127318437.10904  24227897.180    99209188.73644
  21812694.700   114626545.14106  21812694.080    89319413.17747
  23254842.720   122205035.46504  23254841.160    95224700.96945
  21871271.900   114934330.43707  21871269.860    89559221.30147
  23221783.680   122031339.65805  23221781.340    95089372.96445
  20937034.120   110024893.80007  20937030.160    85733691.01749
  20928002.980   109977456.86607  20927998.500    85696726.54048
  20374195.320   107067172.28108  20374195.120    83428987.62449
  22964835.720   120681035.19605  22964836.080    94037182.84145
 15 03 01 02 39 30.0000000  0  9G01G04G11G16G18G19G22G27G32
  24212577.220   127237950.25804  24212580.920    99146471.80645
  21800700.000   114563513.09206  21800699.400    89270297.32847
  23239042.620   122122005.16805  23239041.060    95160002.08845
  21887332.400   115018728.69507  21887330.340    89624986.15547
  23236261.240   122107420.94205  23236259.240    95148657.05745
  20929226.780   109983866.07807  20929222.840    85701721.37249
  20932765.680   110002484.49507  20932761.120    85716228.60148
  20374602.080   107069309.62708  20374601.820    83430653.08749
  22943703.660   120569985.91005  22943704.040    93950651.01846
 15 03 01 02 40  0.0000000  0  9G01G04G11G16G18G19G22G27G32
  24197287.080   127157600.25104  24197290.620    99083861.54445
  21788752.920   114500730.85206  21788752.320    89221376.12146
  23223263.780   122039087.30605  23223262.300    95095390.81245
  21903460.840   115103483.72307  21903458.720    89691029.00547
  23250789.280   122183766.26605  23250787.220    95208146.92445
  20921468.820   109943097.97807  20921464.980    85669954.02949
  20937622.940   110028009.81607  20937618.440    85736118.45948
  20375076.620   107071803.48108  20375076.400    83432596.34949
  22922611.460   120459146.04205  22922611.740    93864282.41346
 15 03 01 02 40 30.0000000  0  9G01G04G11G16G18G19G22G27G32
  24182023.640   127077390.78204  24182027.180    99021360.76944
  21776854.040   114438201.69206  21776853.440    89172652.12547
  23207507.060   121956285.69105  23207505.800    95030870.13345
  21919657.180   115188595.76407  21919655.020    89757350.05447
  23265367.940   122260376.73405  23265365.660    95267843.39545
  20913761.140   109902594.30607  20913757.420    85638392.73449
  20942575.300   110054034.91907  20942570.840    85756397.75848
  20375619.760   107074658.18908  20375619.660    83434820.80049
  22901560.320   120348521.46305  22901560.380    93778081.55346
 15 03 01 02 41  0.0000000  0  9G01G04G11G16G18G19G22G27G32
  24166787.200   126997323.55304  24166790.740    98958970.83545
  21765003.640   114375927.39106  21765003.060    89124126.72247
  23191772.860   121873602.30605  23191771.680    94966441.54846
  21935921.320   115274064.08707  21935919.080    89823948.72247
  23279997.040   122337252.21206  23279994.540    95327746.36745
  20906104.320   109862357.86307  20906100.660    85607039.67249
  20947622.960   110080560.39407  20947618.460    85777066.96148
  20376232.080   107077876.30708  20376232.100    83437328.42649
  22880550.920   120238116.54105  22880550.880    93692051.84245
 15 03 01 02 41 30.0000000  0  9G01G04G11G16G18G19G22G27G32
  24151577.640   126917397.97404  24151581.000    98896691.27244
  21753201.660   114313907.51506  21753201.020    89075799.55847
  23176061.180   121791036.91205  23176060.020    94902104.92046
  21952252.600   115359885.55307  21952250.380    89890822.56547
  23294675.920   122414389.58205  23294673.340    95387853.41546
  20898498.500   109822389.42407  20898494.880    85575895.44249
  20952765.480   110107584.02207  20952760.860    85798124.34648
  20376913.680   107081457.97908  20376913.720    83440119.33349
  22859583.700   120127933.35305  22859583.640    93606194.94845
 15 03 01 02 42  0.0000000  0  9G01G04G11G16G18G19G22G27G32
  24136395.200   126837613.33204  24136398.660    98834521.52646
  21741447.880   114252141.03206  21741447.200    89027669.85947
  23160372.040   121708589.37105  23160370.720    94837860.12145
  21968650.240   115446055.95907  21968648.120    89957968.31147
  23309404.000   122491785.77905  23309401.300    95448162.13945
  20890943.780   109782689.02107  20890940.120    85544960.07249
  20958002.400   110135103.64407  20957997.680    85819568.21648
  20377664.540   107085403.30808  20377664.520    83443193.60749
  22838658.900   120017973.58605  22838658.920    93520512.10845
 15 03 01 02 42 30.0000000  0  9G01G04G11G16G18G19G22G27G32
  24121239.820   126757972.04804  24121243.300    98772463.51946
  21729742.760   114190630.47406  21729742.100    88979739.58947
  23144705.780   121626262.05105  23144704.240    94773709.01744
  21985114.360   115532575.66707  21985112.320    90025386.24347
  23324181.280   122569441.06705  23324178.480    95508672.74345
  20883440.740   109743260.24607  20883437.100    85514236.35949
  20963333.740   110163120.17207  20963329.040    85841399.27748
  20378485.180   107089715.47408  20378485.060    83446553.72849
  22817777.660   119908242.45205  22817777.700    93435007.45745
 15 03 01 02 43  0.0000000  0  9G01G04G11G16G18G19G22G27G32
  24106111.080   126678471.85604  24106115.080    98710515.40245
  21718085.920   114129373.41906  21718085.300    88932006.84147
  23129061.920   121544052.96005  23129060.340    94709650.03745
  22001643.960   115619439.17007  22001641.920    90093072.07147
  23339006.960   122647350.75705  23339004.100    95569381.58045
  20875989.260   109704102.20207  20875985.560    85483723.60549
  20968758.900   110191630.03207  20968754.280    85863614.75648
  20379375.280   107094392.93408  20379375.080    83450198.49649
  22796939.920   119798740.07005  22796939.900    93349681.04746
 15 03 01 02 43 30.0000000  0  9G01G04G11G16G18G19G22G27G32
  24091009.580   126599113.31404  24091013.500    98648677.68146
  21706477.460   114068370.62006  21706476.780    88884472.22247
  23113440.700   121461963.21805  23113439.360    94645684.05645
  22018238.680   115706644.78107  22018236.620    90161024.48347
  23353880.660   122725513.03805  23353877.880    95630287.25545
  20868589.680   109665216.79707  20868585.880    85453423.29449
  20974277.880   110220632.50207  20974273.280    85886214.08148
  20380335.080   107099437.08008  20380334.900    83454128.99949
  22776146.280   119689469.56905  22776146.260    93264535.22046
 15 03 01 02 44  0.0000000  0  9G01G04G11G16G18G19G22G27G32
  24075935.040   126519896.46804  24075938.840    98586950.41045
  21694917.360   114007621.66706  21694916.640    88837135.40447
  23097842.120   121379993.01505  23097840.900    94581811.19145
  22034898.040   115794189.86707  22034895.940    90229241.41947
  23368802.060   122803925.63205  23368799.380    95691387.98445
  20861242.140   109626604.94007  20861238.260    85423336.14549
  20979890.320   110250125.79207  20979885.700    85909195.87648
  20381364.720   107104848.58608  20381364.640    83458345.75749
  22755397.320   119580433.41605  22755397.260    93179571.96145
 15 03 01 02 44 30.0000000  0  9G01G04G11G16G18G19G22G27G32
  24060887.640   126440822.73804  24060890.980    98525334.62545
  21683405.860   113947128.37906  21683405.220    88789997.80347
  23082266.720   121298144.35005  23082265.440    94518033.06245
  22051621.580   115882072.52907  22051619.480    90297721.40547
  23383770.980   122882588.06305  23383768.460    95752683.41045
  20853947.140   109588269.41407  20853943.240    85393464.31349
  20985596.160   110280110.23107  20985591.560    85932560.38648
  20382464.740   107110629.88508  20382464.780    83462850.66349
  22734693.840   119471635.96205  22734693.720    93094794.67846
 15 03 01 02 45  0.0000000  0  9G01G04G11G16G18G19G22G27G32
  24045867.140   126361889.55204  24045870.700    98463828.35645
  21671942.460   113886887.64006  21671941.840    88743056.98647
  23066714.000   121216414.68605  23066712.800    94454347.63645
  22068408.360   115970287.66607  22068406.240    90366460.45647
  23398786.500   122961495.12705  23398784.040    95814169.45445
  20846704.420   109550208.60407  20846700.500    85363806.54349
  20991394.420   110310581.32307  20991389.980    85956304.09248
  20383634.840   107116778.86708  20383634.920    83467642.07249
  22714035.840   119363077.05605  22714035.540    93010203.35746
 15 03 01 02 45 30.0000000  0  9G01G04G11G16G18G19G22G27G32
  24030873.860   126283099.82704  24030877.160    98402433.85846
  21660527.700   113826902.57607  21660527.080    88696315.41147
  23051184.640   121134807.43005  23051183.300    94390757.62345
  22085258.500   116058835.42606  22085256.340    90435458.68947
  23413848.700   123040647.56205  23413846.340    95875846.70146
  20839514.800   109512426.81407  20839510.880    85334366.19749
  20997285.560   110341540.42107  20997281.260    85980428.06348
  20384875.800   107123299.35508  20384875.760    83472722.95949
  22693424.360   119254762.28005  22693423.880    92925802.27246
 15 03 01 02 46  0.0000000  0  9G01G04G11G16G18G19G22G27G32
  24015907.920   126204453.96804  24015911.460    98341151.51145
  21649161.600   113767173.71706  21649161.040    88649773.46347
  23035678.660   121053323.49305  23035677.380    94327263.70446
  22102171.440   116147713.23706  22102169.260    90504714.11347
  23428957.200   123120042.75805  23428954.860    95937713.05946
  20832378.540   109474925.56207  20832374.620    85305144.44249
  21003269.560   110372986.58507  21003265.260    86004931.56948
  20386187.740   107130192.48208  20386187.520    83478094.21749
  22672859.820   119146694.57505  22672859.300    92841593.72446
 15 03 01 02 46 30.0000000  0  9G01G04G11G16G18G19G22G27G32
  24000969.200   126125950.52504  24000972.640    98279980.08545
  21637843.880   113707699.12506  21637843.340    88603429.65247
  23020195.860   120971961.40005  23020194.740    94263864.71446
  22119146.520   116236917.32506  22119144.200    90574223.78447
  23444111.220   123199677.74405  23444108.980    95999766.28046
  20825295.680   109437704.97307  20825291.780    85276141.39949
  21009345.800   110404916.99207  21009341.440    86029812.41048
  20387570.400   107137457.52908  20387570.060    83483755.28649
  22652342.440   119038874.94705  22652341.900    92757578.46646
 15 03 01 02 47  0.0000000  0  9G01G04G11G16G18G19G22G27G32
  23986057.760   126047591.15404  23986061.340    98218920.92146
  21626574.940   113648480.81106  21626574.400    88557285.54247
  23004736.860   120890723.57305  23004735.740    94200562.56045
  22136183.360   116326446.18206  22136180.940    90643986.51947
  23459310.660   123279551.89704  23459308.480    96062005.87445
  20818266.740   109400767.52307  20818262.780    85247358.98049
  21015514.060   110437331.48907  21015509.700    86055070.46748
  20389024.160   107145096.96608  20389023.800    83489708.08849
  22631873.080   118931307.91005  22631872.500    92673760.04146
 15 03 01 02 47 30.0000000  0  9G01G04G11G16G18G19G22G27G32
  23971173.800   125969376.46404  23971177.420    98157974.53143
  21615354.900   113589519.23406  21615354.320    88511341.47947
  22989301.580   120809610.93405  22989300.460    94137357.92945
  22153281.480   116416297.21706  22153279.060    90714000.29247
  23474555.200   123359663.58104  23474553.340    96124430.52045
  20811291.960   109364114.89707  20811288.000    85218798.49849
  21021774.220   110470229.25107  21021769.860    86080705.08948
  20390549.280   107153112.04308  20390549.000    83495953.60349
  22611452.280   118823996.45205  22611451.700    92590140.80945
 15 03 01 02 48  0.0000000  0  9G01G04G11G16G18G19G22G27G32
  23956316.520   125891301.61704  23956320.020    98097137.07343
  21604182.820   113530809.40807  21604182.160    88465593.59147
  22973889.180   120728618.60905  22973888.200    94074247.09445
  22170439.600   116506463.72806  22170437.240    90784259.89947
  23489843.700   123440005.83504  23489841.880    96187034.86945
  20804370.740   109327743.84807  20804366.800    85190457.43549
  21028125.100   110503603.84407  21028120.760    86106711.26848
  20392144.960   107161498.65208  20392144.920    83502488.61849
  22591079.740   118716938.20505  22591079.120    92506718.80146
 15 03 01 02 48 30.0000000  0  9G01G04G11G16G18G19G22G27G32
  23941486.680   125813370.53404  23941490.100    98036411.67544
  21593059.400   113472355.26307  21593058.700    88420044.93547
  22958500.680   120647751.52505  22958499.720    94011233.80446
  22187657.880   116596946.38106  22187655.580    90854765.85947
  23505176.440   123520579.68005  23505174.480    96249819.70245
  20797504.080   109291659.28207  20797500.120    85162339.60049
  21034567.300   110537457.57607  21034562.900    86133090.79948
  20393812.340   107170261.45508  20393812.400    83509316.77149
  22570756.720   118610139.71505  22570756.160    92423499.21447
 15 03 01 02 49  0.0000000  0  9G01G04G11G16G18G19G22G27G32
  23926684.360   125735583.96904  23926687.880    97975798.85245
  21581984.780   113414157.62307  21581984.040    88374696.15847
  22943136.160   120567010.45605  22943135.340    93948318.73645
  22204936.020   116687743.40706  22204933.660    90925516.77147
  23520553.140   123601383.99805  23520550.940    96312784.12244
  20790692.380   109255863.41507  20790688.360    85134446.72549
  21041100.640   110571789.61607  21041096.120    86159843.04648
  20395551.740   107179402.03708  20395551.800    83516439.29249
  22550483.820   118503604.59906  22550483.340    92340484.84846
 15 03 01 02 49 30.0000000  0  9G01G04G11G16G18G19G22G27G32
  23911909.340   125657941.14404  23911912.640    97915298.03245
  21570958.680   113356215.26607  21570957.980    88329546.29747
  22927795.640   120486395.14005  22927794.720    93885501.64445
  22222273.120   116778850.78706  22222270.780    90996509.52347
  23535973.060   123682415.50505  23535970.600    96375925.56045
  20783935.620   109220356.42007  20783931.580    85106778.94549
  21047724.420   110606597.52607  21047719.900    86186966.09948
  20397363.160   107188920.19908  20397363.100    83523856.02949
  22530261.280   118397334.36306  22530260.740    92257676.87647
 15 03 01 02 50  0.0000000  0  9G01G04G11G16G18G19G22G27G32
  23897162.260   125580444.44204  23897165.340    97854911.08246
  21559981.700   113298530.88607  21559981.000    88284597.46547
  22912479.560   120405908.39205  22912478.520    93822784.74244
  22239669.220   116870267.99706  22239666.840    91067743.70247
  23551436.140   123763674.39205  23551433.620    96439244.19845
  20777234.500   109185141.98307  20777230.500    85079339.13449
  21054438.860   110641882.42807  21054434.420    86214460.82648
  20399247.040   107198819.07808  20399246.860    83531569.43549
  22510089.920   118291334.00005  22510089.480    92175079.21746
 15 03 01 02 50 30.0000000  0  9G01G04G11G16G18G19G22G27G32
  23882442.380   125503090.91904  23882445.360    97794635.70645
  21549053.240   113241101.39407  21549052.500    88239847.24447
  22897187.340   120325547.59605  22897186.200    93760165.96945
  22257123.240   116961989.42806  22257120.860    91139214.94347
  23566941.520   123845155.77105  23566939.000    96502736.21544
  20770588.740   109150218.58907  20770584.820    85052126.11449
  21061243.160   110677639.45007  21061238.760    86242323.44048
  20401202.860   107209096.42208  20401202.600    83539577.75349
  22489969.880   118185603.24005  22489969.520    92092691.65546
 15 03 01 02 51  0.0000000  0  9G01G04G11G16G18G19G22G27G32
  23867749.800   125425880.35904  23867752.540    97734471.75646
  21538173.220   113183926.61307  21538172.420    88195295.49147
  22881919.080   120245312.85305  22881917.820    93697645.42245
  22274634.580   117054012.37406  22274632.220    91210921.13147
  23582488.720   123926857.10004  23582486.240    96566399.56345
  20763998.580   109115587.08807  20763994.680    85025140.53949
  21068137.060   110713866.75207  21068132.540    86270552.51948
  20403230.660   107219752.83508  20403230.460    83547881.45049
  22469901.660   118080144.52905  22469901.380    92010516.06146
 15 03 01 02 51 30.0000000  0  9G01G04G11G16G18G19G22G27G32
  23853084.620   125348814.94104  23853087.440    97674420.89346
  21527341.980   113127008.49907  21527341.200    88150943.74547
  22866675.400   120165206.72905  22866673.960    93635225.10745
  22292203.180   117146336.23006  22292200.860    91282861.77747
  23598077.800   124008778.11904  23598075.300    96630234.11145
  20757464.640   109081251.10407  20757460.760    84998385.23149
  21075120.560   110750564.57507  21075115.860    86299148.23448
  20405330.980   107230791.10808  20405330.960    83556482.69549
  22449886.200   117974962.51905  22449885.960    91928556.10046
 15 03 01 02 52  0.0000000  0  9G01G04G11G16G18G19G22G27G32
  23838447.040   125271893.94904  23838449.880    97614482.51046
  21516559.440   113070346.35807  21516558.640    88106791.45347
  22851456.280   120085229.12705  22851454.620    93572904.93345
  22309828.280   117238956.78406  22309825.980    91355033.61947
  23613708.040   124090915.83904  23613705.680    96694237.52945
  20750986.960   109047210.90507  20750983.100    84971860.41149
  21082193.000   110787730.69807  21082188.320    86328108.85548
  20407503.980   107242211.20608  20407504.120    83565381.46549
  22429923.680   117870059.00805  22429923.500    91846813.16346
 15 03 01 02 52 30.0000000  0  9G01G04G11G16G18G19G22G27G32
  23823837.180   125195118.08304  23823840.240    97554657.25445
  21505825.780   113013940.80907  21505825.000    88062839.11347
  22836261.840   120005381.52505  22836260.180    93510686.05145
  22327509.560   117331872.48806  22327507.300    91427435.43146
  23629379.240   124173268.80105  23629377.000    96758408.64645
  20744566.000   109013468.49007  20744562.120    84945567.62449
  21089354.340   110825364.41607  21089349.780    86357433.83048
  20409750.040   107254014.55508  20409750.220    83574578.87949
  22410014.780   117765437.22906  22410014.580    91765289.71246
 15 03 01 02 53  0.0000000  0  9G01G04G11G16G18G19G22G27G32
  23809254.800   125118487.13304  23809257.880    97494944.92746
  21495140.880   112957791.68507  21495140.180    88019086.57747
  22821091.920   119925663.48105  22821090.400    93448568.15246
  22345246.360   117425079.92506  22345244.160    91500064.56047
  23645091.040   124255834.26805  23645088.580    96822745.37545
  20738201.960   108980025.18407  20738198.080    84919507.92249
  21096604.320   110863463.74407  21096599.920    86387121.61648
  20412069.220   107266201.60708  20412069.320    83584075.27849
  22390160.080   117661099.68506  22390159.740    91683987.76246
 15 03 01 02 53 30.0000000  0  9G01G04G11G16G18G19G22G27G32
  23794699.800   125042001.15104  23794702.880    97435345.55345
  21484504.760   112901898.97607  21484504.120    87975533.84747
  22805946.860   119846075.96105  22805945.360    93386551.93745
  22363038.180   117518576.66706  22363036.020    91572919.12747
  23660843.080   124338610.71705  23660840.500    96887246.52345
  20731895.000   108946882.14607  20731891.180    84893682.18049
  21103942.740   110902026.99907  21103938.300    86417170.91248
  20414461.660   107278773.14208  20414461.580    83593871.26549
  22370360.020   117557048.91606  22370359.500    91602909.27146
 15 03 01 02 54  0.0000000  0  9G01G04G11G16G18G19G22G27G32
  23780172.580   124965661.61804  23780175.640    97375860.27246
  21473917.840   112846264.19107  21473917.120    87932182.09847
  22790826.980   119766620.85205  22790825.400    93324638.92245
  22380884.800   117612361.40406  22380882.700    91645998.10047
  23676634.980   124421597.13905  23676632.300    96951911.26544
  20725645.720   108914042.22307  20725641.940    84868092.63849
  21111369.460   110941054.09007  21111364.900    86447581.64348
  20416927.660   107291731.26108  20416927.440    83603968.49049
  22350615.160   117453288.92606  22350614.660    91522057.36046
 15 03 01 02 54 30.0000000  0  9G01G04G11G16G18G19G22G27G32
  23765673.080   124889467.78204  23765676.220    97316488.56846
  21463379.820   112790886.22507  21463379.020    87889030.46747
  22775732.220   119687297.61805  22775730.620    93262828.65545
  22398785.600   117706430.53206  22398783.500    91719298.67747
  23692466.180   124504790.43605  23692463.320    97016737.21344
  20719454.280   108881505.91007  20719450.460    84842739.67549
  21118883.820   110980542.27707  21118879.180    86478351.66048
  20419467.060   107305075.92408  20419466.920    83614366.92749
  22330925.780   117349821.55806  22330925.380    91441433.43946
 15 03 01 02 55  0.0000000  0  9G01G04G11G16G18G19G22G27G32
  23751201.300   124813418.81604  23751204.500    97257229.71644
  21452890.580   112735764.52707  21452889.720    87846078.52547
  22760662.460   119608105.81205  22760660.920    93201120.77846
  22416739.700   117800779.99906  22416737.680    91792817.71947
  23708336.120   124588187.69105  23708333.300    97081722.09744
  20713320.720   108849273.48607  20713316.840    84817623.51049
  21126485.380   111020489.17507  21126480.780    86509479.12148
  20422079.880   107318806.96708  20422079.940    83625066.44049
  22311292.460   117246648.60105  22311292.100    91361038.91046
 15 03 01 02 55 30.0000000  0  9G01G04G11G16G18G19G22G27G32
  23736757.200   124737514.69204  23736760.320    97198083.75246
  21442449.980   112680898.88507  21442449.180    87803326.12347
  22745617.880   119529046.16905  22745616.380    93139515.90745
  22434746.500   117895406.80506  22434744.600    91866552.90546
  23724244.420   124671786.51404  23724241.760    97146864.07445
  20707245.220   108817346.27107  20707241.260    84792745.15849
  21134173.960   111060892.99907  21134169.360    86540962.62048
  20424766.320   107332924.97408  20424766.540    83636067.48549
  22291715.700   117143772.55806  22291715.380    91280875.79146
 15 03 01 02 56  0.0000000  0  9G01G04G11G16G18G19G22G27G32
  23722340.520   124661754.98704  23722343.720    97139050.28145
  21432057.960   112626288.94207  21432057.280    87760772.95447
  22730598.340   119450118.65205  22730596.900    93078013.98746
  22452805.700   117990308.51806  22452803.800    91940502.30046
  23740190.700   124755584.31304  23740187.800    97212161.08144
  20701227.920   108785725.17707  20701223.900    84768105.35449
  21141949.100   111101751.63007  21141944.500    86572800.52148
  20427526.540   107347430.22208  20427526.780    83647370.27049
  22272195.900   117041195.59006  22272195.580    91200945.72946
 15 03 01 02 56 30.0000000  0  9G01G04G11G16G18G19G22G27G32
  23707952.780   124586147.53104  23707956.120    97080135.49946
  21421716.060   112571942.23007  21421715.400    87718424.90447
  22715605.600   119371331.55005  22715604.120    93016621.49046
  22470918.020   118085489.79406  22470916.220    92014669.55047
  23756175.920   124839586.85904  23756172.720    97277617.61445
  20695270.640   108754419.18607  20695266.520    84743711.07749
  21149812.040   111143070.90407  21149807.280    86604997.36948
  20430362.140   107362331.13608  20430362.300    83658981.36349
  22252735.120   116938928.27206  22252734.700    91121257.04746
 15 03 01 02 57  0.0000000  0  9G01G04G11G16G18G19G22G27G32
  23693590.880   124510675.29204  23693594.140    97021326.02845
  21411421.100   112517841.93907  21411420.380    87676268.86247
  22700636.540   119292668.63805  22700635.040    92955325.75145
  22489079.820   118180930.35506  22489077.920    92089038.77047
  23772196.320   124923774.90804  23772193.000    97343218.71045
  20689370.320   108723412.87207  20689366.220    84719550.32349
  21157759.020   111184832.35907  21157754.200    86637538.77448
  20433270.020   107377611.38608  20433269.980    83670888.04349
  22233330.380   116836955.96905  22233329.960    91041798.31747
 15 03 01 02 57 30.0000000  0 10G01G04G11G14G16G18G19G22G27G32
  23679258.260   124435357.21004  23679261.520    96962636.71146
  21401176.700   112464006.96007  21401175.820    87634319.55847
  22685694.860   119214149.23505  22685693.260    92894141.85245
  24148590.060   126901694.42504  24148588.800    98884431.64545
  22507294.120   118276646.48806  22507292.060    92163622.69446
  23788255.120   125008165.02805  23788251.940    97408977.27445
  20683530.840   108692726.12107  20683526.720    84695638.57149
  21165793.340   111227053.03507  21165788.500    86670438.00648
  20436253.800   107393290.54408  20436253.600    83683105.56549
  22213985.780   116735299.98806  22213985.400    90962585.93847
 15 03 01 02 58  0.0000000  0 10G01G04G11G14G16G18G19G22G27G32
  23664952.680   124360180.60704  23664956.000    96904057.62646
  21390980.380   112410424.37207  21390979.260    87592566.93047
  22670778.080   119135760.88305  22670776.380    92833060.07446
  24135456.500   126832678.12104  24135455.580    98830652.77544
  22525557.820   118372622.78706  22525555.740    92238409.37946
  23804349.620   125092742.48604  23804346.580    97474881.76645
  20677749.940   108662347.49607  20677745.880    84671966.92649
  21173912.280   111269718.47607  21173907.460    86703683.81048
  20439311.100   107409356.46708  20439310.840    83695624.46049
  22194699.480   116633950.12906  22194699.080    90883612.09546
 15 03 01 02 58 30.0000000  0 10G01G04G11G14G16G18G19G22G27G32
  23650675.400   124285154.12904  23650678.860    96845595.53647
  21380833.620   112357103.01107  21380832.500    87551017.84747
  22655888.040   119057512.84505  22655886.200    92772087.62646
  24122355.940   126763835.90304  24122355.240    98777009.45346
  22543872.160   118468865.19106  22543870.080    92313403.42347
  23820480.980   125177514.06104  23820478.040    97540937.53946
  20672029.620   108632287.16707  20672025.620    84648543.30549
  21182117.140   111312835.52207  21182112.340    86737281.51248
  20442443.620   107425818.53608  20442443.480    83708452.04649
  22175473.560   116532917.81006  22175473.140    90804885.67846
 15 03 01 02 59  0.0000000  0 10G01G04G11G14G16G18G19G22G27G32
  23636425.540   124210271.16404  23636428.980    96787245.26146
  21370735.120   112304036.01807  21370734.200    87509666.96647
  22641023.460   118979399.11505  22641021.640    92711219.82446
  24109287.920   126695163.80104  24109287.520    98723498.79245
  22562235.260   118565364.03006  22562233.260    92388597.30847
  23836647.460   125262470.18304  23836644.620    97607137.11745
  20666368.860   108602539.81207  20666364.920    84625363.55349
  21190406.320   111356395.61707  21190401.560    86771224.44848
  20445650.340   107442670.67508  20445650.400    83721583.58349
  22156307.220   116432198.75705  22156306.880    90726403.32646
 15 03 01 02 59 30.0000000  0  9G01G04G11G16G18G19G22G27G32
  23622202.400   124135529.46904  23622206.080    96729005.08645
  21360684.660   112251221.33007  21360683.900    87468512.69247
  22626184.200   118901418.06005  22626182.400    92650455.41445
  22580646.300   118662114.34406  22580644.320    92463987.16046
  23852848.400   125347606.97104  23852845.660    97673477.48344
  20660767.460   108573104.48207  20660763.580    84602426.94549
  21198779.220   111400395.18507  21198774.400    86805509.83448
  20448931.040   107459911.36608  20448931.240    83735017.88449
  22137200.580   116331793.53006  22137200.260    90648165.54246
 15 03 01 03 00  0.0000000  0  9G01G04G11G16G18G19G22G27G32
  23608008.180   124060939.43304  23608012.080    96670883.06246
  21350684.240   112198669.18607  21350683.600    87427563.00947
  22611372.180   118823580.42205  22611370.360    92589802.76645
  22599106.540   118759123.44706  22599104.600    92539578.65547
  23869085.300   125432932.55904  23869082.740    97739964.95044
  20655227.640   108543992.67607  20655223.760    84579742.42549
  21207237.200   111444842.37007  21207232.440    86840144.00648
  20452287.940   107477551.45608  20452288.080    83748763.40649
  22118156.200   116231715.02906  22118155.900    90570182.42746
 15 03 01 03 00 30.0000000  0 10G01G04G11G14G16G18G19G22G27G32
  23593843.060   123986501.80004  23593846.800    96612879.79845
  21340734.000   112146380.25407  21340733.380    87386818.41047
  22596587.640   118745887.42105  22596585.820    92529262.82145
  24070287.320   126490214.63004  24070287.240    98563805.95844
  22617615.700   118856389.49706  22617613.720    92615370.38946
  23885357.840   125518445.55704  23885355.400    97806598.44945
  20649749.860   108515206.67907  20649745.960    84557311.78749
  21215780.140   111489736.07007  21215775.440    86875126.11248
  20455721.100   107495592.30608  20455721.160    83762821.20949
  22099174.580   116131966.21106  22099174.260    90492456.15746
 15 03 01 03 01  0.0000000  0 10G01G04G11G14G16G18G19G22G27G32
  23579704.260   123912202.61204  23579707.900    96554984.40446
  21330831.240   112094340.50407  21330830.540    87346267.98547
  22581828.040   118668325.68505  22581826.240    92468825.15846
  24057356.520   126422261.49304  24057356.400    98510855.47645
  22636170.460   118953895.48806  22636168.520    92691349.09746
  23901662.960   125604129.71404  23901660.460    97873365.33745
  20644331.720   108486733.91707  20644327.740    84535125.23149
  21224405.100   111535060.65907  21224400.420    86910443.97548
  20459227.940   107514020.60908  20459227.900    83777180.92449
  22080253.640   116032535.88906  22080253.340    90414978.05746
 15 03 01 03 01 30.0000000  0 10G01G04G11G14G16G18G19G22G27G32
  23565593.780   123838052.25304  23565597.460    96497205.01744
  21320977.880   112042560.45407  21320977.080    87305919.92547
  22567095.500   118590906.32205  22567093.720    92408498.43546
  24044461.600   126354498.05504  24044461.140    98458052.82446
  22654772.340   119051648.97405  22654770.420    92767520.66946
  23918002.380   125689993.53404  23917999.740    97940272.22943
  20638975.340   108458585.95807  20638971.360    84513191.76249
  21233113.720   111580824.59707  21233108.960    86946104.19548
  20462810.520   107532847.31008  20462810.420    83791851.07249
  22061395.680   115933436.86106  22061395.380    90337758.10246
 15 03 01 03 02  0.0000000  0  9G01G04G11G16G18G19G22G27G32
  23551509.980   123764041.26404  23551513.660    96439534.21645
  21311172.040   111991030.34607  21311171.100    87265766.62847
  22552388.340   118513620.28206  22552386.540    92348275.58745
  22673418.980   119149638.08606  22673417.180    92843875.82346
  23934373.700   125776025.36904  23934371.180    98007310.00744
  20633679.240   108430754.42607  20633675.180    84491504.86649
  21241903.760   111627016.69307  21241899.000    86982098.04648
  20466467.180   107552063.48708  20466467.080    83806824.71949
  22042599.340   115834662.29006  22042599.120    90260790.98846
 15 03 01 03 02 30.0000000  0 10G01G04G11G14G16G18G19G22G27G32
  23537456.260   123690188.31504  23537459.860    96381986.54546
  21301417.320   111939769.12007  21301416.300    87225822.85347
  22537710.340   118436487.14706  22537708.460    92288171.90545
  24018780.720   126219540.42004  24018779.360    98352885.60744
  22692113.380   119247878.07606  22692111.700    92920426.43247
  23950780.120   125862241.71704  23950777.860    98074491.59145
  20628447.160   108403259.71507  20628443.100    84470080.42749
  21250778.420   111673653.77207  21250773.720    87018438.62548
  20470201.600   107571688.37208  20470201.540    83822116.83549
  22023868.760   115736233.19706  22023868.540    90184093.08046
 15 03 01 03 03  0.0000000  0 10G01G04G11G14G16G18G19G22G27G32
  23523429.380   123616476.63404  23523432.880    96324548.94145
  21291710.500   111888759.68307  21291709.500    87186075.26747
  22523058.240   118359490.03606  22523056.340    92228174.21646
  24005995.880   126152355.57704  24005994.720    98300533.84743
  22710851.780   119346349.10906  22710850.120    92997157.06447
  23967218.020   125948623.50204  23967215.660    98141802.11144
  20623276.140   108376085.74307  20623272.040    84448905.91549
  21259734.200   111720717.19107  21259729.560    87055111.42248
  20474010.760   107591705.73508  20474010.740    83837714.78449
  22005201.220   115638135.22506  22005200.940    90107653.14046
 15 03 01 03 03 30.0000000  0 10G01G04G11G14G16G18G19G22G27G32
  23509430.240   123542911.63604  23509433.780    96267225.65945
  21282052.700   111838007.71207  21282051.760    87146528.30747
  22508433.320   118282635.39506  22508431.280    92168287.52546
  23993249.080   126085370.03704  23993248.140    98248337.36145
  22729634.660   119445054.32705  22729633.100    93074070.18246
  23983688.060   126035174.28504  23983685.600    98209244.30144
  20618167.460   108349239.69307  20618163.360    84427986.92749
  21268771.860   111768210.44107  21268767.160    87092119.15948
  20477895.840   107612121.65108  20477895.780    83853623.28249
  21986598.320   115540376.57006  21986597.920    90031477.61447
 15 03 01 03 04  0.0000000  0 10G01G04G11G14G16G18G19G22G27G32
  23495459.220   123469494.16104  23495462.900    96210017.30247
  21272444.020   111787513.80007  21272443.060    87107182.43247
  22493835.700   118205924.60206  22493833.740    92108512.93146
  23980540.520   126018587.11004  23980539.680    98196298.70645
  22748461.660   119543991.62305  22748460.260    93151164.14346
  24000190.040   126121892.48604  24000187.100    98276816.95444
  20613121.620   108322723.61907  20613117.460    84407325.06449
  21277891.200   111816132.47107  21277886.380    87129461.00948
  20481857.060   107632937.34308  20481856.940    83869843.29949
  21968060.680   115442960.38806  21968060.160    89955568.96046
 15 03 01 03 04 30.0000000  0 10G01G04G11G14G16G18G19G22G27G32
  23481516.060   123396223.12004  23481519.780    96152923.07745
  21262884.260   111737276.75907  21262883.260    87068036.71947
  22479265.440   118129357.36105  22479263.500    92048850.18846
  23967871.040   125952008.88504  23967869.960    98144419.59644
  22767332.200   119643156.94606  22767330.820    93228435.77647
  24016723.360   126208775.29404  24016720.340    98344517.84545
  20608138.580   108296537.74107  20608134.440    84386920.49449
  21287091.520   111864480.35807  21287086.700    87167134.69348
  20485894.220   107654152.44908  20485894.080    83886374.54949
  21949588.500   115345888.14106  21949587.900    89879928.29147
 15 03 01 03 05  0.0000000  0 10G01G04G11G14G16G18G19G22G27G32
  23467600.740   123323097.39904  23467604.400    96095942.07846
  21253373.200   111687295.63307  21253372.120    87029090.41347
  22464722.340   118052932.71806  22464720.280    91989298.57445
  23955240.960   125885636.76204  23955239.480    98092701.06543
  22786245.400   119742546.01505  22786243.980    93305881.78947
  24033287.240   126295819.06004  24033284.300    98412344.10945
  20603218.400   108270682.22507  20603214.300    84366773.34749
  21296372.200   111913250.97107  21296367.480    87205137.76648
  20490007.160   107675766.15208  20490007.060    83903216.39449
  21931181.940   115249161.07606  21931181.340    89804556.61947
 15 03 01 03 05 30.0000000  0 10G01G04G11G14G16G18G19G22G27G32
  23453713.760   123250121.01604  23453717.200    96039077.45146
  21243911.620   111637574.31107  21243910.400    86990346.56147
  22450207.200   117976655.55006  22450205.160    91929861.87146
  23942651.360   125819477.86804  23942649.940    98041148.71145
  22805201.440   119842160.13906  22805199.960    93383503.18646
  24049882.160   126383025.73204  24049879.220    98480297.39544
  20598362.180   108245162.57207  20598358.080    84346887.91749
  21305733.800   111962446.39507  21305729.100    87243471.86348
  20494196.760   107697783.11708  20494196.740    83920372.46649
  21912842.340   115152785.75106  21912841.720    89729459.00746
 15 03 01 03 06  0.0000000  0 10G01G04G11G14G16G18G19G22G27G32
  23439854.720   123177290.97504  23439857.840    95982326.84245
  21234498.840   111588109.81607  21234497.540    86951802.82947
  22435719.600   117900523.46506  22435717.600    91870538.22145
  23930102.280   125753531.96504  23930100.880    97989762.34645
  22824199.160   119941993.98405  22824197.680    93461295.81946
  24066507.020   126470390.41104  24066504.340    98548373.77646
  20593569.500   108219976.95307  20593565.420    84327262.77049
  21315175.400   112012061.91507  21315170.640    87282133.31348
  20498462.580   107720200.78808  20498462.660    83937840.78349
  21894569.560   115056761.48606  21894568.800    89654634.91947
 15 03 01 03 06 30.0000000  0 10G01G04G11G14G16G18G19G22G27G32
  23426023.900   123104609.73004  23426026.840    95925692.17745
  21225135.340   111538904.55907  21225134.100    86913461.10547
  22421260.180   117824539.32806  22421258.240    91811329.85046
  23917594.440   125687804.55104  23917593.440    97938546.20443
  22843238.540   120042047.22105  22843237.160    93539259.47546
  24083161.980   126557913.43104  24083159.280    98616573.50845
  20588841.140   108195129.09007  20588837.000    84307900.81349
  21324697.040   112062098.06607  21324692.180    87321122.53248
  20502805.320   107743022.26908  20502805.380    83955623.75349
  21876364.520   114961093.45006  21876363.760    89580088.41346
 15 03 01 03 07  0.0000000  0 10G01G04G11G14G16G18G19G22G27G32
  23412220.900   123032075.18504  23412223.760    95869171.83045
  21215820.640   111489956.21407  21215819.520    86875319.56847
  22406828.680   117748701.59606  22406826.640    91752235.55546
  23905128.420   125622296.03304  23905127.700    97887500.56944
  22862318.660   120142314.45405  22862317.340    93617389.87746
  24099846.300   126645590.44804  24099843.480    98684893.26144
  20584176.880   108170618.13607  20584172.700    84288801.38149
  21334297.920   112112550.92307  21334293.020    87360436.45548
  20507224.600   107766245.72108  20507224.620    83973719.94449
  21858227.280   114865781.72306  21858226.460    89505819.53146
 15 03 01 03 07 30.0000000  0 10G01G04G11G14G16G18G19G22G27G32
  23398445.520   122959685.86004  23398448.480    95812764.64445
  21206554.620   111441263.66707  21206553.600    86837377.35147
  22392425.020   117673009.99906  22392422.840    91693255.13046
  23892704.640   125557008.12704  23892703.720    97836626.90243
  22881438.820   120242791.34705  22881437.460    93695683.71346
  24116559.280   126733418.32604  24116556.440    98753330.53846
  20579576.660   108146443.89007  20579572.440    84269964.31649
  21343977.340   112163416.98107  21343972.500    87400072.34648
  20511720.360   107789870.39308  20511720.240    83992128.76849
  21840158.160   114770827.64406  21840157.280    89431829.37947
 15 03 01 03 08  0.0000000  0 10G01G04G11G14G16G18G19G22G27G32
  23384698.220   122887444.00204  23384701.300    95756472.36346
  21197337.660   111392828.78807  21197336.640    86799635.91547
  22378049.580   117597466.95906  22378047.360    91634390.48646
  23880323.740   125491945.87104  23880322.340    97785929.11543
  22900598.700   120343477.27805  22900597.280    93774140.36646
  24133300.940   126821396.93404  24133298.400    98821885.33444
  20575041.240   108122610.16307  20575036.980    84251392.58949
  21353735.460   112214696.39507  21353730.660    87440030.33548
  20516292.980   107813898.86908  20516292.740    84010852.25249
  21822157.940   114676235.56806  21822157.040    89358121.29047
 15 03 01 03 08 30.0000000  0 10G01G04G11G14G16G18G19G22G27G32
  23370979.040   122815349.07504  23370982.080    95700294.56945
  21188169.760   111344651.10107  21188168.640    86762094.88747
  22363702.580   117522072.57706  22363700.320    91575641.65946
  23867986.220   125427111.43304  23867984.640    97735408.74842
  22919797.720   120444368.89305  22919796.140    93852757.39746
  24150070.860   126909523.77104  24150068.420    98890555.58742
  20570570.740   108099117.63007  20570566.460    84233086.72949
  21363571.760   112266386.48707  21363567.000    87480308.33348
  20520942.300   107838331.00608  20520942.040    84029890.27749
  21804226.940   114582007.45606  21804226.020    89284696.77547
 15 03 01 03 09  0.0000000  0 10G01G04G11G14G16G18G19G22G27G32
  23357288.000   122743401.74604  23357290.940    95644231.77046
  21179050.940   111296731.17607  21179049.760    86724754.72347
  22349384.080   117446828.16206  22349381.960    91517009.70346
  23855692.460   125362508.38304  23855690.880    97685068.76144
  22939035.320   120545463.62305  22939033.680    93931532.67446
  24166868.820   126997797.28704  24166866.340    98959340.16345
  20566165.580   108075968.23707  20566161.280    84215048.24949
  21373485.980   112318486.33807  21373481.300    87520905.62448
  20525668.560   107863168.01408  20525668.380    84049243.79249
  21786365.720   114488146.48206  21786364.900    89211558.37647
 15 03 01 03 09 30.0000000  0 10G01G04G11G14G16G18G19G22G27G32
  23343624.260   122671597.40604  23343627.120    95588280.42344
  21169980.220   111249064.53107  21169979.100    86687611.91747
  22335093.280   117371729.80606  22335091.280    91458491.55046
  23843442.300   125298133.91004  23843441.300    97634905.61145
  22958310.340   120646754.55805  22958308.560    94010460.78746
  24183693.460   127086210.93804  24183691.060    99028233.92544
  20561825.040   108053158.64807  20561820.800    84197274.55649
  21383476.880   112370989.28007  21383472.300    87561817.00448
  20530470.960   107888405.72608  20530470.940    84068909.53949
  21768573.940   114394650.44706  21768573.220    89138704.37847
 15 03 01 03 10  0.0000000  0 10G01G04G11G14G16G18G19G22G27G32
  23329989.620   122599946.11204  23329992.120    95532448.31346
  21160959.580   111201661.12107  21160958.600    86650674.22147
  22320832.220   117296788.34406  22320830.300    91400095.65546
  23831238.960   125234003.01804  23831238.100    97584933.56545
  22977624.000   120748248.58406  22977622.120    94089547.15846
  24200546.320   127174772.68004  24200543.840    99097243.03444
  20557551.300   108030700.17407  20557547.140    84179774.45449
  21393546.060   112423903.36707  21393541.480    87603048.76348
  20535351.660   107914054.62708  20535351.740    84088895.69649
  21750854.000   114301531.62606  21750853.220    89066144.26447
 15 03 01 03 10 30.0000000  0 10G01G04G11G14G16G18G19G22G27G32
  23316382.680   122528440.70504  23316384.880    95476729.89244
  21151987.700   111154513.56607  21151986.740    86613935.89747
  22306599.720   117221996.83806  22306597.960    91341816.60246
  23819080.660   125170110.41503  23819079.660    97535147.14644
  22996974.340   120849935.65905  22996972.460    94168783.96146
  24217425.560   127263473.44504  24217423.080    99166360.55644
  20553343.220   108008586.88207  20553339.140    84162543.32849
  21403691.820   112477219.68007  21403687.200    87644593.94848
  20540309.460   107940108.01008  20540309.520    84109197.02949
  21733204.980   114208785.45206  21733204.120    88993874.52847
 15 03 01 03 11  0.0000000  0  9G01G04G11G16G18G19G22G27G32
  23302803.120   122457079.90604  23302805.140    95421124.14246
  21143064.320   111107621.02907  21143063.380    86577396.28147
  22292395.800   117147355.12306  22292394.080    91283654.29746
  23016360.800   120951812.31205  23016358.780    94248168.57547
  24234330.560   127352309.66804  24234327.960    99235583.61742
  20549200.880   107986819.02707  20549196.860    84145581.36849
  21413913.580   112530935.00207  21413908.880    87686450.04348
  20545344.160   107966565.02008  20545344.140    84129812.86949
  21715627.120   114116412.93206  21715626.180    88921895.93947
 15 03 01 03 11 30.0000000  0 10G01G04G11G14G16G18G19G22G27G32
  23289253.400   122385875.83304  23289255.240    95365640.51145
  21134191.680   111060995.19607  21134190.740    86541064.49448
  22278222.840   117072875.66806  22278220.960    91225618.38946
  23794902.680   125043054.43004  23794902.660    97436143.43146
  23035784.840   121053887.03805  23035782.820    94327707.52346
  24251263.140   127441291.37804  24251260.380    99304919.99545
  20545126.800   107965409.91807  20545122.840    84128898.95149
  21424213.080   112585059.17207  21424208.320    87728624.72948
  20550458.100   107993438.09408  20550457.960    84150752.91849
  21698123.100   114024428.55306  21698122.160    88850219.76946
 15 03 01 03 12  0.0000000  0  9G01G04G11G16G18G19G22G27G32
  23275729.640   122314809.10904  23275731.700    95310263.92046
  21125366.120   111014616.86507  21125365.200    86504925.55748
  22264077.300   116998540.04406  22264075.300    91167694.56946
  23055242.280   121156137.95205  23055240.380    94407383.73846
  24268219.420   127530397.42304  24268216.900    99374353.27444
  20541117.480   107944341.25707  20541113.580    84112481.82449
  21434586.260   112639570.85307  21434581.500    87771101.36148
  20555647.520   108020708.32308  20555647.340    84172002.44349
  21680689.640   113932815.37806  21680688.840    88778832.90047
 15 03 01 03 12 30.0000000  0 10G01G04G11G14G16G18G19G22G27G32
  23262235.520   122243897.13004  23262237.620    95255007.88146
  21116590.960   110968503.36907  21116590.080    86468992.99948
  22249962.460   116924366.06706  22249960.560    91109896.69946
  23770914.040   124916998.00304  23770913.700    97337916.80244
  23074736.020   121258579.15405  23074734.060    94487207.94946
  24285203.800   127619604.05703  24285199.500    99443826.31644
  20537176.620   107923632.06307  20537172.740    84096344.79249
  21445036.160   112694485.46907  21445031.380    87813891.97848
  20560915.840   108048393.45808  20560915.660    84193575.28049
  21663330.600   113841593.16206  21663329.880    88707750.67447
 15 03 01 03 13  0.0000000  0 10G01G04G11G14G16G18G19G22G27G32
  23248768.480   122173127.55104  23248770.420    95199862.81146
  21107863.820   110922642.37207  21107862.980    86433257.18447
  22235876.200   116850342.46806  22235874.300    91052216.01446
  23758991.480   124854345.46304  23758991.080    97289096.69044
  23094263.180   121361195.55305  23094261.200    94567168.70946
  24302210.120   127708974.83403  24302206.480    99513465.89446
  20533302.200   107903271.52307  20533298.260    84080479.44049
  21455560.040   112749788.86807  21455555.280    87856985.53448
  20566260.740   108076481.54308  20566260.640    84215462.09349
  21646044.100   113750751.82806  21646043.340    88636965.22747
 15 03 01 03 13 30.0000000  0  9G01G04G11G14G16G19G22G27G32
  23235329.580   122102506.00704  23235331.600    95144833.12045
  21099185.820   110877039.47107  21099185.000    86397722.48148
  22221819.800   116776475.37706  22221817.840    90994657.28346
  23747118.200   124791950.26404  23747117.480    97240477.05744
  23113824.360   121463990.52605  23113822.400    94647268.58046
  20529495.320   107883265.97607  20529491.340    84064890.70949
  21466158.540   112805484.45907  21466153.840    87900384.70348
  20571683.460   108104978.58408  20571683.440    84237667.58049
  21628831.640   113660299.51206  21628830.780    88566482.93047
 15 03 01 03 14  0.0000000  0  9G01G04G11G14G16G19G22G27G32
  23221919.460   122032035.63704  23221921.520    95089921.20746
  21090557.560   110831697.47807  21090556.640    86362391.07848
  22207793.800   116702768.49406  22207791.780    90937223.39346
  23735295.100   124729818.25604  23735294.020    97192062.55245
  23133419.580   121566964.12105  23133417.660    94727507.70846
  20525756.900   107863620.01807  20525752.820    84049582.17249
  21476831.880   112861573.43107  21476827.240    87944090.39448
  20577184.680   108133888.07908  20577184.740    84260194.45549
  21611694.260   113570241.68306  21611693.260    88496308.08647
 15 03 01 03 14 30.0000000  0 10G01G04G11G14G16G18G19G22G27G32
  23208536.400   121961707.81805  23208538.620    95035120.38346
  21081977.340   110786608.07007  21081976.360    86327256.50347
  22193796.740   116629213.99906  22193794.600    90879908.23146
  23723521.020   124667943.85304  23723519.500    97143848.72144
  23153046.400   121670104.09005  23153044.580    94807876.46846
  24353375.180   127977849.94804  24353372.500    99722990.01744
  20522085.500   107844326.34407  20522081.340    84034548.14349
  21487578.020   112918045.23507  21487573.460    87988094.40348
  20582762.880   108163201.73408  20582762.920    84283036.25549
  21594630.640   113480571.91806  21594629.600    88426435.62647
 15 03 01 03 15  0.0000000  0  9G01G04G11G14G16G19G22G27G32
  23195182.140   121891530.46705  23195184.280    94980436.80246
  21073446.660   110741779.07807  21073445.640    86292324.84648
  22179830.360   116555820.49506  22179828.120    90822718.53446
  23711798.020   124606337.93204  23711796.140    97095844.13445
  23172706.140   121773416.55805  23172704.340    94888379.68146
  20518482.940   107825394.43007  20518478.720    84019796.00649
  21498398.180   112974905.73007  21498393.640    88032401.28548
  20588419.600   108192927.78208  20588419.560    84306199.40249
  21577642.780   113391300.37406  21577641.720    88356873.45947
 15 03 01 03 15 30.0000000  0 10G01G04G11G14G16G18G19G22G27G32
  23181855.140   121821496.91905  23181857.160    94925865.27846
  21064964.240   110697203.86507  21064963.240    86257590.93848
  22165893.420   116482582.09306  22165891.180    90765649.68246
  23700125.280   124544996.33904  23700123.340    97048045.47144
  23192396.960   121876891.64605  23192395.040    94969009.58546
  24387602.900   128157717.90204  24387599.900    99863143.29845
  20514948.080   107806818.54707  20514943.880    84005321.29649
  21509290.680   113032146.17807  21509286.100    88077004.22948
  20594153.560   108223059.95908  20594153.540    84329679.01449
  21560729.900   113302422.85706  21560728.940    88287618.31347
 15 03 01 03 16  0.0000000  0 10G01G04G11G14G16G18G19G22G27G32
  23168556.800   121751613.69205  23168558.800    94871410.86845
  21056531.360   110652888.74207  21056530.380    86223059.70647
  22151987.460   116409505.72206  22151985.200    90708707.08046
  23688504.380   124483928.37604  23688502.820    97000460.10146
  23212119.460   121980533.37105  23212117.460    95049769.28146
  24404750.700   128247830.35704  24404747.800    99933360.75843
  20511482.400   107788606.37307  20511478.260    83991129.99849
  21520256.360   113089770.96807  21520251.720    88121906.66748
  20599966.040   108253605.00708  20599966.100    84353480.34849
  21543893.620   113213948.09006  21543892.740    88218676.99547
 15 03 01 03 16 30.0000000  0 10G01G04G11G14G16G18G19G22G27G32
  23155286.440   121681878.38304  23155288.580    94817071.73646
  21048147.540   110608831.36307  21048146.580    86188729.30348
  22138112.180   116336590.16606  22138109.800    90651889.80246
  23676935.660   124423134.46804  23676934.040    96953088.25344
  23231872.480   122084335.87305  23231870.500    95130654.25245
  24421920.760   128338059.66304  24421917.800   100003669.30844
  20508085.720   107770756.89107  20508081.600    83977221.31949
  21531294.320   113147775.67207  21531289.680    88167105.14548
  20605856.720   108284560.88408  20605856.840    84377601.80549
  21527133.920   113125875.88906  21527133.080    88150049.36447
 15 03 01 03 17  0.0000000  0 10G01G04G11G14G16G18G19G22G27G32
  23142044.120   121612290.75404  23142046.460    94762847.63646
  21039812.680   110565031.50407  21039811.740    86154599.58048
  22124267.660   116263835.99406  22124265.180    90595198.29846
  23665419.580   124362617.32704  23665417.980    96905932.10346
  23251655.480   122188296.13805  23251653.560    95211662.10445
  24439112.660   128428403.68804  24439109.700   100074067.27945
  20504758.320   107753271.50107  20504754.200    83963596.34049
  21542404.180   113206158.28007  21542399.580    88212598.08348
  20611825.620   108315927.64408  20611825.760    84402043.43049
  21510451.260   113038208.42606  21510450.460    88081737.09247
 15 03 01 03 17 30.0000000  0 10G01G04G11G14G16G18G19G22G27G32
  23128829.900   121542850.39205  23128832.360    94708738.34546
  21031526.780   110521488.85007  21031525.800    86120670.25848
  22110453.820   116191243.31506  22110451.280    90538632.59447
  23653956.680   124302379.09504  23653955.040    96858993.23945
  23271468.060   122292411.34105  23271466.080    95292790.73646
  24456325.780   128518859.81504  24456322.920   100144552.52344
  20501500.380   107736150.67707  20501496.200    83950255.44249
  21553585.400   113264916.16607  21553580.880    88258383.45148
  20617872.700   108347705.10408  20617872.820    84426805.08149
  21493846.000   112950947.37506  21493845.180    88013741.47547
 15 03 01 03 18  0.0000000  0 10G01G04G11G14G16G18G19G22G27G32
  23115643.960   121473557.78305  23115646.320    94654744.15446
  21023289.940   110478203.78007  21023288.920    86086941.65647
  22096670.700   116118813.12006  22096668.220    90482193.52146
  23642547.440   124242423.39704  23642545.960    96812274.53245
  23291309.600   122396678.27605  23291307.520    95374037.54945
  24473560.000   128609426.64604  24473557.420   100215124.11741
  20498312.140   107719396.20307  20498307.900    83937200.01549
  21564837.780   113324047.92707  21564833.260    88304460.14448
  20623998.080   108379894.07208  20623998.160    84451887.38749
  21477318.580   112864095.47506  21477317.780    87946064.67747
 15 03 01 03 18 30.0000000  0 10G01G04G11G14G16G18G19G22G27G32
  23102485.820   121404411.69605  23102488.220    94600864.14347
  21015101.880   110435175.00307  21015100.760    86053412.76847
  22082918.340   116046545.07006  22082915.940    90425880.78746
  23631192.360   124182751.47804  23631190.960    96765776.95145
  23311179.400   122501094.02305  23311177.260    95455400.26046
  24490814.800   128700101.23704  24490812.160   100285779.62845
  20495193.660   107703008.26907  20495189.340    83924430.20149
  21576160.660   113383550.02707  21576156.120    88350825.41848
  20630201.540   108412493.58208  20630201.640    84477289.59749
  21460869.220   112777654.00406  21460868.480    87878707.68647
 15 03 01 03 19  0.0000000  0 10G01G04G11G14G16G18G19G22G27G32
  23089355.700   121335412.67005  23089358.180    94547098.72846
  21006962.600   110392402.96907  21006961.460    86020083.93548
  22069197.180   115974440.34806  22069194.840    90369695.33146
  23619891.940   124123366.58704  23619890.460    96719503.05845
  23331076.800   122605655.51605  23331074.860    95536876.63546
  24508089.920   128790881.99404  24508085.740   100356519.89344
  20492145.180   107686988.50107  20492140.860    83911947.26549
  21587553.820   113443421.07107  21587549.220    88397478.18648
  20636483.300   108445504.33608  20636483.380    84503012.25249
  21444498.460   112691625.47106  21444497.740    87811672.50547
 15 03 01 03 19 30.0000000  0 10G01G04G11G14G16G18G19G22G27G32
  23076254.100   121266563.05605  23076256.560    94493449.72946
  20998872.600   110349889.95507  20998871.480    85986956.93648
  22055507.780   115902502.28906  22055505.420    90313639.73846
  23608647.000   124064274.01604  23608645.580    96673456.94944
  23351001.940   122710362.98305  23351000.240    95618466.79445
  24525385.260   128881769.36904  24525380.920   100427341.18741
  20489167.500   107671340.56407  20489163.160    83899754.07149
  21599017.100   113503661.31407  21599012.540    88444418.63548
  20642843.840   108478928.97008  20642843.900    84529057.41149
  21428207.280   112606014.66106  21428206.560    87744962.83147
 15 03 01 03 20  0.0000000  0  9G01G04G11G14G16G19G22G27G32
  23063180.560   121197861.58605  23063183.120    94439916.15746
  20990831.740   110307634.94307  20990830.580    85954030.97547
  22041850.140   115830730.40406  22041847.720    90257713.63546
  23597457.840   124005475.15804  23597456.400    96627639.67645
  23370954.020   122815211.55905  23370952.440    95700166.94146
  20486260.600   107656064.50907  20486256.240    83887850.65249
  21610549.980   113564267.31507  21610545.440    88491644.08448
  20649282.960   108512766.48508  20649282.960    84555424.30249
  21411995.720   112520822.35606  21411994.980    87678579.25247
 15 03 01 03 20 30.0000000  0  9G01G04G11G14G16G19G22G27G32
  23050135.040   121129307.63805  23050137.640    94386497.55046
  20982839.820   110265637.14907  20982838.640    85921305.44748
  22028224.000   115759124.45306  22028221.500    90201916.81646
  23586325.000   123946972.33604  23586323.560    96582053.06945
  23390932.340   122920198.28605  23390930.820    95781974.75946
  20483424.540   107641160.84008  20483420.180    83876237.41149
  21622152.020   113625236.50707  21622147.480    88539152.55548
  20655800.540   108547016.44708  20655800.500    84582112.57649
  21395864.100   112436050.08706  21395863.340    87612522.97147
 15 03 01 03 21  0.0000000  0  9G01G04G11G14G16G19G22G27G32
  23037117.340   121060899.58105  23037119.960    94333192.61346
  20974896.500   110223894.95707  20974895.360    85888779.08448
  22014629.320   115687683.93006  22014626.800    90146248.90146
  23575248.660   123888766.71904  23575247.280    96536698.05845
  23410936.180   123025318.52305  23410934.600    95863886.63646
  20480659.300   107626629.32407  20480654.900    83864914.15449
  21633822.460   113686565.02307  21633817.900    88586941.00548
  20662396.300   108581677.41508  20662396.280    84609121.11649
  21379812.480   112351698.43907  21379811.740    87546794.43547
 15 03 01 03 21 30.0000000  0  9G01G04G11G14G16G19G22G27G32
  23024127.380   120992636.56205  23024130.020    94280000.70646
  20967001.600   110182407.34007  20967000.540    85856451.09448
  22001066.120   115616408.52806  22001063.580    90090709.66147
  23564229.400   123830860.00704  23564228.020    96491575.98145
  23430964.700   123130568.76505  23430963.100    95945899.83145
  20477964.880   107612470.11708  20477960.500    83853881.01049
  21645560.780   113748249.94007  21645556.140    88635007.17748
  20669070.180   108616748.71008  20669070.220    84636449.39449
  21363841.120   112267768.67006  21363840.400    87481394.57647
 15 03 01 03 22  0.0000000  0  9G01G04G11G14G16G19G22G27G32
  23011165.960   120924523.85905  23011168.580    94226925.92146
  20959156.200   110141179.61907  20959155.140    85824325.62748
  21987535.360   115545304.59206  21987533.020    90035304.03746
  23553268.500   123773260.14904  23553267.100    96446693.01444
  23451018.260   123235951.00704  23451016.680    96028015.88945
  20475342.540   107598689.76707  20475338.200    83843143.08149
  21657367.560   113810294.61707  21657362.860    88683353.68248
  20675823.160   108652235.81208  20675823.280    84664101.67549
  21347951.420   112184268.27106  21347950.780    87416329.31247
 15 03 01 03 22 30.0000000  0  9G01G04G11G14G16G19G22G27G32
  22998232.640   120856558.56205  22998235.200    94173965.99246
  20951359.760   110100208.83207  20951358.600    85792400.36248
  21974036.800   115474369.73506  21974034.560    89980030.13646
  23542366.000   123715966.89904  23542364.500    96402048.96645
  23471095.860   123341459.75204  23471094.280    96110230.52045
  20472791.980   107585286.63307  20472787.680    83832699.09149
  21669241.800   113872693.93607  21669237.060    88731976.53248
  20682654.720   108688135.95008  20682654.860    84692075.80449
  21332143.380   112101196.53407  21332142.720    87351598.06147
 15 03 01 03 23  0.0000000  0  9G01G04G11G14G16G19G22G27G32
  22985327.420   120788741.38105  22985330.020    94121121.47647
  20943612.400   110059495.92307  20943611.120    85760676.04348
  21960570.820   115403605.61406  21960568.560    89924889.29146
  23531522.420   123658983.70904  23531521.020    96357646.51944
  23491197.200   123447093.15105  23491195.600    96192542.23145
  20470313.560   107572262.57407  20470309.240    83822550.47849
  21681183.320   113935446.67107  21681178.560    88780874.76848
  20689565.080   108724449.98708  20689565.180    84720372.44249
  21316417.480   112018556.21907  21316416.800    87287203.04847
 15 03 01 03 23 30.0000000  0  9G01G04G11G14G16G19G22G27G32
  22972450.180   120721071.15605  22972452.740    94068391.46847
  20935913.820   110019039.49907  20935912.500    85729151.58648
  21947137.320   115333011.88506  21947134.960    89869881.22547
  23520737.980   123602312.13704  23520736.900    96313486.86546
  23511321.500   123552847.23504  23511319.820    96274948.01645
  20467907.280   107559617.60607  20467902.940    83812697.25849
  21693191.460   113998549.71007  21693186.660    88830045.96748
  20696553.980   108761176.95208  20696554.040    84748990.85249
  21300773.880   111936348.46007  21300773.180    87223145.09447
 15 03 01 03 24  0.0000000  0  9G01G04G11G14G16G19G22G27G32
  22959601.160   120653549.37105  22959603.780    94015777.12946
  20928264.260   109978841.01807  20928263.020    85697828.11348
  21933736.680   115262590.88906  21933734.280    89815007.75747
  23510013.640   123545956.81704  23510012.680    96269573.66745
  23531468.440   123658720.04504  23531466.720    96357446.32545
  20465573.660   107547354.62607  20465569.320    83803141.69349
  21705266.020   114062002.21607  21705261.240    88879489.48048
  20703621.780   108798318.43408  20703621.780    84777932.26049
  21285213.180   111854576.63107  21285212.520    87159426.81147
 15 03 01 03 24 30.0000000  0  9G01G04G11G14G16G19G22G27G32
  22946779.900   120586173.01405  22946782.540    93963276.11046
  20920663.240   109938897.62307  20920662.080    85666703.40748
  21920368.400   115192340.34806  21920366.080    89760267.10446
  23499349.560   123489916.91604  23499348.440    96225906.19445
  23551637.100   123764706.44404  23551635.360    96440033.11446
  20463312.340   107535471.68208  20463308.060    83793882.26049
  21717406.020   114125798.79107  21717401.260    88929201.10548
  20710767.880   108835871.50608  20710767.860    84807194.38649
  21269735.280   111773239.91807  21269734.680    87096047.60548
 15 03 01 03 25  0.0000000  0 10G01G04G11G14G16G18G19G22G27G32
  22933986.700   120518944.58005  22933989.200    93910890.36746
  20913111.260   109899211.63907  20913110.040    85635779.28948
  21907033.140   115122263.18306  21907030.880    89705661.54447
  23488746.540   123434197.73504  23488745.360    96182488.68944
  23571827.280   123870805.38104  23571825.360    96522707.60346
  24716842.920   129887885.08103  24716839.660   101211327.92544
  20461124.160   107523972.55808  20461119.860    83784921.90449
  21729611.640   114189940.06207  21729606.940    88979181.31448
  20717992.820   108873838.76108  20717992.800    84836779.25549
  21254341.020   111692342.75107  21254340.440    87033010.89847
 15 03 01 03 25 30.0000000  0  9G01G04G11G14G16G19G22G27G32
  22921221.700   120451864.41505  22921224.140    93858620.14446
  20905608.320   109859783.68407  20905607.060    85605056.22748
  21893731.120   115052360.91206  21893728.900    89651192.27246
  23478205.160   123378802.60904  23478204.040    96139323.68045
  23592038.480   123977015.14004  23592036.360    96605468.43145
  20459009.280   107512858.70708  20459004.980    83776261.76749
  21741882.600   114254424.33707  21741877.940    89029428.79548
  20725296.660   108912220.71008  20725296.680    84866687.26049
  21239030.920   111611887.78207  21239030.340    86970318.76447
 15 03 01 03 26  0.0000000  0 10G01G04G11G14G16G18G19G22G27G32
  22908484.580   120384930.95505  22908486.960    93806464.24846
  20898154.060   109820611.66707  20898152.820    85574532.59248
  21880462.280   114982633.04406  21880460.140    89596858.89946
  23467725.620   123323732.23404  23467724.500    96096411.73645
  23612269.800   124083330.73205  23612267.480    96688311.75245
  24751869.860   130071955.07604  24751867.140   101354763.30645
  20456967.680   107502129.65408  20456963.320    83767901.46749
  21754218.100   114319247.73207  21754213.480    89079940.53148
  20732679.140   108951015.82508  20732679.200    84896917.21049
  21223805.060   111531875.23207  21223804.400    86907971.35547
 15 03 01 03 26 30.0000000  0 10G01G04G11G14G16G18G19G22G27G32
  22895776.120   120318147.59405  22895778.380    93754425.31047
  20890749.180   109781699.25907  20890748.020    85544211.25848
  21867227.440   114913083.63506  21867225.320    89542664.58347
  23457309.080   123268992.62404  23457308.080    96053757.51945
  23632521.360   124189753.22705  23632519.000    96771238.40645
  24769406.100   130164109.96104  24769403.180   101426572.31145
  20455000.180   107491790.05608  20454995.760    83759844.64049
  21766618.440   114384411.68807  21766613.800    89130717.64248
  20740140.920   108990227.54708  20740140.960    84927471.79249
  21208664.360   111452310.66307  21208663.760    86845973.03947
 15 03 01 03 27  0.0000000  0 10G01G04G11G14G16G18G19G22G27G32
  22883095.200   120251508.93305  22883097.360    93702499.11047
  20883392.640   109743040.95307  20883391.540    85514087.92148
  21854025.600   114843707.81306  21854023.480    89488605.53047
  23446955.060   123214581.36104  23446953.820    96011359.18246
  23652791.640   124296274.32504  23652789.240    96854241.85545
  24786956.500   130256338.42904  24786954.080   101498438.63645
  20453105.920   107481835.68708  20453101.540    83752087.99349
  21779082.120   114449908.74507  21779077.500    89181754.31448
  20747680.960   109029850.54008  20747680.960    84958346.84249
  21193608.280   111373190.59707  21193607.720    86784321.08147
 15 03 01 03 27 30.0000000  0 10G01G04G11G14G16G18G19G22G27G32
  22870442.180   120185017.23505  22870444.320    93650687.44046
  20876084.960   109704639.18007  20876083.900    85484164.48248
  21840857.440   114774508.99906  21840855.360    89434684.40747
  23436664.420   123160503.15504  23436662.980    95969220.32044
  23673080.500   124402893.40604  23673078.100    96937321.63046
  24804521.160   130348640.86504  24804518.760   101570362.60644
  20451285.600   107472269.77007  20451281.220    83744634.02949
  21791609.140   114515739.08407  21791604.560    89233050.68448
  20755299.680   109069887.09508  20755299.660    84989544.15149
  21178637.660   111294519.39207  21178637.080    86723018.88247
 15 03 01 03 28  0.0000000  0 10G01G04G11G14G16G18G19G22G27G32
  22857817.320   120118673.06105  22857819.400    93598990.71446
  20868826.300   109666494.33307  20868825.160    85454441.23948
  21827723.220   114705488.31706  21827721.060    89380902.08047
  23426437.620   123106761.37004  23426436.300    95927343.64445
  23693387.600   124509608.25504  23693385.400    97020476.08646
  24822099.680   130441016.25404  24822097.180   101642343.46741
  20449539.540   107463094.34907  20449535.180    83737484.35149
  21804199.220   114581900.81107  21804194.700    89284605.27048
  20762997.180   109110337.84308  20762997.160    85021064.20749
  21163752.780   111216299.60607  21163752.280    86662068.43847
 15 03 01 03 28 30.0000000  0 10G01G04G11G14G16G18G19G22G27G32
  22845220.440   120052476.48805  22845222.640    93547409.01347
  20861616.560   109628606.45207  20861615.320    85424918.23948
  21814623.180   114636646.97706  21814620.940    89327259.50247
  23416275.440   123053358.47805  23416273.920    95885731.01545
  23713712.460   124616416.22304  23713710.360    97103703.07844
  24839691.640   130533462.34604  24839688.940   101714379.36944
  20447867.960   107454310.58107  20447863.680    83730639.85249
  21816852.020   114648392.12807  21816847.580    89336416.67848
  20770773.480   109151202.81508  20770773.520    85052907.03349
  21148954.200   111138533.22107  21148953.740    86601471.28748
 15 03 01 03 29  0.0000000  0 10G01G04G11G14G16G18G19G22G27G32
  22832651.620   119986427.16405  22832653.860    93495942.04446
  20854455.540   109590975.29507  20854454.320    85395595.27748
  21801557.280   114567985.29606  21801555.040    89273756.91746
  23406178.240   123000296.95604  23406176.480    95844384.39445
  23734054.360   124723313.78104  23734052.160    97186999.89145
  24857296.840   130625977.43504  24857294.140   101786469.07345
  20446271.060   107445919.10707  20446266.840    83724101.04549
  21829567.120   114715210.50607  21829562.720    89388482.94448
  20778628.540   109192481.71508  20778628.660    85085072.40649
  21134242.300   111061221.83807  21134241.740    86541228.68447
 15 03 01 03 29 30.0000000  0 10G01G04G11G14G16G18G19G22G27G32
  22820110.760   119920524.30805  22820112.800    93444589.20447
  20847343.180   109553600.03007  20847342.000    85366471.70848
  21788525.580   114499503.36806  21788523.320    89220394.40547
  23396146.220   122947578.32204  23396144.480    95803304.95045
  23754412.860   124830297.48804  23754410.260    97270363.68145
  24874914.540   130718558.87904  24874911.880   101858610.46243
  20444748.900   107437920.28808  20444744.740    83717868.20049
  21842343.960   114782353.10907  21842339.560    89440801.84748
  20786562.220   109234173.72408  20786562.400    85117559.67149
  21119617.320   110984366.67907  21119616.660    86481341.58247
 15 03 01 03 30  0.0000000  0 10G01G04G11G14G16G18G19G22G27G32
  22807598.400   119854771.23405  22807600.360    93393353.07546
  20840280.180   109516483.97507  20840279.040    85337550.12248
  21775528.820   114431205.53506  21775526.620    89167175.34146
  23386180.460   122895208.65104  23386179.020    95762497.46345
  23774787.680   124937367.59804  23774784.860    97353794.81145
  24892545.120   130811208.07603  24892542.740   101930804.68244
  20443302.340   107430318.57208  20443298.160    83711944.77849
  21855182.740   114849820.95107  21855178.240    89493374.19248
  20794575.220   109276282.17908  20794575.400    85150371.44249
  21105080.140   110907973.01207  21105079.440    86421814.08848
 15 03 01 03 30 30.0000000  0 10G01G04G11G14G16G18G19G22G27G32
  22795113.960   119789164.59905  22795115.720    93342231.07846
  20833265.920   109479623.61907  20833264.760    85308827.78348
  21762566.580   114363088.95306  21762564.420    89114097.50447
  23376280.960   122843187.23704  23376279.600    95721961.31046
  23795177.800   125044518.66504  23795175.200    97437289.09945
  24910187.620   130903920.00504  24910185.080   102003047.73244
  20441930.900   107423111.63807  20441926.700    83706328.98549
  21868082.320   114917608.53307  21868077.760    89546195.68148
  20802666.800   109318803.58708  20802666.980    85183504.99949
  21090630.440   110832039.25507  21090629.740    86362644.96248
 15 03 01 03 31  0.0000000  0  9G01G04G11G14G16G19G22G27G32
  22782657.060   119723703.63105  22782659.020    93291222.57247
  20826300.140   109443018.19007  20826298.960    85280304.08748
  21749638.980   114295153.83106  21749636.800    89061161.07747
  23366448.280   122791516.02004  23366446.820    95681698.04544
  23815582.560   125151747.28804  23815580.380    97520843.88745
  20440634.720   107416300.15308  20440630.540    83701021.33549
  21881042.260   114985713.07807  21881037.580    89599264.15948
  20810836.780   109361737.20608  20810836.960    85216959.76349
  21076268.460   110756566.69307  21076267.760    86303835.20647
 15 03 01 03 31 30.0000000  0  9G01G04G11G14G16G19G22G27G32
  22770228.420   119658390.97605  22770230.460    93240329.64147
  20819383.440   109406670.60507  20819382.200    85251981.31048
  21736746.680   114227403.88806  21736744.380    89008368.94246
  23356683.160   122740200.03104  23356681.580    95641711.58745
  23836002.060   125259052.65304  23836000.020    97604458.36745
  20439414.520   107409887.82708  20439410.340    83696024.71349
  21894062.600   115054135.02507  21894057.840    89652579.97048
  20819085.640   109405085.60208  20819085.860    85250737.71949
  21061995.120   110681559.75107  21061994.380    86245388.27747
 15 03 01 03 32  0.0000000  0  9G01G04G11G14G16G19G22G27G32
  22757828.240   119593227.54805  22757830.300    93189552.96746
  20812515.940   109370581.43807  20812514.620    85223859.89648
  21723889.940   114159840.74506  21723887.480    88955722.36747
  23346986.220   122689242.75904  23346984.740    95602004.64845
  23856435.840   125366432.76204  23856433.820    97688131.01846
  20438270.660   107403876.27408  20438266.400    83691340.38049
  21907143.060   115122873.18007  21907138.280    89706142.16548
  20827413.640   109448849.60008  20827413.820    85284839.52449
  21047810.900   110607021.15807  21047810.060    86187306.29048
 15 03 01 03 32 30.0000000  0  9G01G04G11G14G16G19G22G27G32
  22745456.040   119528210.68105  22745458.000    93138890.51247
  20805697.120   109334748.29507  20805695.840    85195937.98448
  21711068.340   114092462.74006  21711065.800    88903220.05047
  23337357.420   122638644.04104  23337356.220    95562577.10245
  23876882.840   125473882.75404  23876880.900    97771858.05345
  20437202.740   107398264.11208  20437198.460    83686967.26449
  21920282.740   115191922.73807  21920278.020    89759947.00548
  20835820.240   109493026.50308  20835820.400    85319263.07249
  21033715.640   110532950.23307  21033714.760    86129588.71648
 15 03 01 03 33  0.0000000  0  9G01G04G11G14G16G19G22G27G32
  22733111.480   119463339.39605  22733113.240    93088341.50246
  20798926.820   109299170.03407  20798925.540    85168214.66648
  21698281.920   114025269.57106  21698279.340    88850861.76346
  23327797.280   122588405.47304  23327796.120    95523430.17945
  23897342.480   125581398.83304  23897340.760    97855636.67244
  20436210.820   107393051.53407  20436206.500    83682905.51649
  21933481.100   115261280.52007  21933476.400    89813992.02547
  20844305.260   109537615.14008  20844305.360    85354007.45449
  21019709.560   110459347.73007  21019708.660    86072236.15248
 15 03 01 03 33 30.0000000  0  9G01G04G11G14G16G19G22G27G32
  22720794.620   119398614.10705  22720796.340    93037906.25347
  20792205.180   109263847.13607  20792203.800    85140690.35448
  21685530.980   113958262.79506  21685528.320    88798648.72346
  23318306.360   122538529.89204  23318305.140    95484566.12446
  23917814.380   125688978.59204  23917812.720    97939464.99045
  20435295.120   107388239.91907  20435290.840    83679156.19949
  21946737.840   115330944.91707  21946733.080    89868275.97548
  20852868.700   109582615.88408  20852868.760    85389072.95549
  21005793.060   110386215.93707  21005792.120    86015250.36748
 15 03 01 03 34  0.0000000  0  9G01G04G11G14G16G19G22G27G32
  22708506.180   119334037.84005  22708507.820    92987587.11047
  20785532.560   109228782.29907  20785531.160    85113367.11748
  21672816.160   113891445.87006  21672813.440    88746583.60847
  23308885.520   122489022.88104  23308884.160    95445989.27145
  23938298.340   125796622.11004  23938296.760    98023342.98545
  20434456.500   107383833.16708  20434452.260    83675722.36649
  21960053.020   115400916.74907  21960048.200    89922799.47947
  20861511.040   109628031.49608  20861511.100    85424461.73149
  20991967.000   110313559.57807  20991966.060    85958635.05548
 15 03 01 03 34 30.0000000  0  9G01G04G11G14G16G19G22G27G32
  22696245.860   119269609.15905  22696247.380    92937382.97947
  20778908.800   109193974.43907  20778907.440    85086244.13048
  21660137.440   113824818.87607  21660134.780    88694666.50047
  23299535.020   122439885.41404  23299533.600    95407700.34945
  23958793.580   125904325.17404  23958792.140    98107267.35844
  20433694.920   107379831.17908  20433690.720    83672603.93249
  21973425.900   115471192.33307  21973421.180    89977559.67247
  20870232.060   109673860.53108  20870232.100    85460172.66049
  20978231.500   110241379.05107  20978230.500    85902390.52048
 15 03 01 03 35  0.0000000  0  8G01G04G11G14G19G22G27G32
  22684014.240   119205331.59005  22684015.780    92887296.60646
  20772334.620   109159427.12107  20772333.300    85059324.14848
  21647495.620   113758385.85807  21647492.980    88642900.53247
  23290255.860   122391123.51204  23290254.420    95369704.06745
  20433011.300   107376238.65808  20433007.120    83669804.56549
  21986856.820   115541772.96406  21986852.220    90032557.56747
  20879032.320   109720106.32508  20879032.380    85496208.33349
  20964587.520   110169679.68407  20964586.540    85846520.91148
 15 03 01 03 35 30.0000000  0  9G01G04G11G14G16G19G22G27G32
  22671808.540   119141189.93605  22671810.040    92837316.14747
  20765807.060   109125124.85407  20765805.760    85032595.12748
  21634888.020   113692132.62006  21634885.420    88591274.65147
  23281045.920   122342724.60904  23281044.240    95331990.65946
  23999815.420   126119879.51604  23999813.680    98275225.32545
  20432402.860   107373041.21308  20432398.660    83667313.04549
  22000342.600   115612641.44506  22000338.120    90087779.74347
  20887908.920   109766753.49608  20887909.020    85532556.76449
  20951032.600   110098447.94607  20951031.540    85791015.69448
 15 03 01 03 36  0.0000000  0  9G01G04G11G14G16G19G22G27G32
  22659632.480   119077204.59305  22659634.060    92787457.47346
  20759330.000   109091087.86607  20759328.700    85006072.81548
  21622318.700   113626080.50206  21622316.160    88539805.49147
  23271909.440   122294711.54605  23271907.620    95294577.91045
  24020341.640   126227745.40904  24020340.040    98359276.64845
  20431873.700   107370260.05908  20431869.360    83665145.90449
  22013886.640   115683815.80607  22013882.160    90143240.27847
  20896865.740   109813822.13708  20896865.860    85569233.61649
  20937570.880   110027705.95107  20937569.740    85735892.08248
 15 03 01 03 36 30.0000000  0  9G01G04G11G14G16G19G22G27G32
  22647483.700   119013362.55905  22647485.300    92737710.46247
  20752901.040   109057303.67107  20752899.780    84979747.47948
  21609785.220   113560217.26706  21609782.740    88488483.52247
  23262844.260   122247073.87004  23262842.440    95257457.65644
  24040876.720   126335655.86804  24040874.840    98443362.70745
  20431421.480   107367883.53308  20431417.060    83663294.06349
  22027486.100   115755281.04607  22027481.540    90198927.47847
  20905900.340   109861299.20408  20905900.440    85606228.72349
  20924200.200   109957442.47707  20924199.060    85681141.35848
 15 03 01 03 37  0.0000000  0  9G01G04G11G14G16G19G22G27G32
  22635363.040   118949668.60205  22635364.640    92688078.85146
  20746521.080   109023776.81807  20746519.880    84953622.67048
  21597288.800   113494548.73606  21597286.420    88437313.25247
  23253851.800   122199818.40204  23253850.300    95220635.25346
  24061420.340   126443612.39504  24061418.400    98527484.49845
  20431047.220   107365917.10608  20431042.840    83661761.78549
  22041141.500   115827040.08706  22041136.800    90254843.61647
  20915013.500   109909189.18307  20915013.640    85643545.57649
  20910921.820   109887663.97207  20910920.640    85626768.51948
 15 03 01 03 37 30.0000000  0  9G01G04G11G14G16G19G22G27G32
  22623270.620   118886122.85305  22623272.240    92638562.70746
  20740190.120   108990507.38507  20740188.920    84927698.45248
  21584829.640   113429075.85706  21584827.300    88386295.45647
  23244932.560   122152947.70804  23244931.100    95184112.65345
  24081972.040   126551612.58804  24081970.180    98611640.27645
  20430751.220   107364361.72908  20430746.860    83660549.80349
  22054852.300   115899090.38606  22054847.460    90310986.69847
  20924205.200   109957491.90107  20924205.360    85681184.05149
  20897736.040   109818372.14107  20897734.820    85572774.91248
 15 03 01 03 38  0.0000000  0  9G01G04G11G14G16G19G22G27G32
  22611206.280   118822724.67605  22611207.900    92589161.57347
  20733908.060   108957494.72207  20733906.800    84901974.31448
  21572407.840   113363798.94706  21572405.480    88335430.34547
  23236087.000   122106463.84004  23236085.500    95147891.48344
  24102531.300   126659652.77504  24102529.580    98695827.25745
  20430533.660   107363218.34108  20430529.280    83659658.85149
  22068617.980   115971429.47806  22068613.080    90367354.82147
  20933475.320   110006206.64508  20933475.480    85719143.58349
  20884643.040   109749568.09907  20884641.820    85519161.40348
 15 03 01 03 38 30.0000000  0  9G01G04G11G14G16G19G22G27G32
  22599169.620   118759472.22605  22599171.240    92539873.97447
  20727674.440   108924736.97707  20727673.160    84876448.81248
  21560023.180   113298717.15407  21560020.760    88284717.28247
  23227315.100   122060367.16004  23227313.480    95111972.02743
  24123097.740   126767729.15404  24123096.040    98780042.58043
  20430394.360   107362485.78608  20430389.920    83659088.01949
  22082437.760   116044053.10906  22082432.900    90423944.65347
  20942823.420   110055331.10807  20942823.560    85757422.37349
  20871642.740   109681251.60507  20871641.620    85465927.79248
 15 03 01 03 39  0.0000000  0  9G01G04G11G14G16G19G22G27G32
  22587160.940   118696366.46005  22587162.580    92490700.68747
  20721489.540   108892235.05807  20721488.240    84851122.65348
  21547675.920   113233832.19506  21547673.500    88234157.59947
  23218617.480   122014661.15505  23218615.840    95076356.97745
  24143670.700   126875839.65604  24143669.140    98864284.54444
  20430333.600   107362166.01708  20430329.140    83658838.84449
  22096311.540   116116960.18106  22096306.700    90480755.35947
  20952249.620   110104866.12007  20952249.740    85796021.07249
  20858735.720   109613425.22507  20858734.640    85413076.09348
 15 03 01 03 39 30.0000000  0  9G01G04G11G14G16G19G22G27G32
  22575180.360   118633408.38905  22575182.020    92441642.49346
  20715353.480   108859990.01607  20715352.200    84825996.66148
  21535366.500   113169146.16706  21535364.100    88183752.91547
  23209994.900   121969348.92605  23209993.220    95041048.74745
  24164249.500   126983983.02304  24164248.340    98948552.36343
  20430351.680   107362260.98608  20430347.260    83658912.84649
  22110239.060   116190149.42507  22110234.200    90537785.93447
  20961754.100   110154812.30007  20961754.200    85834940.16349
  20845922.540   109546091.60907  20845921.420    85360608.36848
 15 03 01 03 40  0.0000000  0  8G01G04G11G14G19G22G27G32
  22563229.080   118570603.93905  22563230.780    92392703.99146
  20709267.400   108828007.73107  20709266.160    84801075.41448
  21523096.280   113104665.87507  21523093.920    88133508.55147
  23201448.780   121924438.95404  23201447.160    95006053.99444
  20430449.920   107362777.61408  20430445.640    83659315.41349
  22124221.000   116263624.74506  22124216.140    90595039.43047
  20971337.960   110205175.32008  20971337.980    85874184.06649
  20833204.560   109479258.23107  20833203.400    85308530.43948
 15 03 01 03 40 30.0000000  0  9G01G04G11G14G16G19G22G27G32
  22551303.180   118507932.85405  22551304.940    92343869.41247
  20703227.500   108796267.90807  20703226.260    84776343.09948
  21510861.540   113040371.92207  21510859.220    88083409.37947
  23192975.780   121879913.15204  23192974.280    94971358.57246
  24205422.840   127200354.54404  24205422.640    99117150.27443
  20430624.680   107363696.32008  20430620.460    83660031.28449
  22138253.000   116337363.82006  22138248.300    90652498.44047
  20980997.180   110255934.61407  20980997.180    85913736.75349
  20820578.180   109412906.32707  20820577.020    85256827.68648
 15 03 01 03 41  0.0000000  0 10G01G03G04G11G14G16G19G22G27G32
  22539406.860   118445417.73005  22539408.600    92295156.35747
  24221999.340   127287464.20404  24222001.640    99185048.72245
  20697238.080   108764793.09107  20697236.760    84751817.27648
  21498666.780   112976287.96507  21498664.500    88033473.85447
  23184580.660   121835796.67705  23184578.940    94936982.11046
  24226017.220   127308578.16604  24226016.660    99201480.56645
  20430880.440   107365040.83708  20430876.300    83661078.96349
  22152339.040   116411386.90406  22152334.480    90710178.76547
  20990736.040   110307112.43507  20990736.020    85953615.56249
  20808048.040   109347060.15407  20808046.920    85205519.00448
 15 03 01 03 41 30.0000000  0 10G01G03G04G11G14G16G19G22G27G32
  22527538.460   118383048.90105  22527540.100    92246557.30647
  24201986.740   127182297.63004  24201989.360    99103100.84146
  20691297.240   108733573.82707  20691295.920    84727490.58248
  21486510.260   112912405.18407  21486507.980    87983695.08547
  23176262.040   121792082.00805  23176260.200    94902918.76245
  24246615.300   127416821.89104  24246614.180    99285826.82745
  20431215.620   107366802.54508  20431211.520    83662451.71749
  22166476.780   116485681.97506  22166472.340    90768071.02447
  21000552.520   110358698.72407  21000552.600    85993812.66249
  20795612.540   109281711.40807  20795611.480    85154597.92448
 15 03 01 03 42  0.0000000  0  9G01G03G04G11G14G19G22G27G32
  22515698.620   118320830.00406  22515700.120    92198075.08447
  24182002.520   127077280.03204  24182005.500    99021269.09446
  20685405.760   108702613.70707  20685404.400    84703365.82948
  21474393.020   112848728.35607  21474390.600    87934076.80047
  23168020.980   121748775.12405  23168019.240    94869173.14844
  20431631.120   107368985.60808  20431626.960    83664152.79549
  22180666.680   116560250.68906  22180662.260    90826176.51847
  21010447.400   110410696.81707  21010447.540    86034330.64649
  20783272.680   109216865.31307  20783271.640    85104068.52448
 15 03 01 03 42 30.0000000  0 10G01G03G04G11G14G16G19G22G27G32
  22503885.380   118258751.24005  22503886.920    92149702.06247
  24162044.700   126972401.27904  24162048.380    98939546.03646
  20679561.700   108671902.75907  20679560.300    84679435.22748
  21462313.300   112785248.46607  21462310.760    87884611.96647
  23159855.940   121705868.44804  23159854.460    94835739.41446
  24287819.860   127633354.77404  24287819.080    99454556.71744
  20432125.180   107371581.41708  20432120.960    83666175.49949
  22194906.440   116635081.20706  22194901.920    90884486.00647
  21020418.700   110463096.44907  21020418.920    86075161.51749
  20771026.920   109152513.53607  20771025.860    85053924.30548
 15 03 01 03 43  0.0000000  0 10G01G03G04G11G14G16G19G22G27G32
  22492101.220   118196825.80205  22492102.960    92101448.50747
  24142116.980   126867680.52804  24142120.820    98857945.60745
  20673767.580   108641454.39007  20673766.160    84655709.23348
  21450273.680   112721979.75107  21450271.100    87835311.68047
  23151770.100   121663377.53705  23151768.760    94802629.62346
  24308426.620   127741646.11704  24308425.760    99538939.72445
  20432700.340   107374603.78008  20432696.120    83668530.58149
  22209198.060   116710184.22906  22209193.440    90943007.83647
  21030468.960   110515910.52507  21030469.100    86116315.33049
  20758878.060   109088670.77507  20758876.980    85004176.72148
 15 03 01 03 43 30.0000000  0 10G01G03G04G11G14G16G19G22G27G32
  22480344.140   118135042.58405  22480345.960    92053305.77247
  24122217.240   126763106.46204  24122220.580    98776459.46045
  20668021.160   108611256.99607  20668019.760    84632178.80948
  21438272.220   112658912.05007  21438269.720    87786168.03947
  23143761.640   121621293.26605  23143760.360    94769836.71345
  24329034.560   127849942.51904  24329033.520    99623326.91544
  20433354.640   107378042.47007  20433350.480    83671210.07749
  22223539.160   116785546.92206  22223534.500    91001732.00547
  21040595.880   110569127.44707  21040595.900    86157783.04049
  20746824.160   109025327.33207  20746823.140    84954818.21848
 15 03 01 03 44  0.0000000  0  9G01G03G04G11G14G19G22G27G32
  22468615.900   118073410.70005  22468617.660    92005280.95847
  24102347.460   126658689.96404  24102350.560    98695096.11844
  20662324.380   108581320.15707  20662322.980    84608851.41048
  21426310.940   112596055.25707  21426308.400    87737188.73247
  23135832.980   121579627.18805  23135831.500    94737369.64845
  20434090.040   107381907.55608  20434085.940    83674221.82749
  22237930.880   116861175.51906  22237926.180    91060663.37547
  21050801.080   110622755.94607  21050801.000    86199571.46949
  20734867.220   108962493.70307  20734866.300    84905856.97148
 15 03 01 03 44 30.0000000  0 10G01G03G04G11G14G16G19G22G27G32
  22456914.020   118011916.67505  22456915.700    91957363.56447
  24082505.420   126554419.27404  24082508.300    98613846.33546
  20656674.580   108551630.21307  20656673.200    84585716.39948
  21414387.440   112533397.13607  21414384.860    87688364.24047
  23127981.580   121538367.91005  23127980.080    94705219.57846
  24370254.120   128066553.07104  24370250.380    99792106.01543
  20434904.300   107386186.43508  20434900.160    83677556.01649
  22252370.300   116937054.99406  22252365.640    91119790.24347
  21061081.920   110676782.09807  21061081.840    86241669.76149
  20723005.040   108900157.81807  20723004.160    84857283.57948
 15 03 01 03 45  0.0000000  0 10G01G03G04G11G14G16G19G22G27G32
  22445241.360   117950576.38005  22445243.100    91909565.97747
  24062694.420   126450312.12404  24062697.280    98532723.97446
  20651074.780   108522203.14707  20651073.440    84562786.22648
  21402504.960   112470954.30307  21402502.400    87639707.51047
  23120210.920   121497533.57304  23120209.580    94673400.64645
  24390865.100   128174863.64504  24390861.400    99876503.78945
  20435800.480   107390895.84808  20435796.320    83681225.68649
  22266860.120   117013199.11006  22266855.420    91179123.31047
  21071441.320   110731221.29707  21071441.320    86284089.90849
  20711240.960   108838336.88207  20711240.020    84809111.44248
 15 03 01 03 45 30.0000000  0 10G01G03G04G11G14G16G19G22G27G32
  22433596.420   117889381.96705  22433598.320    91861882.05247
  24042913.380   126346362.37204  24042916.100    98451724.28646
  20645523.500   108493030.95007  20645522.120    84540054.65048
  21390662.120   112408719.87207  21390659.620    87591213.14847
  23112520.200   121457118.45305  23112518.740    94641908.36646
  24411475.480   128283170.29404  24411471.840    99960897.85443
  20436777.220   107396028.52808  20436773.040    83685225.17349
  22281398.260   117089597.50406  22281393.600    91238654.52547
  21081877.680   110786065.25107  21081877.800    86326825.44649
  20699573.640   108777024.53607  20699572.640    84761335.61048
 15 03 01 03 46  0.0000000  0 10G01G03G04G11G14G16G19G22G27G32
  22421979.680   117828335.77805  22421981.660    91814313.61847
  24023163.040   126242574.18404  24023165.700    98370850.46445
  20640021.160   108464115.97707  20640019.740    84517523.51248
  21378859.580   112346697.26107  21378857.180    87542883.85747
  23104910.180   121417127.09705  23104908.580    94610746.28145
  24432085.440   128391475.70503  24432081.980   100045291.47245
  20437835.140   107401587.87208  20437830.960    83689557.12349
  22295984.840   117166250.48906  22295980.160    91298384.10947
  21092391.500   110841315.79307  21092391.620    86369877.80448
  20688003.720   108716224.26207  20688002.720    84713958.79648
 15 03 01 03 46 30.0000000  0  9G01G03G04G11G14G19G22G27G32
  22410391.700   117767440.77405  22410393.640    91766863.00647
  24003444.360   126138952.36804  24003446.980    98290106.26346
  20634568.300   108435461.28807  20634566.880    84495195.19348
  21367098.120   112284890.37907  21367095.740    87494722.66947
  23097381.620   121377564.67905  23097380.020    94579918.44446
  20438974.940   107407577.47508  20438970.740    83694224.33849
  22310620.060   117243159.06806  22310615.380    91358312.87447
  21102983.200   110896975.44207  21102983.260    86413248.94548
  20676532.100   108655940.52607  20676531.100    84666984.47448
 15 03 01 03 47  0.0000000  0  9G01G03G04G11G14G19G22G27G32
  22398831.280   117706690.19705  22398833.160    91719524.91247
  23983756.320   126035491.82104  23983759.040    98209487.71645
  20629163.720   108407060.10207  20629162.300    84473064.40348
  21355376.560   112223293.26807  21355374.200    87446724.93647
  23089933.780   121338426.53005  23089932.380    94549421.21746
  20440195.520   107413991.32708  20440191.260    83699222.14149
  22325302.120   117320313.72206  22325297.380    91418433.37947
  21113651.400   110953036.84007  21113651.380    86456933.13949
  20665157.720   108596167.79707  20665156.680    84620408.34148
 15 03 01 03 47 30.0000000  0  9G01G03G04G11G14G19G22G27G32
  22387298.460   117646084.61906  22387300.200    91672299.82347
  23964099.340   125932195.00504  23964102.040    98128996.77745
  20623807.520   108378912.87007  20623806.060    84451131.50248
  21343695.240   112161907.64307  21343692.860    87398891.99647
  23082567.280   121299715.17505  23082565.860    94519256.52645
  20441497.040   107420830.65308  20441492.760    83704551.47849
  22340030.740   117397713.20006  22340025.980    91478744.66547
  21124395.940   111009500.04707  21124395.980    86500930.43548
  20653880.900   108536907.82707  20653879.840    84574231.76948
 15 03 01 03 48  0.0000000  0 10G01G03G04G11G14G16G19G22G27G32
  22375792.760   117585621.91506  22375794.380    91625186.06147
  23944473.520   125829061.47804  23944476.220    98048633.07845
  20618499.220   108351017.42907  20618497.740    84429394.80448
  21332053.900   112100732.41407  21332051.560    87351223.00147
  23075282.020   121261430.66005  23075280.560    94489424.47145
  24514507.980   128824606.64604  24514505.760   100382795.99944
  20442879.260   107428094.31508  20442875.000    83710211.47449
  22354805.220   117475353.26506  22354800.380    91539243.40847
  21135216.420   111066362.45807  21135216.540    86545238.79549
  20642701.460   108478159.82007  20642700.420    84528454.11648
 15 03 01 03 48 30.0000000  0  9G01G03G04G11G14G19G22G27G32
  22364316.360   117525313.02306  22364317.880    91578192.15047
  23924881.280   125726100.95304  23924884.980    97968402.54846
  20613240.840   108323384.72107  20613239.420    84407862.83248
  21320454.940   112039779.61807  21320452.560    87303727.32247
  23068080.440   121223585.90905  23068078.800    94459935.06646
  20444344.480   107435794.00608  20444340.200    83716211.22649
  22369627.060   117553242.53806  22369622.280    91599936.34547
  21146114.860   111123634.39407  21146115.060    86589866.26549
  20631621.720   108419935.88407  20631620.800    84483084.83648
 15 03 01 03 49  0.0000000  0  9G01G03G04G11G14G19G22G27G32
  22352867.580   117465149.12106  22352869.040    91531311.20747
  23905321.100   125623312.40404  23905324.760    97888307.64246
  20608030.760   108296006.09107  20608029.440    84386528.84148
  21308896.800   111979041.11107  21308894.380    87256398.63647
  23060961.280   121186174.43405  23060959.540    94430783.28545
  20445891.080   107443921.71007  20445886.820    83722544.49949
  22384494.220   117631370.09706  22384489.560    91660814.95247
  21157089.580   111181306.45807  21157089.800    86634805.51849
  20620640.400   108362228.56407  20620639.440    84438118.11348
 15 03 01 03 49 30.0000000  0 10G01G03G04G11G14G16G19G22G27G32
  22341445.600   117405126.01406  22341447.040    91484539.98647
  23885792.480   125520690.24304  23885796.320    97808342.38145
  20602868.300   108268877.23107  20602867.000    84365389.47448
  21297378.900   111918513.80707  21297376.340    87209234.51147
  23053924.220   121149193.98805  23053922.360    94401967.37845
  24576290.860   129149281.49803  24576289.100   100635794.31844
  20447518.300   107452473.44407  20447514.140    83729208.18249
  22399405.500   117709729.49906  22399400.920    91721874.22447
  21168139.560   111239373.88607  21168139.760    86680052.85649
  20609756.760   108305034.68907  20609755.800    84393551.48448
 15 03 01 03 50  0.0000000  0  9G01G03G04G11G14G19G22G27G32
  22330053.640   117345260.83106  22330055.100    91437891.81647
  23866299.500   125418253.37704  23866303.120    97728521.54645
  20597756.620   108242015.25807  20597755.320    84344458.07248
  21285904.580   111858215.79907  21285901.940    87162249.06047
  23046972.760   121112663.34905  23046970.780    94373501.95945
  20449229.720   107461467.31408  20449225.640    83736216.38849
  22414363.780   117788335.79606  22414359.180    91783125.87247
  21179267.880   111297853.15307  21179268.000    86725621.09949
  20598974.360   108248372.56607  20598973.300    84349399.19648
 15 03 01 03 50 30.0000000  0  9G01G03G04G11G14G19G22G27G32
  22318688.660   117285537.47106  22318690.160    91391354.16247
  23846838.940   125315987.34104  23846842.280    97648833.81246
  20592692.660   108215403.78707  20592691.280    84323721.86748
  21274471.060   111798132.07207  21274468.280    87115430.58647
  23040104.180   121076568.67205  23040102.280    94345376.26446
  20451022.420   107470887.91108  20451018.340    83743557.10949
  22429365.600   117867170.72406  22429360.880    91844555.68447
  21190471.300   111356727.53307  21190471.360    86771497.22948
  20588290.300   108192227.18607  20588289.140    84305649.56448
 15 03 01 03 51  0.0000000  0  9G01G03G04G11G14G19G22G27G32
  22307351.920   117225962.61306  22307353.440    91344932.22947
  23827412.480   125213900.72004  23827415.340    97569285.87045
  20587677.720   108189049.90507  20587676.300    84303186.38748
  21263079.720   111738270.36307  21263076.920    87068785.10747
  23033320.140   121040918.72205  23033318.320    94317597.09646
  20452897.820   107480742.66908  20452893.680    83751236.13549
  22444411.740   117946238.61106  22444406.940    91906167.02447
  21201751.020   111416003.10307  21201751.040    86817685.96948
  20577706.020   108136606.43507  20577704.840    84262308.73448
 15 03 01 03 51 30.0000000  0  9G01G03G04G11G14G19G22G27G32
  22296043.160   117166534.53106  22296044.600    91298624.65847
  23808020.140   125111993.38604  23808022.700    97489877.65846
  20582711.380   108162951.58607  20582709.920    84282850.04348
  21251730.500   111678629.65207  21251727.720    87022311.83347
  23026620.680   121005713.36605  23026618.960    94290164.38245
  20454855.660   107491030.58608  20454851.420    83759252.68149
  22459501.440   118025535.75306  22459496.680    91967956.99747
  21213106.660   111475677.47607  21213106.680    86864185.45948
  20567221.440   108081509.64307  20567220.240    84219376.19148
 15 03 01 03 52  0.0000000  0  9G01G03G04G11G14G19G22G27G32
  22284762.580   117107254.85706  22284763.980    91252432.72047
  23788662.420   125010268.66604  23788664.980    97410611.76747
  20577794.000   108137110.67407  20577792.540    84262714.27248
  21240423.880   111619212.66007  21240421.100    86976012.89547
  23020006.480   120970956.59005  23020004.920    94263081.19646
  20456896.240   107501753.46408  20456891.940    83767608.16949
  22474634.560   118105061.49506  22474630.000    92029925.09547
  21224538.380   111535751.59307  21224538.460    86910996.45048
  20556837.120   108026939.56007  20556835.880    84176854.06448
 15 03 01 03 52 30.0000000  0  9G01G03G04G11G14G19G22G27G32
  22273509.620   117048120.82806  22273511.180    91206354.29147
  23769339.220   124908725.45004  23769341.940    97331487.29045
  20572925.080   108111524.13807  20572923.580    84242776.71748
  21229159.540   111560017.88307  21229156.720    86929887.09947
  23013477.700   120936647.48805  23013476.140    94236346.84645
  20459019.160   107512909.63707  20459014.880    83776301.28649
  22489810.400   118184810.98606  22489805.940    92092067.55447
  21236045.580   111596222.03007  21236045.660    86958116.25448
  20546552.680   107972894.36607  20546551.380    84134740.95748
 15 03 01 03 53  0.0000000  0  9G01G03G04G11G14G19G22G27G32
  22262284.620   116989134.01106  22262286.360    91160390.55847
  23750051.200   124807367.08804  23750054.020    97252506.86945
  20568104.880   108086193.76807  20568103.340    84223038.78148
  21217937.860   111501047.62507  21217935.040    86883936.26147
  23007034.720   120902789.29005  23007033.160    94209963.87946
  20461224.880   107524501.23307  20461220.720    83785333.69749
  22505028.720   118264783.51406  22505024.260    92154383.79747
  21247628.360   111657089.62607  21247628.420    87005545.54048
  20536368.640   107919376.75307  20536367.280    84093038.94048
 15 03 01 03 53 30.0000000  0  9G01G03G04G11G14G19G22G27G32
  22251087.760   116930294.44106  22251089.560    91114541.56647
  23730798.620   124706195.11404  23730801.660    97173671.62445
  20563333.420   108061119.49007  20563331.880    84203500.38548
  21206759.000   111442302.61607  21206756.240    86838160.93647
  23000677.940   120869384.02205  23000676.380    94183933.80846
  20463513.540   107536528.64108  20463509.440    83794705.69749
  22520289.060   118344976.98706  22520284.640    92216872.21347
  21259286.480   111718353.69407  21259286.580    87053283.76148
  20526285.160   107866387.74207  20526283.760    84051748.81648
 15 03 01 03 54  0.0000000  0  9G01G03G04G11G14G19G22G27G32
  22239919.300   116871603.49306  22239921.060    91068808.38347
  23711582.080   124605212.75804  23711585.420    97094984.19445
  20558610.920   108036302.55907  20558609.360    84184162.53048
  21195623.600   111383785.95207  21195620.900    86792563.54547
  22994407.960   120836435.03405  22994406.500    94158259.30145
  20465885.600   107548993.75308  20465881.460    83804418.76749
  22535591.180   118425390.63506  22535586.880    92279532.19147
  21271020.180   111780014.89307  21271020.300    87101331.43048
  20516302.680   107813929.64307  20516301.260    84010872.38948
 15 03 01 03 54 30.0000000  0  9G01G03G04G11G14G19G22G27G32
  22228778.720   116813058.85906  22228780.320    91023189.21247
  23692401.580   124504419.25904  23692405.140    97016443.87745
  20553936.960   108011740.75707  20553935.400    84165023.47048
  21184531.380   111325496.23907  21184528.840    86747143.00847
  22988224.620   120803941.83105  22988223.200    94132939.96445
  20468340.680   107561895.07508  20468336.480    83814471.73749
  22550934.320   118506019.95306  22550930.080    92342360.21847
  21282828.920   111842070.14107  21282829.060    87149686.15448
  20506420.980   107762001.14207  20506419.560    83970408.64148
 15 03 01 03 55  0.0000000  0  9G01G03G04G11G14G19G22G27G32
  22217666.020   116754660.83406  22217667.460    90977684.29747
  23673257.540   124403816.61104  23673261.040    96938052.29145
  20549311.580   107987434.32907  20549310.040    84146083.40648
  21173482.500   111267434.39807  21173480.100    86701900.03447
  22982128.440   120771906.38805  22982127.060    94107977.29046
  20470878.960   107575233.54508  20470874.720    83824865.34649
  22566318.240   118586863.19806  22566314.020    92405354.94247
  21294712.580   111904519.01207  21294712.680    87198347.59948
  20496640.280   107710603.38507  20496638.860    83930358.46348
 15 03 01 03 55 30.0000000  0  9G01G03G04G11G14G19G22G27G32
  22206581.400   116696410.68206  22206582.720    90932294.58647
  23654150.440   124303407.65204  23654153.880    96859811.63046
  20544735.080   107963384.59607  20544733.520    84127343.36548
  21162477.420   111209602.68607  21162475.100    86656836.37447
  22976120.020   120740331.73905  22976118.480    94083373.69845
  20473500.680   107589010.81408  20473496.500    83835600.87849
  22581742.720   118667919.40806  22581738.480    92468515.61347
  21306671.160   111967361.94207  21306671.280    87247316.09848
  20486961.060   107659738.59607  20486959.600    83890723.58548
 15 03 01 03 56  0.0000000  0  9G01G03G04G11G14G19G22G27G32
  22195523.960   116638304.06506  22195525.340    90887016.73147
  23635079.620   124203189.76704  23635082.940    96781719.86046
  20540206.540   107939587.05007  20540204.980    84108799.83748
  21151515.580   111151997.79107  21151513.240    86611949.45347
  22970198.820   120709215.80405  22970197.160    94059127.53845
  20476205.140   107603222.96308  20476200.980    83846675.27649
  22597206.500   118749182.07806  22597202.140    92531837.17347
  21318703.760   112030593.82407  21318703.900    87296587.67848
  20477382.600   107609403.42807  20477381.080    83851501.39648
 15 03 01 03 56 30.0000000  0  9G01G03G04G11G14G19G22G27G32
  22184496.340   116580354.41906  22184497.880    90841861.19248
  23616048.040   124103177.95804  23616051.140    96703788.65746
  20535728.540   107916055.17207  20535727.000    84090463.31448
  21140599.720   111094634.29707  21140597.300    86567250.64147
  22964367.580   120678573.10905  22964365.860    94035250.12946
  20478995.100   107617884.08908  20478990.860    83858099.52349
  22612711.680   118830662.48606  22612707.160    92595328.39946
  21330812.740   112094227.25807  21330813.020    87346172.15848
  20467907.580   107559612.05707  20467906.060    83812702.94848
 15 03 01 03 57  0.0000000  0  9G01G03G04G11G14G19G22G27G32
  22173496.160   116522548.86606  22173497.780    90796817.92848
  23597053.480   124003360.95804  23597056.380    96626009.27345
  20531298.660   107892776.06607  20531297.140    84072323.76448
  21129727.540   111037500.36607  21129725.020    86522730.71347
  22958624.460   120648392.92305  22958622.860    94011733.12844
  20481868.160   107632981.73508  20481863.840    83869863.91549
  22628255.400   118912345.35706  22628250.780    92658977.40047
  21342995.640   112158248.55907  21342995.940    87396058.87048
  20458533.760   107510352.38907  20458532.220    83774318.81048
 15 03 01 03 57 30.0000000  0 10G01G03G04G11G14G19G22G27G28G32
  22162522.640   116464882.67606  22162524.220    90751883.25347
  23578095.340   123903735.71204  23578098.080    96548379.27945
  20526915.960   107869745.01407  20526914.460    84054377.50448
  21118898.340   110980592.29407  21118895.740    86478386.77747
  22952968.800   120618672.07405  22952967.140    93988574.04946
  20484823.380   107648511.49908  20484819.080    83881965.02849
  22643836.460   118994223.88606  22643831.720    92722778.84347
  21355251.400   112222652.15407  21355251.580    87446243.47248
  24806240.080   130357670.94704  24806236.200   101577399.40444
  20449260.440   107461620.65307  20449258.840    83736346.04348
 15 03 01 03 58  0.0000000  0 10G01G03G04G11G14G19G22G27G28G32
  22151577.800   116407366.49206  22151579.280    90707065.47047
  23559175.880   123804314.35304  23559178.720    96470908.18747
  20522582.440   107846972.56507  20522581.000    84036632.74648
  21108114.260   110923921.49807  21108111.640    86434227.72547
  22947402.960   120589422.99605  22947401.320    93965782.58246
  20487862.980   107664484.50008  20487858.660    83894411.51449
  22659456.460   119076306.81206  22659451.740    92786739.55047
  21367581.700   112287447.79707  21367581.780    87496733.57048
  24792803.720   130287063.48104  24792800.080   101522380.54644
  20440089.760   107413428.17407  20440088.120    83698793.47948
 15 03 01 03 58 30.0000000  0 10G01G03G04G11G14G19G22G27G28G32
  22140661.940   116350002.99006  22140663.440    90662366.67047
  23540296.200   123705101.28804  23540299.100    96393599.39346
  20518298.740   107824461.42207  20518297.260    84019091.60348
  21097376.040   110867492.02607  21097373.440    86390256.72248
  22941927.640   120560649.89005  22941926.000    93943361.99045
  20490987.520   107680904.19208  20490983.240    83907206.07549
  22675115.320   119158594.40906  22675110.660    92850859.73147
  21379986.840   112352637.28507  21379986.880    87547530.55748
  24779435.620   130216813.85503  24779432.160   101467640.56141
  20431022.280   107365778.40007  20431020.640    83661663.80648
 15 03 01 03 59  0.0000000  0  9G01G03G04G11G14G19G22G27G32
  22129774.700   116292789.97606  22129776.240    90617785.13347
  23521456.160   123606095.81804  23521458.940    96316452.34746
  20514064.340   107802209.40807  20514062.800    84001752.38348
  21086683.540   110811302.54807  21086680.900    86346472.72047
  22936542.800   120532352.42805  22936541.220    93921312.04746
  20494196.700   107697768.81008  20494192.460    83920347.33649
  22690812.200   119241082.47405  22690807.660    92915136.13347
  21392466.300   112418217.57607  21392466.400    87598632.06648
  20422057.820   107318669.87307  20422056.140    83624955.88248
 15 03 01 03 59 30.0000000  0 10G01G03G04G11G14G19G22G27G28G32
  22118914.900   116235721.69706  22118916.480    90573316.36947
  23502654.740   123507293.73404  23502657.460    96239463.79646
  20509878.060   107780210.62607  20509876.540    83984610.48348
  21076035.800   110755348.20807  21076033.060    86302871.95047
  22931247.680   120504526.39205  22931246.120    93899629.44046
  20497489.520   107715072.76108  20497485.300    83933830.93049
  22706545.780   119323762.85906  22706541.200    92979562.39747
  21405018.820   112484181.87907  21405019.060    87650032.80748
  24752901.900   130077378.87204  24752902.200   101358997.82844
  20413195.340   107272097.47107  20413193.660    83588665.71448
 15 03 01 04 00  0.0000000  0 10G01G03G04G11G14G19G22G27G28G32
  22108083.300   116178802.33706  22108085.020    90528963.65647
  23483893.160   123408700.83704  23483895.780    96162638.24446
  20505740.840   107758469.52207  20505739.340    83967669.37448
  21065433.680   110699634.12207  21065430.940    86259458.39547
  22926043.360   120477177.57405  22926041.780    93878318.69346
  20500866.840   107732820.46408  20500862.560    83947660.30149
  22722316.520   119406638.04206  22722311.740    93044140.46846
  21417645.120   112550533.63307  21417645.460    87701735.46048
  24739738.020   130008200.74104  24739737.300   101305092.79344
  20404435.820   107226066.38707  20404434.220    83552797.35648
 15 03 01 04 00 30.0000000  0 10G01G03G04G11G14G19G22G27G28G32
  22097279.140   116122026.81506  22097280.900    90484723.00848
  23465170.660   123310313.61604  23465173.260    96085972.95346
  20501651.660   107736980.68607  20501650.180    83950924.83948
  21054876.560   110644156.46007  21054873.900    86216229.05648
  22920929.120   120450302.35905  22920927.560    93857376.99345
  20504327.780   107751007.53208  20504323.420    83961832.03449
  22738122.860   119489700.48006  22738118.000    93108864.46046
  21430344.040   112617266.76407  21430344.420    87753735.28448
  24726642.260   129939379.65904  24726640.640   101251466.01145
  20395778.440   107180571.95807  20395776.940    83517347.16848
 15 03 01 04 01  0.0000000  0 10G01G03G04G11G14G19G22G27G28G32
  22086503.900   116065402.79406  22086505.680    90440600.41747
  23446488.920   123212141.23304  23446491.700    96009475.10646
  20497611.900   107715751.79307  20497610.440    83934382.84648
  21044366.040   110588923.90407  21044363.520    86173190.71748
  22915906.700   120423910.18805  22915905.180    93836811.69546
  20507873.820   107769641.87207  20507869.400    83976352.28949
  22753965.920   119572955.66306  22753960.940    93173738.63046
  21443116.840   112684387.89707  21443117.160    87806037.44548
  24713615.900   129870924.79004  24713613.860   101198124.53845
  20387224.780   107135622.55007  20387223.380    83482321.66748
 15 03 01 04 01 30.0000000  0 10G01G03G04G11G14G19G22G27G28G32
  22075757.060   116008927.12806  22075758.720    90396593.44147
  23427847.680   123114182.11904  23427850.540    95933143.38947
  20493621.040   107694779.85107  20493619.640    83918041.09148
  21033901.800   110533934.44307  21033899.380    86130341.79748
  22910975.860   120397999.31905  22910974.400    93816621.41345
  20511504.340   107788720.74607  20511500.020    83991218.94249
  22769844.580   119656398.26705  22769839.600    93238758.83947
  21455962.680   112751893.04007  21455962.980    87858638.84148
  24700658.860   129802835.42904  24700656.800   101145067.90545
  20378774.360   107091215.60807  20378773.040    83447718.87448
 15 03 01 04 02  0.0000000  0 10G01G03G04G11G14G19G22G27G28G32
  22065038.320   115952598.81006  22065039.820    90352701.27847
  23409247.240   123016436.78004  23409250.160    95856978.26646
  20489678.880   107674063.66507  20489677.480    83901898.61948
  21023483.820   110479187.87207  21023481.420    86087682.14847
  22906136.740   120372570.37805  22906135.440    93796806.67946
  20515219.300   107808243.33708  20515215.120    84006431.34849
  22785758.080   119740024.84605  22785753.240    93303922.37947
  21468881.160   112819780.07107  21468881.480    87911537.80848
  24687771.720   129735112.30804  24687769.540   101092296.59944
  20370427.120   107047350.70007  20370425.820    83413538.44048
 15 03 01 04 02 30.0000000  0 10G01G03G04G11G14G19G22G27G28G32
  22054347.300   115896416.88106  22054348.720    90308923.18647
  23390687.760   122918905.80204  23390690.600    95780980.20147
  20485785.240   107653602.32807  20485783.780    83885954.72648
  21013112.100   110424684.28907  21013109.700    86045211.83548
  22901389.580   120347623.92605  22901388.260    93777367.91146
  20519018.640   107828209.12908  20519014.540    84021989.10049
  22801706.060   119823832.94305  22801701.480    93369227.36947
  21481872.000   112888047.12807  21481872.300    87964732.89748
  24674954.560   129667756.31904  24674952.200   101039811.41743
  20362182.960   107004027.49907  20362181.720    83379780.11648
 15 03 01 04 03  0.0000000  0 10G01G03G04G11G14G19G22G27G28G32
  22043684.480   115840383.31606  22043685.820    90265260.70147
  23372169.860   122821592.58504  23372172.380    95705151.77246
  20481940.500   107633397.69707  20481938.940    83870210.87048
  21002787.140   110370426.36907  21002784.700    86002932.94247
  22896734.960   120323163.16605  22896733.480    93758307.59946
  20522902.780   107848620.25208  20522898.680    84037893.86349
  22817688.560   119907822.09406  22817684.160    93434673.44446
  21494935.340   112956695.08607  21494935.540    88018224.79948
  24662207.860   129600771.24104  24662205.260   100987615.23844
  20354042.360   106961248.47807  20354041.160    83346445.83348
 15 03 01 04 03 30.0000000  0  9G01G03G04G11G14G19G22G27G32
  22033051.320   115784505.90906  22033052.660    90221719.89347
  23353695.140   122724506.48604  23353697.420    95629500.34346
  20478146.020   107613457.58807  20478144.400    83854673.13348
  20992510.800   110316423.47007  20992508.300    85960852.77648
  22892174.540   120299197.49805  22892172.920    93739633.06946
  20526873.200   107869484.87907  20526869.100    84054152.00649
  22833706.700   119991997.93006  22833702.320    93500265.00047
  21508072.460   113025730.72307  21508072.520    88072018.78848
  20346006.940   106919021.99307  20346005.760    83313542.09048
 15 03 01 04 04  0.0000000  0 10G01G03G04G11G14G19G22G27G28G32
  22022444.280   115728765.61606  22022445.520    90178285.92547
  23335260.120   122627629.88605  23335262.280    95554012.16345
  20474398.260   107593762.88707  20474396.540    83839326.62548
  20982279.540   110262657.32807  20982276.980    85918957.08748
  22887704.880   120275709.25505  22887703.200    93721330.55644
  20530926.340   107890784.21807  20530922.160    84070748.88949
  22849756.340   120076339.41305  22849751.900    93565985.65146
  21521279.420   113095133.95307  21521279.500    88126099.20948
  24636928.540   129467930.52104  24636923.860   100884101.16044
  20338073.120   106877329.36607  20338071.860    83281054.34048
 15 03 01 04 04 30.0000000  0 10G01G03G04G11G14G19G22G27G28G32
  22011866.640   115673179.91906  22011867.860    90134972.42747
  23316868.500   122530981.81404  23316870.680    95478702.03946
  20470700.580   107574331.20908  20470698.800    83824185.06848
  20972096.880   110209146.55807  20972094.260    85877260.39848
  22883329.740   120252717.53405  22883328.000    93703414.94845
  20535065.600   107912536.11907  20535061.380    84087698.41649
  22865840.400   120160861.71805  22865835.860    93631847.19246
  21534559.380   113164921.21007  21534559.620    88180478.88148
  24624395.900   129402072.48604  24624392.120   100832783.18843
  20330244.280   106836188.67107  20330243.000    83248996.67848
 15 03 01 04 05  0.0000000  0 10G01G03G04G11G14G19G22G27G28G32
  22001317.320   115617743.14406  22001318.540    90091774.97347
  23298519.500   122434558.00605  23298521.820    95403566.65646
  20467051.760   107555156.56707  20467049.980    83809243.80148
  20961961.840   110155886.29807  20961959.200    85835758.90647
  22879048.060   120230217.69505  22879046.460    93685882.62645
  20539289.900   107934734.99108  20539285.680    84104996.23049
  22881957.400   120245557.12205  22881952.780    93697843.61046
  21547911.180   113235085.72407  21547911.500    88235152.51248
  24611935.640   129336593.38504  24611932.080   100781760.46544
  20322519.420   106795594.64907  20322518.180    83217364.98748
 15 03 01 04 05 30.0000000  0 10G01G03G04G11G14G19G22G27G28G32
  21990796.020   115562453.56006  21990797.320    90048692.20748
  23280213.240   122338358.22404  23280215.520    95328605.85046
  20463451.520   107536237.33807  20463449.760    83794501.54948
  20951874.380   110102875.94407  20951871.680    85794452.14148
  22874860.000   120208209.76105  22874858.460    93668733.61446
  20543598.980   107957379.34607  20543594.760    84122641.17249
  22898106.600   120330421.65205  22898101.980    93763971.79346
  21561334.340   113305624.64807  21561334.600    88290117.88748
  24599547.540   129271493.32504  24599544.420   100731033.12343
  20314898.380   106755545.96107  20314897.160    83186158.23148
 15 03 01 04 06  0.0000000  0 10G01G03G04G11G14G19G22G27G28G32
  21980303.300   115507314.50406  21980304.760    90005726.73348
  23261950.580   122242387.21904  23261952.840    95253823.29345
  20459900.520   107517576.78607  20459898.800    83779960.86948
  20941835.260   110050119.88907  20941832.520    85753343.54348
  22870766.540   120186698.24705  22870764.980    93651971.41346
  20547993.540   107980472.79707  20547989.320    84140636.06249
  22914288.240   120415456.35506  22914283.640    93830232.59447
  21574829.240   113376540.16107  21574829.360    88345376.71248
  24587232.300   129206777.20104  24587229.460   100680605.00943
  20307381.840   106716046.34807  20307380.640    83155379.32648
 15 03 01 04 06 30.0000000  0 10G01G03G04G11G14G19G22G27G28G32
  21969838.980   115452324.11006  21969840.480    89962877.10348
  23243731.360   122146644.58504  23243733.520    95179218.70946
  20456398.460   107499173.07907  20456396.700    83765620.33048
  20931844.320   109997617.23407  20931841.600    85712432.40048
  22866767.380   120165682.38605  22866765.780    93635595.44845
  20552473.200   108004013.55807  20552469.000    84158979.50749
  22930501.600   120500657.37506  22930496.960    93896622.99547
  21588395.180   113447829.33707  21588395.280    88400926.70748
  24574990.080   129142445.07004  24574987.500   100630476.11145
  20299969.480   106677094.30407  20299968.300    83125027.09848
 15 03 01 04 07  0.0000000  0 10G01G03G04G11G14G19G22G27G28G32
  21959403.000   115397482.96206  21959404.580    89920143.77148
  23225555.860   122051132.31004  23225558.000    95104793.59346
  20452945.300   107481026.79507  20452943.580    83751480.37548
  20921901.920   109945369.58007  20921899.240    85671719.95248
  22862862.840   120145164.41005  22862861.280    93619607.43346
  20557038.060   108028002.29307  20557033.900    84177672.02649
  22946746.280   120586023.37106  22946741.660    93963141.95146
  21602032.040   113519491.59307  21602032.200    88456767.40648
  24562821.680   129078499.51204  24562819.100   100580648.38343
  20292661.560   106638690.85907  20292660.320    83095102.35048
 15 03 01 04 07 30.0000000  0 10G01G03G04G11G14G19G22G27G28G32
  21948995.520   115342791.73506  21948997.140    89877527.25748
  23207424.480   121955852.53704  23207426.740    95030549.66746
  20449541.260   107463138.42907  20449539.560    83737541.39648
  20912008.380   109893378.69207  20912005.680    85631207.58648
  22859053.400   120125146.08305  22859051.780    93604008.74546
  20561688.300   108052439.84507  20561684.200    84196714.26649
  22963021.860   120671552.42405  22963017.320    94029787.98146
  21615739.840   113591526.40807  21615740.000    88512898.41848
  24550727.380   129014942.95604  24550724.800   100531123.75345
  20285458.200   106600836.81807  20285456.900    83065605.70948
 15 03 01 04 08  0.0000000  0 10G01G03G04G11G14G19G22G27G28G32
  21938616.420   115288249.74806  21938618.060    89835027.03448
  23189337.480   121860805.97205  23189339.820    94956487.44746
  20446186.160   107445507.29807  20446184.480    83723802.86148
  20902163.700   109841644.86507  20902161.020    85590895.52848
  22855339.280   120105627.69605  22855337.600    93588799.64345
  20566423.960   108077325.92507  20566419.820    84216106.00849
  22979327.860   120757242.30905  22979323.540    94096559.31647
  21629518.160   113663931.96907  21629518.280    88569318.32148
  24538707.300   128951776.47304  24538704.740   100481903.16845
  20278359.360   106563531.86307  20278358.000    83036536.92948
 15 03 01 04 08 30.0000000  0 10G01G03G04G11G14G19G22G27G28G32
  21928265.780   115233857.23006  21928267.460    89792643.28347
  23171295.320   121765994.18304  23171297.600    94882608.18446
  20442880.080   107428133.66207  20442878.400    83710264.97348
  20892368.140   109790169.20107  20892365.480    85550784.62948
  22851720.620   120086611.15205  22851718.900    93573981.59046
  20571245.060   108102660.86107  20571240.920    84235847.51049
  22995664.020   120843090.82005  22995659.920    94163454.23546
  21643366.800   113736707.29707  21643366.960    88626026.35248
  24526761.500   128889001.64104  24526759.160   100432987.70241
  20271365.060   106526776.59707  20271363.700    83007896.47748
 15 03 01 04 09  0.0000000  0 10G01G03G04G11G14G19G22G27G28G32
  21917943.600   115179614.18606  21917945.340    89750376.00048
  23153298.240   121671418.58205  23153300.360    94808912.96846
  20439622.920   107411017.51307  20439621.300    83696927.72848
  20882622.020   109738952.94307  20882619.300    85510875.86548
  22848197.500   120068097.33905  22848195.800    93559555.26246
  20576151.540   108128444.51907  20576147.440    84255938.66849
  23012030.200   120929095.74805  23012026.060    94230471.05146
  21657285.580   113809851.14207  21657285.780    88683021.53048
  24514890.640   128826620.48304  24514888.480   100384379.02645
  20264475.380   106490571.15807  20264474.020    82979684.46048
 15 03 01 04 09 30.0000000  0 10G01G03G04G11G14G19G22G27G28G32
  21907649.480   115125518.53106  21907651.260    89708223.56248
  23135345.940   121577078.52205  23135347.900    94735401.27446
  20436414.320   107394156.52107  20436412.760    83683789.30248
  20872925.060   109687994.91907  20872922.260    85471168.33048
  22844769.900   120050085.39205  22844768.120    93545519.99345
  20581142.940   108154674.79207  20581138.980    84276377.83649
  23028425.620   121015253.08706  23028421.260    94297606.64846
  21671273.920   113883360.22107  21671274.120    88740301.32148
  24503094.820   128764632.81304  24503092.400   100336076.92144
  20257689.980   106454913.66107  20257688.600    82951899.41348
 15 03 01 04 10  0.0000000  0 10G01G03G04G11G14G19G22G27G28G32
  21897384.040   115071573.58706  21897385.860    89666188.56548
  23117439.320   121482978.62504  23117441.300    94662076.74746
  20433254.980   107377554.12707  20433253.460    83670852.37348
  20863277.980   109637299.47307  20863275.180    85431665.40048
  22841438.800   120032579.95405  22841436.780    93531879.40945
  20586220.080   108181355.30307  20586216.160    84297167.83749
  23044850.220   121101563.71806  23044845.560    94364861.69846
  21685332.100   113957236.59407  21685332.400    88797867.32148
  24491374.760   128703043.43704  24491372.180   100288085.16544
  20251009.520   106419807.66507  20251008.140    82924544.10748
 15 03 01 04 10 30.0000000  0 10G01G03G04G11G14G19G22G27G28G32
  21887147.420   115017779.69106  21887149.180    89624271.27348
  23099578.680   121389120.62205  23099580.780    94588940.66946
  20430144.860   107361210.56007  20430143.340    83658117.14048
  20853681.120   109586868.00207  20853678.380    85392368.16548
  22838204.280   120015582.26905  22838202.300    93518634.49646
  20591382.940   108208486.21607  20591378.980    84318308.80149
  23061303.600   121188026.17206  23061298.740    94432235.05946
  21699459.940   114031479.39407  21699460.340    88855718.83448
  24479730.840   128641854.56604  24479728.460   100240405.53145
  20244434.100   106385253.60507  20244432.740    82897618.87848
 15 03 01 04 11  0.0000000  0 10G01G03G04G11G14G19G22G27G28G32
  21876939.480   114964136.27806  21876941.120    89582471.23347
  23081764.180   121295505.13504  23081766.320    94515993.59846
  20427083.900   107345125.23007  20427082.380    83645583.12348
  20844134.620   109536700.90807  20844131.940    85353276.93248
  22835066.520   119999092.87905  22835064.500    93505785.64646
  20596631.400   108236067.10907  20596627.400    84339800.40149
  23077785.240   121274637.52305  23077780.300    94499724.41546
  21713657.260   114106086.70407  21713657.600    88913854.38448
  24468163.300   128581066.89904  24468161.160   100193038.52645
  20237963.600   106351251.03407  20237962.260    82871123.38748
 15 03 01 04 11 30.0000000  0 10G01G03G04G11G14G19G22G27G28G32
  21866760.100   114910642.74206  21866761.620    89540787.98147
  23063995.940   121202133.05005  23063998.080    94443236.16847
  20424072.000   107329297.49407  20424070.460    83633249.83548
  20834638.520   109486798.52407  20834635.860    85314391.97148
  22832025.580   119983112.30905  22832023.480    93493333.26545
  20601965.400   108264097.36307  20601961.360    84361642.15149
  23094294.660   121361395.19705  23094289.800    94567327.79046
  21727923.600   114181056.67907  21727923.860    88972272.52848
  24456672.440   128520681.56204  24456670.200   100145985.00444
  20231597.980   106317799.58007  20231596.640    82845057.33148
 15 03 01 04 12  0.0000000  0 10G01G03G04G11G14G19G22G27G28G32
  21856609.460   114857300.48206  21856610.960    89499222.60648
  23046274.660   121109007.12605  23046276.700    94370670.58347
  20421109.420   107313728.77108  20421107.820    83621118.37048
  20825193.260   109437163.53407  20825190.640    85275715.36648
  22829081.860   119967643.04205  22829079.780    93481279.31646
  20607385.160   108292578.30807  20607381.120    84383835.09049
  23110831.760   121448298.60905  23110827.060    94635044.72646
  21742258.980   114256389.42607  21742259.220    89030973.34748
  24445258.500   128460701.12904  24445256.060   100099247.01244
  20225337.520   106284900.66507  20225336.160    82819421.82948
 15 03 01 04 12 30.0000000  0 10G01G03G04G11G14G19G22G27G28G32
  21846487.300   114804108.09406  21846488.800    89457774.01447
  23028600.200   121016127.08105  23028602.140    94298296.58546
  20418195.760   107298417.37607  20418194.140    83609187.42448
  20815798.740   109387795.21907  20815796.140    85237246.56648
  22826235.340   119952684.66505  22826233.340    93469623.45647
  20612890.460   108321508.59207  20612886.380    84406378.16149
  23127395.940   121535344.17605  23127391.280    94702872.42646
  21756662.820   114332082.12907  21756663.160    89089954.65648
  24433921.660   128401126.78604  24433919.100   100052825.41444
  20219181.960   106252552.83707  20219180.560    82794215.74148
 15 03 01 04 13  0.0000000  0 10G01G03G04G11G14G19G22G27G28G32
  21836393.000   114751062.18106  21836394.440    89416439.55748
  23010972.080   120923490.90805  23010974.000    94226112.60746
  20415330.400   107283359.96607  20415328.800    83597454.38548
  20806454.560   109338691.34807  20806451.960    85198983.82348
  22823485.500   119938234.63705  22823483.620    93458363.72146
  20618480.600   108350884.70007  20618476.480    84429268.62849
  23143986.240   121622526.30205  23143981.520    94770806.56446
  21771134.300   114408130.13007  21771134.740    89149212.82048
  24422661.940   128341958.44204  24422658.680   100006703.70645
  20213130.620   106220752.87007  20213129.220    82769436.56548
 15 03 01 04 13 30.0000000  0 10G01G03G04G11G14G19G22G27G28G32
  21826328.320   114698171.89206  21826329.680    89375226.36548
  22993392.300   120831108.99805  22993394.320    94154126.78545
  20412515.100   107268565.64607  20412513.520    83585926.35348
  20797162.640   109289862.09707  20797160.040    85160935.06848
  22820834.300   119924303.13805  22820832.500    93447508.02645
  20624157.280   108380715.83407  20624153.180    84452513.66649
  23160603.800   121709851.95906  23160599.100    94838852.54946
  21785674.940   114484541.15507  21785675.320    89208753.85648
  24411481.400   128283202.86004  24411478.560    99960920.10744
  20207185.260   106189509.80507  20207183.820    82745091.33048
 15 03 01 04 14  0.0000000  0 10G01G03G04G11G14G19G22G27G28G32
  21816292.620   114645433.81606  21816293.920    89334131.78648
  22975860.480   120738979.21405  22975862.560    94082337.36147
  20409749.240   107254031.13707  20409747.660    83574600.77248
  20787922.460   109241304.81507  20787919.860    85123098.23648
  22818281.440   119910887.69005  22818279.600    93437054.46646
  20629919.840   108410998.31707  20629915.760    84476110.40249
  23177247.640   121797315.35806  23177242.800    94907005.86246
  21800283.800   114561310.47807  21800284.040    89268574.09648
  24400378.700   128224859.63003  24400376.760    99915457.91046
  20201345.260   106158820.27507  20201343.780    82721177.42848
 15 03 01 04 14 30.0000000  0 10G01G03G04G11G14G19G22G27G28G32
  21806285.480   114592845.48406  21806286.620    89293153.88348
  22958376.600   120647100.39205  22958378.620    94010743.50546
  20407032.260   107239753.68907  20407030.740    83563475.49248
  20778733.760   109193018.24907  20778731.200    85085472.35248
  22815826.580   119897986.85905  22815824.540    93427001.88346
  20635767.800   108441729.75107  20635763.720    84500056.97049
  23193916.900   121884912.59505  23193911.960    94975263.45747
  21814959.960   114638434.22207  21814960.240    89328670.49748
  24389354.260   128166919.12704  24389352.460    99870320.53745
  20195610.080   106128681.77107  20195608.600    82697692.89748
 15 03 01 04 15  0.0000000  0 10G01G03G04G11G14G19G22G27G28G32
  21796306.100   114540403.11506  21796307.140    89252289.72147
  22940940.000   120555469.88305  22940941.820    93939343.18646
  20404363.520   107225729.49507  20404362.060    83552547.55748
  20769596.120   109144999.64007  20769593.520    85048055.26548
  22813468.960   119885597.84205  22813466.980    93417348.12246
  20641700.440   108472906.10907  20641696.360    84524350.22549
  23210610.340   121972637.30705  23210605.460    95043620.37946
  21829702.480   114715907.20507  21829702.860    89389039.03148
  24378408.780   128109397.26004  24378406.320    99825498.23444
  20189979.060   106099090.47207  20189977.580    82674634.75248
 15 03 01 04 15 30.0000000  0 10G01G03G04G11G14G19G22G27G28G32
  21786356.500   114488117.55606  21786357.500    89211547.75248
  22923552.960   120464099.88805  22923554.680    93868145.82246
  20401744.980   107211969.26007  20401743.620    83541825.30248
  20760511.720   109097260.88207  20760509.120    85010856.24148
  22811210.840   119873732.06705  22811209.020    93408102.09046
  20647719.780   108504538.00107  20647715.700    84548998.44549
  23227329.580   122060498.22105  23227324.820    95112083.41946
  21844513.380   114793738.83707  21844513.660    89449687.03548
  24367543.320   128052297.71504  24367540.400    99781005.02144
  20184454.200   106070057.00007  20184452.700    82652011.28148
 15 03 01 04 16  0.0000000  0 10G01G03G04G11G14G19G22G27G28G32
  21776435.780   114435983.78106  21776436.720    89170924.05448
  22906214.660   120372986.55605  22906216.400    93797148.48246
  20399175.740   107198468.07607  20399174.420    83531304.90948
  20751479.840   109049798.04007  20751477.240    84973872.22348
  22809051.580   119862385.33605  22809049.840    93399260.49845
  20653824.860   108536620.14807  20653820.740    84573997.51449
  23244073.360   122148488.23005  23244068.740    95180647.04246
  21859391.360   114871922.72906  21859391.580    89510609.52648
  24356757.020   127995616.01504  24356753.960    99736837.45044
  20179034.480   106041576.32707  20179033.020    82629818.56548
 15 03 01 04 16 30.0000000  0 10G01G03G04G11G14G19G22G27G28G32
  21766544.040   114384002.71206  21766545.040    89130419.34648
  22888925.520   120282132.04605  22888927.300    93726352.83847
  20396655.960   107185226.75307  20396654.640    83520987.00348
  20742500.800   109002612.72707  20742498.180    84937104.45748
  22806991.420   119851559.32705  22806989.640    93390824.64946
  20660015.800   108569153.37807  20660011.640    84599348.07949
  23260841.500   122236606.54605  23260837.100    95249310.65046
  21874336.140   114950458.26706  21874336.400    89571806.03048
  24346050.820   127939354.99504  24346048.140    99692997.73845
  20173720.060   106013649.09507  20173718.660    82608057.10248
 15 03 01 04 17  0.0000000  0 10G01G03G04G11G14G19G22G27G28G32
  21756681.000   114332172.73906  21756682.100    89090032.37248
  22871685.520   120191535.89105  22871687.380    93655758.50546
  20394185.300   107172243.50407  20394184.020    83510870.19348
  20733574.520   108955704.43407  20733571.860    84900552.55648
  22805030.300   119841253.86405  22805028.520    93382794.44545
  20666292.220   108602136.18807  20666288.080    84625048.96449
  23277633.440   122324849.44805  23277629.160    95318071.32946
  21889347.240   115029342.41906  21889347.600    89633274.17648
  24335424.660   127883514.70704  24335422.580    99649485.82545
  20168510.680   105986273.65807  20168509.300    82586725.60748
