     2.11           OBSERVATION DATA    G                   RINEX VERSION / TYPE
SPIDER V4,0,0,3554                      2015 03 19 02:18    PGM / RUN BY / DATE 
OBHM                                                        MARKER NAME         
OBHM                                                        MARKER NUMBER       
                                                            OBSERVER / AGENCY   
496638              LEICA GRX1200+GNSS  8.20/4.007          REC # / TYPE / VERS 
10321015            LEIAR25         NONE                    ANT # / TYPE        
  5268006.0133   -44062.8765  3585543.8986                  APPROX POSITION XYZ 
        0.1200        0.0000        0.0000                  ANTENNA: DELTA H/E/N
     1     1                                                WAVELENGTH FACT L1/2
     4    C1    L1    P2    L2                              # / TYPES OF OBSERV 
    30.000                                                  INTERVAL            
  2015    03    01    00    00    0.0000000     GPS         TIME OF FIRST OBS   
  2015    03    01    23    59   30.0000000     GPS         TIME OF LAST OBS    
    16                                                      LEAP SECONDS        
    30                                                      # OF SATELLITES     
   G 1   844   844   844   844                              PRN / # OF OBS      
   G 2   919   919   919   919                              PRN / # OF OBS      
   G 3   842   842   842   842                              PRN / # OF OBS      
   G 4   853   853   853   853                              PRN / # OF OBS      
   G 5   682   682   682   682                              PRN / # OF OBS      
   G 6   644   644   644   644                              PRN / # OF OBS      
   G 7   742   742   742   742                              PRN / # OF OBS      
   G 9   780   780   780   780                              PRN / # OF OBS      
   G10   796   795   795   795                              PRN / # OF OBS      
   G11   809   809   808   808                              PRN / # OF OBS      
   G12   812   812   811   811                              PRN / # OF OBS      
   G13   834   834   834   834                              PRN / # OF OBS      
   G14   919   917   917   917                              PRN / # OF OBS      
   G15   742   742   741   741                              PRN / # OF OBS      
   G16   702   702   702   702                              PRN / # OF OBS      
   G17   925   925   925   925                              PRN / # OF OBS      
   G18   944   944   944   944                              PRN / # OF OBS      
   G19   795   795   795   795                              PRN / # OF OBS      
   G20   812   812   811   811                              PRN / # OF OBS      
   G21   689   678   672   672                              PRN / # OF OBS      
   G22   819   818   817   817                              PRN / # OF OBS      
   G23   723   723   723   723                              PRN / # OF OBS      
   G24   848   824   801   796                              PRN / # OF OBS      
   G25   861   861   861   861                              PRN / # OF OBS      
   G27   844   843   843   843                              PRN / # OF OBS      
   G28   917   917   917   917                              PRN / # OF OBS      
   G29   737   737   737   737                              PRN / # OF OBS      
   G30   687   687   687   687                              PRN / # OF OBS      
   G31   745   745   745   745                              PRN / # OF OBS      
   G32   735   735   735   735                              PRN / # OF OBS      
BIT 2 OF LLI FLAGS DATA COLLECTED UNDER A/S CONDITION       COMMENT             
SNR is mapped to RINEX snr flag value [2-9]                 COMMENT             
Lx:     = 25dBHz -> 1; 26-27dBHz -> 2; 28-31dBHz -> 3       COMMENT             
       32-35dBHz -> 4; 36-38dBHz -> 5; 39-41dBHz -> 6       COMMENT             
       42-44dBHz -> 7; 45-48dBHz -> 8; >=49dBHz -> 9        COMMENT             
                                                            END OF HEADER       
 15 03 01 00 00  0.0000000  0  6G16G18G21G22G27G31
  21443674.240   112687306.93809  21443671.460    87808297.43148
  22728693.120   119440118.17009  22728691.340    93070262.69246
  21570859.700   113355658.84709  21570857.000    88329085.66848
  23765058.680   124886262.76708  23765056.300    97313977.19946
  22429703.000   117868994.84209  22429703.660    91846002.41948
  22847358.040   120063645.17009  22847357.640    93556071.93347
 15 03 01 00 00 30.0000000  0  6G16G18G21G22G27G31
  21431455.620   112623097.91409  21431452.940    87758264.43548
  22718413.220   119386096.88309  22718411.420    93028168.22246
  21579856.380   113402936.77009  21579853.680    88365925.59548
  23748080.660   124797040.92208  23748078.320    97244452.69946
  22418926.240   117812362.42009  22418926.840    91801873.29448
  22865041.540   120156572.41709  22865041.200    93628482.67647
 15 03 01 00 01  0.0000000  0  6G16G18G21G22G27G31
  21419287.400   112559153.70709  21419284.780    87708437.79548
  22708190.980   119332378.42409  22708189.120    92986309.71547
  21588912.860   113450528.82509  21588910.100    88403010.29748
  23731107.540   124707843.74008  23731105.280    97174947.56146
  22408173.980   117755859.11009  22408174.560    91757844.77548
  22882759.280   120249679.85509  22882759.080    93701033.81147
 15 03 01 00 01 30.0000000  0  6G16G18G21G22G27G31
  21407176.660   112495511.74309  21407174.120    87658846.66548
  22698033.620   119279000.90009  22698031.700    92944716.88446
  21598035.640   113498468.85009  21598032.800    88440366.16748
  23714146.500   124618709.49908  23714145.180    97105459.57146
  22397452.920   117699520.14809  22397453.560    91713944.31848
  22900517.660   120343000.34609  22900517.480    93773750.97847
 15 03 01 00 02  0.0000000  0  6G16G18G21G22G27G31
  21395106.200   112432081.29809  21395103.680    87609420.34948
  22687923.840   119225873.50309  22687921.900    92903318.94947
  21607206.720   113546662.59709  21607203.780    88477919.72548
  23697180.260   124529547.71408  23697178.480    97035982.29244
  22386745.440   117643252.54909  22386746.240    91670099.46348
  22918298.360   120436437.91209  22918298.160    93846559.37747
 15 03 01 00 02 30.0000000  0  6G16G18G21G22G27G31
  21383092.560   112368949.40909  21383090.100    87560226.68248
  22677878.300   119173083.43209  22677876.240    92862183.86446
  21616441.920   113595193.37209  21616438.920    88515735.90248
  23680225.500   124440446.52508  23680223.540    96966552.24447
  22376067.720   117587141.32709  22376068.700    91626376.45748
  22936116.980   120530074.66909  22936116.760    93919522.97147
 15 03 01 00 03  0.0000000  0  6G16G18G21G22G27G31
  21371130.040   112306086.16309  21371127.620    87511242.34548
  22667891.260   119120601.20909  22667889.160    92821288.66646
  21625734.720   113644026.95609  21625731.640    88553788.03948
  23663276.580   124351376.02308  23663274.460    96897146.17746
  22365413.620   117531154.15809  22365414.780    91582750.12348
  22953966.800   120623875.58909  22953966.680    93992614.49647
 15 03 01 00 03 30.0000000  0  7G16G18G19G21G22G27G31
  21359220.340   112243500.17509  21359217.920    87462474.04448
  22657964.380   119068435.53309  22657962.300    92780640.11846
  24542188.900   128970076.31708  24542189.120   100496166.69946
  21635085.980   113693167.97209  21635082.880    88592079.72848
  23646335.220   124262345.71708  23646332.980    96827771.58245
  22354784.380   117475297.31409  22354785.660    91539225.32648
  22971848.520   120717844.28309  22971848.500    94065836.74548
 15 03 01 00 04  0.0000000  0  7G16G18G19G21G22G27G31
  21347362.700   112181187.82209  21347360.320    87413918.98548
  22648097.040   119016582.62209  22648094.960    92740235.29346
  24527362.420   128892163.27208  24527362.540   100435455.41645
  21644494.220   113742608.67809  21644491.160    88630604.95548
  23629400.780   124173353.06308  23629398.680    96758426.85346
  22344178.920   117419565.04309  22344180.160    91495797.62148
  22989760.520   120811972.00309  22989760.580    94139182.92847
 15 03 01 00 04 30.0000000  0  7G16G18G19G21G22G27G31
  21335558.860   112119158.41609  21335556.520    87365584.39348
  22638291.140   118965052.49809  22638289.020    92700081.97546
  24512555.500   128814352.81308  24512555.660   100374824.06846
  21653960.480   113792354.63809  21653957.520    88669368.03348
  23612475.260   124084408.52908  23612473.240    96689120.19045
  22333598.440   117363964.28309  22333599.660    91452472.38248
  23007703.540   120906262.86009  23007703.660    94212656.19847
 15 03 01 00 05  0.0000000  0  7G16G18G19G21G22G27G31
  21323809.060   112057412.90809  21323806.720    87317471.02248
  22628546.820   118913846.04809  22628544.600    92660180.88546
  24497767.920   128736643.95308  24497768.040   100314271.88945
  21663484.360   113842403.02109  21663481.420    88708366.77248
  23595558.580   123995513.01208  23595556.680    96619852.23847
  22323042.800   117308494.06709  22323043.960    91409248.86848
  23025676.940   121000713.15009  23025677.100    94286253.74747
 15 03 01 00 05 30.0000000  0  7G16G18G19G21G22G27G31
  21312113.360   111995951.48709  21312110.940    87269579.01848
  22618864.140   118862963.76709  22618862.000    92620532.38846
  24482999.360   128659034.84308  24482999.280   100253797.42046
  21673065.060   113892749.87609  21673062.100    88747598.06848
  23578650.700   123906664.52909  23578648.680    96550619.68746
  22312511.560   117253152.25309  22312512.660    91366125.41148
  23043679.740   121095317.79009  23043679.840    94359971.52847
 15 03 01 00 06  0.0000000  0  7G16G18G19G21G22G27G31
  21300471.540   111934773.32809  21300469.080    87221907.73048
  22609243.040   118812404.89809  22609241.020    92581135.89546
  24468249.200   128581522.46608  24468248.880   100193398.32445
  21682701.620   113943390.15409  21682698.600    88787058.01448
  23561752.060   123817863.95708  23561750.080    96481423.99645
  22302004.160   117197935.85409  22302005.240    91323099.66848
  23061710.800   121190071.04309  23061710.840    94433805.12947
 15 03 01 00 06 30.0000000  0  7G16G18G19G21G22G27G31
  21288885.240   111873886.53309  21288882.660    87174463.47948
  22599685.080   118762177.62309  22599683.200    92541997.79246
  24453518.500   128504112.56108  24453517.840   100133079.06445
  21692394.940   113994328.64709  21692391.900    88826750.33048
  23544864.720   123729121.33308  23544862.760    96412273.66946
  22291521.780   117142850.54609  22291522.800    91280176.08448
  23079770.720   121284975.92509  23079770.760    94507756.89347
 15 03 01 00 07  0.0000000  0  7G16G18G19G21G22G27G31
  21277353.940   111813288.79009  21277351.260    87127244.46548
  22590189.880   118712279.70909  22590188.020    92503116.32846
  24438806.400   128426800.55108  24438805.500   100072836.08646
  21702143.720   114045558.61709  21702140.640    88866669.77748
  23527988.140   123640434.31908  23527986.120    96343166.56246
  22281063.520   117087891.83809  22281064.460    91237351.15648
  23097858.060   121380024.96009  23097858.080    94581820.95147
 15 03 01 00 07 30.0000000  0  7G16G18G19G21G22G27G31
  21265878.500   111752984.59409  21265875.720    87080254.18948
  22580758.140   118662715.17609  22580756.300    92464494.64546
  24424113.420   128349589.21608  24424112.440   100012671.53846
  21711948.080   114097080.44809  21711944.900    88906816.65048
  23511123.280   123551807.99409  23511121.280    96274106.61247
  22270629.780   117033061.91909  22270630.680    91194626.57748
  23115972.680   121475217.57609  23115972.740    94655996.88047
 15 03 01 00 08  0.0000000  0  7G16G18G19G21G22G27G31
  21254458.960   111692974.12809  21254456.060    87033492.79748
  22571390.040   118613485.16509  22571388.220    92426133.64546
  24409439.220   128272476.71708  24409438.300    99952584.00446
  21721807.180   114148890.18909  21721803.980    88947187.86948
  23494270.340   123463243.62808  23494268.300    96205095.03946
  22260220.220   116978359.04709  22260221.060    91152000.99948
  23134113.720   121570548.95109  23134113.860    94730280.92747
 15 03 01 00 08 30.0000000  0  7G16G18G19G21G22G27G31
  21243096.640   111633264.60909  21243093.660    86986965.90048
  22562086.960   118564596.91909  22562085.160    92388038.92847
  24394784.760   128195468.10108  24394783.960    99892577.41346
  21731721.840   114200991.89809  21731718.620    88987786.57448
  23477430.760   123374749.20608  23477428.760    96136138.26346
  22249835.740   116923788.06009  22249836.540    91109478.17048
  23152281.620   121666021.48909  23152281.820    94804674.95547
 15 03 01 00 09  0.0000000  0  7G16G18G19G21G22G27G31
  21231790.060   111573848.33309  21231787.080    86940667.51048
  22552847.400   118516042.55109  22552845.540    92350204.38646
  24380148.260   128118553.51808  24380147.480    99832644.09446
  21741689.780   114253373.63409  21741686.560    89028603.50848
  23460603.240   123286318.82208  23460601.320    96067232.17747
  22239474.440   116869339.04609  22239475.200    91067050.39548
  23170473.980   121761622.34309  23170474.200    94879169.00047
 15 03 01 00 09 30.0000000  0  7G16G18G19G21G22G27G31
  21220541.580   111514737.24209  21220538.580    86894606.92148
  22543673.560   118467833.79609  22543671.780    92312639.15447
  24365531.440   128041741.82308  24365530.620    99772790.93246
  21751712.400   114306042.91809  21751709.220    89069644.50048
  23443789.620   123197963.14408  23443787.660    95998384.34447
  22229138.180   116815021.50709  22229138.860    91024725.06548
  23188692.020   121857358.31109  23188692.260    94953768.37247
 15 03 01 00 10  0.0000000  0  7G16G18G19G21G22G27G31
  21209350.620   111455928.77109  21209347.680    86848782.15448
  22534565.040   118419968.29509  22534563.360    92275341.40447
  24350933.540   127965029.12308  24350932.640    99713014.92346
  21761788.440   114358993.17909  21761785.300    89110904.44148
  23426989.620   123109679.97009  23426987.620    95929592.66747
  22218826.100   116760830.86309  22218826.640    90982498.62048
  23206934.280   121953221.75109  23206934.600    95028467.03747
 15 03 01 00 10 30.0000000  0  7G16G18G19G21G22G27G31
  21198218.140   111397427.73209  21198215.300    86803196.92748
  22525522.680   118372450.43509  22525521.040    92238314.52347
  24336354.840   127888417.97808  24336353.880    99653318.02247
  21771918.080   114412225.11409  21771914.960    89152383.84948
  23410204.360   123021474.83509  23410202.440    95860861.58247
  22208538.640   116706769.69409  22208539.040    90940373.05648
  23225200.760   122049212.62209  23225201.180    95103265.03147
 15 03 01 00 11  0.0000000  0  7G16G18G19G21G22G27G31
  21187143.840   111339232.48409  21187141.120    86757849.97848
  22516546.340   118325279.42909  22516544.720    92201557.92147
  24321794.740   127811904.72808  24321793.820    99593697.41946
  21782100.320   114465733.44909  21782097.280    89194078.64348
  23393433.880   122933347.63309  23393432.200    95792191.47347
  22198275.040   116652834.26709  22198275.460    90898345.47548
  23243490.160   122145324.00509  23243490.760    95178156.92747
 15 03 01 00 11 30.0000000  0  7G16G18G19G21G22G27G31
  21176128.980   111281349.53509  21176126.400    86712746.39248
  22507637.180   118278461.33609  22507635.580    92165076.32947
  24307253.940   127735493.28307  24307253.200    99534156.14847
  21792335.660   114519520.53909  21792332.660    89235990.64948
  23376679.520   122845304.93708  23376677.900    95723587.29147
  22188036.060   116599028.47109  22188036.560    90856418.91048
  23261802.740   122241557.17508  23261803.360    95253143.74447
 15 03 01 00 12  0.0000000  0  7G16G18G19G21G22G27G31
  21165173.120   111223776.55909  21165170.620    86667884.33548
  22498794.900   118231994.36209  22498793.280    92128868.32447
  24292731.760   127659179.77608  24292731.180    99474691.19146
  21802623.000   114573580.80509  21802620.020    89278115.51148
  23359940.940   122757345.08408  23359939.240    95655047.63347
  22177820.940   116545348.40709  22177821.560    90814590.31548
  23280137.260   122337905.63609  23280137.900    95328220.40547
 15 03 01 00 12 30.0000000  0  7G16G18G19G21G22G27G31
  21154276.520   111166514.94509  21154274.100    86623264.89748
  22490019.700   118185879.73109  22490017.960    92092934.87047
  24278228.240   127582963.45108  24278227.700    99415301.94647
  21812961.680   114627910.82209  21812958.720    89320450.56648
  23343218.560   122669470.07109  23343216.720    95586574.03547
  22167629.480   116491792.96409  22167630.240    90772858.82648
  23298492.920   122434365.13909  23298493.620    95403383.57047
 15 03 01 00 13  0.0000000  0  7G16G18G19G21G22G27G31
  21143440.380   111109570.97009  21143438.020    86578892.97348
  22481312.620   118140123.23609  22481310.780    92057280.48947
  24263744.000   127506848.14808  24263743.340    99355991.42146
  21823352.160   114682513.26509  21823349.240    89362997.90448
  23326513.700   122581687.13408  23326511.760    95518172.19247
  22157462.560   116438366.40109  22157463.440    90731227.76648
  23316869.940   122530936.93909  23316870.740    95478634.22947
 15 03 01 00 13 30.0000000  0  7G16G18G19G21G22G27G31
  21132665.160   111052947.27709  21132662.900    86534770.62948
  22472674.200   118094727.62809  22472672.260    92021907.32347
  24249279.080   127430834.38308  24249278.320    99296760.03947
  21833794.240   114737386.83708  21833791.340    89405756.53048
  23309826.860   122493998.95808  23309824.820    95449844.12047
  22147320.240   116385068.94809  22147321.200    90689697.32448
  23335267.960   122627618.83408  23335268.800    95553970.65447
 15 03 01 00 14  0.0000000  0  7G16G18G19G21G22G27G31
  21121950.960   110996643.85809  21121948.740    86490897.84348
  22464104.380   118049692.59409  22464102.380    91986815.12147
  24234832.960   127354919.81008  24234832.160    99237605.92046
  21844286.920   114792526.36308  21844284.020    89448722.38048
  23293158.100   122406405.82808  23293156.040    95381589.81147
  22137202.240   116331898.41009  22137203.160    90648265.75948
  23353685.880   122724405.31308  23353686.780    95629388.52447
 15 03 01 00 14 30.0000000  0  7G16G18G19G21G22G27G31
  21111298.640   110940665.54609  21111296.440    86447278.38648
  22455604.140   118005023.43209  22455602.060    91952008.00647
  24220406.200   127279107.23408  24220405.340    99178531.28246
  21854830.580   114847933.74708  21854827.660    89491896.94648
  23276508.580   122318913.69408  23276506.560    95313414.14747
  22127109.000   116278857.44209  22127109.760    90606935.15548
  23372123.800   122821296.46708  23372124.680    95704888.01347
 15 03 01 00 15  0.0000000  0  7G16G18G19G21G22G27G31
  21100707.960   110885010.84209  21100705.740    86403911.09648
  22447173.140   117960718.27809  22447171.060    91917484.53447
  24205998.240   127203393.49508  24205997.320    99119533.66146
  21865424.140   114903603.55409  21865421.200    89535276.00448
  23259878.260   122231521.91008  23259876.360    95245316.67547
  22117039.800   116225942.64609  22117040.380    90565702.86748
  23390580.400   122918286.02608  23390581.280    95780464.16947
 15 03 01 00 15 30.0000000  0  7G16G18G19G21G22G27G31
  21090179.200   110829681.42809  21090176.980    86360797.28748
  22438811.700   117916779.00509  22438809.640    91883246.17747
  24191608.900   127127777.63008  24191607.900    99060612.31346
  21876067.200   114959533.17209  21876064.260    89578857.51548
  23243267.560   122144232.66508  23243265.680    95177299.12147
  22106994.380   116173153.28909  22106994.940    90524568.34048
  23409055.020   123015370.41008  23409055.980    95856114.18247
 15 03 01 00 16  0.0000000  0  7G16G18G19G21G22G27G31
  21079713.240   110774681.99809  21079710.960    86317940.59748
  22430520.720   117873209.94809  22430518.680    91849296.28647
  24177238.780   127052262.48208  24177237.740    99001769.43946
  21886760.000   115015723.97909  21886757.020    89622642.54548
  23226677.400   122057050.95708  23226675.520    95109365.07646
  22096973.300   116120491.98009  22096973.800    90483533.58248
  23427547.640   123112549.49308  23427548.700    95931837.97747
 15 03 01 00 16 30.0000000  0  7G16G18G19G21G22G27G31
  21069310.320   110720013.78009  21069307.960    86275342.00048
  22422300.320   117830012.05909  22422298.340    91815635.62247
  24162887.620   126976846.88408  24162886.480    98943004.14046
  21897501.640   115072171.34709  21897498.600    89666627.48648
  23210108.200   121969978.23008  23210106.260    95041515.63546
  22086976.300   116067957.65609  22086976.820    90442597.77248
  23446057.500   123209819.21608  23446058.580    96007632.44447
 15 03 01 00 17  0.0000000  0  7G16G18G19G21G22G27G31
  21058971.220   110665681.27209  21058968.800    86233004.99348
  22414151.420   117787190.07009  22414149.520    91782267.86347
  24148555.720   126901532.94808  24148554.620    98884318.05546
  21908292.520   115128877.30209  21908289.400    89710813.92248
  23193561.100   121883020.74908  23193559.120    94973756.20946
  22077003.880   116015552.72909  22077004.480    90401762.79048
  23464584.600   123307179.15908  23464585.680    96083497.24847
 15 03 01 00 17 30.0000000  0  7G16G18G19G21G22G27G31
  21048695.540   110611682.37209  21048693.140    86190927.94648
  22406073.560   117744741.65609  22406071.780    91749191.20847
  24134242.440   126826316.75608  24134241.360    98825708.15146
  21919131.480   115185835.99309  21919128.360    89755197.30248
  23177035.760   121796177.74609  23177033.720    94906086.41248
  22067055.320   115963273.08509  22067055.920    90361025.44048
  23483127.520   123404622.31208  23483128.520    96159426.87547
 15 03 01 00 18  0.0000000  0  7G16G18G19G21G22G27G31
  21038484.140   110558021.48409  21038481.800    86149114.27948
  22398067.660   117702670.93309  22398065.900    91716408.84747
  24119948.180   126751200.60408  24119947.080    98767176.19346
  21930018.460   115243047.24608  21930015.380    89799777.47848
  23160532.760   121709452.96509  23160530.580    94838508.48348
  22057131.100   115911120.99109  22057131.660    90320387.46548
  23501686.180   123502147.96608  23501687.040    96235420.78347
 15 03 01 00 18 30.0000000  0  7G16G18G19G21G22G27G31
  21028337.100   110504698.78409  21028334.800    86107564.14048
  22390133.740   117660978.30109  22390131.960    91683921.11947
  24105672.660   126676182.72108  24105671.500    98708720.81345
  21940952.780   115300507.60408  21940949.800    89844551.77148
  23144052.360   121622847.32108  23144050.280    94771023.11147
  22047230.760   115859094.49009  22047231.340    90279847.37148
  23520259.660   123599751.48708  23520260.460    96311475.37147
 15 03 01 00 19  0.0000000  0  7G16G18G19G21G22G27G31
  21018255.300   110451718.81109  21018253.000    86066281.05748
  22382272.540   117619667.82409  22382270.780    91651731.16347
  24091416.240   126601265.14008  24091414.980    98650343.58446
  21951934.520   115358217.29508  21951931.640    89889520.34948
  23127595.740   121536366.76108  23127593.800    94703635.62944
  22037354.740   115807195.80909  22037355.360    90239406.87448
  23538847.840   123697432.21008  23538848.620    96387590.12947
 15 03 01 00 19 30.0000000  0  7G16G18G19G21G22G27G31
  21008238.740   110399081.61709  21008236.460    86025265.07148
  22374484.000   117578739.21409  22374482.260    91619838.75647
  24077178.620   126526445.93708  24077177.360    98592043.00846
  21962962.860   115416172.17208  21962960.120    89934679.96748
  23111162.940   121450011.41509  23111161.020    94636345.62447
  22027502.620   115755422.92409  22027503.340    90199064.39048
  23557449.800   123795185.36008  23557450.500    96463761.29547
 15 03 01 00 20  0.0000000  0  7G16G18G19G21G22G27G31
  20998288.660   110346793.62509  20998286.360    85984521.19448
  22366769.360   117538198.88509  22366767.700    91588248.91847
  24062960.440   126451729.04708  24062959.020    98533822.15146
  21974038.400   115474375.06108  21974035.780    89980032.86348
  23094755.360   121363788.45908  23094753.400    94569158.81546
  22017675.280   115703780.10109  22017676.000    90158823.26448
  23576065.780   123893012.18608  23576066.400    96539989.89847
 15 03 01 00 20 30.0000000  0  7G16G18G19G21G22G27G31
  20988404.400   110294851.60409  20988402.060    85944046.90648
  22359127.900   117498043.26509  22359126.300    91556958.85347
  24048760.860   126377109.56908  24048759.380    98475677.19946
  21985159.660   115532818.37608  21985157.140    90025573.10048
  23078372.580   121277695.71708  23078370.580    94502073.61147
  22007871.740   115652262.10609  22007872.380    90118679.40148
  23594694.220   123990904.56408  23594694.760    96616269.55246
 15 03 01 00 21  0.0000000  0  7G16G18G19G21G22G27G31
  20978587.100   110243261.35809  20978584.720    85903846.72448
  22351560.900   117458278.43009  22351559.260    91525973.28847
  24034580.460   126302591.36308  24034579.040    98417611.16846
  21996327.220   115591504.67308  21996324.720    90071302.66048
  23062015.820   121191739.98509  23062013.700    94435095.38447
  21998092.700   115600872.77709  21998093.240    90078635.79548
  23613335.260   124088863.47708  23613335.840    96692600.99746
 15 03 01 00 21 30.0000000  0  7G16G18G19G21G22G27G31
  20968836.320   110192020.64209  20968833.940    85863918.89848
  22344067.800   117418901.72909  22344066.080    91495290.16147
  24020418.460   126228169.71108  24020417.100    98359620.35046
  22007539.740   115650426.78408  22007537.160    90117215.98747
  23045684.720   121105919.25408  23045682.440    94368222.39547
  21988337.360   115549607.65209  21988337.740    90038688.96748
  23631987.580   124186881.81008  23631988.300    96768978.75446
 15 03 01 00 22  0.0000000  0  7G16G18G19G21G22G27G31
  20959152.920   110141134.23109  20959150.600    85824267.15548
  22336649.320   117379917.25909  22336647.480    91464912.67447
  24006275.400   126153847.35308  24006274.080    98301706.91646
  22018797.520   115709586.58408  22018794.800    90163314.52048
  23029380.180   121020238.79409  23029377.860    94301458.69847
  21978606.140   115498469.42809  21978606.420    89998841.02048
  23650651.140   124284959.05108  23650651.940    96845402.39746
 15 03 01 00 22 30.0000000  0  7G16G18G19G21G22G27G31
  20949537.960   110090607.39109  20949535.680    85784895.59148
  22329306.540   117341330.40909  22329304.520    91434845.00747
  23992151.740   126079627.04008  23992150.260    98243872.97846
  22030100.700   115768984.76708  22030097.860    90209598.79848
  23013103.340   120934703.94509  23013100.960    94234808.20448
  21968899.660   115447461.23209  21968899.880    89959094.39648
  23669326.020   124383095.68508  23669326.920    96921872.34546
 15 03 01 00 23  0.0000000  0  7G16G18G19G21G22G27G31
  20939990.720   110040436.30109  20939988.400    85745801.23648
  22322038.640   117303137.31509  22322036.540    91405084.17547
  23978046.440   126005503.10908  23978044.780    98186114.13246
  22041447.860   115828613.81809  22041444.820    90256062.97548
  22996853.680   120849311.96809  22996851.260    94168268.92747
  21959216.680   115396577.11709  21959217.000    89919444.47048
  23688010.540   124481283.03008  23688011.500    96998381.80746
 15 03 01 00 23 30.0000000  0  7G16G18G19G21G22G27G31
  20930512.200   109990626.47609  20930509.860    85706988.38948
  22314846.660   117265343.26609  22314844.480    91375634.28947
  23963960.120   125931479.17708  23963958.200    98128433.21746
  22052839.180   115888474.87009  22052835.960    90302707.93448
  22980632.520   120764069.94509  22980630.220    94101846.68748
  21949557.960   115345820.77409  21949558.460    89879894.10548
  23706704.820   124579521.75908  23706705.800    97074931.30846
 15 03 01 00 24  0.0000000  0  7G16G18G19G21G22G27G31
  20921102.720   109941179.49609  20921100.440    85668458.28148
  22307730.820   117227949.18509  22307728.580    91346496.06947
  23949892.680   125857554.66208  23949890.560    98070829.76646
  22064274.240   115948565.70709  22064270.820    90349531.94947
  22964440.260   120678979.71508  22964437.980    94035542.77147
  21939923.440   115295191.59709  21939924.060    89840442.83348
  23725408.220   124677808.29008  23725409.320    97151518.06446
 15 03 01 00 24 30.0000000  0  7G16G18G19G21G22G27G31
  20911762.920   109892098.62309  20911760.660    85630213.44548
  22300691.660   117190958.27809  22300689.420    91317672.00447
  23935844.300   125783730.77508  23935842.240    98013304.73846
  22075752.940   116008886.30909  22075749.480    90396535.00147
  22948277.520   120594044.77609  22948275.260    93969359.79747
  21930313.340   115244690.80609  21930314.060    89801091.60048
  23744120.340   124776140.94008  23744121.660    97228140.72046
 15 03 01 00 25  0.0000000  0  7G16G18G19G21G22G27G31
  20902493.340   109843386.55209  20902491.100    85592255.98148
  22293729.580   117154372.74509  22293727.380    91289163.81547
  23921815.120   125710007.80608  23921813.100    97955858.31846
  22087274.860   116069434.41308  22087271.460    90443715.31747
  22932145.060   120509268.82809  22932142.840    93903300.70347
  21920727.860   115194319.08709  21920728.560    89761840.93048
  23762840.920   124874517.53908  23762842.280    97304797.59546
 15 03 01 00 25 30.0000000  0  7G16G18G19G21G22G27G31
  20893293.800   109795042.45609  20893291.540    85554585.25748
  22286844.460   117118191.56309  22286842.280    91260970.71047
  23907804.620   125636382.66508  23907802.620    97898488.16046
  22098839.260   116130205.66909  22098836.000    90491069.53447
  22916042.880   120424652.11009  22916040.740    93837365.98347
  21911166.400   115144073.43509  21911167.060    89722688.50648
  23781568.760   124972932.29108  23781570.220    97381484.23746
 15 03 01 00 26  0.0000000  0  7G16G18G19G21G22G27G31
  20884164.580   109747067.75009  20884162.260    85517202.36148
  22280036.520   117082415.87809  22280034.340    91233093.57247
  23893812.860   125562855.64108  23893810.820    97841194.43646
  22110445.640   116191197.99908  22110442.640    90538596.00748
  22899971.360   120340196.77709  22899969.180    93771556.94247
  21901628.920   115093953.52909  21901629.480    89683634.05448
  23800303.320   125071382.21208  23800304.840    97458198.27447
 15 03 01 00 26 30.0000000  0  7G16G18G19G21G22G27G31
  20875107.040   109699469.75709  20875104.680    85480113.01148
  22273307.080   117047052.45809  22273304.800    91205537.67747
  23879840.640   125489431.20608  23879838.520    97783980.65646
  22122094.700   116252414.53009  22122091.840    90586297.18348
  22883931.940   120255909.97609  22883929.580    93705878.99347
  21892116.360   115043964.31409  21892116.820    89644681.43548
  23819044.900   125169869.02308  23819046.420    97534941.08446
 15 03 01 00 27  0.0000000  0  7G16G18G19G21G22G27G31
  20866120.860   109652246.64909  20866118.400    85443315.78148
  22266655.680   117012099.02909  22266653.340    91178301.25847
  23865887.120   125416105.53608  23865885.180    97726843.83646
  22133785.140   116313848.58708  22133782.440    90634167.85748
  22867924.580   120171791.43809  22867922.180    93640332.29747
  21882628.000   114994102.23009  21882628.400    89605827.88548
  23837792.340   125268386.73108  23837793.860    97611707.95146
 15 03 01 00 27 30.0000000  0  7G16G18G19G21G22G27G31
  20857206.360   109605400.28409  20857203.800    85406812.12548
  22260082.740   116977557.97509  22260080.440    91151386.18847
  23851952.380   125342878.68508  23851950.540    97669784.02146
  22145516.860   116375499.53408  22145514.320    90682207.55047
  22851949.800   120087843.95209  22851947.340    93574919.09647
  21873163.780   114944367.20009  21873164.100    89567073.34748
  23856545.000   125366931.92008  23856546.620    97688496.24046
 15 03 01 00 28  0.0000000  0  7G16G18G19G21G22G27G31
  20848363.980   109558933.28909  20848361.400    85370604.08048
  22253588.560   116943431.13609  22253586.280    91124793.86747
  23838036.560   125269750.79308  23838034.680    97612801.31746
  22157289.580   116437365.59708  22157287.080    90730414.85447
  22836008.060   120004070.16509  22836005.460    93509641.19547
  21863723.780   114894759.62309  21863724.060    89528418.11948
  23875302.400   125465502.39408  23875304.120    97765304.28746
 15 03 01 00 28 30.0000000  0  7G16G18G19G21G22G27G31
  20839594.060   109512846.98809  20839591.440    85334692.68048
  22247173.300   116909719.03809  22247171.040    91098524.73247
  23824139.500   125196721.25808  23824137.500    97555895.24746
  22169102.740   116499444.02209  22169100.180    90778787.63447
  22820099.720   119920471.79509  22820096.980    93444499.66147
  21854307.960   114845278.97409  21854308.160    89489861.79448
  23894063.980   125564094.71508  23894065.640    97842129.36246
 15 03 01 00 29  0.0000000  0  7G16G18G19G21G22G27G31
  20830897.080   109467143.91909  20830894.360    85299079.90348
  22240837.380   116876423.93709  22240835.160    91072580.51847
  23810261.260   125123790.71708  23810259.160    97499066.31946
  22180956.260   116561734.19109  22180953.620    90827325.42448
  22804225.500   119837052.61509  22804222.740    93379497.72747
  21844916.340   114795925.85409  21844916.480    89451404.84648
  23912829.320   125662706.68808  23912830.940    97918969.80746
 15 03 01 00 29 30.0000000  0  7G16G18G19G21G22G27G31
  20822273.560   109421827.19409  20822270.760    85263768.17348
  22234581.400   116843548.83409  22234579.160    91046963.58047
  23796402.060   125050960.37408  23796399.940    97442315.46446
  22192849.780   116624234.51909  22192846.980    90876026.95847
  22788386.160   119753816.68209  22788383.400    93314638.50547
  21835549.160   114746701.44309  21835549.340    89413048.19248
  23931598.060   125761336.46008  23931599.580    97995824.09346
 15 03 01 00 30  0.0000000  0  7G16G18G19G21G22G27G31
  20813723.860   109376898.29809  20813721.020    85228758.64548
  22228405.560   116811094.58109  22228403.300    91021674.57447
  23782561.720   124978229.31708  23782559.560    97385641.96846
  22204782.860   116686942.70009  22204779.900    90924890.45948
  22772582.000   119670765.70209  22772579.380    93249923.33948
  21826206.280   114697605.13909  21826206.560    89374791.35748
  23950369.540   125859980.57008  23950370.980    98072689.52946
 15 03 01 00 30 30.0000000  0  7G16G18G19G21G22G27G31
  20805248.140   109332357.87909  20805245.220    85194051.82648
  22222309.900   116779061.64309  22222307.620    90996713.86947
  23768740.060   124905596.69208  23768737.920    97329045.18546
  22216754.920   116749855.80309  22216751.800    90973913.65047
  22756813.480   119587902.04609  22756811.020    93185354.37147
  21816887.600   114648635.92809  21816887.980    89336633.56748
  23969143.000   125958634.90108  23969144.300    98149562.81346
 15 03 01 00 31  0.0000000  0  7G16G18G19G21G22G27G31
  20796846.960   109288209.24109  20796843.980    85159650.29448
  22216295.020   116747453.00709  22216292.640    90972083.78247
  23754937.280   124833063.23908  23754935.280    97272525.67947
  22228765.720   116812972.97808  22228762.580    91023095.84147
  22741081.180   119505228.83709  22741078.840    93120933.48248
  21807593.440   114599795.00309  21807593.840    89298575.72848
  23987918.180   126057298.21608  23987919.440    98226443.19346
 15 03 01 00 31 30.0000000  0  7G16G18G19G21G22G27G31
  20788520.960   109244455.67609  20788517.960    85125556.61648
  22210361.440   116716271.51009  22210359.000    90947786.54047
  23741153.660   124760630.33508  23741151.700    97216084.52846
  22240815.400   116876294.48708  22240812.260    91072437.26347
  22725386.100   119422750.83209  22725383.820    93056664.74948
  21798324.000   114551083.81709  21798324.420    89260618.99248
  24006694.760   126155968.95008  24006695.960    98303329.41246
 15 03 01 00 32  0.0000000  0  7G16G18G19G21G22G27G31
  20780269.980   109201096.67809  20780267.080    85091770.38348
  22204508.840   116685515.80809  22204506.380    90923821.08147
  23727388.700   124688295.36308  23727386.780    97159719.68947
  22252902.960   116939815.28809  22252899.920    91121933.97847
  22709728.240   119340468.39609  22709726.080    92992548.75448
  21789078.800   114502499.82909  21789079.180    89222761.36048
  24025471.680   126254641.72708  24025472.920    98380217.30846
 15 03 01 00 32 30.0000000  0  7G16G18G19G21G22G27G31
  20772094.940   109158136.56409  20772092.080    85058294.97848
  22198738.100   116655190.07009  22198735.540    90900190.65847
  23713642.940   124616060.82708  23713640.960    97103433.10447
  22265028.480   117003535.72508  22265025.580    91171586.25547
  22694108.500   119258385.91109  22694106.220    92928588.37248
  21779858.280   114454045.56909  21779858.660    89185004.82548
  24044248.860   126353316.29708  24044250.140    98457106.66447
 15 03 01 00 33  0.0000000  0  7G16G18G19G21G22G27G31
  20763995.280   109115572.75709  20763992.540    85025128.37548
  22193048.580   116625290.89509  22193045.920    90876892.62047
  23699915.500   124543922.13408  23699913.360    97047221.19847
  22277190.760   117067449.40808  22277188.000    91221389.10248
  22678526.580   119176501.95909  22678524.100    92864782.67847
  21770661.540   114405716.60609  21770661.920    89147345.91248
  24063024.840   126451984.86408  24063026.120    98533991.21846
 15 03 01 00 33 30.0000000  0  7G16G18G19G21G22G27G31
  20755972.600   109073413.42909  20755969.960    84992276.96148
  22187441.800   116595826.36309  22187439.020    90853933.26947
  23686207.480   124471885.34808  23686205.120    96991088.70947
  22289390.800   117131561.10608  22289388.140    91271346.25147
  22662984.180   119094825.83509  22662981.580    92801139.00947
  21761489.840   114357519.18909  21761490.200    89109789.50648
  24081800.380   126550650.96408  24081801.700    98610873.77147
 15 03 01 00 34  0.0000000  0  7G16G18G19G21G22G27G31
  20748026.900   109031658.44109  20748024.320    84959740.61349
  22181917.580   116566795.64409  22181914.640    90831311.95847
  23672518.540   124399948.83908  23672516.000    96935034.36147
  22301627.820   117195867.17208  22301625.240    91321454.86647
  22647481.300   119013357.86909  22647478.580    92737657.54547
  21752342.840   114309451.53709  21752343.160    89072334.21148
  24100574.560   126649310.11208  24100575.940    98687750.92047
 15 03 01 00 34 30.0000000  0  7G16G18G19G21G22G27G31
  20740157.860   108990306.16709  20740155.260    84927518.06848
  22176475.560   116538196.96109  22176472.540    90809027.28647
  23658847.820   124328108.41608  23658845.200    96879054.88446
  22313900.780   117260361.89208  22313898.160    91371710.47147
  22632017.840   118932097.19609  22632015.000    92674337.59747
  21743219.840   114261509.99309  21743220.140    89034977.18048
  24119346.180   126747955.72708  24119347.620    98764617.53346
 15 03 01 00 35  0.0000000  0  7G16G18G19G21G22G27G31
  20732366.780   108949363.70809  20732364.180    84895614.85748
  22171116.940   116510036.82309  22171113.920    90787084.34947
  23645196.380   124256369.59108  23645193.760    96823154.56647
  22326210.240   117325048.31409  22326207.540    91422115.46547
  22616595.340   118851051.66909  22616592.380    92611185.31647
  21734121.840   114213699.86709  21734122.200    88997722.55148
  24138115.680   126846590.14708  24138117.180    98841475.36345
 15 03 01 00 35 30.0000000  0  7G16G18G19G21G22G27G31
  20724653.460   108908830.16909  20724650.880    84864030.29748
  22165841.380   116482313.63709  22165838.400    90765481.89847
  23631563.580   124184729.35808  23631560.960    96767331.09447
  22338555.360   117389921.95909  22338552.580    91472666.34947
  22601213.700   118770220.97509  22601210.720    92548200.42847
  21725048.280   114166018.44409  21725048.760    88960568.22748
  24156882.100   126945208.13708  24156883.680    98918320.58046
 15 03 01 00 36  0.0000000  0  7G16G18G19G21G22G27G31
  20717018.420   108868708.11809  20717015.840    84832766.36148
  22160649.340   116455029.51609  22160646.420    90744221.55747
  23617949.520   124113187.93008  23617947.020    96711584.59746
  22350935.860   117454981.45709  22350933.000    91523362.04647
  22585873.680   118689608.90209  22585870.740    92485385.86847
  21715999.320   114118466.43709  21715999.980    88923514.73748
  24175645.000   127043807.41608  24175646.520    98995151.28246
 15 03 01 00 36 30.0000000  0  7G16G18G19G21G22G27G31
  20709462.320   108829000.89309  20709459.780    84801825.67148
  22155541.360   116428187.19709  22155538.540    90723305.48747
  23604354.580   124041746.95008  23604352.260    96655916.37046
  22363351.660   117520226.56409  22363348.760    91574202.37247
  22570576.120   118609219.57909  22570573.220    92422744.90147
  21706975.300   114071045.36309  21706976.080    88886563.27748
  24194404.080   127142386.69208  24194405.420    99071966.48046
 15 03 01 00 37  0.0000000  0  7G16G18G19G21G22G27G31
  20701984.800   108789706.89409  20701982.320    84771206.97448
  22150517.100   116401784.67509  22150514.320    90702732.11747
  23590778.220   123970403.27008  23590775.880    96600323.94747
  22375801.780   117585652.06608  22375798.860    91625183.26447
  22555320.820   118529052.35309  22555317.920    92360277.02647
  21697975.680   114023752.08009  21697976.440    88849711.38748
  24213158.000   127240939.38608  24213159.280    99148760.77246
 15 03 01 00 37 30.0000000  0  7G16G18G19G21G22G27G31
  20694586.740   108750830.72709  20694584.400    84740913.87048
  22145577.300   116375826.22109  22145574.620    90682504.78147
  23577220.880   123899159.35908  23577218.620    96544809.28546
  22388286.420   117651259.04708  22388283.460    91676305.58347
  22540108.700   118449112.44009  22540105.840    92297986.34347
  21689001.000   113976589.31909  21689001.580    88812961.20448
  24231906.880   127339465.96408  24231908.180    99225534.82046
 15 03 01 00 38  0.0000000  0  7G16G18G19G21G22G27G31
  20687268.640   108712374.66409  20687266.420    84710948.10548
  22140722.320   116350313.51209  22140719.680    90662624.76547
  23563682.660   123828015.79808  23563680.400    96489372.80346
  22400805.260   117717046.03809  22400802.280    91727568.15147
  22524940.380   118369403.06909  22524937.540    92235875.25548
  21680051.360   113929557.84409  21680051.700    88776313.31048
  24250650.340   127437964.07908  24250651.660    99302286.69646
 15 03 01 00 38 30.0000000  0  7G16G18G19G21G22G27G31
  20680029.880   108674335.19909  20680027.780    84681306.96148
  22135951.280   116325242.04309  22135948.740    90643088.57647
  23550162.440   123756966.69608  23550160.180    96434009.92446
  22413356.960   117783005.74009  22413354.020    91778965.30347
  22509815.360   118289921.33009  22509812.500    92173941.57447
  21671125.640   113882651.99409  21671125.780    88739763.30748
  24269386.780   127536425.43408  24269388.140    99379010.04746
 15 03 01 00 39  0.0000000  0  7G16G18G19G21G22G27G31
  20672872.840   108636724.48709  20672870.720    84651999.91948
  22131266.440   116300623.80709  22131264.020    90623905.55947
  23536662.220   123686022.60908  23536659.980    96378728.88746
  22425943.100   117849146.40708  22425940.200    91830503.47747
  22494736.180   118210680.46409  22494733.340    92112195.61048
  21662225.820   113835882.39709  21662225.780    88703319.48348
  24288117.600   127634857.37008  24288119.100    99455710.37146
 15 03 01 00 39 30.0000000  0  7G16G18G19G21G22G27G31
  20665796.440   108599537.33109  20665794.320    84623022.90448
  22126666.680   116276452.71209  22126664.420    90605070.96647
  23523180.720   123615176.73808  23523178.420    96323524.35146
  22438562.100   117915459.38509  22438559.120    91882175.90647
  22479701.940   118131675.82709  22479699.180    92050633.64648
  21653350.600   113789242.25709  21653350.440    88666976.52548
  24306840.960   127733249.91908  24306842.460    99532379.83446
 15 03 01 00 40  0.0000000  0  7G16G18G19G21G22G27G31
  20658801.360   108562777.40709  20658799.160    84594378.81348
  22122152.600   116252731.91509  22122150.540    90586587.25347
  23509718.120   123544430.52808  23509715.780    96268397.49646
  22451213.900   117981944.69009  22451210.820    91933982.63247
  22464713.680   118052912.50209  22464710.880    91989259.75947
  21644500.340   113742733.52409  21644500.180    88630735.98148
  24325556.820   127831602.46108  24325558.280    99609017.93946
 15 03 01 00 40 30.0000000  0  7G16G18G19G21G22G27G31
  20651887.940   108526446.47509  20651885.640    84566068.99049
  22117724.440   116229462.45009  22117722.480    90568455.22147
  23496274.400   123473783.81808  23496272.060    96213348.15446
  22463898.040   118048600.09908  22463894.880    91985921.89547
  22449771.740   117974392.35609  22449768.840    91928075.29748
  21635675.000   113696355.96809  21635674.840    88594597.63848
  24344264.620   127929912.14808  24344266.080    99685622.78646
 15 03 01 00 41  0.0000000  0  7G16G18G19G21G22G27G31
  20645056.800   108490547.78309  20645054.320    84538095.98749
  22113382.820   116206647.45109  22113380.880    90550677.32047
  23482849.820   123403237.76508  23482847.520    96158377.25746
  22476614.400   118115425.24208  22476611.300    92037993.41947
  22434876.900   117896119.58209  22434873.860    91867083.50148
  21626874.940   113650111.48809  21626874.800    88558562.99548
  24362964.140   128028178.04308  24362965.520    99762193.61745
 15 03 01 00 41 30.0000000  0  7G16G18G19G21G22G27G31
  20638307.680   108455080.17409  20638305.040    84510458.88149
  22109127.320   116184284.80809  22109125.320    90533251.90047
  23469443.960   123332789.86308  23469441.760    96103482.83547
  22489362.240   118182415.80608  22489359.200    92090193.83647
  22420029.160   117818094.02409  22420026.040    91806284.31847
  21618099.640   113603997.22009  21618099.520    88522629.80548
  24381654.160   128126394.18008  24381655.440    99838725.71545
 15 03 01 00 42  0.0000000  0  7G16G18G19G21G22G27G31
  20631640.980   108420045.67509  20631638.180    84483159.27248
  22104958.180   116162375.99509  22104956.080    90516180.12847
  23456056.800   123262440.24108  23456054.680    96048665.00347
  22502141.200   118249570.27808  22502138.300    92142521.97747
  22405229.160   117740319.20309  22405226.020    91745680.61848
  21609349.140   113558013.63109  21609349.120    88486798.45548
  24400334.260   128224558.31708  24400335.460    99915217.27345
 15 03 01 00 42 30.0000000  0  7G16G18G19G21G22G27G31
  20625057.580   108385449.26009  20625054.680    84456201.02849
  22100876.240   116140925.39709  22100874.100    90499465.40647
  23442689.020   123192192.42208  23442687.040    95993926.50247
  22514951.540   118316889.84408  22514948.820    92194978.76347
  22390477.980   117662800.70009  22390474.780    91685276.60747
  21600624.160   113512164.05309  21600624.280    88451071.53048
  24419004.580   128322671.14508  24419005.720    99991668.83645
 15 03 01 00 43  0.0000000  0  7G16G18G19G21G22G27G31
  20618556.980   108351288.17109  20618553.940    84429582.00449
  22096880.800   116119929.59909  22096878.660    90483105.06847
  23429339.700   123122041.40608  23429337.820    95939263.42647
  22527792.180   118384368.33008  22527789.540    92247559.38847
  22375774.960   117585535.79609  22375771.820    91625070.13848
  21591923.900   113466444.24909  21591924.140    88415445.73148
  24437663.600   128420724.76508  24437664.880   100068074.22146
 15 03 01 00 43 30.0000000  0  7G16G18G19G21G22G27G31
  20612140.360   108317568.66309  20612137.260    84403307.06348
  22092972.880   116099393.67509  22092970.760    90467103.07447
  23416009.620   123051991.44908  23416007.740    95884679.09347
  22540663.520   118452008.08308  22540660.980    92300265.66447
  22361121.800   117508533.04109  22361118.760    91565068.09848
  21583249.140   113420858.52409  21583249.520    88379924.40548
  24456311.800   128518721.75708  24456313.120   100144435.64645
 15 03 01 00 44  0.0000000  0  7G16G18G19G21G22G27G31
  20605807.620   108284290.09709  20605804.500    84377375.71748
  22089152.400   116079317.11909  22089150.340    90451459.02547
  23402698.420   122982040.83908  23402696.560    95830172.19047
  22553564.840   118519805.28008  22553562.320    92353094.63647
  22346518.500   117431792.50209  22346515.540    91505270.54648
  21574599.520   113375404.92909  21574599.980    88344506.04948
  24474948.040   128616656.58208  24474949.560   100220748.53846
 15 03 01 00 44 30.0000000  0  7G16G18G19G21G22G27G31
  20599559.040   108251453.90109  20599555.960    84351789.07448
  22085419.480   116059700.55209  22085417.440    90436173.40947
  23389405.980   122912189.20508  23389404.180    95775742.41347
  22566495.720   118587757.52108  22566493.160    92406044.42047
  22331965.360   117355315.82609  22331962.420    91445678.46848
  21565975.060   113330083.57009  21565975.560    88309190.72648
  24493571.900   128714526.26306  24493573.580   100297010.60044
 15 03 01 00 45  0.0000000  0  7G16G18G19G21G22G27G31
  20593395.280   108219063.64609  20593392.320    84326549.91349
  22081774.640   116040546.53709  22081772.620    90421248.22647
  23376132.460   122842437.45908  23376130.760    95721390.46647
  22579456.160   118655865.06908  22579453.560    92459115.22047
  22317463.220   117279107.30709  22317460.280    91386295.40748
  21557376.100   113284896.05609  21557376.600    88273979.69248
  24512183.260   128812330.20008  24512185.020   100373221.64345
 15 03 01 00 45 30.0000000  0  7G16G18G19G21G22G27G31
  20587316.320   108187119.20509  20587313.560    84301658.14648
  22078217.680   116021854.12109  22078215.620    90406682.73047
  23362877.680   122772784.01808  23362876.040    95667115.11947
  22592445.500   118724124.40608  22592442.860    92512304.30447
  22303012.340   117203167.97209  22303009.380    91327122.03248
  21548802.360   113239840.70309  21548802.820    88238871.64648
  24530781.280   128910063.91508  24530783.080   100449378.10546
 15 03 01 00 46  0.0000000  0  7G16G18G19G21G22G27G31
  20581322.700   108155623.12909  20581320.140    84277115.74749
  22074748.880   116003625.38809  22074746.780    90392478.55547
  23349641.920   122703229.94808  23349640.040    95612917.20847
  22605463.500   118792534.14008  22605460.840    92565610.57047
  22288613.420   117127501.48409  22288610.420    91268161.31748
  21540254.100   113194918.84409  21540254.420    88203867.61248
  24549365.420   129007724.88608  24549367.100   100525477.65046
 15 03 01 00 46 30.0000000  0  7G16G18G19G21G22G27G31
  20575414.960   108124578.12709  20575412.540    84252924.83949
  22071368.680   115985862.57509  22071366.580    90378637.43547
  23336425.300   122633776.20108  23336423.240    95558797.47947
  22618510.100   118861094.08408  22618507.440    92619033.89247
  22274267.080   117052111.34209  22274264.020    91209415.92148
  21531731.480   113150131.67509  21531731.640    88168968.54248
  24567935.460   129105311.72308  24567937.000   100601519.28945
 15 03 01 00 47  0.0000000  0  7G16G18G19G21G22G27G31
  20569593.020   108093983.74109  20569590.680    84229085.05249
  22068076.920   115968564.84209  22068074.860    90365158.71347
  23323227.580   122564421.34408  23323225.380    95504754.79947
  22631584.640   118929800.66108  22631581.980    92672571.47347
  22259973.500   116976998.62109  22259970.400    91150886.62948
  21523234.180   113105477.82309  21523234.220    88134173.34748
  24586490.620   129202819.81808  24586491.960   100677499.54344
 15 03 01 00 47 30.0000000  0  7G16G18G19G21G22G27G31
  20563857.720   108063844.15809  20563855.320    84205599.66449
  22064874.220   115951734.97409  22064872.180    90352044.55447
  23310048.960   122495166.76908  23310046.540    95450790.25447
  22644686.940   118998653.29708  22644684.280    92726222.85947
  22245733.360   116902167.30209  22245730.380    91092576.58248
  21514762.500   113060959.03009  21514762.560    88099483.39948
  24605030.700   129300248.33008  24605031.940   100753417.41645
 15 03 01 00 48  0.0000000  0  7G16G18G19G21G22G27G31
  20558208.900   108034158.82209  20558206.380    84182468.23248
  22061760.340   115935371.82609  22061758.300    90339294.06047
  23296889.000   122426010.56308  23296886.440    95396902.35847
  22657816.440   119067648.68408  22657813.700    92779985.47847
  22231546.880   116827618.37609  22231544.140    91034486.61448
  21506316.200   113016573.72609  21506316.300    88064897.46048
  24623555.120   129397594.06608  24623556.480   100829271.14447
 15 03 01 00 48 30.0000000  0  7G16G18G19G21G22G27G31
  20552647.620   108004933.38109  20552644.940    84159695.15748
  22058736.220   115919480.13409  22058734.160    90326910.92947
  23283748.580   122356957.01908  23283745.920    95343094.47447
  22670973.600   119136789.39608  22670970.820    92833861.34147
  22217415.320   116753358.16609  22217412.760    90976621.61048
  21497896.080   112972326.07809  21497896.260    88030418.79248
  24642063.680   129494856.68707  24642064.980   100905059.91544
 15 03 01 00 49  0.0000000  0  7G16G18G19G21G22G27G31
  20547173.960   107976168.58609  20547171.140    84137281.03349
  22055801.940   115904060.56709  22055799.920    90314895.69747
  23270627.400   122288005.13608  23270624.780    95289365.79147
  22684157.800   119206072.63208  22684155.040    92887848.25747
  22203339.120   116679388.58909  22203336.660    90918982.91548
  21489502.100   112928215.68109  21489502.360    87996047.07048
  24660556.040   129592034.09808  24660557.420   100980782.29346
 15 03 01 00 49 30.0000000  0  7G16G18G19G21G22G27G31
  20541787.280   107947861.21309  20541784.380    84115223.35049
  22052956.620   115889108.72209  22052954.720    90303244.92747
  23257524.620   122219149.91208  23257522.020    95235712.43547
  22697367.840   119275491.70308  22697365.060    92941941.03447
  22189317.980   116605707.71609  22189315.500    90861569.29248
  21481133.300   112884237.66609  21481133.660    87961778.50549
  24679030.480   129689117.20006  24679032.600   101056430.73243
 15 03 01 00 50  0.0000000  0  6G16G18G19G21G22G27
  20536487.760   107920012.15009  20536484.860    84093522.78149
  22050200.320   115874624.45409  22050198.460    90291958.50147
  23244440.100   122150390.74708  23244437.580    95182133.93347
  22710603.240   119345044.41208  22710600.540    92996137.93647
  22175352.220   116532317.08909  22175349.480    90804381.84248
  21472789.600   112840391.69209  21472790.120    87927612.83649
 15 03 01 00 50 30.0000000  0  6G16G18G19G21G22G27
  20531277.400   107892631.78409  20531274.520    84072187.43549
  22047534.920   115860617.99309  22047533.120    90281044.39347
  23231375.580   122081736.56508  23231373.120    95128637.23547
  22723865.300   119414737.46308  22723862.740    93050444.18847
  22161443.980   116459228.35309  22161440.960    90747429.78148
  21464472.780   112796686.88609  21464473.380    87893557.16349
 15 03 01 00 51  0.0000000  0  6G16G18G19G21G22G27
  20526155.520   107865716.36209  20526152.700    84051214.37549
  22044959.580   115847084.53909  22044957.760    90270498.86047
  23218330.040   122013181.84408  23218327.560    95075218.03847
  22737152.800   119484564.09108  22737150.320    93104854.52547
  22147592.540   116386437.97409  22147589.200    90690710.08148
  21456181.800   112753117.99909  21456182.500    87859607.39448
 15 03 01 00 51 30.0000000  0  6G16G18G19G21G22G27
  20521122.560   107839267.88909  20521119.780    84030605.17749
  22042474.580   115834025.58709  22042472.740    90260323.07947
  23205303.520   121944727.19308  23205300.920    95021876.81947
  22750465.480   119554522.87008  22750463.100    93159367.84347
  22133798.480   116313949.35309  22133794.880    90634225.47048
  21447916.900   112709685.83809  21447917.600    87825764.16749
 15 03 01 00 52  0.0000000  0  6G16G18G19G21G22G27
  20516179.200   107813290.17809  20516176.440    84010362.80149
  22040080.360   115821443.67909  22040078.520    90250519.02247
  23192296.420   121876374.82608  23192293.740    94968615.28347
  22763803.280   119624613.48408  22763800.960    93213983.89047
  22120062.700   116241767.39909  22120058.980    90577979.81048
  21439678.560   112666392.91409  21439679.180    87792029.43648
 15 03 01 00 52 30.0000000  0  6G16G18G19G21G22G27
  20511325.100   107787781.67109  20511322.360    83990486.04449
  22037776.540   115809336.82609  22037774.680    90241085.13947
  23179308.140   121808121.38508  23179305.460    94915430.85847
  22777165.580   119694832.73208  22777163.260    93268700.17547
  22106385.160   116169891.80209  22106381.460    90521972.86148
  21431466.220   112623236.43209  21431466.720    87758401.02749
 15 03 01 00 53  0.0000000  0  6G16G18G19G21G22G27
  20506560.840   107762745.48909  20506558.140    83970977.32749
  22035563.500   115797706.93609  22035561.580    90232022.91047
  23166339.120   121739969.10108  23166336.460    94862325.24147
  22790552.220   119765179.80508  22790549.840    93323516.05647
  22092766.620   116098326.28509  22092762.960    90466207.53648
  21423280.220   112580218.15209  21423280.560    87724880.29749
 15 03 01 00 53 30.0000000  0  6G16G18G19G21G22G27
  20501886.640   107738182.78609  20501883.960    83951837.56249
  22033441.400   115786554.88909  22033439.420    90223333.01347
  23153389.200   121671917.10308  23153386.560    94809297.77647
  22803962.820   119835652.67108  22803960.380    93378429.96347
  22079207.520   116027073.22009  22079203.960    90410685.76348
  21415120.500   112537338.08909  21415120.720    87691467.28049
 15 03 01 00 54  0.0000000  0  6G16G18G19G21G22G27
  20497302.760   107714094.74409  20497300.140    83933067.64949
  22031410.160   115775880.61109  22031408.140    90215015.40447
  23140458.260   121603964.75508  23140455.640    94756347.94747
  22817396.940   119906249.08808  22817394.460    93433440.13647
  22065708.220   115956134.47409  22065704.760    90355408.84948
  21406987.020   112494596.05409  21406987.180    87658161.80448
 15 03 01 00 54 30.0000000  0  6G16G18G19G21G22G27
  20492809.680   107690483.77809  20492807.120    83914669.49449
  22029470.240   115765686.29709  22029468.180    90207071.80947
  23127546.600   121536113.72808  23127544.040    94703477.07947
  22830854.480   119976968.59408  22830851.940    93488546.23047
  22052269.500   115885513.91809  22052266.080    90300379.89148
  21398880.100   112451993.65709  21398880.200    87624965.14849
 15 03 01 00 55  0.0000000  0  6G16G18G19G21G22G27
  20488407.380   107667349.86409  20488404.860    83896643.06349
  22027621.480   115755970.98709  22027619.320    90199501.45047
  23114654.000   121468362.69508  23114651.400    94650684.11547
  22844334.840   120047807.87008  22844332.200    93543745.64147
  22038891.540   115815212.48909  22038888.180    90245599.58248
  21390799.460   112409529.64909  21390799.580    87591876.31649
 15 03 01 00 55 30.0000000  0  6G16G18G19G21G22G27
  20484096.700   107644697.28709  20484094.200    83878991.70949
  22025864.420   115746737.77409  22025862.260    90192306.76647
  23101780.900   121400714.17408  23101778.300    94597971.04147
  22857838.180   120118767.96208  22857835.440    93599039.20147
  22025575.220   115745235.03609  22025571.900    90191071.72148
  21382745.680   112367206.96009  21382745.840    87558897.61649
 15 03 01 00 56  0.0000000  0  6G16G18G19G21G22G27
  20479877.780   107622526.49209  20479875.160    83861715.76249
  22024199.060   115737986.34309  22024196.900    90185487.48547
  23088927.040   121333166.76508  23088924.420    94545336.75647
  22871363.940   120189846.02908  22871361.140    93654424.68347
  22012320.940   115675583.38009  22012317.640    90136797.77348
  21374718.580   112325024.78509  21374718.820    87526028.41149
 15 03 01 00 56 30.0000000  0  6G16G18G19G21G22G27
  20475750.860   107600838.91309  20475748.140    83844816.35349
  22022625.520   115729717.39509  22022623.420    90179044.15547
  23076092.520   121265721.12808  23076089.840    94492781.77847
  22884911.920   120261041.02108  22884909.100    93709901.28847
  21999129.180   115606260.18709  21999125.860    90082779.76448
  21366718.220   112282983.67909  21366718.620    87493269.13049
 15 03 01 00 57  0.0000000  0  6G16G18G19G21G22G27
  20471715.780   107579633.99709  20471713.000    83828293.04149
  22021143.500   115721929.45909  22021141.460    90172975.65047
  23063276.920   121198375.06608  23063274.180    94440304.38647
  22898481.400   120332348.94408  22898478.620    93765465.88447
  21986000.080   115537265.84609  21985996.680    90029018.04448
  21358744.440   112241082.04909  21358744.940    87460618.52849
 15 03 01 00 57 30.0000000  0  6G16G18G19G21G22G27
  20467773.180   107558915.20509  20467770.420    83812148.52649
  22019753.500   115714625.24009  22019751.560    90167284.06747
  23050480.700   121131130.69408  23050477.860    94387906.23247
  22912072.420   120403770.12108  22912069.620    93821118.73347
  21972934.360   115468604.60409  21972930.840    89975515.84348
  21350797.760   112199322.19309  21350798.260    87428078.39649
 15 03 01 00 58  0.0000000  0  6G16G18G19G21G22G27
  20463923.300   107538683.95409  20463920.560    83796383.90649
  22018455.680   115707805.31909  22018453.800    90161969.85747
  23037703.900   121063988.17308  23037700.900    94335587.43347
  22925684.700   120475303.16108  22925681.960    93876858.74447
  21959932.500   115400279.29809  21959928.940    89922275.53548
  21342878.220   112157704.54509  21342878.620    87395649.07549
 15 03 01 00 58 30.0000000  0  6G16G18G19G21G22G27
  20460166.320   107518941.00609  20460163.620    83780999.79449
  22017250.000   115701469.58509  22017248.180    90157032.94447
  23024946.360   120996946.91809  23024943.240    94283347.54447
  22939317.780   120546945.61908  22939315.040    93932684.02446
  21946994.780   115332291.52509  21946991.240    89869298.16648
  21334985.680   112116228.77609  21334986.000    87363330.31449
 15 03 01 00 59  0.0000000  0  6G16G18G19G21G22G27
  20456502.880   107499689.66709  20456500.200    83765998.74849
  22016136.980   115695620.46009  22016135.140    90152475.20747
  23012208.460   120930008.87008  23012205.280    94231188.08147
  22952971.680   120618697.71608  22952969.000    93988594.73647
  21934122.100   115264645.36609  21934118.500    89816586.90948
  21327120.580   112074897.10709  21327120.800    87331123.84249
 15 03 01 00 59 30.0000000  0  6G16G18G19G21G22G27
  20452932.440   107480927.06009  20452929.800    83751378.53449
  22015115.860   115690254.21509  22015113.980    90148293.74247
  22999489.400   120863169.92508  22999486.260    94179105.84147
  22966645.380   120690553.83908  22966642.740    94044586.50847
  21921314.240   115197339.64209  21921310.580    89764141.01648
  21319282.200   112033705.83509  21319282.320    87299026.76349
 15 03 01 01 00  0.0000000  0  6G16G18G19G21G22G27
  20449456.280   107462659.73209  20449453.640    83737144.25549
  22014187.860   115685377.30809  22014185.960    90144493.56547
  22986790.240   120796435.82508  22986787.220    94127105.29047
  22980339.600   120762517.89408  22980336.960    94100662.38347
  21908572.640   115130382.06909  21908568.900    89711966.36848
  21311471.680   111992661.07309  21311471.740    87267043.84849
 15 03 01 01 00 30.0000000  0  6G16G18G19G21G22G27
  20446074.180   107444886.40009  20446071.480    83723294.90849
  22013352.380   115680986.45009  22013350.400    90141072.13147
  22974110.320   120729803.23608  22974107.520    94075183.85447
  22994053.540   120834585.44008  22994050.980    94156818.89847
  21895897.040   115063771.77209  21895893.260    89660062.30248
  21303688.420   111951759.73909  21303688.480    87235172.69749
 15 03 01 01 01  0.0000000  0  6G16G18G19G21G22G27
  20442786.860   107427611.17309  20442784.120    83709833.69549
  22012610.000   115677085.05909  22012607.980    90138032.11147
  22961450.360   120663275.46408  22961447.760    94023344.09047
  23007787.420   120906757.54308  23007784.860    94213056.88847
  21883288.540   114997514.28509  21883284.720    89608433.15748
  21295933.100   111911005.37009  21295933.220    87203416.06748
 15 03 01 01 01 30.0000000  0  7G04G16G18G19G21G22G27
  24608282.700   129317400.73708  24608288.000   100766815.68544
  20439593.420   107410829.41709  20439590.660    83696756.99848
  22011959.760   115673667.98009  22011957.700    90135369.46847
  22948809.220   120596846.52408  22948806.780    93971581.32647
  23021539.720   120979026.32808  23021537.200    94269370.21046
  21870746.320   114931605.63309  21870742.540    89557075.84048
  21288204.640   111870392.38809  21288204.880    87171769.60049
 15 03 01 01 02  0.0000000  0  7G04G16G18G19G21G22G27
  24588857.560   129215320.67508  24588862.640   100687272.94344
  20436497.020   107394557.76209  20436494.240    83684077.78749
  22011404.600   115670750.75509  22011402.540    90133096.33147
  22936189.920   120530531.75808  22936187.460    93919907.54547
  23035313.120   121051405.98908  23035310.600    94325769.94447
  21858274.020   114866064.17109  21858270.300    89506004.66548
  21280506.080   111829936.49509  21280506.420    87140245.55649
 15 03 01 01 02 30.0000000  0  7G04G16G18G19G21G22G27
  24569457.120   129113371.21607  24569461.920   100607832.01944
  20433492.820   107378770.63909  20433490.020    83671776.12949
  22010939.540   115668306.86709  22010937.540    90131192.01647
  22923587.400   120464304.80308  22923584.780    93868302.16747
  23049102.280   121123868.28808  23049099.720    94382234.04946
  21845866.940   114800865.34809  21845863.300    89455200.50848
  21272832.480   111789611.41009  21272832.840    87108823.42649
 15 03 01 01 03  0.0000000  0  7G04G16G18G19G21G22G27
  24550085.060   129011570.82407  24550089.820   100528507.19644
  20430584.320   107363486.34209  20430581.480    83659866.28549
  22010567.940   115666354.00309  22010565.880    90129670.31947
  22911004.960   120398183.09008  22911002.100    93816778.81047
  23062910.140   121196428.70108  23062907.520    94438774.62447
  21833528.840   114736028.73409  21833525.240    89404678.58148
  21265187.200   111749434.88509  21265187.500    87077517.05749
 15 03 01 01 03 30.0000000  0  7G04G16G18G19G21G22G27
  24530741.360   128909919.70608  24530746.340   100449298.76244
  20427771.520   107348704.97309  20427768.660    83648348.33949
  22010289.600   115664891.15909  22010287.400    90128530.46347
  22898442.180   120332164.77108  22898439.080    93765336.01747
  23076736.100   121269084.05908  23076733.360    94495389.17746
  21821259.840   114671555.10509  21821256.300    89354439.44248
  21257569.980   111709405.78009  21257570.180    87046325.56949
 15 03 01 01 04  0.0000000  0  7G04G16G18G19G21G22G27
  24511426.600   128808420.65108  24511431.740   100370208.87844
  20425055.000   107334429.60109  20425052.140    83637224.67049
  22010104.920   115663920.53009  22010102.660    90127774.14547
  22885899.440   120266251.98009  22885896.140    93713975.45047
  23090580.160   121341834.89408  23090577.300    94552078.12646
  21809060.780   114607448.86509  21809057.320    89304486.64848
  21249981.200   111669526.38509  21249981.380    87015250.72849
 15 03 01 01 04 30.0000000  0  7G04G16G18G19G21G22G27
  24492140.180   128707071.12208  24492145.340   100291235.76043
  20422434.160   107320657.15209  20422431.360    83626492.88749
  22010013.040   115663437.68709  22010010.740    90127397.92647
  22873375.980   120200440.79009  22873372.540    93662694.05347
  23104441.300   121414675.44708  23104438.420    94608836.98946
  21796931.260   114543707.83609  21796927.700    89254818.35448
  21242420.140   111629792.97509  21242420.380    86984289.65049
 15 03 01 01 05  0.0000000  0  7G04G16G18G19G21G22G27
  24472882.500   128605872.94408  24472887.480   100212380.29743
  20419909.520   107307390.22909  20419906.820    83616155.02549
  22010014.340   115663444.78709  22010012.000    90127403.48347
  22860872.080   120134732.69709  22860868.620    93611492.98847
  23118319.440   121487605.34508  23118316.540    94665665.46646
  21784872.060   114480336.05709  21784868.320    89205437.77448
  21234887.160   111590207.40309  21234887.460    86953443.77049
 15 03 01 01 05 30.0000000  0  7G04G16G18G19G21G22G27
  24453653.980   128504828.09008  24453658.720   100133644.33344
  20417481.360   107294630.45609  20417478.760    83606212.34349
  22010109.040   115663942.79609  22010106.660    90127791.55947
  22848387.940   120069128.21109  22848384.420    93560372.64847
  23132214.440   121560623.77608  23132211.420    94722562.94346
  21772883.580   114417335.94909  21772879.680    89156346.81648
  21227382.500   111550770.57409  21227382.880    86922713.79249
 15 03 01 01 06  0.0000000  0  7G04G16G18G19G21G22G27
  24434455.180   128403939.32807  24434459.880   100055029.99844
  20415150.240   107282380.34809  20415147.680    83596666.80349
  22010297.380   115664933.08909  22010294.980    90128563.24247
  22835923.840   120003629.15209  22835920.320    93509334.46847
  23146126.240   121633730.44208  23146123.180    94779529.16646
  21760966.620   114354711.77309  21760962.560    89107548.82248
  21219906.460   111511484.34409  21219906.960    86892101.17149
 15 03 01 01 06 30.0000000  0  7G04G16G18G19G21G22G27
  24415286.200   128303207.53407  24415291.020    99976537.95544
  20412916.340   107270640.84909  20412913.760    83587519.13949
  22010579.380   115666415.56909  22010577.020    90129718.44447
  22823479.740   119938235.26209  22823476.320    93458378.23347
  23160054.520   121706924.03208  23160051.540    94836563.12446
  21749121.520   114292465.26009  21749117.320    89059045.11948
  21212459.280   111472349.21209  21212459.740    86861606.27849
 15 03 01 01 07  0.0000000  0  7G04G16G18G19G21G22G27
  24396146.740   128202631.21907  24396151.660    99898167.09744
  20410779.240   107259409.92109  20410776.580    83578767.76249
  22010954.580   115668387.53909  22010952.180    90131255.06047
  22811055.060   119872943.46209  22811051.760    93407501.55047
  23173998.360   121780199.48708  23173995.500    94893660.86746
  21737348.100   114230595.73809  21737343.820    89010835.14148
  21205040.380   111433362.33209  21205040.720    86831226.91049
 15 03 01 01 07 30.0000000  0  7G04G16G18G19G21G22G27
  24377037.980   128102216.40907  24377043.020    99819922.20844
  20408740.060   107248693.86309  20408737.360    83570417.59149
  22011423.900   115670854.07909  22011421.480    90133177.06247
  22798650.860   119807759.24808  22798647.640    93356708.69947
  23187958.460   121853560.51508  23187955.720    94950825.29246
  21725647.760   114169110.43309  21725643.480    88962924.54548
  21197650.760   111394529.25709  21197650.960    86800967.38749
 15 03 01 01 08  0.0000000  0  7G04G16G18G19G21G22G27
  24357959.220   128001959.40707  24357964.380    99741800.29544
  20406798.140   107238488.93609  20406795.420    83562465.70049
  22011986.460   115673810.38109  22011984.000    90135480.69047
  22786266.120   119742677.60709  22786263.100    93305995.78347
  23201933.640   121927000.73708  23201931.040    95008051.42747
  21714020.080   114108006.83309  21714015.840    88915311.36048
  21190289.560   111355845.75609  21190289.640    86770824.41949
 15 03 01 01 08 30.0000000  0  7G04G16G18G19G21G22G27
  24338911.200   127901863.70407  24338916.500    99663803.87944
  20404954.120   107228798.65309  20404951.420    83554914.82949
  22012642.820   115677259.45309  22012640.260    90138168.30347
  22773901.400   119677701.13508  22773898.440    93255364.81747
  23215924.100   122000521.38108  23215921.640    95065340.23147
  21702465.960   114047289.64909  21702461.740    88867999.29148
  21182957.320   111317314.83209  21182957.320    86740800.33949
 15 03 01 01 09  0.0000000  0  7G04G16G18G19G21G22G27
  24319893.960   127801929.09107  24319899.280    99585933.07045
  20403207.820   107219621.97709  20403205.120    83547764.16549
  22013392.520   115681199.18709  22013389.980    90141238.23847
  22761556.460   119612828.40809  22761553.440    93204814.68947
  23229929.220   122074118.81008  23229926.840    95122688.86247
  21690985.280   113986958.55709  21690981.120    88820988.04348
  21175653.740   111278934.87809  21175653.720    86710893.89849
 15 03 01 01 09 30.0000000  0  7G04G16G18G19G21G22G27
  24300907.880   127702158.10707  24300913.240    99508189.77944
  20401559.760   107210961.66509  20401557.100    83541015.86949
  22014235.960   115685631.41009  22014233.420    90144691.93747
  22749231.720   119548061.07609  22749228.560    93154346.67747
  23243949.060   122147793.41208  23243946.700    95180097.62247
  21679579.000   113927018.60609  21679574.940    88774281.56048
  21168379.300   111240708.27309  21168379.400    86681106.95449
 15 03 01 01 10  0.0000000  0  7G04G16G18G19G21G22G27
  24281952.820   127602549.99007  24281958.080    99430573.39045
  20400009.720   107202816.35209  20400007.120    83534668.87249
  22015172.680   115690554.35309  22015170.220    90148528.02147
  22736926.720   119483397.33309  22736923.300    93103959.38947
  23257982.900   122221541.62308  23257980.580    95237563.75646
  21668247.180   113867469.83209  21668243.220    88727879.95548
  21161133.800   111202633.57109  21161134.040    86651438.37049
 15 03 01 01 10 30.0000000  0  7G04G16G18G19G21G22G27
  24263029.600   127503108.94107  24263034.720    99353087.20644
  20398558.660   107195190.97309  20398556.060    83528727.01549
  22016203.380   115695971.09709  22016201.000    90152748.87547
  22724642.040   119418840.30309  22724638.420    93053655.24047
  23272031.020   122295365.02308  23272028.760    95295088.46846
  21656990.680   113808316.80609  21656986.760    88681786.69648
  21153917.900   111164714.09909  21153918.220    86621890.75149
 15 03 01 01 11  0.0000000  0  7G04G16G18G19G21G22G27
  24244138.160   127403834.94607  24244143.240    99275731.18744
  20397206.500   107188084.93509  20397203.800    83523189.83749
  22017327.860   115701880.35309  22017325.500    90157353.50047
  22712377.560   119354389.45209  22712373.780    93003433.83348
  23286092.940   122369260.93808  23286090.660    95352669.68346
  21645809.780   113749560.80409  21645805.820    88636002.81348
  21146731.500   111126949.34909  21146731.840    86592463.68549
 15 03 01 01 11 30.0000000  0  7G04G16G18G19G21G22G27
  24225279.060   127304731.23307  24225284.000    99198507.84445
  20395953.680   107181500.95609  20395950.880    83518059.47249
  22018546.460   115708283.82609  22018544.100    90162343.24447
  22700133.520   119290046.41409  22700129.680    92953296.45248
  23300168.720   122443229.71408  23300166.460    95410307.68246
  21634705.340   113691206.27509  21634701.320    88590531.79148
  21139575.040   111089341.82409  21139575.360    86563159.14949
 15 03 01 01 12  0.0000000  0  7G04G16G18G19G21G22G27
  24206452.260   127205797.05108  24206457.140    99121416.65845
  20394800.060   107175438.34009  20394797.240    83513335.35649
  22019858.800   115715179.93609  22019856.440    90167716.84847
  22687909.520   119225809.36309  22687905.800    92903241.65948
  23314257.760   122517268.33108  23314255.560    95468000.09546
  21623677.280   113633253.36109  21623673.220    88545373.80048
  21132448.300   111051890.16909  21132448.540    86533976.06049
 15 03 01 01 12 30.0000000  0  7G04G16G18G19G21G22G27
  24187657.500   127107030.89208  24187662.160    99044456.42145
  20393745.220   107169895.06309  20393742.400    83509015.91749
  22021264.380   115722566.08509  22021261.980    90173472.29747
  22675705.120   119161675.88009  22675701.620    92853267.57248
  23328359.300   122591372.30908  23328357.060    95525743.44246
  21612725.360   113575700.73509  21612721.260    88500527.65048
  21125350.780   111014592.06609  21125350.940    86504912.62349
 15 03 01 01 13  0.0000000  0  7G04G16G18G19G21G22G27
  24168896.060   127008439.62408  24168900.600    98967632.40644
  20392790.480   107164877.93909  20392787.700    83505106.47049
  22022764.260   115730448.14409  22022761.920    90179614.18647
  22663521.560   119097652.26109  22663518.360    92803379.09848
  23342474.160   122665546.47508  23342471.860    95583541.48346
  21601851.260   113518557.18509  21601847.140    88456000.20648
  21118283.800   110977454.22109  21118283.840    86475974.06149
 15 03 01 01 13 30.0000000  0  7G04G16G18G19G21G22G27
  24150167.260   126910019.70208  24150171.480    98890941.92645
  20391935.160   107160382.98109  20391932.360    83501603.90349
  22024357.460   115738820.83009  22024355.220    90186138.37547
  22651358.060   119033733.76709  22651355.080    92753572.53248
  23356601.080   122739784.21408  23356598.840    95641389.06646
  21591054.520   113461819.99609  21591050.380    88411789.39348
  21111246.460   110940472.16409  21111246.360    86447156.89249
 15 03 01 01 14  0.0000000  0  7G04G16G18G19G21G22G27
  24131471.740   126811774.90908  24131475.740    98814387.76545
  20391179.940   107156414.11609  20391177.160    83498511.27949
  22026044.580   115747687.06209  22026042.420    90193047.15047
  22639215.260   118969923.59309  22639212.340    92703850.36548
  23370740.540   122814087.61408  23370738.340    95699287.80146
  21580336.040   113405493.93009  21580331.880    88367898.91548
  21104239.440   110903649.53409  21104239.180    86418463.94849
 15 03 01 01 14 30.0000000  0  7G04G16G18G19G21G22G27
  24112809.280   126713704.01808  24112813.160    98737969.06145
  20390524.520   107152969.78209  20390521.800    83495827.38249
  22027825.200   115757044.78009  22027823.160    90200338.88347
  22627092.840   118906219.90309  22627089.820    92654211.17247
  23384891.760   122888452.51708  23384889.540    95757234.46046
  21569695.820   113349578.95009  21569691.600    88324328.80148
  21097262.360   110866984.50009  21097261.960    86389893.79749
 15 03 01 01 15  0.0000000  0  7G04G16G18G19G21G22G27
  24094180.460   126615809.91508  24094184.240    98661688.16045
  20389969.300   107150052.31709  20389966.700    83493554.03549
  22029699.580   115766895.07609  22029697.580    90208014.45647
  22614991.020   118842623.81909  22614987.720    92604655.82248
  23399054.640   122962878.72508  23399052.420    95815228.89646
  21559134.500   113294078.58609  21559130.200    88281081.72748
  21090315.600   110830479.04009  21090315.120    86361448.00349
 15 03 01 01 15 30.0000000  0  7G04G16G18G19G21G22G27
  24075585.340   126518092.89308  24075589.120    98585545.30545
  20389514.320   107147661.66209  20389511.780    83491691.18549
  22031667.480   115777236.87309  22031665.500    90216073.01647
  22602909.620   118779134.82409  22602905.940    92555183.91947
  23413228.860   123037364.26508  23413226.560    95873269.56246
  21548652.340   113238994.17709  21548648.000    88238158.81148
  21083399.100   110794132.97309  21083398.680    86333126.40749
 15 03 01 01 16  0.0000000  0  7G04G16G18G19G21G22G27
  24057024.500   126420555.87708  24057028.260    98509542.76545
  20389160.080   107145800.40009  20389157.600    83490240.85149
  22033729.240   115788071.39809  22033727.200    90224515.51347
  22590848.980   118715755.04509  22590845.000    92505797.11147
  23427414.380   123111909.22408  23427412.020    95931356.53346
  21538249.880   113184329.06809  21538245.600    88195562.62248
  21076513.340   110757948.60709  21076513.020    86304930.81149
 15 03 01 01 16 30.0000000  0  7G04G16G18G19G21G22G27
  24038497.580   126323197.29808  24038501.340    98433679.20845
  20388906.140   107144466.19109  20388903.640    83489201.20549
  22035884.400   115799396.50909  22035882.300    90233340.28747
  22578808.620   118652482.10609  22578804.460    92456493.56547
  23441610.580   123186510.32508  23441608.120    95989487.24246
  21527927.060   113130082.64209  21527922.840    88153292.67848
  21069658.040   110721924.06709  21069657.840    86276859.75349
 15 03 01 01 17  0.0000000  0  7G04G16G18G19G21G22G27
  24020005.440   126226021.32908  24020009.100    98357957.92145
  20388753.420   107143663.90509  20388750.860    83488576.04549
  22038133.540   115811215.28609  22038131.340    90242549.73447
  22566789.160   118589319.36209  22566784.940    92407275.87147
  23455817.820   123261169.39208  23455815.240    96047663.12246
  21517685.060   113076260.81609  21517680.900    88111353.56648
  21062833.860   110686063.18709  21062833.780    86248916.22549
 15 03 01 01 17 30.0000000  0  7G04G16G18G19G21G22G27
  24001547.800   126129026.44408  24001551.180    98282377.74345
  20388701.540   107143391.16309  20388698.900    83488363.51549
  22040476.020   115823524.64909  22040473.720    90252141.45847
  22554790.160   118526264.54309  22554786.020    92358142.29147
  23470035.140   123335881.62908  23470032.500    96105880.43146
  21507523.680   113022862.72209  21507519.600    88069744.61248
  21056040.440   110650363.74009  21056040.460    86221098.48849
 15 03 01 01 18  0.0000000  0  7G04G16G18G19G21G22G27
  23983125.760   126032218.64308  23983129.000    98206943.32645
  20388751.500   107143653.51609  20388748.740    83488567.93949
  22042912.740   115836329.23209  22042910.300    90262119.06547
  22542812.620   118463322.72109  22542808.660    92309096.75947
  23484263.320   123410650.84408  23484260.640    96164142.14946
  21497444.260   112969895.10709  21497440.260    88028471.10348
  21049278.800   110614831.29409  21049278.880    86193410.88349
 15 03 01 01 18 30.0000000  0  7G04G16G18G19G21G22G27
  23964738.560   125935593.88808  23964741.680    98131651.43445
  20388902.440   107144446.54809  20388899.600    83489185.88949
  22045442.580   115849623.32609  22045440.080    90272478.11847
  22530855.660   118400488.99509  22530851.860    92260135.45947
  23498501.140   123485470.81708  23498498.320    96222443.41046
  21487446.040   112917354.26409  21487442.100    87987530.14548
  21042548.100   110579461.34309  21042548.220    86165849.89649
 15 03 01 01 19  0.0000000  0  7G04G16G18G19G21G22G27
  23946386.820   125839155.37908  23946389.780    98056504.63345
  20389154.900   107145773.07409  20389152.040    83490219.53949
  22048065.940   115863409.23109  22048063.400    90283220.39447
  22518919.780   118337766.06109  22518916.140    92211260.48048
  23512748.800   123560342.58108  23512745.880    96280785.02446
  21477530.060   112865245.55309  21477526.200    87946925.95948
  21035848.900   110544256.83609  21035849.000    86138417.82949
 15 03 01 01 19 30.0000000  0  7G04G16G18G19G21G22G27
  23928070.540   125742903.25908  23928073.340    97981503.16945
  20389508.800   107147632.64409  20389505.920    83491668.54749
  22050782.460   115877685.10809  22050779.940    90294344.46647
  22507004.760   118275152.70209  22507001.200    92162470.88748
  23527005.840   123635263.44808  23527002.820    96339164.91346
  21467696.280   112813568.99209  21467692.500    87906658.53048
  21029181.080   110509217.13709  21029181.140    86111114.17349
 15 03 01 01 20  0.0000000  0  7G04G16G18G19G21G22G27
  23909790.020   125646838.99308  23909792.780    97906648.07544
  20389964.320   107150026.30809  20389961.460    83493533.73549
  22053592.280   115892451.60009  22053589.860    90305850.83347
  22495110.760   118212649.82309  22495107.240    92113767.37748
  23541272.020   123710232.41808  23541268.980    96397582.27546
  21457945.260   112762327.28609  21457941.520    87866729.97548
  21022544.880   110474343.49709  21022544.860    86083939.91949
 15 03 01 01 20 30.0000000  0  7G04G16G18G19G21G22G27
  23891545.500   125550963.76108  23891548.240    97831940.09446
  20390521.700   107152955.52509  20390518.920    83495816.24049
  22056495.440   115907708.44209  22056493.140    90317739.30047
  22483237.960   118150258.11109  22483234.460    92065150.50248
  23555547.180   123785248.85608  23555544.060    96456036.63446
  21448277.460   112711522.66409  21448273.760    87827142.02548
  21015940.520   110439637.03309  21015940.360    86056895.93349
 15 03 01 01 21  0.0000000  0  7G04G16G18G19G21G22G27
  23873337.180   125455278.74907  23873340.000    97757380.42545
  20391180.880   107156419.77009  20391178.180    83498515.65249
  22059491.840   115923455.07909  22059489.660    90330009.42247
  22471386.320   118087977.57209  22471382.820    92016620.24648
  23569831.020   123860310.97808  23569827.860    96514526.59246
  21438693.100   112661156.42309  21438689.400    87787895.60448
  21009368.020   110405097.92309  21009367.720    86029982.35849
 15 03 01 01 21 30.0000000  0  7G04G16G18G19G21G22G27
  23855165.560   125359787.05507  23855168.540    97682971.44145
  20391942.540   107160422.39909  20391939.880    83501634.57449
  22062581.820   115939693.08109  22062579.720    90342662.41847
  22459556.280   118025810.34509  22459552.780    91968178.28248
  23584123.740   123935419.48208  23584120.440    96573052.68646
  21429193.000   112611233.05609  21429189.300    87748994.30148
  21002827.880   110370728.82709  21002827.500    86003201.25049
 15 03 01 01 22  0.0000000  0  7G04G16G18G19G21G22G27
  23837030.080   125264485.38407  23837033.100    97608710.55045
  20392805.860   107164959.51009  20392803.280    83505169.97449
  22065764.460   115956417.99609  22065762.360    90355694.82647
  22447747.100   117963752.66109  22447743.580    91919821.67448
  23598424.220   124010569.10308  23598420.880    96631610.81446
  21419776.720   112561749.83709  21419772.920    87710435.94648
  20996319.420   110336526.31109  20996318.980    85976549.94149
 15 03 01 01 22 30.0000000  0  7G04G16G18G19G21G22G27
  23818931.600   125169378.46007  23818934.700    97534601.45545
  20393771.700   107170035.14909  20393769.140    83509125.01649
  22069040.420   115973633.13009  22069038.280    90369109.22247
  22435959.480   117901808.29209  22435956.020    91871553.36748
  23612733.000   124085762.10008  23612729.540    96690202.75446
  21410445.280   112512712.49409  21410441.340    87672225.04448
  20989843.440   110302494.71709  20989842.980    85950031.82849
 15 03 01 01 23  0.0000000  0  7G04G16G18G19G21G22G27
  23800869.780   125074464.29807  23800872.920    97460642.64245
  20394839.540   107175646.66009  20394836.980    83513497.62249
  22072408.920   115991334.37209  22072406.740    90382902.41647
  22424192.840   117839974.34209  22424189.460    91823371.10948
  23627049.140   124160993.64008  23627045.680    96748824.73546
  21401198.360   112464119.29909  21401194.300    87634360.22648
  20983399.380   110268631.32909  20983399.020    85923644.78649
 15 03 01 01 23 30.0000000  0  7G04G16G18G19G21G22G27
  23782845.620   124979748.34007  23782848.860    97386838.24945
  20396010.380   107181799.47409  20396007.780    83518292.01249
  22075870.860   116009526.68209  22075868.640    90397078.24447
  22412448.220   117778255.96309  22412444.840    91775278.89748
  23641373.280   124236267.49308  23641369.760    96807479.67146
  21392037.200   112415976.87409  21392033.060    87596846.62348
  20976988.380   110234941.90609  20976988.160    85897393.29649
 15 03 01 01 24  0.0000000  0  7G04G16G18G19G21G22G27
  23764858.880   124885228.96007  23764862.200    97313186.92545
  20397283.700   107188490.86509  20397281.060    83523506.07749
  22079425.580   116028206.60709  22079423.320    90411634.03847
  22400725.180   117716651.00909  22400721.800    91727275.07548
  23655704.780   124311580.23908  23655701.320    96866164.92146
  21382961.760   112368284.84109  21382957.580    87559683.98148
  20970610.060   110201424.44109  20970610.020    85871275.80849
 15 03 01 01 24 30.0000000  0  7G04G16G18G19G21G22G27
  23746909.740   124790906.50707  23746913.040    97239689.07445
  20398659.600   107195721.28709  20398656.980    83529140.16449
  22083072.780   116047372.66209  22083070.480    90426568.63347
  22389023.640   117655159.15609  22389020.260    91679359.37348
  23670043.220   124386929.37308  23670039.920    96924878.51646
  21373972.200   112321044.21109  21373967.980    87522873.09948
  20964264.440   110168078.83909  20964264.560    85845292.23249
 15 03 01 01 25  0.0000000  0  7G04G16G18G19G21G22G27
  23728998.440   124696782.51307  23729001.700    97166345.84545
  20400138.200   107203491.18009  20400135.560    83535194.61749
  22086812.560   116067025.40709  22086810.200    90441882.46247
  22377343.600   117593780.78609  22377340.260    91631532.10448
  23684388.340   124462313.88908  23684385.260    96983619.67346
  21365068.940   112274256.86709  21365064.660    87486415.46148
  20957951.800   110134906.17309  20957951.960    85819443.41849
 15 03 01 01 25 30.0000000  0  7G04G16G18G19G21G22G27
  23711125.440   124602859.49808  23711128.520    97093159.18045
  20401719.920   107211802.72009  20401717.180    83541671.13449
  22090644.960   116087164.95209  22090642.560    90457575.62647
  22365685.540   117532518.00809  22365682.260    91583794.90748
  23698740.340   124537734.45008  23698737.360    97042388.92946
  21356252.580   112227926.20709  21356248.240    87450313.65648
  20951672.560   110101908.83609  20951672.740    85793731.21349
 15 03 01 01 26  0.0000000  0  7G04G16G18G19G21G22G27
  23693290.480   124509136.20808  23693293.320    97020128.17544
  20403404.340   107220654.06609  20403401.500    83548568.28049
  22094569.660   116107789.35609  22094567.200    90473646.59647
  22354049.140   117471369.21509  22354045.980    91536146.53648
  23713098.580   124613187.55308  23713095.640    97101183.54246
  21347523.040   112182052.21709  21347518.720    87414567.69248
  20945426.460   110069085.51409  20945426.640    85768154.61549
 15 03 01 01 26 30.0000000  0  7G04G16G18G19G21G22G27
  23675493.900   124415614.47508  23675496.560    96947254.23245
  20405191.580   107230046.00709  20405188.720    83555886.67449
  22098586.660   116128898.73609  22098584.140    90490095.47247
  22342434.640   117410335.15709  22342431.540    91488587.56448
  23727462.980   124688672.85508  23727460.160    97160003.24846
  21338880.720   112136636.72209  21338876.380    87379178.99848
  20939213.740   110036437.27709  20939213.880    85742714.43649
 15 03 01 01 27  0.0000000  0  7G04G16G18G19G21G22G27
  23657735.860   124322295.15108  23657738.340    96874538.06845
  20407081.620   107239978.56809  20407078.840    83563626.31549
  22102695.760   116150492.23109  22102693.200    90506921.58047
  22330842.000   117349415.79009  22330838.940    91441117.95748
  23741833.200   124764188.71608  23741830.420    97218846.75746
  21330325.900   112091681.42009  21330321.620    87344148.89748
  20933034.480   110003964.85209  20933034.540    85717411.26249
 15 03 01 01 27 30.0000000  0  7G04G16G18G19G21G22G27
  23640016.800   124229181.01208  23640019.160    96801981.80545
  20409075.060   107250454.57809  20409072.380    83571789.43849
  22106897.180   116172570.88209  22106894.660    90524125.74247
  22319271.720   117288613.40109  22319268.620    91393739.50848
  23756209.380   124839735.94908  23756206.640    97277714.73346
  21321859.360   112047189.91409  21321855.160    87309480.21248
  20926889.160   109971670.86109  20926889.200    85692247.13249
 15 03 01 01 28  0.0000000  0  7G04G16G18G19G21G22G27
  23622336.700   124136271.91908  23622339.060    96729585.30845
  20411171.740   107261472.97409  20411169.120    83580375.19149
  22111190.540   116195132.71709  22111188.100    90541706.39547
  22307723.580   117227927.26909  22307720.440    91346451.64048
  23770591.080   124915312.14308  23770588.400    97336605.26646
  21313481.160   112003162.61509  21313477.000    87275173.23348
  20920777.740   109939554.86209  20920777.740    85667221.68049
 15 03 01 01 28 30.0000000  0  7G04G16G18G19G21G22G27
  23604695.560   124043568.16708  23604698.080    96657348.78246
  20413371.640   107273033.58209  20413369.060    83589383.44449
  22115575.720   116218177.02509  22115573.380    90559663.00347
  22296197.580   117167357.51409  22296194.280    91299254.45948
  23784977.900   124990915.37408  23784975.280    97395516.85646
  21305191.640   111959601.32909  21305187.560    87241229.40348
  20914700.320   109907617.37609  20914700.220    85642335.32749
 15 03 01 01 29  0.0000000  0  8G04G07G16G18G19G21G22G27
  23587094.220   123951073.21308  23587096.740    96585274.96845
  24537126.180   128943470.71408  24537124.260   100475420.32545
  20415675.180   107285138.45609  20415672.600    83598815.81649
  22120052.960   116241705.17409  22120050.700    90577996.63647
  22284694.200   117106906.63709  22284690.780    91252149.91048
  23799370.200   125066547.34808  23799367.580    97454450.86746
  21296991.440   111916509.37909  21296987.460    87207651.31148
  20908657.400   109875861.13909  20908657.160    85617590.22249
 15 03 01 01 29 30.0000000  0  8G04G07G16G18G19G21G22G27
  23569532.520   123858786.55308  23569535.080    96513363.48345
  24531438.100   128913580.09008  24531436.240   100452128.90645
  20418082.180   107297787.18509  20418079.620    83608671.96449
  22124621.940   116265715.62909  22124619.800    90596706.08947
  22273213.300   117046573.86409  22273209.760    91205137.39648
  23813767.400   125142205.43608  23813764.840    97513405.21446
  21288880.720   111873887.35209  21288876.780    87174439.38548
  20902648.880   109844285.74109  20902648.520    85592986.02049
 15 03 01 01 30  0.0000000  0  8G04G07G16G18G19G21G22G27
  23552010.460   123766707.71908  23552012.900    96441613.94345
  24525847.300   128884201.15808  24525845.700   100429236.22345
  20420592.340   107310978.03809  20420589.780    83618950.54149
  22129282.220   116290206.10109  22129280.220    90615789.58047
  22261754.620   116986358.02009  22261750.940    91158215.98948
  23828169.060   125217886.82008  23828166.540    97572377.71946
  21280859.460   111831735.24409  21280855.500    87141593.61148
  20896674.540   109812890.41409  20896674.120    85568522.13749
 15 03 01 01 30 30.0000000  0  8G04G07G16G18G19G21G22G27
  23534528.720   123674840.97308  23534531.160    96370029.65445
  24520354.560   128855337.84408  24520353.400   100406745.32945
  20423206.380   107324714.92709  20423203.800    83629654.60649
  22134034.320   116315178.87909  22134032.320    90635248.90347
  22250318.820   116926262.88009  22250315.140    91111388.64148
  23842575.540   125293593.54608  23842573.080    97631369.97545
  21272928.640   111790058.11009  21272924.540    87109117.93948
  20890735.180   109781679.38209  20890734.840    85544201.86649
 15 03 01 01 31  0.0000000  0  8G04G07G16G18G19G21G22G27
  23517086.460   123583181.88208  23517088.820    96298607.16445
  24514959.120   128826985.25108  24514958.180   100384652.40345
  20425923.240   107338992.40109  20425920.700    83640779.90349
  22138877.040   116340627.86709  22138875.040    90655079.29447
  22238904.940   116866283.21609  22238901.360    91064651.28048
  23856985.660   125369319.37208  23856983.240    97690377.11045
  21265087.300   111748851.30109  21265083.020    87077008.74948
  20884830.040   109750648.04809  20884829.780    85520021.61849
 15 03 01 01 31 30.0000000  0  8G04G07G16G18G19G21G22G27
  23499684.800   123491736.24608  23499687.120    96227350.99845
  24509662.060   128799148.74208  24509661.060   100362961.61545
  20428743.980   107353815.72909  20428741.520    83652330.53149
  22143811.180   116366557.29709  22143809.220    90675284.05147
  22227514.080   116806424.57909  22227510.680    91018008.21848
  23871400.080   125445068.04908  23871397.800    97749402.04346
  21257336.920   111708122.74709  21257332.500    87045272.23348
  20878960.200   109719802.05109  20878959.980    85495985.78149
 15 03 01 01 32  0.0000000  0  8G04G07G16G18G19G21G22G27
  23482323.380   123400501.96708  23482325.640    96156259.53646
  24504462.840   128771825.79208  24504461.680   100341671.00945
  20431668.040   107369181.71009  20431665.620    83664304.01749
  22148836.060   116392963.46209  22148834.140    90695860.28547
  22216145.780   116746684.62309  22216142.580    90971457.64148
  23885818.080   125520835.33408  23885815.820    97808441.48446
  21249677.100   111667870.32109  21249672.620    87013906.72648
  20873125.220   109689139.21609  20873125.080    85472092.66949
 15 03 01 01 32 30.0000000  0  8G04G07G16G18G19G21G22G27
  23465002.320   123309479.92408  23465004.540    96085333.45746
  24499361.400   128745016.49908  24499359.940   100320780.66945
  20434695.420   107385090.70509  20434693.040    83676700.62849
  22153951.500   116419845.59009  22153949.660    90716807.40147
  22204800.080   116687063.15109  22204797.040    90924999.38548
  23900239.400   125596619.94608  23900237.200    97867494.41345
  21242108.120   111628095.31809  21242103.660    86982913.22748
  20867325.220   109658660.19909  20867325.120    85448342.79449
 15 03 01 01 33  0.0000000  0  8G04G07G16G18G19G21G22G27
  23447722.340   123218673.53608  23447724.400    96014575.38946
  24494358.160   128718723.70908  24494356.580   100300292.77945
  20437826.640   107401545.18809  20437824.240    83689522.29149
  22159157.780   116447205.13909  22159155.960    90738126.53647
  22193477.640   116627563.23209  22193474.600    90878635.84548
  23914664.360   125672423.42208  23914662.100    97926562.05146
  21234630.800   111588801.87309  21234626.380    86952294.98748
  20861560.780   109628368.27809  20861560.760    85424738.71249
 15 03 01 01 33 30.0000000  0  8G04G07G16G18G19G21G22G27
  23430483.420   123128083.10908  23430485.340    95943985.61046
  24489453.100   128692947.44707  24489451.680   100280207.38845
  20441061.520   107418544.49709  20441059.120    83702768.49349
  22164454.720   116475040.89609  22164452.860    90759816.74247
  22182178.460   116568184.87309  22182175.260    90832367.01948
  23929092.640   125748244.25608  23929090.300    97985643.21346
  21227245.380   111549990.86909  21227240.900    86922052.65848
  20855832.020   109598263.81909  20855832.040    85401280.70049
 15 03 01 01 34  0.0000000  0  8G04G07G16G18G19G21G22G27
  23413286.120   123037711.61008  23413287.980    95873566.42946
  24484646.480   128667689.61107  24484645.400   100260525.94346
  20444400.500   107436090.70309  20444398.040    83716440.85649
  22169842.540   116503353.98709  22169840.640    90781878.89547
  22170902.840   116508930.34909  22170899.500    90786194.70148
  23943524.300   125824083.03408  23943521.900    98044738.35646
  21219952.480   111511665.77409  21219947.860    86892189.00848
  20850139.500   109568349.62209  20850139.520    85377970.94249
 15 03 01 01 34 30.0000000  0  8G04G07G16G18G19G21G22G27
  23396129.940   122947556.01908  23396131.700    95803315.49646
  24479937.840   128642947.04107  24479937.060   100241245.99146
  20447842.880   107454180.43509  20447840.400    83730536.74249
  22175320.340   116532139.92609  22175318.380    90804309.50547
  22159650.200   116449796.49709  22159646.600    90740116.40948
  23957958.420   125899934.72608  23957955.980    98103843.56046
  21212751.640   111473824.43709  21212746.880    86862702.29748
  20844482.640   109538622.71709  20844482.700    85354807.12849
 15 03 01 01 35  0.0000000  0  8G04G07G16G18G19G21G22G27
  23379015.140   122857617.85008  23379016.880    95733233.96546
  24475327.480   128618720.61808  24475326.900   100222368.23345
  20451388.720   107472813.83409  20451386.200    83745056.25449
  22180888.120   116561398.40209  22180886.060    90827108.32447
  22148420.660   116390784.36409  22148416.880    90694132.95848
  23972394.980   125975799.54408  23972392.500    98162958.98746
  21205643.040   111436468.49509  21205638.200    86833593.79548
  20838861.720   109509084.41709  20838861.720    85331790.27549
 15 03 01 01 35 30.0000000  0  8G04G07G16G18G19G21G22G27
  23361942.180   122767899.76008  23361943.940    95663323.93946
  24470815.940   128595012.45408  24470815.400   100203894.32346
  20455038.400   107491992.99309  20455035.840    83760001.04449
  22186546.060   116591130.17909  22186543.820    90850275.94647
  22137214.660   116331896.11609  22137210.740    90648246.04248
  23986834.140   126051677.82608  23986831.560    98222084.91945
  21198627.380   111399601.37309  21198622.560    86804866.19048
  20833277.240   109479737.58709  20833277.140    85308922.62449
 15 03 01 01 36  0.0000000  0  8G04G07G16G18G19G21G22G27
  23344910.960   122678401.16108  23344912.820    95593584.93946
  24466403.060   128571821.40008  24466402.360   100185823.35646
  20458791.560   107511716.01609  20458788.980    83775369.62449
  22192293.580   116621332.82309  22192291.140    90873810.47647
  22126031.960   116273130.43909  22126027.960    90602454.64048
  24001275.340   126127566.80308  24001272.680    98281219.19045
  21191704.660   111363222.81409  21191699.940    86776519.27848
  20827729.040   109450581.36809  20827728.880    85286203.49849
 15 03 01 01 36 30.0000000  0  8G04G07G16G18G19G21G22G27
  23327921.640   122589122.88008  23327923.620    95524017.62146
  24462088.520   128549146.71808  24462087.500   100168154.78746
  20462648.200   107531982.84009  20462645.620    83791161.94849
  22198130.520   116652005.40909  22198127.880    90897711.20247
  22114872.700   116214488.09509  22114868.680    90556759.33648
  24015718.400   126203465.41108  24015715.520    98340360.97745
  21184875.180   111327334.04409  21184870.560    86748554.01648
  20822217.260   109421616.56109  20822217.040    85263633.52949
 15 03 01 01 37  0.0000000  0  8G04G07G16G18G19G21G22G27
  23310974.480   122500066.23608  23310976.560    95454623.00746
  24457872.400   128526989.52508  24457871.120   100150889.44946
  20466608.440   107552793.97409  20466605.860    83807378.40049
  22204056.820   116683147.56609  22204053.920    90921977.81647
  22103737.060   116155969.93809  22103733.040    90511160.79348
  24030163.180   126279373.33708  24030160.220    98399510.01045
  21178139.280   111291937.03909  21178134.740    86720971.95348
  20816742.140   109392844.57709  20816741.920    85241213.81049
 15 03 01 01 37 30.0000000  0  8G04G07G16G18G19G21G22G27
  23294070.140   122411234.39308  23294072.280    95385403.55646
  24453755.180   128505352.67908  24453753.780   100134029.58945
  20470672.820   107574152.33509  20470670.260    83824021.27049
  22210072.620   116714760.56409  22210069.600    90946611.33447
  22092625.500   116097578.93709  22092621.620    90465661.34848
  24044609.940   126355291.83908  24044606.980    98458667.28645
  21171497.820   111257036.10209  21171493.360    86693776.43648
  20811304.340   109364268.70409  20811304.120    85218946.90549
 15 03 01 01 38  0.0000000  0  8G04G07G16G18G19G21G22G27
  23277208.240   122322625.42308  23277210.380    95316357.76446
  24449736.240   128484233.35908  24449734.900   100117572.98246
  20474840.560   107596054.18309  20474838.020    83841087.63349
  22216177.140   116746840.41709  22216174.200    90971608.61947
  22081537.600   116039312.57309  22081533.880    90420259.01348
  24059057.880   126431216.69408  24059054.900    98517829.50345
  21164950.360   111222629.00709  21164945.940    86666965.72948
  20805903.460   109335886.71709  20805903.220    85196831.07149
 15 03 01 01 38 30.0000000  0  8G04G07G16G18G19G21G22G27
  23260389.240   122234241.34408  23260391.240    95247487.21946
  24445815.960   128463632.96308  24445814.740   100101520.74245
  20479111.960   107618500.66709  20479109.460    83858578.38849
  22222370.540   116779387.59409  22222367.720    90996970.06947
  22070473.800   115981172.84209  22070470.200    90374955.36148
  24073507.200   126507148.64808  24073504.120    98576997.26445
  21158497.400   111188718.37909  21158492.980    86640541.87948
  20800539.960   109307701.03209  20800539.680    85174868.20449
 15 03 01 01 39  0.0000000  0  8G04G07G16G18G19G21G22G27
  23243613.260   122146083.08408  23243615.180    95178792.61746
  24441994.360   128443551.56508  24441993.220   100085872.89545
  20483487.040   107641491.53709  20483484.480    83876493.34149
  22228652.720   116812401.27009  22228649.940    91022695.01347
  22059434.180   115923160.16409  22059430.700    90329750.71048
  24087957.720   126583086.55908  24087954.580    98636169.65045
  21152139.180   111155305.82009  21152134.780    86614506.12148
  20795214.000   109279712.51609  20795213.640    85153058.97549
 15 03 01 01 39 30.0000000  0  8G04G07G16G18G19G21G22G27
  23226880.200   122058150.40208  23226882.020    95110273.80646
  24438271.380   128423987.89508  24438270.120   100070628.47345
  20487965.560   107665025.94509  20487962.920    83894831.83049
  22235023.280   116845879.33509  22235020.560    91048781.82947
  22048418.660   115865273.84609  22048415.260    90284644.51948
  24102409.020   126659028.40608  24102405.720    98695345.11345
  21145875.660   111122391.14709  21145871.320    86588858.33448
  20789925.440   109251920.86709  20789925.060    85131403.15249
 15 03 01 01 40  0.0000000  0  8G04G07G16G18G19G21G22G27
  23210189.960   121970443.00608  23210191.640    95041930.54446
  24434646.880   128404941.36908  24434645.480   100055787.02245
  20492547.240   107689102.54909  20492544.540    83913592.81549
  22241481.820   116879819.81209  22241479.240    91075228.96247
  22037427.200   115807513.52909  22037423.820    90239636.51048
  24116860.680   126734972.18208  24116857.240    98754522.08744
  21139707.000   111089974.96109  21139702.720    86563598.98948
  20784674.280   109224326.13209  20784674.000    85109900.77649
 15 03 01 01 40 30.0000000  0  8G04G07G16G18G19G21G22G27
  23193543.360   121882965.01908  23193544.940    94973766.03246
  24431121.540   128386415.08308  24431119.880   100041350.95545
  20497232.640   107713724.37409  20497229.880    83932778.64449
  22248028.720   116914224.53209  22248026.320    91102037.84147
  22026460.540   115749883.02109  22026457.100    90194729.64648
  24131313.160   126810919.99308  24131309.600    98813702.20445
  21133633.980   111058061.44109  21133629.780    86538731.31948
  20779461.320   109196932.23909  20779461.160    85088554.88949
 15 03 01 01 41  0.0000000  0  8G04G07G16G18G19G21G22G27
  23176939.700   121795712.57508  23176941.160    94905777.25646
  24427694.400   128368404.40208  24427692.440   100027316.65945
  20502020.840   107738886.56909  20502018.080    83952385.53149
  22254663.060   116949088.26809  22254660.720    91129204.38547
  22015517.860   115692378.12109  22015514.320    90149920.65448
  24145765.420   126886866.27108  24145761.660    98872881.12545
  21127656.020   111026647.27809  21127651.880    86514252.76348
  20774285.860   109169735.58809  20774285.860    85067362.70049
 15 03 01 01 41 30.0000000  0  8G04G07G16G18G19G21G22G27
  23160379.900   121708690.63308  23160381.220    94837968.10446
  24424366.260   128350913.79208  24424364.080   100013687.61845
  20506912.580   107764592.88109  20506909.820    83972416.41149
  22261385.240   116984413.46009  22261382.880    91156730.51647
  22004599.920   115635003.45509  22004596.300    90105213.15048
  24160217.980   126962814.13508  24160214.080    98932061.27345
  21121774.080   110995737.43309  21121769.980    86490167.16948
  20769148.880   109142741.13609  20769149.020    85046328.06849
 15 03 01 01 42  0.0000000  0  8G04G07G16G18G19G21G22G27
  23143863.740   121621897.72608  23143864.860    94770337.41146
  24421136.440   128333940.24508  24421134.200   100000461.48045
  20511907.400   107790840.93209  20511904.700    83992869.42349
  22268194.660   117020197.18009  22268192.300    91184613.93547
  21993706.360   115577757.29809  21993702.700    90060605.78748
  24174670.240   127038760.19608  24174666.120    98991240.02845
  21115987.980   110965331.37409  21115983.940    86466474.14948
  20764050.140   109115947.55709  20764050.380    85025449.96749
 15 03 01 01 42 30.0000000  0  8G04G07G16G18G19G21G22G27
  23127392.380   121535340.53708  23127393.340    94702890.39446
  24418006.040   128317490.12708  24418003.940    99987643.20145
  20517006.320   107817635.82509  20517003.640    84013748.55449
  22275092.260   117056444.05309  22275089.920    91212858.25547
  21982838.480   115520646.40509  21982834.800    90016103.83448
  24189123.120   127114709.85808  24189119.040    99050421.58345
  21110299.080   110935436.14509  21110295.060    86443179.19448
  20758990.960   109089361.80409  20758991.300    85004733.81149
 15 03 01 01 43  0.0000000  0  8G04G07G16G18G19G21G22G27
  23110965.000   121449014.51608  23110965.880    94635623.50246
  24414973.960   128301557.66308  24414972.260    99975228.27645
  20522208.260   107844971.94909  20522205.600    84035049.42249
  22282076.800   117093147.68509  22282074.440    91241458.49447
  21971995.300   115463665.72209  21971991.660    89971703.34148
  24203575.420   127190656.77608  24203571.420    99109600.98345
  21104706.480   110906047.08809  21104702.480    86420278.65548
  20753970.500   109062979.24809  20753970.880    84984175.98749
 15 03 01 01 43 30.0000000  0  8G04G07G16G18G19G21G22G27
  23094582.080   121362922.36608  23094582.980    94568538.83946
  24412040.640   128286144.94608  24412039.520    99963218.34445
  20527513.640   107872851.40209  20527510.920    84056773.65749
  22289148.380   117130309.05209  22289146.020    91270415.39747
  21961177.380   115406817.57609  21961173.700    89927406.11948
  24218027.300   127266601.68908  24218023.440    99168778.83445
  21099210.860   110877167.62609  21099206.860    86397775.19848
  20748989.320   109036802.86809  20748989.660    84963778.81449
 15 03 01 01 44  0.0000000  0  8G04G07G16G18G19G21G22G27
  23078243.440   121277062.83508  23078244.340    94501635.44546
  24409205.900   128271249.79508  24409205.240    99951611.74346
  20532921.860   107901271.38009  20532919.060    84078919.08649
  22296306.380   117167924.46409  22296303.940    91299726.12147
  21950384.500   115350100.84809  21950380.760    89883211.30748
  24232478.260   127342541.73108  24232474.540    99227952.87845
  21093811.960   110848796.51709  21093808.000    86375667.86948
  20744047.180   109010831.61109  20744047.460    84943541.48949
 15 03 01 01 44 30.0000000  0  8G04G07G16G18G19G21G22G27
  23061949.020   121191435.69208  23061949.860    94434913.12946
  24406469.700   128256870.95708  24406469.120    99940407.43545
  20538432.720   107930230.79509  20538429.840    84101484.85648
  22303550.340   117205992.03609  22303547.940    91329389.17847
  21939616.540   115293515.06509  21939612.780    89839118.53248
  24246927.860   127418475.11008  24246924.300    99287121.74045
  21088509.820   110820933.80909  21088505.880    86353956.69748
  20739144.060   108985065.37809  20739144.260    84923463.91949
 15 03 01 01 45  0.0000000  0  8G04G07G16G18G19G21G22G27
  23045699.900   121106046.77808  23045700.720    94368376.43846
  24403832.920   128243013.33908  24403832.180    99929609.27546
  20544047.080   107959734.24109  20544044.120    84124474.53949
  22310881.160   117244515.95709  22310878.840    91359407.82047
  21928874.560   115237065.94909  21928870.760    89795132.24548
  24261376.880   127494405.69508  24261373.520    99346288.42845
  21083305.680   110793586.02909  21083301.740    86332646.75348
  20734281.140   108959510.22509  20734281.220    84903550.81949
 15 03 01 01 45 30.0000000  0  9G04G07G11G16G18G19G21G22G27
  23029495.300   121020891.83408  23029496.180    94302022.07446
  24401294.340   128229671.75508  24401293.400    99919213.24846
  24719400.220   129901326.03208                                
  20549763.800   107989775.82809  20549760.820    84147883.56449
  22318297.500   117283489.15509  22318295.140    91389776.56247
  21918157.660   115180748.90309  21918153.960    89751248.87848
  24275824.260   127570327.82508  24275821.080    99405448.53445
  21078198.700   110766748.90209  21078194.760    86311734.72248
  20729457.620   108934162.00209  20729457.600    84883798.97349
 15 03 01 01 46  0.0000000  0  9G04G07G11G16G18G19G21G22G27
  23013335.900   120935974.65208  23013336.820    94235852.96246
  24398854.520   128216849.20808  24398853.300    99909221.64946
  24702260.100   129811253.95408  24702262.180   101151635.59545
  20555583.500   108020358.60309  20555580.560    84171714.28449
  22325799.920   117322914.54909  22325797.480    91420497.64847
  21907466.640   115124567.86609  21907463.120    89707471.49148
  24290270.420   127646243.74408  24290267.460    99464603.79745
  21073189.680   110740426.55509  21073185.740    86291223.81148
  20724674.260   108909024.87109  20724674.200    84864211.61049
 15 03 01 01 46 30.0000000  0  9G04G07G11G16G18G19G21G22G27
  22997221.540   120851294.01708  22997222.440    94169868.17446
  24396512.880   128204543.30508  24396511.340    99899632.62846
  24685137.540   129721274.55708  24685139.660   101081522.14446
  20561505.780   108051480.18909  20561502.800    84195964.86449
  22333387.680   117362788.57109  22333385.160    91451568.32447
  21896801.280   115068521.43609  21896797.880    89663798.99348
  24304714.840   127722150.61607  24304712.020    99523752.00545
  21068278.480   110714618.01509  21068274.480    86271113.27448
  20719930.880   108884097.87009  20719930.780    84844787.98449
 15 03 01 01 47  0.0000000  0  9G04G07G11G16G18G19G21G22G27
  22981152.480   120766851.44908  22981153.460    94104068.89146
  24394269.480   128192754.51108  24394267.980    99890446.55045
  24668032.640   129631388.35808  24668034.760   101011481.30245
  20567530.600   108083140.53509  20567527.580    84220635.25149
  22341060.720   117403110.56809  22341058.120    91482988.07547
  21886161.740   115012610.75909  21886158.460    89620232.27348
  24319157.560   127798048.27908  24319154.900    99582893.04345
  21063465.420   110689324.77009  21063461.280    86251404.26648
  20715227.720   108859382.49709  20715227.600    84825529.26049
 15 03 01 01 47 30.0000000  0  9G04G07G11G16G18G19G21G22G27
  22965128.800   120682647.04108  22965129.780    94038455.18246
  24392124.260   128181482.09408  24392122.920    99881662.84745
  24650945.440   129541595.55608  24650947.480   100941513.22946
  20573657.680   108115338.64409  20573654.660    84245724.68149
  22348818.680   117443878.83709  22348816.100    91514755.57147
  21875548.140   114956836.02209  21875544.880    89576771.48448
  24333598.300   127873935.20108  24333595.740    99642025.72845
  21058750.600   110664547.63209  21058746.320    86232097.43448
  20710564.900   108834879.34709  20710564.760    84806435.91549
 15 03 01 01 48  0.0000000  0  9G04G07G11G16G18G19G21G22G27
  22949150.960   120598683.15108  22949151.880    93973028.89046
  24390077.640   128170727.38108  24390076.500    99873282.55046
  24633876.260   129451897.73908  24633878.220   100871619.14545
  20579887.320   108148075.90709  20579884.360    84271234.22649
  22356661.660   117485093.57509  22356659.040    91546870.96247
  21864960.880   114901199.36709  21864957.560    89533418.28348
  24348037.220   127949812.24308  24348034.720    99701150.68945
  21054134.400   110640288.99109  21054130.020    86213194.61148
  20705942.960   108810591.02209  20705942.800    84787509.95649
 15 03 01 01 48 30.0000000  0  9G04G07G11G16G18G19G21G22G27
  22933219.060   120514960.52008  22933219.860    93907790.60146
  24388129.640   128160489.95908  24388128.400    99865305.34945
  24616825.220   129362295.66108  24616827.260   100801799.66646
  20586219.320   108181351.15209  20586216.460    84297162.98249
  22364589.380   117526753.54409  22364586.700    91579333.29447
  21854400.120   114845701.58909  21854396.640    89490173.30648
  24362474.080   128025678.51208  24362471.620    99760267.28145
  21049616.980   110616549.71509  21049612.520    86194696.50548
  20701362.080   108786518.38809  20701361.920    84768752.08349
 15 03 01 01 49  0.0000000  0  9G04G07G11G16G18G19G21G22G27
  22917332.460   120431475.89508  22917333.160    93842737.73946
  24386279.360   128150765.48208  24386277.980    99857727.83045
  24599791.800   129272785.88308  24599793.820   100732052.07746
  20592652.940   108215160.30309  20592650.160    84323507.75548
  22372600.800   117568853.71209  22372598.100    91612138.62147
  21843865.220   114790339.73809  21843861.560    89447034.22848
  24376908.040   128101529.29408  24376905.540    99819371.78345
  21045197.800   110593326.84109  21045193.340    86176600.76748
  20696821.680   108762658.63809  20696821.500    84750160.07449
 15 03 01 01 49 30.0000000  0  9G04G07G11G16G18G19G21G22G27
  22901492.220   120348234.89308  22901492.880    93777874.72346
  24384527.560   128141558.55208  24384526.000    99850553.58946
  24582776.900   129183373.38308  24582778.900   100662380.30546
  20599188.960   108249507.47509  20599186.240    84350271.77548
  22380696.520   117611397.18409  22380693.880    91645289.39147
  21833357.100   114735119.00509  21833353.340    89404005.11848
  24391339.740   128177368.52608  24391337.320    99878467.30545
  21040877.920   110570625.86809  21040873.460    86158911.72448
  20692322.840   108739017.43109  20692322.700    84731738.36749
 15 03 01 01 50  0.0000000  0  9G04G07G11G16G18G19G21G22G27
  22885697.960   120265235.62008  22885698.600    93713200.07346
  24382873.600   128132866.24308  24382871.960    99843780.34445
  24565780.220   129094056.26708  24565782.180   100592782.83746
  20605826.700   108284388.95009  20605823.960    84377452.14148
  22388875.900   117654380.47009  22388873.340    91678782.87947
  21822875.380   114680037.01109  21822871.580    89361084.12548
  24405768.620   128253192.75808  24405766.240    99937551.12445
  21036657.060   110548445.06209  21036652.560    86141628.01648
  20687865.300   108715593.28709  20687865.240    84713485.80149
 15 03 01 01 50 30.0000000  0  9G04G07G11G16G18G19G21G22G27
  22869950.080   120182480.43808  22869950.760    93648715.61046
  24381317.760   128124690.20608  24381316.160    99837409.38646
  24548802.140   129004836.90808  24548803.920   100523261.53146
  20612566.520   108319806.89809  20612563.780    84405050.53249
  22397139.100   117697804.15009  22397136.580    91712619.51947
  21812420.640   114625096.84509  21812416.760    89318273.64348
  24420194.860   128329003.33407  24420192.560    99996624.27745
  21032535.720   110526787.29009  21032531.200    86124751.85048
  20683449.700   108692389.22109  20683449.680    84695404.72349
 15 03 01 01 51  0.0000000  0  9G04G07G11G16G18G19G21G22G27
  22854248.460   120099968.64308  22854249.260    93584420.81146
  24379859.480   128117027.78108  24379858.100    99831438.64946
  24531842.380   128915713.83508  24531844.060   100453815.23646
  20619407.940   108355758.73009  20619405.200    84433064.93349
  22405485.500   117741664.95909  22405483.060    91746796.78347
  21801992.680   114570297.51609  21801988.800    89275572.90048
  24434618.000   128404797.73507  24434615.800   100055684.84645
  21028513.760   110505651.71109  21028509.180    86108282.61548
  20679075.860   108669404.50209  20679075.840    84677494.56349
 15 03 01 01 51 30.0000000  0  9G04G07G11G16G18G19G21G22G27
  22838593.720   120017703.16508  22838594.560    93520317.94846
  24378499.340   128109880.90708  24378498.120    99825869.62146
  24514901.460   128826690.02108  24514903.060   100384446.29446
  20626351.160   108392245.87509  20626348.520    84461496.46349
  22413915.280   117785963.77109  22413912.880    91781315.34647
  21791592.000   114515641.83709  21791588.160    89232984.09648
  24449038.320   128480577.50107  24449036.260   100114734.01845
  21024591.820   110485041.69809  21024587.160    86092222.89848
  20674744.420   108646642.50209  20674744.360    84659757.95449
 15 03 01 01 52  0.0000000  0  9G04G07G11G16G18G19G21G22G27
  22822985.320   119935680.95009  22822986.120    93456404.64046
  24377236.580   128103245.68608  24377235.360    99820699.29945
  24497978.640   128737761.47308  24497980.280   100315151.57845
  20633395.360   108429263.84009  20633392.900    84490341.62148
  22422427.420   117830695.60209  22422425.080    91816171.34147
  21781218.060   114461126.89209  21781214.280    89190504.95348
  24463455.000   128556337.92608  24463452.920   100173768.10345
  21020769.200   110464953.79709  21020764.540    86076570.03048
  20670454.860   108624100.34709  20670454.700    84642192.65349
 15 03 01 01 52 30.0000000  0  9G04G07G11G16G18G19G21G22G27
  22807423.560   119853903.90909  22807424.320    93392682.37346
  24376071.400   128097122.86308  24376070.100    99815928.24845
  24481074.420   128648930.78908  24481075.960   100245933.10745
  20640540.720   108466813.16809  20640538.380    84519600.82549
  22431022.080   117875860.69809  22431019.660    91851364.92447
  21770871.280   114406754.87709  21770867.580    89148137.17348
  24477868.180   128632079.87707  24477866.000   100232787.79945
  21017046.380   110445390.21709  21017041.700    86061325.71748
  20666207.680   108601780.64009  20666207.380    84624800.68249
 15 03 01 01 53  0.0000000  0  9G04G07G11G16G18G19G21G22G27
  22791908.740   119772373.58909  22791909.440    93329152.35847
  24375003.820   128091512.60008  24375002.440    99811556.59246
  24464189.140   128560199.15608  24464190.620   100176791.81845
  20647787.320   108504894.40809  20647785.040    84549274.51049
  22439699.040   117921458.25709  22439696.580    91886895.49847
  21760551.860   114352527.08409  21760548.360    89105881.79148
  24492277.780   128707803.07807  24492275.580   100291792.88245
  21013423.680   110426352.79209  21013418.980    86046491.39348
  20662003.140   108579685.10509  20662002.720    84607583.39649
 15 03 01 01 53 30.0000000  0  9G04G07G11G16G18G19G21G22G27
  22776440.920   119691090.10309  22776441.640    93265814.67147
  24374033.660   128086413.89708  24374032.140    99807583.55445
  24447322.740   128471566.55008  24447324.220   100107727.70245
  20655134.800   108543505.67909  20655132.560    84579361.20849
  22448458.020   117967486.42209  22448455.480    91922761.61547
  21750259.960   114298443.74009  21750256.600    89063738.96548
  24506683.560   128783506.27807  24506681.300   100350782.36845
  21009901.080   110407841.42209  21009896.380    86032066.98648
  20657841.340   108557814.28909  20657840.820    84590541.21649
 15 03 01 01 54  0.0000000  0  9G04G07G11G16G18G19G21G22G27
  22761020.000   119610052.88209  22761020.680    93202668.89147
  24373160.500   128081824.94808  24373158.860    99804007.73945
  24430474.980   128383031.63308  24430476.360   100038739.68445
  20662582.800   108582645.23509  20662580.560    84609859.55649
  22457298.360   118013942.25209  22457295.720    91958960.97347
  21739995.600   114244504.51409  21739992.260    89021708.43048
  24521085.280   128859188.14507  24521083.140   100409755.23645
  21006478.520   110389855.81109  21006473.760    86018052.26148
  20653722.180   108536168.00409  20653721.640    84573673.99149
 15 03 01 01 54 30.0000000  0  9G04G07G11G16G18G19G21G22G27
  22745646.340   119529263.89009  22745646.940    93139716.53247
  24372384.480   128077746.47008  24372382.740    99800829.70845
  24413646.240   128294596.17108  24413647.400    99969829.16146
  20670131.480   108622313.89809  20670129.280    84640770.19449
  22466220.100   118060825.93109  22466217.400    91995493.71447
  21729759.120   114190711.38009  21729755.700    88979791.73348
  24535482.960   128934848.68807  24535480.660   100468711.49045
  21003156.260   110372397.29109  21003151.420    86004448.24348
  20649646.120   108514748.56609  20649645.620    84556983.53249
 15 03 01 01 55  0.0000000  0  9G04G07G11G16G18G19G21G22G27
  22730320.440   119448725.98609  22730320.980    93076959.82247
  24371705.880   128074179.92208  24371704.080    99798050.55546
  24396836.920   128206262.88408  24396837.860    99900998.25246
  20677781.020   108662512.72809  20677778.900    84672093.93949
  22475223.340   118108138.02709  22475220.580    92032360.29347
  21719551.060   114137067.22409  21719547.440    88937991.11648
  24549876.860   129010489.23207  24549874.400   100527652.17444
  20999934.880   110355469.35309  20999930.100    85991257.65548
  20645613.800   108493559.19409  20645613.400    84540472.34349
 15 03 01 01 55 30.0000000  0  9G04G07G11G16G18G19G21G22G27
  22715041.680   119368435.97609  22715042.160    93014396.28247
  24371123.920   128071121.31508  24371122.100    99795667.21345
  24380046.460   128118028.68208  24380047.180    99832244.53745
  20685530.620   108703236.90609  20685528.460    84703827.05749
  22484307.120   118155873.48709  22484304.340    92069556.76347
  21709370.760   114083569.13709  21709367.020    88896304.32448
  24564266.180   129086105.84007  24564263.680   100586574.21244
  20996813.900   110339068.87809  20996809.180    85978478.09348
  20641624.780   108472597.40709  20641624.500    84524138.49549
 15 03 01 01 56  0.0000000  0  9G04G07G11G16G18G19G21G22G27
  22699810.600   119288396.71209  22699811.120    92952028.12647
  24370638.740   128068571.91108  24370637.020    99793680.64045
  24363275.280   128029895.99608  24363275.880    99763569.93445
  20693380.540   108744488.11209  20693378.300    84735970.85049
  22493471.520   118204032.94709  22493468.780    92107083.62947
  21699218.840   114030220.23509  21699214.960    88854733.78348
  24578651.140   129161699.65407  24578648.580   100645478.48144
  20993793.860   110323198.53509  20993789.120    85966111.62648
  20637679.700   108451866.34709  20637679.500    84507984.44349
 15 03 01 01 56 30.0000000  0  9G04G07G11G16G18G19G21G22G27
  22684627.700   119208610.81109  22684628.240    92889857.39747
  24370250.600   128066532.77608  24370248.980    99792091.67745
  24346523.860   127941867.24608  24346524.260    99694976.30245
  20701330.980   108786267.31309  20701328.620    84768526.06948
  22502716.620   118252616.81409  22502713.960    92144941.20047
  21689095.760   113977022.99109  21689091.800    88813281.41248
  24593032.000   129237271.84107  24593029.420   100704365.92045
  20990875.020   110307860.18209  20990870.300    85954159.70248
  20633779.120   108431368.88409  20633778.940    84492012.41149
 15 03 01 01 57  0.0000000  0  9G04G07G11G16G18G19G21G22G27
  22669492.200   119129074.30709  22669492.860    92827881.00547
  24369958.560   128064998.85008  24369957.080    99790896.39345
  24329791.400   127853938.28808  24329791.660    99626460.43945
  20709380.820   108828569.13509  20709378.380    84801488.52748
  22512041.300   118301619.16009  22512038.800    92183124.86946
  21679000.760   113923973.54709  21678996.780    88771944.21848
  24607407.760   129312817.30808  24607405.240   100763232.54444
  20988056.880   110293051.04809  20988052.200    85942620.14348
  20629922.380   108411101.69209  20629922.180    84476219.81249
 15 03 01 01 57 30.0000000  0  9G04G07G11G16G18G19G21G22G27
  22654404.460   119049788.64709  22654405.200    92766100.07547
  24369762.720   128063970.41808  24369761.440    99790095.00046
  24313078.140   127766110.57808  24313078.340    99558023.46345
  20717529.940   108871393.19909  20717527.520    84834857.92249
  22521445.500   118351039.27409  22521443.100    92221634.06647
  21668934.240   113871073.80809  21668930.240    88730723.66948
  24621778.480   129388336.33807  24621776.060   100822078.56644
  20985339.640   110278772.21009  20985335.020    85931493.79548
  20626109.840   108391066.77409  20626109.680    84460608.20049
 15 03 01 01 58  0.0000000  0  9G04G07G11G16G18G19G21G22G27
  22639365.220   118970757.53809  22639366.020    92704517.49347
  24369663.560   128063449.57808  24369662.440    99789689.11245
  24296384.720   127678387.18508  24296384.880    99489667.75945
  20725778.740   108914741.42909  20725776.420    84868635.75249
  22530929.440   118400878.73509  22530927.280    92260470.02147
  21658896.880   113818327.35209  21658892.880    88689622.56048
  24636144.500   129463831.08407  24636142.220   100880905.64344
  20982723.880   110265026.63709  20982719.320    85920782.97748
  20622342.260   108371268.15509  20622342.120    84445180.72149
 15 03 01 01 58 30.0000000  0 10G04G07G11G16G18G19G21G22G27G32
  22624372.880   118891972.71409  22624373.600    92643126.82047
  24369659.300   128063426.70608  24369658.120    99789671.25645
  24279709.620   127590760.02608  24279709.780    99421387.05045
  20734125.620   108958605.05809  20734123.420    84902815.19549
  22540491.280   118451127.48909  22540489.180    92299624.91347
  21648887.160   113765726.11809  21648883.180    88648634.61448
  24650504.160   129539292.20607  24650501.980   100939706.49044
  20980208.060   110251806.12909  20980203.560    85910481.31648
  20618618.200   108351698.15309  20618618.080    84429931.38549
  24494464.280   128719275.34308  24494467.260   100300742.31545
 15 03 01 01 59  0.0000000  0 10G04G07G11G16G18G19G21G22G27G32
  22609430.160   118813448.37409  22609430.780    92581939.11747
  24369752.420   128063914.92208  24369751.120    99790051.65445
  24263055.560   127503242.82608  24263055.640    99353192.01545
  20742572.960   109002996.03009  20742570.740    84937405.55449
  22550133.280   118501797.11909  22550131.200    92339107.75647
  21638907.840   113713284.86009  21638903.960    88607771.32848
  24664859.920   129614732.35407  24664857.880   100998491.02645
  20977794.920   110239124.95909  20977790.400    85900599.91548
  20614940.420   108332371.37309  20614940.320    84414871.57349
  24472046.200   128601467.92108  24472049.300   100208944.59545
 15 03 01 01 59 30.0000000  0 10G04G07G11G16G18G19G21G22G27G32
  22594535.460   118735176.35809  22594535.960    92520948.02547
  24369940.880   128064904.30108  24369939.400    99790822.56346
  24246420.940   127415827.65208  24246420.880    99285076.45545
  20751118.760   109047904.29909  20751116.500    84972399.00049
  22559853.500   118552877.30409  22559851.380    92378910.49947
  21628957.440   113660995.42609  21628953.660    88567026.33848
  24679210.000   129690142.66007  24679207.940   101057252.29145
  20975482.920   110226974.99609  20975478.300    85891132.43848
  20611307.520   108313280.20209  20611307.400    84399995.34449
  24449627.420   128483657.19108  24449630.540   100117144.27444
 15 03 01 02 00  0.0000000  0 10G04G07G11G16G18G19G21G22G27G32
  22579689.480   118657160.40609  22579689.920    92460156.46747
  24370225.000   128066397.17208  24370223.520    99791985.80545
  24229806.400   127328517.94608  24229806.320    99217043.10345
  20759763.480   109093332.33309  20759761.160    85007797.46648
  22569652.200   118604369.95709  22569650.120    92419034.65547
  21619036.740   113608861.85909  21619033.020    88526402.80248
  24693554.960   129765525.91007  24693553.060   101115992.47345
  20973272.740   110215359.96209  20973268.020    85882081.79148
  20607720.320   108294428.92409  20607720.080    84385306.05149
  24427209.040   128365849.34408  24427212.360   100025346.36045
 15 03 01 02 00 30.0000000  0 10G04G07G11G16G18G19G21G22G27G32
  22564892.280   118579400.70809  22564892.600    92399564.58247
  24370604.640   128068392.63608  24370603.160    99793540.67945
  24213211.940   127241313.89908  24213211.820    99149092.06745
  20768506.880   109139278.83709  20768504.440    85043599.92948
  22579529.020   118656272.95709  22579526.900    92459478.55547
  21609145.880   113556885.06509  21609142.240    88485901.43348
  24707894.620   129840880.70107  24707892.680   101174710.47845
  20971164.320   110204279.56809  20971159.460    85873447.74248
  20604178.880   108275818.25509  20604178.540    84370804.23949
  24404791.600   128248046.36508  24404795.060    99933552.14745
 15 03 01 02 01  0.0000000  0 10G04G07G11G16G18G19G21G22G27G32
  22550143.180   118501893.88509  22550143.520    92339169.75047
  24371079.000   128070885.76908  24371077.580    99795483.33546
  24196636.800   127154211.67508  24196636.680    99081220.37245
  20777347.880   109185738.66609  20777345.420    85079802.38148
  22589482.920   118708580.80209  22589480.720    92500237.91547
  21599284.180   113505061.43109  21599280.620    88445519.40448
  24722227.960   129916201.84207  24722225.880   101233402.24345
  20969156.920   110193730.26509  20969152.000    85865227.52748
  20600682.640   108257445.37409  20600682.240    84356487.71449
  24382374.920   128130247.48508  24382378.500    99841761.16645
 15 03 01 02 01 30.0000000  0 10G04G07G11G16G18G19G21G22G27G32
  22535443.100   118424644.55909  22535443.440    92278975.56247
  24371648.600   128073879.56308  24371647.240    99797816.11445
  24180081.920   127067216.14508  24180081.840    99013431.82145
  20786287.040   109232714.81009  20786284.640    85116407.15848
  22599514.340   118761295.87809  22599512.100    92541314.60647
  21589452.520   113453395.61509  21589448.980    88405260.35248
  24736555.700   129991493.25708  24736553.320   101292070.87745
  20967251.340   110183716.51909  20967246.460    85857424.63448
  20597232.600   108239315.36009  20597232.220    84342360.44549
  24359960.360   128012459.80608  24359964.000    99749979.22745
 15 03 01 02 02  0.0000000  0 10G04G07G11G16G18G19G21G22G27G32
  22520791.500   118347650.24408  22520791.880    92218980.09247
  24372312.900   128077370.40608  24372311.420    99800536.23045
  24163546.780   126980324.51708  24163546.640    98945724.24445
  20795323.720   109280203.11309  20795321.340    85153411.02648
  22609622.540   118814413.91909  22609620.160    92582705.28947
  21579650.680   113401886.56109  21579647.120    88365123.45448
  24750877.340   130066752.41008  24750874.700   101350714.37845
  20965447.160   110174236.10909  20965442.380    85850037.33148
  20593828.420   108221426.40209  20593828.060    84328421.01449
  24337547.660   127894682.40408  24337551.180    99658205.15945
 15 03 01 02 02 30.0000000  0 10G04G07G11G16G18G19G21G22G27G32
  22506189.520   118270916.68409  22506189.940    92159187.79547
  24373072.600   128081361.97108  24373070.920    99803646.50345
  24147032.380   126893541.95008  24147032.300    98878101.60545
  20804458.660   109328207.53609  20804456.240    85190817.05848
  22619808.040   118867938.33109  22619805.520    92624412.61747
  21569879.560   113350538.95009  21569875.920    88325112.34748
  24765193.340   130141982.37608  24765190.560   101409335.12545
  20963745.360   110165293.80509  20963740.700    85843069.31348
  20590471.320   108203784.72509  20590470.960    84314674.25049
  24315138.440   127776923.44608  24315141.840    99566445.51645
 15 03 01 02 03  0.0000000  0 10G04G07G11G16G18G19G21G22G27G32
  22491636.080   118194438.17209  22491636.520    92099594.24347
  24373926.280   128085847.60908  24373924.500    99807141.76846
  24130537.680   126806863.01908  24130537.760    98810559.75644
  20813690.420   109376720.67809  20813688.000    85228619.49648
  22630069.340   118921861.30609  22630066.740    92666430.52047
  21560138.180   113299347.69209  21560134.500    88285223.07848
  24779502.500   130217176.71708  24779499.520   101467928.12845
  20962144.940   110156884.03509  20962140.340    85836516.26448
  20587160.300   108186385.28209  20587159.940    84301116.25549
  24292732.000   127659178.84608  24292735.280    99474696.72345
 15 03 01 02 03 30.0000000  0 10G04G07G11G16G18G19G21G22G27G32
  22477132.200   118118219.91709  22477132.620    92040203.48647
  24374874.540   128090830.60708  24374872.820    99811024.58746
  24114063.640   126720292.46108  24114063.760    98743102.31345
  20823019.740   109425746.48309  20823017.300    85266821.40648
  22640406.980   118976185.51409  22640404.320    92708761.06747
  21550427.720   113248318.85409  21550423.940    88245460.36748
  24793805.680   130292339.88107  24793802.740   101526496.82145
  20960646.860   110149011.68709  20960642.240    85830381.98348
  20583896.460   108169233.78109  20583896.120    84287751.45549
  24270329.920   127541456.62908  24270332.960    99382965.32445
 15 03 01 02 04  0.0000000  0 10G04G07G11G16G18G19G21G22G27G32
  22462677.680   118042260.96809  22462678.020    91981014.78847
  24375917.020   128096308.78408  24375915.400    99815293.25245
  24097610.220   126633829.80708  24097610.320    98675728.96645
  20832446.080   109475282.19809  20832443.620    85305420.65948
  22650820.300   119030907.85609  22650817.700    92751401.85547
  21540748.020   113197451.80809  21540744.180    88205823.73548
  24808102.420   130367469.65507  24808099.500   101585039.47544
  20959250.860   110141675.72609  20959246.220    85824665.67548
  20580679.760   108152330.03709  20580679.440    84274579.71549
  24247932.480   127423758.25408  24247935.260    99291252.48745
 15 03 01 02 04 30.0000000  0 10G04G07G11G16G18G19G21G22G27G32
  22448272.320   117966560.31609  22448272.500    91922027.36047
  24377053.120   128102279.36408  24377051.840    99819945.59646
  24081177.140   126547473.76208  24081177.200    98608438.69044
  20841968.860   109525324.82009  20841966.420    85344414.89948
  22661308.840   119086025.66109  22661306.240    92794350.80047
  21531098.880   113146745.60809  21531095.040    88166312.43048
  24822392.400   130442563.90907  24822389.540   101643554.50744
  20957956.640   110134874.79009  20957952.020    85819366.28548
  20577510.140   108135673.58809  20577509.820    84261600.67649
  24225539.900   127306085.06708  24225542.440    99199559.27245
 15 03 01 02 05  0.0000000  0 10G04G07G11G16G18G19G21G22G27G32
  22433916.340   117891118.92209  22433916.360    91863241.94847
  24378282.840   128108742.01408  24378281.840    99824981.37446
  24064764.480   126461224.94008  24064764.460    98541231.95844
  20851587.940   109575873.64009  20851585.560    85383803.57548
  22671872.360   119141537.49109  22671869.840    92837606.77647
  21521480.660   113096201.76509  21521476.780    88126927.63448
  24836675.600   130517622.52707  24836672.820   101702041.75044
  20956764.320   110128609.61909  20956759.780    85814484.38348
  20574387.840   108119265.98209  20574387.560    84248815.53949
  24203152.700   127188440.29408  24203155.100    99107888.22145
 15 03 01 02 05 30.0000000  0 10G04G07G11G16G18G19G21G22G27G32
  22419609.980   117815938.34809  22419609.900    91804659.77147
  24379606.260   128115696.23108  24379605.260    99830400.20646
  24048372.480   126375084.87508  24048372.320    98474109.97645
  20861303.400   109626928.56409  20861301.040    85423586.62448
  22682510.680   119197442.70209  22682508.320    92881169.28247
  21511893.680   113045821.97709  21511889.740    88087670.67548
  24850952.080   130592646.19007  24850949.360   101760501.74444
  20955674.000   110122880.65809  20955669.540    85810020.29048
  20571313.240   108103109.15009  20571312.960    84236225.80549
  24180771.580   127070827.21108  24180773.760    99016241.73345
 15 03 01 02 06  0.0000000  0 10G04G07G11G16G18G19G21G22G27G32
  22405353.580   117741020.52609  22405353.440    91746282.32147
  24381023.400   128123142.78208  24381022.440    99836202.66646
  24032001.540   126289055.62208  24032001.260    98407074.31345
  20871115.280   109678489.77109  20871112.820    85463764.17448
  22693223.860   119253741.15909  22693221.580    92925038.20347
  21502338.400   112995608.84409  21502334.420    88048543.57248
  24865221.940   130667635.49106  24865219.200   101818934.97544
  20954686.360   110117690.95309  20954681.960    85805976.39948
  20568286.880   108087206.00109  20568286.660    84223833.74649
  24158397.420   126953250.64808  24158399.460    98924623.66245
 15 03 01 02 06 30.0000000  0 10G04G07G11G16G18G19G21G22G27G32
  22391146.860   117666363.91409  22391146.740    91688108.42947
  24382533.600   128131078.25608  24382532.760    99842386.10546
  24015651.240   126203135.42708  24015651.000    98340123.66344
  20881022.840   109730553.63809  20881020.280    85504333.41948
  22704011.040   119310428.60009  22704008.800    92969210.24647
  21492814.580   112945561.10809  21492810.640    88009545.35948
  24879484.680   130742588.12306  24879482.340   101877339.60144
  20953800.820   110113037.64309  20953796.400    85802350.48248
  20565308.600   108071555.44209  20565308.460    84211638.51749
  24136030.320   126835711.69508  24136032.460    98833035.13645
 15 03 01 02 07  0.0000000  0 10G04G07G11G16G18G19G21G22G27G32
  22376989.780   117591968.44209  22376989.660    91630138.01847
  24384136.600   128139501.01108  24384135.820    99848949.25446
  23999321.640   126117324.08408  23999321.380    98273257.80144
  20891025.620   109783118.17909  20891023.020    85545292.79348
  22714871.960   119367503.11209  22714869.660    93013683.89946
  21483322.280   112895678.92109  21483318.380    87970676.14748
  24893740.140   130817502.74906  24893738.140   101935714.61444
  20953017.240   110108920.37209  20953012.880    85799142.25248
  20562378.540   108056158.07709  20562378.440    84199640.58149
  24113670.680   126718212.04208  24113672.820    98741477.12145
 15 03 01 02 07 30.0000000  0 10G04G07G11G16G18G19G21G22G27G32
  22362882.420   117517834.26209  22362882.300    91572371.20447
  24385832.100   128148409.78908  24385831.280    99855891.09546
  23983012.860   126031621.98908  23983012.760    98206477.07044
  20901123.540   109836182.77309  20901120.920    85586641.81148
  22725806.220   119424963.14109  22725803.820    93058457.94646
  21473861.760   112845963.56109  21473857.820    87931936.91848
  24907988.440   130892379.43007  24907986.740   101994060.05545
  20952335.740   110105339.22809  20952331.380    85796351.76748
  20559496.880   108041014.91209  20559496.820    84187840.71249
  24091319.140   126600754.67708  24091321.260    98649952.05445
 15 03 01 02 08  0.0000000  0 10G04G07G11G16G18G19G21G22G27G32
  22348825.160   117443963.50009  22348825.060    91514809.65147
  24387620.080   128157804.94908  24387618.920    99863211.96646
  23966725.300   125946031.04808  23966725.380    98139782.94745
  20911316.540   109889747.38109  20911313.980    85628380.45748
  22736813.700   119482807.99409  22736811.220    93103531.86446
  21464433.420   112796417.22409  21464429.440    87893329.40348
  24922229.740   130967218.90207  24922228.320   102052376.50045
  20951756.640   110102296.07409  20951752.260    85793980.49648
  20556664.080   108026128.67909  20556664.100    84176241.05849
  24068976.540   126483343.93908  24068978.660    98558463.34845
 15 03 01 02 08 30.0000000  0 10G04G07G11G16G18G19G21G22G27G32
  22334817.580   117370353.65909  22334817.480    91457451.41647
  24389499.600   128167682.38208  24389498.100    99870908.62845
  23950458.420   125860548.48708  23950458.540    98073173.29745
  20921603.780   109943807.44909  20921601.300    85670505.16948
  22747893.540   119541033.09609  22747890.980    93148902.07946
  21455036.920   112747038.14409  21455032.900    87854852.21848
  24936463.340   131042017.05907  24936462.000   102110660.77245
  20951279.360   110099787.83509  20951274.960    85792026.04348
  20553879.820   108011497.52509  20553879.880    84164840.16549
  24046642.840   126365979.74808  24046644.720    98467010.92446
 15 03 01 02 09  0.0000000  0 10G04G07G11G16G18G19G21G22G27G32
  22320860.320   117297008.22809  22320860.180    91400299.21147
  24391471.180   128178043.86108  24391469.760    99878982.45946
  23934212.940   125775177.96908  23934213.020    98006650.92145
  20931985.580   109998364.19509  20931983.120    85713016.90948
  22759046.060   119599639.71109  22759043.420    93194569.57346
  21445672.920   112697829.86509  21445668.880    87816508.12148
  24950689.660   131116776.32307  24950688.080   102168914.72445
  20950904.400   110097817.32809  20950900.000    85790490.60948
  20551144.900   107997125.45509  20551144.920    84153641.15349
  24024319.080   126248667.70808  24024320.820    98375599.09245
 15 03 01 02 09 30.0000000  0 10G04G07G11G16G18G19G21G22G27G32
  22306953.240   117223926.24809  22306953.060    91343352.28347
  24393534.460   128188886.46608  24393533.280    99887431.18546
  23917988.600   125689918.36808  23917988.560    97940214.96945
  20942461.440   110053415.32909  20942459.020    85755913.87848
  22770270.620   119658624.82309  22770267.920    93240531.99046
  21436341.300   112648791.92909  21436337.260    87778296.75348
  24964908.440   131191495.66807  24964906.700   102227137.58945
  20950631.460   110096383.17409  20950627.100    85789373.10148
  20548459.320   107983012.30609  20548459.260    84142643.88649
  24002005.520   126131409.51108  24002007.100    98284229.29145
 15 03 01 02 10  0.0000000  0 10G04G07G11G16G18G19G21G22G27G32
  22293096.300   117151107.93309  22293096.120    91286610.82147
  24395689.220   128200209.21708  24395688.220    99896254.06746
  23901785.400   125604769.95908  23901785.420    97873865.67845
  20953031.060   110108959.05209  20953028.600    85799194.69248
  22781566.880   119717986.57809  22781564.140    93286787.90746
  21427042.260   112599925.38909  21427038.280    87740218.95148
  24979119.440   131266173.85707  24979117.620   102285328.37445
  20950460.680   110095485.69009  20950456.280    85788673.77348
  20545823.220   107969159.04409  20545823.100    84131849.14349
  23979702.660   126014207.85008  23979704.140    98192903.58846
 15 03 01 02 10 30.0000000  0 10G04G07G11G16G18G19G21G22G27G32
  22279289.960   117078555.48409  22279289.760    91230076.51747
  24397935.260   128212011.98508  24397934.220    99905450.99046
  23885603.700   125519734.55908  23885603.580    97807604.44545
  20963694.440   110164995.30609  20963691.900    85842859.29748
  22792934.680   119777724.49709  22792931.980    93333336.93946
  21417776.240   112551232.75009  21417772.380    87702276.64848
  24993322.880   131340812.39007  24993320.960   102343488.26244
  20950392.240   110095126.17209  20950387.800    85788393.64748
  20543237.100   107955568.41409  20543236.900    84121259.04549
  23957411.340   125897067.06308  23957412.820    98101625.28645
 15 03 01 02 11  0.0000000  0 10G04G07G11G16G18G19G21G22G27G32
  22265534.020   117006267.81509  22265533.840    91173748.54347
  24400272.100   128224292.74808  24400271.120    99915020.36646
  23869443.340   125434811.77508  23869443.140    97741430.95945
  20974451.120   110221522.05409  20974448.560    85886906.10648
  22804373.520   119837835.78909  22804370.840    93380176.90346
  21408543.260   112502713.79109  21408539.480    87664469.68948
  25007518.400   131415409.44507  25007516.120   102401615.82445
  20950425.940   110095303.36409  20950421.440    85788531.73848
  20540700.940   107942240.43509  20540700.680    84110873.60949
  23935131.920   125779988.95608  23935133.420    98010395.83445
 15 03 01 02 11 30.0000000  0 10G04G07G11G16G18G19G21G22G27G32
  22251828.600   116934245.43909  22251828.360    91117627.28547
  24402699.520   128237049.49608  24402698.660    99924960.62846
  23853304.400   125350001.66208  23853304.020    97675345.26145
  20985300.780   110278537.64309  20985298.300    85931333.82248
  22815882.960   119898318.08909  22815880.320    93427305.96746
  21399343.560   112454369.43209  21399339.780    87626798.77748
  25021705.800   131489964.28007  25021703.460   102459710.48944
  20950561.720   110096017.04009  20950557.180    85789087.86348
  20538214.840   107929176.04709  20538214.600    84100693.57049
  23912864.920   125662976.27708  23912866.480    97919217.46746
 15 03 01 02 12  0.0000000  0 10G04G07G11G16G18G19G21G22G27G32
  22238173.960   116862489.84009  22238173.660    91061713.90547
  24405217.520   128250282.18808  24405216.840    99935271.76146
  23837187.180   125265305.57208  23837186.720    97609348.41245
  20996243.200   110336040.93509  20996240.860    85976141.56748
  22827462.980   119959171.38709  22827460.400    93474724.11747
  21390177.420   112406201.29909  21390173.600    87589265.18548
  25035885.240   131564477.58807  25035882.780   102517772.79345
  20950799.740   110097267.97709  20950795.200    85790062.63848
  20535779.240   107916377.35809  20535779.080    84090720.57249
  23890611.060   125546032.57308  23890612.660    97828092.77546
 15 03 01 02 12 30.0000000  0 10G04G07G11G16G18G19G21G22G27G32
  22224569.920   116791000.26909  22224569.560    91006007.81147
  24407825.680   128263988.28808  24407825.100    99945951.77746
  23821091.580   125180722.96508  23821091.140    97543439.99645
  21007278.040   110394029.76509  21007275.780    86021327.65248
  22839113.020   120020392.79408  22839110.500    93522429.11046
  21381044.960   112358209.63009  21381041.000    87551869.08748
  25050056.420   131638948.08306  25050054.020   102575801.73144
  20951139.880   110099055.49109  20951135.320    85791455.51248
  20533394.300   107903844.67909  20533394.220    84080954.85349
  23868370.760   125429159.95608  23868372.320    97737023.39046
 15 03 01 02 13  0.0000000  0 10G04G07G11G16G18G19G21G22G27G32
  22211016.580   116719777.27309  22211016.160    90950509.44647
  24410523.780   128278166.58608  24410523.240    99956999.75945
  23805017.700   125096254.47008  23805017.240    97477620.49445
  21018405.180   110452503.26209  21018402.920    86066891.40448
  22850832.600   120081979.87608  22850830.220    93570419.04646
  21371946.360   112310395.66709  21371942.300    87514611.47148
  25064219.380   131713375.31306  25064216.980   102633796.94344
  20951582.140   110101379.26009  20951577.520    85793266.25148
  20531060.240   107891579.08209  20531060.160    84071397.25549
  23846144.580   125312361.41408  23846146.120    97646011.73446
 15 03 01 02 13 30.0000000  0 10G04G07G11G16G18G19G21G22G27G32
  22197514.160   116648822.20009  22197513.740    90895219.83847
  24413311.700   128292816.79708  24413311.080    99968415.46146
  23788965.740   125011900.95108  23788964.960    97411890.57345
  21029624.440   110511460.44609  21029622.120    86112832.05248
  22862621.680   120143932.29108  22862619.380    93618693.65746
  21362881.900   112262761.06209  21362877.780    87477493.61148
  25078374.080   131787760.02706  25078371.780   102691759.01945
  20952126.660   110104240.04309  20952121.900    85795495.42948
  20528777.440   107879582.71909  20528777.320    84062049.43749
  23823933.160   125195640.67308  23823934.680    97555060.69545
 15 03 01 02 14  0.0000000  0 10G04G07G11G16G18G19G21G22G27G32
  22184062.420   116578133.72009  22184062.100    90840137.98047
  24416188.760   128307935.68708  24416188.120    99980196.37346
  23772935.540   124927661.61108  23772934.680    97346249.63545
  21040935.040   110570897.51609  21040932.600    86159146.64048
  22874479.680   120206246.72408  22874477.480    93667250.35947
  21353851.460   112215305.37009  21353847.320    87440515.16148
  25092520.160   131862099.98705  25092517.920   102749686.24443
  20952773.040   110107636.21809  20952768.220    85798141.80448
  20526545.800   107867855.20609  20526545.600    84052911.11849
  23801736.880   125078999.25708  23801738.360    97464171.48746
 15 03 01 02 14 30.0000000  0 10G04G07G11G16G18G19G21G22G27G32
  22170661.360   116507711.68609  22170661.140    90785263.73347
  24419154.620   128323521.12308  24419154.040    99992340.81446
  23756926.940   124843536.13908  23756926.080    97280697.42245
  21052336.620   110630812.73809  21052334.060    86205833.81748
  22886405.940   120268920.23008  22886403.840    93716086.85046
  21344855.040   112168028.55409  21344850.880    87403676.09848
  25106657.680   131936394.50206  25106655.840   102807578.05544
  20953520.980   110111566.28009  20953516.160    85801204.19148
  20524365.380   107856396.73809  20524365.100    84043982.44549
  23779556.020   124962439.01508  23779557.500    97373345.51546
 15 03 01 02 15  0.0000000  0  9G04G07G11G16G18G19G22G27G32
  22157311.360   116437557.83709  22157311.160    90730598.46047
  24422209.240   128339573.33608  24422208.800   100004848.97846
  23740940.420   124759526.73008  23740939.460    97215235.62345
  21063829.260   110691206.70609  21063826.640    86252894.03648
  22898400.560   120331952.82508  22898398.580    93765203.16247
  21335893.180   112120933.69609  21335889.040    87366978.82048
  20954370.980   110116032.57109  20954366.120    85804684.42648
  20522236.740   107845210.45409  20522236.420    84035265.86349
  23757391.520   124845964.80308  23757393.020    97282586.60646
 15 03 01 02 15 30.0000000  0  9G04G07G11G16G18G19G22G27G32
  22144012.580   116367672.68909  22144012.360    90676142.56647
  24425352.300   128356090.50908  24425352.020   100017719.45446
  23724975.940   124675633.23608  23724974.940    97149864.18445
  21075412.480   110752076.92409  21075409.900    86300325.36548
  22910463.060   120395342.21508  22910461.180    93814597.49546
  21326966.100   112074021.76509  21326962.000    87330424.08448
  20955322.720   110121034.10109  20955317.900    85808581.73048
  20520159.960   107834297.09109  20520159.640    84026761.94749
  23735243.880   124729579.28108  23735245.320    97191896.84846
 15 03 01 02 16  0.0000000  0  9G04G07G11G16G18G19G22G27G32
  22130765.060   116298056.93309  22130764.860    90621896.59147
  24428583.720   128373071.74608  24428583.460   100030951.52546
  23709033.680   124591856.63308  23709032.600    97084583.80245
  21087086.060   110813422.18509  21087083.560    86348126.85148
  22922593.280   120459087.16708  22922591.440    93864268.88446
  21318074.060   112027293.81109  21318069.980    87294012.70648
  20956376.400   110126571.44809  20956371.660    85812896.55248
  20518135.440   107823658.40309  20518135.160    84018472.06949
  23713113.660   124613285.70608  23713115.140    97101278.72646
 15 03 01 02 16 30.0000000  0 10G01G04G07G11G16G18G19G22G27G32
  24587770.680   129209607.02407  24587777.480   100682829.26945
  22117568.860   116228710.69109  22117568.680    90567860.61447
  24431903.120   128390515.33208  24431902.900   100044543.87645
  23693113.800   124508197.51708  23693112.580    97019394.97645
  21098849.800   110875240.96409  21098847.320    86396297.30748
  22934790.760   120523185.77008  22934788.980    93914215.84046
  21309217.300   111980751.16809  21309213.260    87257745.72148
  20957531.920   110132644.12709  20957527.280    85817628.51648
  20516163.420   107813295.46709  20516163.140    84010397.05649
  23691001.440   124497086.94008  23691003.100    97010734.41946
 15 03 01 02 17  0.0000000  0 10G01G04G07G11G16G18G19G22G27G32
  24571683.900   129125071.00007  24571690.560   100616957.33945
  22104423.980   116159634.05609  22104423.820    90514034.73147
  24435310.140   128408418.96708  24435309.720   100058494.70646
  23677216.080   124424655.20208  23677214.920    96954297.16945
  21110703.300   110937531.48009  21110700.820    86444835.35748
  22947055.100   120587635.68208  22947053.320    93964436.54546
  21300395.840   111934393.94609  21300391.840    87221623.22348
  20958789.180   110139251.32609  20958784.620    85822776.98848
  20514243.980   107803208.76109  20514243.720    84002537.28749
  23668907.720   124380985.18708  23668909.540    96920265.69345
 15 03 01 02 17 30.0000000  0 10G01G04G07G11G16G18G19G22G27G32
  24555626.220   129040688.19507  24555632.700   100551204.82745
  22091330.120   116090825.31809  22091329.940    90460417.59247
  24438804.080   128426779.51508  24438803.660   100072801.57446
  23661340.420   124341228.61008  23661339.260    96889289.51345
  21122645.800   111000289.68309  21122643.340    86493737.83748
  22959385.640   120652432.90208  22959383.740    94014927.89046
  21291609.520   111888221.56009  21291605.580    87185644.75448
  20960147.700   110146390.57009  20960143.240    85828340.03648
  20512376.960   107793397.54609  20512376.700    83994892.18549
  23646832.720   124264981.69308  23646834.680    96829873.57046
 15 03 01 02 18  0.0000000  0 10G01G04G07G11G16G18G19G22G27G32
  24539597.840   128956459.13607  24539604.180   100485572.00945
  22078287.380   116022284.87309  22078287.100    90407009.51247
  24442384.660   128445595.44508  24442384.200   100087463.28945
  23645486.900   124257918.26808  23645485.760    96824372.44745
  21134676.960   111063513.84009  21134674.520    86543003.40148
  22971781.960   120717575.77008  22971779.940    94065688.55746
  21282858.520   111842235.05709  21282854.640    87149811.13048
  20961607.460   110154061.54209  20961603.000    85834317.42948
  20510562.620   107783863.20109  20510562.380    83987462.82349
  23624777.100   124149079.35508  23624778.980    96739560.21646
 15 03 01 02 18 30.0000000  0 10G01G04G07G11G16G18G19G22G27G32
  24523599.220   128872386.67707  24523605.460   100420061.21546
  22065296.160   115954015.35209  22065295.760    90353812.54047
  24446052.060   128464867.40208  24446051.600   100102480.34346
  23629655.940   124174726.64508  23629654.980    96759547.90045
  21146796.920   111127204.67009  21146794.560    86592632.60348
  22984244.260   120783065.05208  22984242.080    94116719.16046
  21274143.600   111796438.24009  21274139.780    87114125.31348
  20963168.760   110162266.16109  20963164.280    85840710.64448
  20508801.640   107774609.15809  20508801.420    83980251.88249
  23602741.840   124033283.28008  23602743.600    96649329.53546
 15 03 01 02 19  0.0000000  0 10G01G04G07G11G16G18G19G22G27G32
  24507630.100   128788469.10207  24507636.160   100354671.02445
  22052356.120   115886014.91209  22052355.660    90300825.24547
  24449805.580   128484591.96008  24449805.120   100117850.07545
  23613847.300   124091652.25408  23613846.300    96694814.69045
  21159004.960   111191358.54809  21159002.700    86642622.62348
  22996771.660   120848896.27608  22996769.260    94168016.21946
  21265464.440   111750829.48309  21265460.680    87078586.04448
  20964831.220   110171002.56809  20964826.760    85847518.24948
  20507093.780   107765634.44809  20507093.580    83973258.60849
  23580727.000   123917594.65908  23580728.800    96559182.69946
 15 03 01 02 19 30.0000000  0  9G01G04G11G16G18G19G22G27G32
  24491690.840   128704708.39507  24491696.800   100289403.04845
  22039467.640   115818285.48909  22039467.120    90248049.11947
  23598061.240   124008696.53508  23598060.280    96630173.94145
  21171301.040   111255974.95009  21171298.820    86692973.04648
  23009364.080   120915069.04108  23009361.440    94219579.40046
  21256821.560   111705411.31509  21256817.860    87043195.27249
  20966594.940   110180271.21009  20966590.500    85854740.57449
  20505439.560   107756941.58109  20505439.380    83966484.94149
  23558733.360   123802017.37408  23558735.100    96469122.50046
 15 03 01 02 20  0.0000000  0  9G01G04G11G16G18G19G22G27G32
  24475781.360   128621104.48307  24475787.300   100224257.28145
  22026630.600   115750826.52309  22026630.040    90195483.74647
  23582297.800   123925859.42908  23582296.800    96565625.61545
  21183684.700   111321051.68509  21183682.520    86743682.16848
  23022020.980   120981580.73509  23022018.160    94271406.68846
  21248215.100   111660184.31709  21248211.360    87007953.46648
  20968459.780   110190071.16309  20968455.340    85862376.90548
  20503839.100   107748531.10209  20503838.920    83959931.32149
  23536761.380   123686553.87708  23536763.080    96379150.93146
 15 03 01 02 20 30.0000000  0  9G01G04G11G16G18G19G22G27G32
  24459902.320   128537660.12707  24459908.060   100159235.84445
  22013845.580   115683640.97309  22013844.980    90143131.42147
  23566557.600   123843144.10208  23566556.560    96501172.18945
  21196156.020   111386589.22209  21196153.900    86794750.35848
  23034742.420   121048431.83608  23034739.480    94323498.45446
  21239645.700   111615151.98409  21239641.860    86972863.34748
  20970426.080   110200404.51709  20970421.700    85870428.88448
  20502293.100   107740406.61709  20502292.880    83953600.55649
  23514812.140   123571209.64008  23514813.780    96289272.30346
 15 03 01 02 21  0.0000000  0  9G01G04G11G16G18G19G22G27G32
  24444052.960   128454371.88007  24444058.680   100094336.13945
  22001111.860   115616724.85709  22001111.200    90090989.05047
  23550839.820   123760546.49208  23550838.640    96436810.48545
  21208713.880   111452581.31909  21208711.760    86846172.76148
  23047527.300   121115616.39708  23047524.200    94375850.05546
  21231112.820   111570311.24709  21231108.860    86937922.52748
  20972493.020   110211266.60509  20972488.640    85878892.85848
  20500801.000   107732565.05609  20500800.720    83947490.25449
  23492885.360   123455983.51808  23492886.980    96199485.77146
 15 03 01 02 21 30.0000000  0  9G01G04G11G16G18G19G22G27G32
  24428233.840   128371242.58107  24428239.480   100029560.28145
  21988429.960   115550081.01809  21988429.280    90039058.83647
  23535144.940   123678069.53308  23535143.660    96372542.79245
  21221358.520   111519029.47409  21221356.380    86897950.51948
  23060375.700   121183135.10108  23060372.620    94428462.02546
  21222617.140   111525665.89309  21222613.060    86903133.94548
  20974660.920   110222659.29309  20974656.560    85887770.29048
  20499363.480   107725010.24909  20499363.100    83941603.38849
  23470982.100   123340880.98308  23470983.620    96109795.57946
 15 03 01 02 22  0.0000000  0  9G01G04G11G16G18G19G22G27G32
  24412445.040   128288272.79407  24412450.640    99964908.71845
  21975799.980   115483709.91409  21975799.240    89987341.14548
  23519473.160   123595713.90708  23519471.780    96308369.64345
  21234089.520   111585931.29609  21234087.380    86950081.79348
  23073287.260   121250986.09508  23073284.280    94481332.92446
  21214158.840   111481216.97909  21214154.700    86868498.43649
  20976929.780   110234582.37509  20976925.440    85897061.01548
  20497980.700   107717743.41209  20497980.280    83935940.91849
  23449102.820   123225904.97508  23449104.240    96020203.96146
 15 03 01 02 22 30.0000000  0  9G01G04G11G16G18G19G22G27G32
  24396686.480   128205461.83807  24396692.100    99900380.88745
  21963221.720   115417610.73609  21963220.940    89935835.33447
  23503824.340   123513478.95008  23503822.960    96244290.51145
  21246906.460   111653284.47609  21246904.280    87002564.77048
  23086261.500   121319166.30008  23086258.620    94534460.35246
  21205737.900   111436964.56509  21205733.720    86834016.04148
  20979299.260   110247034.26309  20979295.000    85906763.78548
  20496652.700   107710764.60209  20496652.260    83930502.87749
  23427248.040   123111057.58808  23427249.340    95930712.61846
 15 03 01 02 23  0.0000000  0  9G01G04G11G16G18G19G22G27G32
  24380958.340   128122810.77407  24380963.980    99835977.64045
  21950695.400   115351784.28009  21950694.540    89884542.03947
  23488198.660   123431365.63108  23488197.360    96180306.16446
  21259808.980   111721087.43709  21259806.820    87055398.23048
  23099298.120   121387674.53408  23099295.420    94587843.37546
  21197354.700   111392910.57209  21197350.540    86799688.27248
  20981769.440   110260015.11509  20981765.220    85916878.74748
  20495379.900   107704075.66909  20495379.400    83925290.72849
  23405418.360   122996342.15008  23405419.580    95841324.07646
 15 03 01 02 23 30.0000000  0  9G01G04G11G16G18G19G22G27G32
  24365260.740   128040319.72607  24365266.240    99771699.07245
  21938220.960   115286230.53209  21938220.080    89833461.24647
  23472596.160   123349374.06408  23472594.860    96116416.70246
  21272796.720   111789338.11709  21272794.560    87108580.55548
  23112396.640   121456508.19108  23112394.080    94641479.98746
  21189009.360   111349055.69109  21189005.220    86765515.64948
  20984340.040   110273523.75409  20984335.820    85927404.96948
  20494162.380   107697677.41709  20494161.840    83920305.07749
  23383614.280   122881761.14908  23383615.460    95752040.16146
 15 03 01 02 24  0.0000000  0  9G01G04G11G16G18G19G22G27G32
  24349593.580   127957988.74107  24349598.840    99707545.25045
  21925798.420   115220949.33409  21925797.500    89782592.81848
  23457016.800   123267503.94808  23457015.500    96052621.86946
  21285869.180   111858033.80109  21285866.960    87162109.64148
  23125556.760   121525665.48008  23125554.320    94695368.77446
  21180702.040   111305400.38709  21180697.900    86731498.53448
  20987010.940   110287559.39609  20987006.700    85938341.83848
  20493000.280   107691570.42709  20492999.700    83915546.37349
  23361836.340   122767317.34708  23361837.440    95662863.23546
 15 03 01 02 24 30.0000000  0  9G01G04G11G16G18G19G22G27G32
  24333956.880   127875817.88307  24333962.020    99643516.18745
  21913427.720   115155940.77209  21913426.800    89731936.84148
  23441460.600   123185755.55008  23441459.400    95988921.88346
  21299025.880   111927172.33709  21299023.560    87215983.80148
  23138777.980   121595143.51808  23138775.620    94749507.49646
  21172432.880   111261945.66909  21172428.720    86697637.72048
  20989781.940   110302120.95809  20989777.640    85949688.51148
  20491893.780   107685755.69609  20491893.200    83911015.41649
  23340085.080   122653013.43308  23340086.040    95573795.31046
 15 03 01 02 25  0.0000000  0  9G01G04G11G16G18G19G22G27G32
  24318350.780   127793807.98107  24318355.800    99579612.56045
  21901108.940   115091205.24309  21901108.080    89681493.62148
  23425927.720   123104129.67808  23425926.500    95925317.37946
  21312266.700   111996752.98809  21312264.260    87270202.47348
  23152059.960   121664940.72608  23152057.700    94803894.92046
  21164202.160   111218692.84909  21164197.920    86663934.23448
  20992652.960   110317208.11209  20992648.600    85961444.73748
  20490843.140   107680234.73509  20490842.600    83906713.36549
  23318361.020   122538852.69108  23318361.840    95484839.03146
 15 03 01 02 25 30.0000000  0  9G01G04G11G16G18G19G22G27G32
  24302775.460   127711960.14407  24302780.520    99515835.26645
  21888842.260   115026743.77009  21888841.420    89631263.95148
  23410418.340   123022627.39308  23410417.080    95861809.16746
  21325591.300   112066773.87809  21325588.800    87324764.18848
  23165402.420   121735055.92608  23165400.240    94858530.12546
  21156010.200   111175643.95309  21156005.920    86630389.65048
  20995624.100   110332821.28509  20995619.660    85973610.84848
  20489848.700   107675009.29109  20489848.180    83902641.58849
  23296664.860   122424838.82408  23296665.640    95395997.28046
 15 03 01 02 26  0.0000000  0  9G01G04G11G16G18G19G22G27G32
  24287230.380   127630271.41906  24287235.600    99452181.98745
  21876627.120   114962553.35709  21876626.380    89581245.49648
  23394931.940   122941245.88308  23394930.660    95798395.07745
  21338998.660   112137229.52109  21338996.100    87379664.67848
  23178804.420   121805483.81708  23178802.280    94913408.99746
  21147856.580   111132796.69509  21147852.340    86597002.19148
  20998694.460   110348956.16409  20998690.000    85986183.49348
  20488910.060   107670077.20309  20488909.640    83898798.40349
  23274996.500   122310971.18608  23274997.200    95307269.37746
 15 03 01 02 26 30.0000000  0  9G01G04G11G16G18G19G22G27G32
  24271717.100   127548750.09807  24271722.300    99388659.14444
  21864465.020   114898641.85709  21864464.360    89531444.37748
  23379470.100   122859993.45008  23379468.780    95735081.55846
  21352489.960   112208126.30009  21352487.360    87434908.89348
  23192267.100   121876230.52008  23192264.860    94968536.28246
  21139743.160   111090160.42209  21139738.960    86563779.13148
  21001865.480   110365620.08209  21001861.020    85999168.36648
  20488028.960   107665447.64309  20488028.640    83895190.94549
  23253357.960   122197260.89708  23253358.680    95218664.10746
 15 03 01 02 27  0.0000000  0  9G01G04G11G16G18G19G22G27G32
  24256233.920   127467386.87006  24256239.080    99325259.48645
  21852354.300   114835000.22209  21852353.680    89481853.53547
  23364031.080   122778860.90208  23364029.600    95671861.45246
  21366062.920   112279452.46809  21366060.300    87490487.71148
  23205788.320   121947284.58808  23205785.980    95023903.07846
  21131668.240   111047726.55209  21131664.080    86530713.78648
  21005135.280   110382802.57409  21005130.720    86012557.33148
  20487203.800   107661111.97109  20487203.560    83891812.50349
  23231748.040   122083701.10508  23231748.840    95130176.11646
 15 03 01 02 27 30.0000000  0  9G01G04G11G16G18G19G22G27G32
  24240781.920   127386187.92207  24240787.260    99261987.89045
  21840296.020   114771633.98509  21840295.400    89432477.29647
  23348616.020   122697854.08108  23348614.380    95608739.32446
  21379718.180   112351211.61709  21379715.640    87546403.91048
  23219368.660   122018649.19408  23219366.200    95079511.85546
  21123633.140   111005501.70609  21123629.000    86497811.32748
  21008504.720   110400508.68809  21008500.020    86026354.30948
  20486435.940   107657077.04409  20486435.760    83888668.40549
  23210168.420   121970300.37408  23210169.280    95041812.04646
 15 03 01 02 28  0.0000000  0  9G01G04G11G16G18G19G22G27G32
  24225360.920   127305152.07807  24225366.540    99198843.37545
  21828290.000   114708542.15009  21828289.360    89383314.86447
  23333224.660   122616972.03308  23333222.860    95545714.40846
  21393455.160   112423400.25009  21393452.700    87602654.77048
  23233007.420   122090320.97008  23233004.900    95135359.97246
  21115637.780   110963485.60609  21115633.680    86465071.52148
  21011973.360   110418736.09409  21011968.540    86040557.49148
  20485725.360   107653342.59309  20485725.120    83885758.43649
  23188619.420   121857060.32908  23188620.260    94953573.13446
 15 03 01 02 28 30.0000000  0  9G01G04G11G16G18G19G22G27G32
  24209971.160   127224280.02707  24209976.940    99135826.48545
  21816336.220   114645725.09309  21816335.540    89334366.55748
  23317857.160   122536215.63208  23317855.200    95482787.41545
  21407273.660   112496017.29109  21407271.260    87659239.45948
  23246704.360   122162298.44208  23246701.660    95191446.31046
  21107682.440   110921679.83409  21107678.340    86432495.61348
  21015541.040   110437484.24509  21015536.160    86055166.44648
  20485072.260   107649910.01709  20485071.900    83883083.70249
  23167101.620   121743984.22408  23167102.480    94865461.98946
 15 03 01 02 29  0.0000000  0  9G01G04G11G16G18G19G22G27G32
  24194612.460   127143570.73007  24194618.200    99072936.41545
  21804434.500   114583181.70709  21804433.800    89285631.48448
  23302513.340   122455583.71108  23302511.360    95419957.40046
  21421173.000   112569058.73409  21421170.640    87716154.84348
  23260458.820   122234578.05208  23260455.860    95247768.06646
  21099767.140   110880084.23409  21099762.900    86400083.46148
  21019207.480   110456751.44609  21019202.560    86070179.85148
  20484476.560   107646779.06109  20484476.140    83880643.98449
  23145615.340   121631073.75108  23145616.240    94777479.93846
 15 03 01 02 29 30.0000000  0  9G01G04G11G16G18G19G22G27G32
  24179285.000   127063025.13307  24179290.680    99010173.87845
  21792584.960   114520912.90309  21792584.380    89237110.36747
  23287193.420   122375077.42908  23287191.440    95357225.29646
  21435152.800   112642522.93709  21435150.440    87773399.65248
  23274270.580   122307158.60808  23274267.360    95304324.33446
  21091892.140   110838700.28509  21091887.760    86367836.23348
  21022972.580   110476537.23009  21022967.580    86085597.34748
  20483938.540   107643951.49209  20483938.080    83878440.67349
  23124161.280   121518332.45708  23124162.100    94689629.73046
 15 03 01 02 30  0.0000000  0  9G01G04G11G16G18G19G22G27G32
  24163988.900   126982643.96407  24163994.460    98947539.47545
  21780787.780   114458919.03709  21780787.340    89188803.50347
  23271897.540   122294697.47408  23271895.580    95294591.63346
  21449212.800   112716408.52609  21449210.400    87830972.81348
  23288139.180   122380038.34808  23288135.840    95361113.73246
  21084057.720   110797529.72809  21084053.160    86335755.28848
  21026836.200   110496840.93409  21026831.160    86101418.42448
  20483458.500   107641428.77609  20483458.020    83876474.92249
  23102739.980   121405763.44608  23102740.740    94601913.73346
 15 03 01 02 30 30.0000000  0  9G01G04G11G16G18G19G22G27G32
  24148724.180   126902427.47607  24148729.440    98885033.36145
  21769042.960   114397200.31309  21769042.680    89140711.03047
  23256625.760   122214444.27708  23256623.980    95232056.74146
  21463352.580   112790713.56109  21463350.220    87888872.81848
  23302064.280   122453215.05408  23302060.780    95418134.53346
  21076264.080   110756573.81609  21076259.440    86303841.60048
  21030798.180   110517661.77609  21030793.180    86117642.46148
  20483036.600   107639211.98109  20483036.180    83874747.54549
  23081352.100   121293369.60408  23081352.740    94514334.15446
 15 03 01 02 31  0.0000000  0  9G01G04G11G16G18G19G22G27G32
  24133490.640   126822374.71707  24133495.620    98822654.83345
  21757350.340   114335755.56209  21757350.120    89092832.04047
  23241377.940   122134316.96508  23241376.240    95169619.94246
  21477571.480   112865434.52909  21477569.120    87947096.92948
  23316045.280   122526685.42908  23316041.720    95475384.17045
  21068511.220   110715832.24309  21068506.500    86272094.93248
  21034858.080   110538997.23909  21034853.180    86134267.50748
  20482672.860   107637300.94809  20482672.520    83873258.43349
  23059997.920   121181152.77008  23059998.500    94426892.56646
 15 03 01 02 31 30.0000000  0  9G01G04G11G16G18G19G22G27G32
  24118288.860   126742489.06107  24118293.700    98760406.50745
  21745710.480   114274587.98409  21745710.260    89045169.02947
  23226154.660   122054318.88708  23226153.080    95107283.84146
  21491869.620   112940571.90109  21491867.320    88005645.50648
  23330082.280   122600450.53208  23330078.740    95532863.45746
  21060799.960   110675309.37209  21060795.240    86240518.67548
  21039016.420   110560850.10109  21039011.700    86151295.71648
  20482368.100   107635699.79409  20482367.820    83872010.77249
  23038678.600   121069118.97408  23038679.100    94339593.64947
 15 03 01 02 32  0.0000000  0  9G01G04G11G16G18G19G22G27G32
  24103118.360   126662768.11807  24103123.060    98698286.50945
  21734122.900   114213694.97709  21734122.640    88997719.96747
  23210955.500   121974447.80808  23210954.120    95045046.70846
  21506246.220   113016121.70709  21506244.000    88064515.45348
  23344174.420   122674505.45608  23344170.900    95590568.58345
  21053130.000   110635003.57609  21053125.300    86209111.56948
  21043272.540   110583216.51809  21043267.940    86168724.10048
  20482122.040   107634406.95509  20482121.820    83871003.36349
  23017394.180   120957268.40008  23017394.540    94252437.49346
 15 03 01 02 32 30.0000000  0  9G01G04G11G16G18G19G22G27G32
  24087979.260   126583212.47807  24087983.900    98636295.32645
  21722587.680   114153077.13409  21722587.440    88950485.32347
  23195780.620   121894704.44208  23195779.460    94982909.08646
  21520700.880   113092081.54409  21520698.760    88123704.90948
  23358321.420   122748848.84008  23358317.960    95648498.48246
  21045501.580   110594916.45509  21045496.980    86177874.86248
  21047626.280   110606095.72809  21047621.780    86186552.06248
  20481934.940   107633423.77509  20481934.740    83870237.24549
  22996145.180   120845604.19308  22996145.440    94165426.57746
 15 03 01 02 33  0.0000000  0  9G01G04G11G16G18G19G22G27G32
  24072872.300   126503825.50008  24072876.820    98574435.54445
  21711105.420   114092737.41109  21711105.140    88903467.39647
  23180630.700   121815091.83508  23180629.720    94920873.35746
  21535233.800   113168452.43109  21535231.680    88183214.66248
  23372523.420   122823481.21408  23372520.100    95706653.56046
  21037915.540   110555052.29409  21037911.080    86146811.89448
  21052078.020   110629489.94809  21052073.600    86204781.32748
  20481807.540   107632754.45909  20481807.380    83869715.69849
  22974932.760   120734132.42408  22974932.900    94078565.59747
 15 03 01 02 33 30.0000000  0  9G01G04G11G16G18G19G22G27G32
  24057796.760   126424603.51008  24057801.180    98512704.31845
  21699675.320   114032672.02409  21699675.060    88856663.24247
  23165505.060   121735606.72208  23165504.160    94858936.96746
  21549843.680   113245227.72109  21549841.540    88243039.54348
  23386779.340   122898396.93108  23386776.160    95765029.42745
  21030371.360   110515408.42509  21030367.120    86115920.58048
  21056626.840   110653394.16609  21056622.440    86223407.99648
  20481739.300   107632396.06309  20481739.220    83869436.42849
  22953756.740   120622852.04709  22953756.780    93991853.75646
 15 03 01 02 34  0.0000000  0  9G01G04G11G16G18G19G22G27G32
  24042752.700   126345546.85608  24042756.960    98451101.92145
  21688297.380   113972881.12409  21688297.180    88810072.97548
  23150403.840   121656249.57008  23150402.940    94797100.28746
  21564530.200   113322405.69509  21564528.060    88303178.20348
  23401088.780   122973593.94008  23401085.680    95823624.49946
  21022869.260   110475985.44609  21022865.220    86085201.38749
  21061272.480   110677807.32209  21061268.100    86242431.24348
  20481730.460   107632349.81109  20481730.480    83869400.39049
  22932617.640   120511766.05208  22932617.720    93905293.38246
 15 03 01 02 34 30.0000000  0  9G01G04G11G16G18G19G22G27G32
  24027740.500   126266657.64408  24027744.600    98389629.99845
  21676972.080   113913366.87309  21676971.980    88763698.27748
  23135327.420   121577022.85808  23135326.440    94735365.24446
  21579293.300   113399986.40309  21579291.240    88363630.67748
  23415451.660   123049071.85108  23415448.740    95882438.44646
  21015409.940   110436786.97209  21015406.020    86054657.13949
  21066015.180   110702730.39709  21066010.800    86261851.83548
  20481781.600   107632618.57209  20481781.660    83869609.81649
  22911516.440   120400879.18108  22911516.420    93818888.14846
 15 03 01 02 35  0.0000000  0  9G01G04G11G16G18G19G22G27G32
  24012760.200   126187936.06208  24012764.060    98328288.67945
  21665699.380   113854129.15209  21665699.460    88717539.05448
  23120275.820   121497926.56508  23120274.820    94673731.82646
  21594132.520   113477967.22809  21594130.540    88424394.92348
  23429867.580   123124828.39008  23429864.820    95941469.50146
  21007993.580   110397813.89209  21007989.700    86024288.51748
  21070854.740   110728162.29909  21070850.320    86281668.90548
  20481892.920   107633203.33909  20481892.980    83870065.48149
  22890453.640   120290194.22908  22890453.660    93732640.26746
 15 03 01 02 35 30.0000000  0  9G01G04G11G16G18G19G22G27G32
  23997811.840   126109382.57708  23997815.600    98267078.35445
  21654479.480   113795168.20309  21654479.580    88671595.49548
  23105249.180   121418961.41808  23105248.220    94612200.59646
  21609047.520   113556346.16909  21609045.560    88485469.39748
  23444336.220   123200862.10308  23444333.660    96000716.53946
  21000620.420   110359067.61709  21000616.500    85994096.61948
  21075790.960   110754101.91009  21075786.460    86301881.59448
  20482064.680   107634105.41609  20482064.600    83870768.39649
  22869429.860   120179714.45008  22869429.940    93646552.24847
 15 03 01 02 36  0.0000000  0  9G01G04G11G16G18G19G22G27G32
  23982895.800   126030998.86008  23982899.540    98206000.29546
  21643312.640   113736485.53209  21643312.660    88625868.77148
  23090247.860   121340129.07808  23090246.940    94550772.85846
  21624038.180   113635122.42409  21624036.180    88546853.46648
  23458857.460   123277172.08108  23458855.100    96060178.84646
  20993290.960   110320550.98209  20993287.020    85964083.66248
  21080823.860   110780549.66309  21080819.320    86322490.24148
  20482297.340   107635327.23309  20482297.060    83871720.46349
  22848445.940   120069444.06208  22848446.140    93560627.38847
 15 03 01 02 36 30.0000000  0  9G01G04G11G16G18G19G22G27G32
  23968011.180   125952780.45308  23968015.080    98145051.05446
  21632198.040   113678076.76109  21632197.800    88580355.47448
  23075271.100   121261425.59908  23075270.140    94489445.52546
  21639103.100   113714288.86109  21639101.080    88608541.57648
  23473429.960   123353751.46908  23473427.660    96119851.07846
  20986004.560   110282260.49409  20986000.580    85934246.92748
  21085952.320   110807499.66309  21085947.760    86343490.24748
  20482590.080   107636865.20309  20482589.700    83872918.87749
  22827501.540   119959381.43808  22827501.860    93474864.42347
 15 03 01 02 37  0.0000000  0  9G01G04G11G16G18G19G22G27G32
  23953158.600   125874730.35608  23953162.620    98084232.96546
  21621136.100   113619944.56509  21621135.580    88535057.68448
  23060319.480   121182853.95409  23060318.500    94428220.91946
  21654242.280   113793845.68109  21654240.240    88670533.87748
  23488053.880   123430600.89008  23488051.620    96179733.73546
  20978761.900   110244199.87809  20978757.880    85904589.31048
  21091176.760   110834953.96309  21091172.100    86364883.20548
  20482943.660   107638723.09509  20482943.240    83874366.58549
  22806597.740   119849532.07408  22806598.180    93389267.61647
 15 03 01 02 37 30.0000000  0  9G01G04G11G16G18G19G22G27G32
  23938337.640   125796846.62908  23938341.640    98023544.50246
  21610126.300   113562086.57509  21610125.500    88489973.57048
  23045392.620   121104412.20709  23045391.500    94367097.53646
  21669455.060   113873789.25109  21669453.040    88732827.54148
  23502728.480   123507716.15708  23502726.220    96239823.55646
  20971562.800   110206368.22309  20971558.760    85875110.11348
  21096496.440   110862908.90209  21096491.700    86386666.28548
  20483357.900   107640899.82509  20483357.480    83876062.73449
  22785734.700   119739896.92808  22785735.240    93303837.75147
 15 03 01 02 38  0.0000000  0  9G01G04G11G16G18G19G22G27G32
  23923549.260   125719134.11608  23923553.300    97962989.45746
  21599169.540   113504507.83209  21599168.620    88445107.04648
  23030491.360   121026104.91609  23030490.020    94306078.90946
  21684741.860   113954121.80609  21684739.860    88795424.30448
  23517454.180   123585099.71008  23517451.920    96300122.42046
  20964408.440   110168771.53509  20964404.360    85845813.99448
  21101912.060   110891367.94809  21101907.300    86408842.16848
  20483833.920   107643401.04009  20483833.460    83878011.72949
  22764913.880   119630483.34609  22764914.460    93218580.50847
 15 03 01 02 38 30.0000000  0  9G01G04G11G16G18G19G22G27G32
  23908792.300   125641587.04808  23908796.360    97902563.31946
  21588264.660   113447202.19309  21588263.700    88400453.33248
  23015614.740   120947927.28509  23015613.260    94245161.32546
  21700101.040   114034834.39209  21700098.980    88858317.20048
  23532229.400   123662743.61608  23532227.180    96360624.15745
  20957297.880   110131405.08509  20957293.800    85816697.28448
  21107422.300   110920324.27909  21107417.500    86431405.54248
  20484370.720   107646221.79409  20484370.260    83880209.71549
  22744134.660   119521288.33309  22744135.200    93133493.56547
 15 03 01 02 39  0.0000000  0  9G01G04G11G16G18G19G22G27G32
  23894068.140   125564212.21508  23894072.240    97842271.39046
  21577412.960   113390176.49209  21577411.980    88356017.76648
  23000764.060   120869886.25908  23000762.460    94184350.18746
  21715533.400   114115931.37209  21715531.240    88921509.62948
  23547055.000   123740652.36008  23547052.760    96421332.26246
  20950232.660   110094276.65109  20950228.480    85787766.04349
  21113028.100   110949782.80209  21113023.260    86454360.24348
  20484969.740   107649369.66809  20484969.360    83882662.60149
  22723398.860   119412321.26609  22723399.260    93048584.25647
 15 03 01 02 39 30.0000000  0  9G01G04G11G16G18G19G22G27G32
  23879375.960   125487005.16608  23879380.040    97782110.19846
  21566613.580   113333425.87209  21566612.620    88311796.53448
  22985938.420   120791977.02408  22985936.640    94123641.73946
  21731037.640   114197406.09609  21731035.340    88984996.40048
  23561929.700   123818819.25508  23561927.440    96482241.52146
  20943211.940   110057382.11109  20943207.660    85759017.04648
  21118728.380   110979737.80709  21118723.460    86477701.81248
  20485630.360   107652841.05509  20485629.980    83885367.57249
  22702706.160   119303580.42209  22702706.480    92963851.21147
 15 03 01 02 40  0.0000000  0  9G01G04G11G16G18G19G22G27G32
  23864715.640   125409964.99808  23864719.680    97722079.02746
  21555866.360   113276949.48009  21555865.440    88267788.98948
  22971137.740   120714199.23108  22971135.960    94063035.71446
  21746613.140   114279255.43809  21746610.740    89048775.08048
  23576852.880   123897240.84008  23576850.600    96543349.23746
  20936235.820   110020722.16409  20936231.460    85730450.86449
  21124522.680   111010187.02809  21124517.700    86501428.47148
  20486352.500   107656635.88409  20486352.120    83888324.57249
  22682056.880   119195067.76309  22682057.060    92879295.95347
 15 03 01 02 40 30.0000000  0  9G01G04G11G16G18G19G22G27G32
  23850088.020   125333096.43908  23850091.880    97662181.59446
  21545172.160   113220751.66909  21545171.320    88223998.52348
  22956362.900   120636557.71108  22956361.260    94002535.88746
  21762260.180   114361481.01809  21762257.760    89112846.94048
  23591824.980   123975919.47808  23591822.600    96604657.24946
  20929305.400   109984302.70009  20929301.040    85702072.07649
  21130411.640   111041133.64209  21130406.600    86525542.72548
  20487137.240   107660759.72309  20487136.840    83891537.95949
  22661452.420   119086790.57609  22661452.520    92794924.18747
 15 03 01 02 41  0.0000000  0  9G01G04G11G16G18G19G22G27G32
  23835492.540   125256396.78408  23835496.280    97602415.75646
  21534530.440   113164829.59609  21534529.640    88180422.91348
  22941613.500   120559049.91008  22941612.020    93942140.26046
  21777977.820   114444077.72309  21777975.380    89177207.97848
  23606845.100   124054850.47608  23606842.700    96666161.91445
  20922420.420   109948121.88409  20922416.060    85673879.23748
  21136394.480   111072573.71809  21136389.400    86550041.48548
  20487984.160   107665210.66509  20487983.800    83895006.21949
  22640892.780   118978748.92009  22640892.760    92710735.93947
 15 03 01 02 41 30.0000000  0  9G01G04G11G16G18G19G22G27G32
  23820929.340   125179867.01708  23820933.040    97542782.30246
  21523941.360   113109184.25409  21523940.560    88137062.93147
  22926889.800   120481677.11408  22926888.500    93881849.82346
  21793765.820   114527044.21509  21793763.380    89241857.16048
  23621913.000   124134032.35708  23621910.600    96727862.06945
  20915581.260   109912182.02309  20915576.920    85645874.15248
  21142471.060   111104506.55609  21142466.040    86574924.21048
  20488893.660   107669990.48509  20488893.360    83898730.74649
  22620378.640   118870946.39809  22620378.520    92626734.01247
 15 03 01 02 42  0.0000000  0  9G01G04G11G16G18G19G22G27G32
  23806398.420   125103507.05808  23806402.080    97483281.16246
  21513404.860   113053815.24809  21513404.080    88093918.28647
  22912191.960   120404439.69308  22912190.760    93821664.87746
  21809623.520   114610377.15209  21809621.160    89306791.88948
  23637028.100   124213462.71708  23637025.740    96789755.84046
  20908788.080   109876483.65809  20908783.760    85618057.25249
  21148641.100   111136930.61609  21148636.160    86600189.71548
  20489865.900   107675100.00009  20489865.660    83902712.18049
  22599910.520   118763385.77209  22599910.380    92542920.58347
 15 03 01 02 42 30.0000000  0 10G01G04G11G14G16G18G19G22G27G32
  23791900.040   125027318.15308  23791903.640    97423913.31246
  21502921.240   112998723.71109  21502920.420    88050989.84648
  22897520.180   120327338.76709  22897518.960    93761586.28446
  24718118.480   129894587.57108  24718115.940   101216559.33244
  21825550.820   114694075.83309  21825548.540    89372011.61648
  23652190.240   124293140.64508  23652187.980    96851842.51446
  20902041.300   109841029.07709  20902037.020    85590430.31649
  21154904.540   111169845.50509  21154899.680    86625837.69348
  20490901.280   107680541.25109  20490901.080    83906952.11249
  22579489.160   118656070.99309  22579489.000    92459298.73447
 15 03 01 02 43  0.0000000  0 10G01G04G11G14G16G18G19G22G27G32
  23777433.000   124951293.84408  23777436.560    97364673.71946
  21492489.200   112943902.96609  21492488.280    88008272.41347
  22882873.260   120250368.09909  22882871.880    93701609.19846
  24705185.180   129826623.27208  24705182.800   101163600.11343
  21841545.900   114778130.84009  21841543.720    89437509.00048
  23667397.860   124373057.28508  23667395.500    96914115.22945
  20895339.960   109805813.17709  20895335.660    85562989.36749
  21161259.880   111203243.51709  21161255.140    86651862.12448
  20491998.780   107686308.62309  20491998.600    83911446.16449
  22559113.840   118548998.25009  22559113.640    92375865.47547
 15 03 01 02 43 30.0000000  0 10G01G04G11G14G16G18G19G22G27G32
  23762999.440   124875445.45508  23763003.000    97305571.19146
  21482110.940   112889364.35809  21482109.860    87965774.82548
  22868253.340   120173539.44708  22868251.740    93641742.76946
  24692266.660   129758736.96107  24692264.880   101110701.70343
  21857610.540   114862551.31109  21857608.460    89503291.15248
  23682652.560   124453221.55608  23682650.220    96976580.89145
  20888686.400   109770848.45909  20888682.120    85535744.14149
  21167709.020   111237134.55209  21167704.420    86678270.71948
  20493160.620   107692414.24409  20493160.460    83916203.78049
  22538787.260   118442181.65009  22538787.060    92292631.79847
 15 03 01 02 44  0.0000000  0 10G01G04G11G14G16G18G19G22G27G32
  23748598.580   124799768.90908  23748602.040    97246602.57646
  21471785.540   112835103.39209  21471784.340    87923493.58748
  22853659.620   120096848.84108  22853657.820    93581983.91146
  24679362.660   129690927.19207  24679361.360   101057862.91044
  21873743.520   114947330.83309  21873741.560    89569353.08848
  23697953.200   124533627.24808  23697950.920    97039234.67146
  20882080.040   109736131.73009  20882075.780    85508692.15649
  21174250.920   111271512.78709  21174246.440    86705058.96048
  20494386.180   107698854.85009  20494386.060    83921222.43449
  22518509.220   118335619.80709  22518508.980    92209596.65347
 15 03 01 02 44 30.0000000  0 10G01G04G11G14G16G18G19G22G27G32
  23734230.720   124724265.81008  23734234.020    97187769.10146
  21461513.240   112781121.73609  21461511.960    87881429.99448
  22839092.440   120020298.18208  22839090.560    93522334.10246
  24666474.040   129623197.99807  24666472.940   101005086.90744
  21889944.540   115032467.69609  21889942.660    89635693.47348
  23713299.680   124614273.91808  23713297.540    97102076.21346
  20875521.380   109701665.69409  20875517.140    85481835.51549
  21180885.680   111306378.49909  21180881.220    86732227.05148
  20495676.000   107705632.93409  20495675.880    83926504.05449
  22498280.460   118229317.06909  22498280.180    92126763.40247
 15 03 01 02 45  0.0000000  0 10G01G04G11G14G16G18G19G22G27G32
  23719894.880   124648931.04008  23719898.160    97129066.79646
  21451292.940   112727413.85709  21451291.700    87839579.73048
  22824550.860   119943882.64108  22824549.100    93462789.57846
  24653600.380   129555547.41207  24653599.500   100952372.16943
  21906212.200   115117954.68709  21906210.360    89702306.68248
  23728690.620   124695154.02508  23728688.520    97165099.67945
  20869009.680   109667446.34309  20869005.460    85455171.09249
  21187611.880   111341724.82409  21187607.400    86759769.64248
  20497029.200   107712744.16109  20497029.120    83932045.26449
  22478100.500   118123270.96309  22478100.200    92044130.10347
 15 03 01 02 45 30.0000000  0 10G01G04G11G14G16G18G19G22G27G32
  23705591.000   124573764.41308  23705594.320    97070495.50746
  21441124.580   112673979.49009  21441123.460    87797942.60248
  22810034.960   119867602.19908  22810033.320    93403350.33146
  24640742.320   129487978.06607  24640741.520   100899720.73844
  21922545.880   115203788.82109  21922544.120    89769190.39248
  23744125.540   124776265.13408  23744123.540    97228303.13345
  20862545.100   109633474.63509  20862540.880    85428699.64549
  21194429.140   111377549.83309  21194424.640    86787685.23648
  20498445.900   107720189.17909  20498445.860    83937846.57949
  22457969.880   118017484.13809  22457969.600    91961698.87647
 15 03 01 02 46  0.0000000  0 10G01G04G11G14G16G18G19G22G27G32
  23691319.780   124498769.49208  23691323.100    97012058.01746
  21431008.940   112620822.31809  21431007.920    87756521.46848
  22795545.620   119791460.88909  22795544.080    93344019.48646
  24627901.000   129420496.10407  24627900.080   100847137.42443
  21938945.780   115289971.01409  21938944.100    89836345.31648
  23759604.520   124857607.81808  23759602.520    97291687.03445
  20856128.440   109599755.20109  20856124.300    85402424.77249
  21201337.880   111413855.75909  21201333.360    86815975.56748
  20499927.020   107727972.39209  20499926.960    83943911.41649
  22437889.780   117911962.91509  22437889.540    91879474.61147
 15 03 01 02 46 30.0000000  0 10G01G04G11G14G16G18G19G22G27G32
  23677081.420   124423947.27208  23677084.800    96953755.08946
  21420946.180   112567942.66509  21420945.160    87715316.56948
  22781083.000   119715459.66809  22781081.480    93284797.80646
  24615077.100   129353105.37407  24615076.040   100794625.17944
  21955411.680   115376500.02309  21955410.020    89903770.48648
  23775127.440   124939181.58408  23775125.500    97355250.99345
  20849760.280   109566290.55209  20849756.200    85376348.42649
  21208338.020   111450642.14809  21208333.460    86844640.28648
  20501472.860   107736095.59909  20501472.720    83950241.17349
  22417860.880   117806710.81909  22417860.680    91797460.04147
 15 03 01 02 47  0.0000000  0 10G01G04G11G14G16G18G19G22G27G32
  23662875.520   124349295.48108  23662878.900    96895584.97247
  21410935.960   112515338.52209  21410934.840    87674326.35948
  22766646.740   119639596.82009  22766645.260    93225683.94646
  24602270.620   129285806.42607  24602269.600   100742184.48144
  21971942.580   115463370.62809  21971940.940    89971461.83648
  23790693.440   125020981.90508  23790691.500    97418991.50745
  20843440.340   109533079.14309  20843436.300    85350469.42049
  21215428.880   111487904.90809  21215424.280    86873676.20948
  20503083.200   107744557.42809  20503082.940    83956834.80649
  22397883.340   117701728.50809  22397883.180    91715655.69647
 15 03 01 02 47 30.0000000  0 10G01G04G11G14G16G18G19G22G27G32
  23648702.600   124274816.75208  23648705.980    96837549.70147
  21400978.660   112463012.24509  21400977.380    87633552.66348
  22752237.360   119563875.30609  22752235.900    93166680.22246
  24589482.500   129218604.41507  24589481.380   100689819.31344
  21988538.420   115550582.44009  21988536.860    90039419.05948
  23806302.600   125103009.19108  23806300.740    97482908.86645
  20837169.280   109500124.60809  20837165.260    85324790.57049
  21222610.660   111525645.19809  21222606.020    86903084.23448
  20504758.640   107753361.24409  20504758.240    83963694.91549
  22377958.160   117597021.23009  22377958.040    91634065.65947
 15 03 01 02 48  0.0000000  0 10G01G04G11G14G16G18G19G22G27G32
  23634562.080   124200508.15608  23634565.360    96779647.00047
  21391073.640   112410960.71909  21391072.260    87592993.06148
  22737854.260   119488292.09709  22737852.840    93107784.26846
  24576712.800   129151499.52707  24576711.700   100637529.80045
  22005198.380   115638130.89209  22005196.860    90107638.59548
  23821954.080   125185258.49908  23821952.260    97546999.24145
  20830946.860   109467425.55409  20830942.860    85299310.80049
  21229882.520   111563858.46609  21229877.780    86932860.80848
  20506498.740   107762504.97209  20506498.220    83970819.89549
  22358085.320   117492588.82209  22358085.180    91552689.79947
 15 03 01 02 48 30.0000000  0 10G01G04G11G14G16G18G19G22G27G32
  23620454.140   124126370.66508  23620457.320    96721877.63347
  21381221.060   112359184.78009  21381219.620    87552648.20348
  22723497.860   119412849.03909  22723496.480    93048997.51746
  24563962.280   129084495.30808  24563961.280   100585318.76345
  22021922.000   115726013.90309  22021920.500    90176118.83548
  23837647.500   125267727.92508  23837645.700    97611261.14445
  20824773.440   109434983.95009  20824769.420    85274031.64149
  21237244.260   111602544.08709  21237239.380    86963005.45648
  20508303.760   107771990.43109  20508303.260    83978211.16049
  22338265.480   117388434.95209  22338265.320    91471530.97647
 15 03 01 02 49  0.0000000  0 10G01G04G11G14G16G18G19G22G27G32
  23606379.200   124052406.80308  23606382.360    96664243.54247
  21371421.360   112307686.78909  21371419.940    87512519.91648
  22709168.640   119337548.56709  22709167.180    92990321.86346
  24551231.980   129017597.09608  24551230.960   100533190.29245
  22038709.360   115814231.54809  22038707.740    90244859.81348
  23853382.900   125350418.05208  23853381.120    97675695.00545
  20818649.720   109402803.52109  20818645.680    85248955.98449
  21244696.040   111641702.85109  21244691.060    86993518.77348
  20510174.380   107781820.93409  20510173.960    83985871.28249
  22318499.620   117284565.00809  22318499.500    91390593.39347
 15 03 01 02 49 30.0000000  0 10G01G04G11G14G16G18G19G22G27G32
  23592336.340   123978611.47208  23592339.520    96606740.79247
  21361673.500   112256461.25209  21361672.060    87472603.93848
  22694865.740   119262386.07509  22694864.200    92931753.73346
  24538521.500   128950802.64708  24538520.280   100481142.68645
  22055558.840   115902775.75509  22055557.160    90313855.27148
  23869158.900   125433321.42608  23869157.060    97740295.02445
  20812574.840   109370880.22709  20812570.820    85224080.70149
  21252236.560   111681328.07309  21252231.520    87024395.57548
  20512109.800   107791992.21309  20512109.520    83993796.94649
  22298787.340   117180976.52209  22298787.260    91309875.14547
 15 03 01 02 50  0.0000000  0 10G01G04G11G14G16G18G19G22G27G32
  23578326.480   123904989.50808  23578329.660    96549373.11947
  21351978.420   112205513.17109  21351976.940    87432904.16548
  22680590.060   119187366.78909  22680588.440    92873297.19346
  24525832.200   128884119.66308  24525830.880   100429181.94645
  22072470.880   115991648.67109  22072469.160    90383106.85948
  23884976.060   125516440.75308  23884974.200    97805063.34345
  20806550.020   109339220.13309  20806546.060    85199410.50749
  21259866.460   111721423.29509  21259861.440    87055638.60548
  20514111.160   107802509.94609  20514111.000    84001992.57849
  22279130.080   117077677.07609  22279130.000    91229382.12847
 15 03 01 02 50 30.0000000  0 10G01G04G11G14G16G18G19G22G27G32
  23564349.640   123831541.04108  23564352.820    96492140.65447
  21342336.100   112154842.43509  21342334.600    87393420.50548
  22666341.700   119112491.06308  22666340.020    92814952.52546
  24513164.600   128817551.03808  24513163.240   100377310.32546
  22089445.020   116080847.93709  22089443.260    90452612.75648
  23900833.980   125599774.21808  23900831.940    97869998.51245
  20800575.560   109307824.73509  20800571.640    85174946.57549
  21267585.420   111761986.71609  21267580.480    87087246.47248
  20516178.680   107813375.05509  20516178.580    84010458.89249
  22259528.400   116974669.59209  22259528.320    91149116.63347
 15 03 01 02 51  0.0000000  0 10G01G04G11G14G16G18G19G22G27G32
  23550405.080   123758262.23108  23550408.220    96435040.37747
  21332745.780   112104444.98409  21332744.280    87354149.79548
  22652119.860   119037755.16008  22652118.180    92756716.79746
  24500518.580   128751095.91008  24500517.160   100325527.12245
  22106480.040   116170367.28009  22106478.240    90522368.05548
  23916731.420   125683315.53708  23916729.260    97935095.65245
  20794651.000   109276691.11709  20794647.100    85150686.61949
  21275392.340   111803012.73909  21275387.520    87119214.80348
  20518311.760   107824584.53409  20518311.640    84019193.54349
  22239982.040   116871952.88409  22239981.960    91069077.70647
 15 03 01 02 51 30.0000000  0 10G01G04G11G14G16G18G19G22G27G32
  23536493.440   123685156.19008  23536496.440    96378074.72347
  21323207.960   112054323.72509  21323206.500    87315094.29948
  22637925.240   118963162.65608  22637923.700    92698592.81146
  24487895.240   128684760.06508  24487893.800   100273836.87945
  22123575.980   116260207.35809  22123574.200    90592373.27248
  23932668.620   125767065.61308  23932666.260    98000355.44545
  20788777.140   109245823.84609  20788773.240    85126634.21049
  21283287.520   111844502.58709  21283282.760    87151544.55948
  20520511.140   107836142.33309  20520510.980    84028199.61649
  22220492.180   116769532.84509  22220492.000    90989269.93647
 15 03 01 02 52  0.0000000  0 10G01G04G11G14G16G18G19G22G27G32
  23522614.780   123612223.38108  23522617.700    96321244.06147
  21313722.700   112004479.05409  21313721.360    87276254.33148
  22623758.120   118888714.53408  22623756.660    92640581.32846
  24475295.240   128618546.73708  24475293.700   100222242.09545
  22140732.380   116350365.29009  22140730.700    90662626.17448
  23948645.160   125851022.68408  23948642.680    98065776.54245
  20782954.260   109215224.36509  20782950.320    85102790.46749
  21291270.780   111886455.21109  21291266.040    87184234.92248
  20522777.000   107848049.69709  20522776.860    84037478.07649
  22201059.380   116667412.65209  22201059.120    90909695.81647
 15 03 01 02 52 30.0000000  0 10G01G04G11G14G16G18G19G22G27G32
  23508769.080   123539463.49808  23508771.820    96264548.13847
  21304289.980   111954910.36709  21304288.700    87237629.40448
  22609618.620   118814411.12608  22609617.140    92582682.60547
  24462719.080   128552458.41208  24462717.340   100170744.71444
  22157948.840   116440838.68509  22157947.220    90733124.88848
  23964660.600   125935184.24508  23964658.060    98131356.99545
  20777182.460   109184893.52509  20777178.520    85079156.05849
  21299341.780   111928868.83109  21299337.080    87217284.49648
  20525109.480   107860307.08309  20525109.360    84047029.27949
  22181684.060   116565594.67209  22181683.680    90830357.19547
 15 03 01 02 53  0.0000000  0 10G01G04G11G14G16G18G19G22G27G32
  23494955.840   123466874.24808  23494958.500    96207985.18247
  21294909.400   111905615.41509  21294908.100    87199217.78048
  22595506.180   118740249.89209  22595504.760    92524894.67846
  24450166.880   128486495.96908  24450164.980   100119345.42444
  22175224.360   116531622.27309  22175222.780    90803865.30548
  23980714.000   126019545.57608  23980711.520    98197093.09945
  20771461.700   109154830.63609  20771457.680    85055730.43949
  21307499.800   111971739.41809  21307495.080    87250690.15248
  20527508.340   107872913.09909  20527508.240    84056852.14049
  22162366.320   116464079.43909  22162365.900    90751254.47147
 15 03 01 02 53 30.0000000  0 10G01G04G11G14G16G18G19G22G27G32
  23481175.560   123394458.44508  23481178.140    96151557.36647
  21285581.400   111856596.72709  21285580.060    87161021.42548
  22581421.460   118666234.41209  22581420.200    92467220.32446
  24437639.700   128420664.86007  24437637.600   100068048.47144
  22192558.960   116622716.45009  22192557.420    90874847.74248
  23996805.680   126104107.93808  23996803.160    98262985.84945
  20765792.640   109125039.44909  20765788.520    85032516.53349
  21315744.960   112015067.97409  21315740.220    87284452.66348
  20529974.240   107885871.27509  20529974.100    84066949.41949
  22143107.260   116362872.39809  22143106.780    90672391.91047
 15 03 01 02 54  0.0000000  0 10G01G04G11G14G16G18G19G22G27G32
  23467428.040   123322215.14208  23467430.580    96095263.97747
  21276305.760   111807853.37309  21276304.480    87123039.61148
  22567364.380   118592364.14009  22567363.180    92409659.11547
  24425137.760   128354967.16407  24425135.600   100016855.50544
  22209952.060   116714117.82809  22209950.540    90946069.54848
  24012935.000   126188868.02108  24012932.380    98329032.66745
  20760175.400   109095520.48809  20760171.200    85009514.74549
  21324076.740   112058852.02309  21324072.080    87318570.09848
  20532507.100   107899181.58909  20532506.960    84077321.07549
  22123907.240   116261975.45209  22123906.680    90593770.99047
 15 03 01 02 54 30.0000000  0 10G01G04G11G14G16G18G19G22G27G32
  23453713.660   123250145.86508  23453716.180    96039106.18947
  21267082.660   111759386.35909  21267081.520    87085273.14348
  22553335.260   118518640.67209  22553334.040    92352212.30647
  24412661.860   128289407.17007  24412659.760    99965769.81044
  22227403.380   116805825.13409  22227401.880    91017529.74548
  24029101.740   126273824.93408  24029099.100    98395232.87145
  20754610.500   109066276.36509  20754606.180    84986727.12949
  21332495.100   112103091.03209  21332490.520    87353042.05748
  20535107.480   107912846.24509  20535107.260    84087968.85749
  22104766.960   116161392.84309  22104766.380    90515395.03647
 15 03 01 02 55  0.0000000  0 10G01G04G11G14G16G18G19G22G27G32
  23440032.060   123178248.84708  23440034.600    95983082.62147
  21257911.800   111711194.05009  21257910.880    87047720.71748
  22539333.780   118445062.55809  22539332.500    92294878.74847
  24400212.300   128223985.80907  24400210.220    99914792.13944
  22244912.000   116897833.52209  22244910.520    91089224.54848
  24045305.240   126358974.89108  24045302.500    98461583.49544
  20749097.780   109037306.40609  20749093.400    84964153.13349
  21340999.420   112147781.65309  21340994.880    87387865.91848
  20537775.140   107926864.30709  20537774.840    84098892.01449
  22085686.640   116061125.39709  22085686.060    90437264.62548
 15 03 01 02 55 30.0000000  0 10G01G04G11G14G16G18G19G22G27G32
  23426383.200   123106523.72708  23426385.800    95927193.00947
  21248793.220   111663275.88809  21248792.360    87010381.92348
  22525360.040   118371630.23209  22525358.680    92237658.80146
  24387789.640   128158705.69607  24387787.620    99863924.54344
  22262477.380   116990139.92209  22262475.820    91161151.56448
  24061545.000   126444315.27408  24061542.160    98528082.50144
  20743637.440   109008611.62909  20743632.980    84941793.57249
  21349589.260   112192921.84809  21349584.760    87423040.10448
  20540510.120   107941236.26409  20540509.780    84110090.93349
  22066666.680   115961175.49809  22066666.240    90359381.66048
 15 03 01 02 56  0.0000000  0 10G01G04G11G14G16G18G19G22G27G32
  23412767.340   123034972.25508  23412770.000    95871438.70747
  21239727.160   111615633.48209  21239726.340    86973257.99448
  22511414.400   118298345.61709  22511413.000    92180553.94747
  24375394.820   128093571.57807  24375393.100    99813170.70544
  22280099.440   117082744.14409  22280097.820    91233310.65147
  24077820.960   126529845.61708  24077817.900    98594729.54044
  20738229.980   108980195.04609  20738225.440    84919650.78449
  21358264.620   112238511.55109  21358260.220    87458564.54448
  20543312.820   107955964.59109  20543312.520    84121567.54649
  22047708.020   115861547.57709  22047707.640    90281749.58147
 15 03 01 02 56 30.0000000  0 10G01G04G11G14G16G18G19G22G27G32
  23399184.220   122963593.26808  23399187.000    95815818.82047
  21230713.380   111568265.34909  21230712.480    86936347.79848
  22497496.800   118225208.05209  22497495.240    92123563.68747
  24363028.060   128028584.94307  24363026.620    99762531.75844
  22297777.420   117175642.19609  22297775.740    91305698.69248
  24094132.500   126615562.93308  24094129.380    98661522.27745
  20732875.440   108952056.66109  20732870.880    84897724.78349
  21367024.920   112284547.72709  21367020.600    87494436.89748
  20546183.240   107971048.95509  20546183.020    84133321.60049
  22028810.920   115762243.38709  22028810.640    90204369.76647
 15 03 01 02 57  0.0000000  0 10G01G04G11G14G16G18G19G22G27G32
  23385633.540   122892385.49608  23385636.540    95760332.33947
  21221751.600   111521170.26009  21221750.560    86899650.34848
  22483607.060   118152216.91209  22483605.360    92066687.52047
  24350689.720   127963747.33307  24350688.280    99712008.96644
  22315510.500   117268829.79509  22315508.820    91378312.33448
  24110478.960   126701463.63508  24110475.740    98728457.89545
  20727573.860   108924196.73309  20727569.300    84876015.75849
  21375869.660   112331027.55909  21375865.400    87530654.94848
  20549121.280   107986488.85909  20549121.140    84145352.68849
  22009975.620   115663264.16309  22009975.460    90127243.16448
 15 03 01 02 57 30.0000000  0 10G01G04G11G14G16G18G19G22G27G32
  23372115.780   122821351.08008  23372119.100    95704980.96047
  21212842.120   111474350.21409  21212840.960    86863167.23048
  22469745.660   118079374.65809  22469743.860    92009927.36347
  24338380.760   127899063.98407  24338379.500    99661606.36944
  22333298.680   117362306.52409  22333296.940    91451151.29648
  24126860.300   126787547.62908  24126857.000    98795536.36144
  20722325.840   108896618.32809  20722321.240    84854526.10049
  21384798.980   112377951.29509  21384794.660    87567218.91048
  20552127.480   108002287.25009  20552127.480    84157663.12149
  21991203.160   115564614.96409  21991203.080    90050373.72848
 15 03 01 02 58  0.0000000  0 10G01G04G11G14G16G18G19G22G27G32
  23358631.060   122750490.02208  23358634.480    95649764.63947
  21203984.900   111427804.91409  21203983.640    86826898.19248
  22455912.680   118006681.51409  22455910.800    91953283.39947
  24326101.800   127834537.91107  24326100.700    99611326.33045
  22351141.400   117456069.84109  22351139.560    91524213.56048
  24143276.100   126873812.91508  24143272.780    98862756.07845
  20717131.640   108869322.74909  20717126.980    84833256.82249
  21393812.480   112425317.19209  21393808.080    87604127.40148
  20555202.100   108018444.84009  20555202.160    84170253.44449
  21972494.060   115466298.28709  21972493.920    89973763.39647
 15 03 01 02 58 30.0000000  0 10G01G04G11G14G16G18G19G22G27G32
  23345179.300   122679801.46808  23345182.700    95594682.73546
  21195179.760   111381533.45509  21195178.440    86790842.53448
  22442107.960   117934136.97909  22442105.980    91896755.23347
  24313853.140   127770171.03307  24313852.200    99561170.33445
  22369037.980   117550116.20009  22369036.080    91597496.35348
  24159725.880   126960256.73208  24159722.580    98930114.90744
  20711991.360   108842310.52709  20711986.700    84812208.33749
  21402909.580   112473122.53109  21402905.100    87641378.31248
  20558345.140   108034961.60309  20558345.160    84183123.64149
  21953848.620   115368316.05409  21953848.420    89897413.66547
 15 03 01 02 59  0.0000000  0 10G01G04G11G14G16G18G19G22G27G32
  23331760.420   122609284.82208  23331763.640    95539734.79646
  21186426.580   111335535.02809  21186425.220    86754999.63548
  22428331.480   117861741.19009  22428329.460    91840342.98847
  24301635.200   127705965.68508  24301634.360    99511140.23345
  22386987.800   117644442.41009  22386985.860    91670997.29048
  24176208.940   127046875.71308  24176205.620    98997610.25544
  20706905.080   108815582.44209  20706900.540    84791381.27649
  21412089.800   112521364.82809  21412085.220    87678969.71948
  20561556.640   108051837.70809  20561556.540    84196273.85049
  21935267.260   115270670.39809  21935266.980    89821326.20547
 15 03 01 02 59 30.0000000  0 10G01G04G11G14G16G18G19G22G27G32
  23318374.520   122538941.42208  23318377.560    95484921.84546
  21177725.620   111289810.89409  21177724.180    86719370.46248
  22414583.560   117789495.90609  22414581.560    91784048.01447
  24289448.880   127641926.12008  24289448.040    99461239.28845
  22404990.540   117739047.06109  22404988.600    91744715.21648
  24192725.240   127133669.48408  24192721.860    99065241.77845
  20701873.340   108789141.01909  20701868.940    84770777.57449
  21421353.100   112570044.00909  21421348.540    87716901.54848
  20564836.940   108069075.27809  20564836.660    84209705.72149
  21916750.700   115173365.29709  21916750.340    89745504.11047
 15 03 01 03 00  0.0000000  0 10G01G04G11G14G16G18G19G22G27G32
  23305021.660   122468771.74008  23305024.600    95430244.26046
  21169076.880   111244361.39809  21169075.360    86683955.30348
  22400864.360   117717401.94009  22400862.500    91727870.95347
  24277294.640   127578055.37608  24277293.840    99411469.90845
  22423045.840   117833927.79609  22423043.780    91818648.22848
  24209274.500   127220636.45908  24209271.080    99133008.26045
  20696896.460   108762987.93909  20696892.220    84750398.55949
  21430699.200   112619158.38709  21430694.700    87755172.49748
  20568186.220   108086675.52409  20568185.840    84223420.19249
  21898299.580   115076404.03609  21898299.140    89669949.94048
 15 03 01 03 00 30.0000000  0 10G01G04G11G14G16G18G19G22G27G32
  23291701.520   122398774.26308  23291704.400    95375700.85846
  21160479.980   111199184.80109  21160478.520    86648752.78348
  22387173.700   117645458.20009  22387171.980    91671810.95247
  24265172.860   127514355.22107  24265172.300    99361833.45245
  22441152.900   117929080.80709  22441150.800    91892793.45048
  24225856.060   127307772.98408  24225852.580    99200906.86545
  20691974.460   108737123.19609  20691970.340    84730244.22249
  21440127.440   112668704.57509  21440122.960    87793779.92048
  20571604.320   108104637.68709  20571603.900    84237416.67749
  21879914.100   114979787.63709  21879913.600    89594664.49548
 15 03 01 03 01  0.0000000  0 10G01G04G11G14G16G18G19G22G27G32
  23278413.880   122328947.61408  23278416.760    95321290.56646
  21151934.660   111154279.45409  21151933.260    86613761.62748
  22373511.460   117573663.72508  22373509.820    91615867.26646
  24253083.800   127450826.88207  24253083.300    99312330.88745
  22459310.940   118024501.53309  22459308.780    91967147.25047
  24242469.200   127395075.44308  24242465.720    99268934.77244
  20687107.380   108711546.69909  20687103.320    84710314.49949
  21449637.300   112718679.47409  21449632.860    87832721.40948
  20575091.160   108122961.12309  20575090.740    84251694.67749
  21861594.560   114883517.50209  21861593.980    89519648.87148
 15 03 01 03 01 30.0000000  0 10G01G04G11G14G16G18G19G22G27G32
  23265159.420   122259295.19008  23265162.400    95267016.04246
  21143441.660   111109648.87409  21143440.360    86578984.58348
  22359878.500   117502022.64809  22359876.820    91560043.11246
  24241028.700   127387476.79607  24241028.160    99262967.21845
  22477520.120   118120191.14209  22477517.860    92041710.64748
  24259114.240   127482545.43208  24259110.760    99337093.21945
  20682296.120   108686263.11009  20682291.980    84690613.01949
  21459229.060   112769084.63609  21459224.620    87871998.16948
  20578647.520   108141650.02909  20578647.160    84266257.46349
  21843342.000   114787599.68409  21843341.380    89444907.77748
 15 03 01 03 02  0.0000000  0 10G01G04G11G14G16G18G19G22G27G32
  23251937.720   122189814.89508  23251940.780    95212875.63946
  21135000.500   111065290.54109  21134999.240    86544419.66348
  22346274.520   117430533.22509  22346272.740    91504337.10847
  24229007.840   127324305.92308  24229007.200    99213743.19245
  22495779.560   118216144.90709  22495777.160    92116479.77247
  24275790.320   127570178.79308  24275786.840    99405378.97545
  20677540.460   108661271.46209  20677536.220    84671139.00449
  21468902.020   112819916.23909  21468897.560    87911607.21548
  20582273.180   108160703.08509  20582272.900    84281103.99049
  21825156.600   114692034.82709  21825155.960    89370441.71948
 15 03 01 03 02 30.0000000  0 10G01G04G11G14G16G18G19G22G27G32
  23238748.780   122120506.72108  23238751.860    95158869.36346
  21126611.200   111021204.58509  21126610.000    86510067.00648
  22332699.640   117359196.22909  22332697.700    91448749.88847
  24217021.720   127261317.07608  24217020.760    99164660.99845
  22514088.660   118312359.84809  22514086.200    92191452.45947
  24292496.980   127657973.29908  24292493.540    99473790.29744
  20672840.640   108636573.38709  20672836.300    84651893.76649
  21478655.800   112871172.37109  21478651.300    87951547.06248
  20585968.220   108180120.90109  20585968.060    84296234.75749
  21807038.780   114596825.45309  21807038.160    89296252.66847
 15 03 01 03 03  0.0000000  0 10G01G04G11G14G16G18G19G22G27G32
  23225592.800   122051371.87708  23225595.800    95104998.14046
  21118273.880   110977391.86209  21118272.740    86475927.24348
  22319154.020   117288012.77709  22319151.820    91393282.30647
  24205070.980   127198514.20508  24205069.740    99115723.72045
  22532447.160   118408834.36209  22532444.660    92266627.41147
  24309234.140   127745928.05208  24309230.720    99542326.47644
  20668197.040   108612170.88609  20668192.660    84632878.83349
  21488490.240   112922852.48609  21488485.740    87991817.28248
  20589733.080   108199905.53409  20589733.020    84311651.34449
  21788989.380   114501975.56309  21788988.700    89222343.74047
 15 03 01 03 03 30.0000000  0 10G01G04G11G14G16G18G19G22G27G32
  23212469.820   121982410.34108  23212472.700    95051261.96046
  21109988.560   110933852.35109  21109987.520    86442000.37948
  22305637.720   117216983.68109  22305635.360    91337935.00646
  24193156.140   127135900.42007  24193154.700    99066933.78745
  22550854.600   118505566.00409  22550852.060    92342002.69047
  24326001.380   127834041.06808  24325998.120    99610985.98444
  20663609.940   108588065.57309  20663605.600    84614095.48249
  21498404.960   112974954.49209  21498400.420    88032416.24948
  20593567.860   108220057.64109  20593567.940    84327354.28349
  21771008.840   114407487.78609  21771008.180    89148716.98948
 15 03 01 03 04  0.0000000  0 10G01G04G11G14G16G18G19G22G27G32
  23199379.760   121913622.01608  23199382.520    94997660.75246
  21101755.180   110890585.78109  21101754.220    86408286.20448
  22292150.840   117146109.44609  22292148.460    91282708.38447
  24181277.640   127073478.43407  24181276.040    99018293.32245
  22569310.400   118602552.01409  22569307.880    92417576.10847
  24342798.340   127922310.08508  24342795.280    99679767.05944
  20659079.700   108564258.75409  20659075.340    84595544.72749
  21508399.640   113027476.58509  21508395.040    88073342.56448
  20597472.700   108240577.87409  20597472.860    84343344.07149
  21753097.680   114313364.68609  21753097.020    89075374.41647
 15 03 01 03 04 30.0000000  0 10G01G04G11G14G16G18G19G22G27G32
  23186322.440   121845005.64908  23186325.120    94944193.54546
  21093573.480   110847590.47609  21093572.460    86374783.40248
  22278693.240   117075389.34609  22278690.900    91227601.86447
  24169435.880   127011249.90407  24169434.360    98969803.57045
  22587813.820   118699788.41309  22587811.460    92493344.70247
  24359624.420   128010731.97708  24359621.480    99748667.26745
  20654606.280   108540750.27709  20654601.860    84577226.44749
  21518473.620   113080415.46809  21518468.980    88114593.65048
  20601447.520   108261465.67609  20601447.680    84359620.28649
  21735256.200   114219607.50909  21735255.500    89002316.95448
 15 03 01 03 05  0.0000000  0 10G01G04G11G14G16G18G19G22G27G32
  23173298.060   121776562.07208  23173300.600    94890860.96646
  21085443.600   110804867.55209  21085442.560    86341492.83948
  22265265.140   117004824.57009  22265262.800    91172616.37147
  24157631.700   126949218.53008  24157630.100    98921467.48045
  22606364.500   118797273.20709  22606362.320    92569306.87347
  24376479.300   128099305.39208  24376476.500    99817685.53344
  20650190.040   108517542.50609  20650185.600    84559142.48449
  21528626.740   113133770.24009  21528622.000    88156168.79948
  20605492.600   108282722.65409  20605492.720    84376184.15949
  21717485.060   114126219.81109  21717484.340    88929547.36848
 15 03 01 03 05 30.0000000  0 10G01G04G11G14G16G18G19G22G27G32
  23160306.580   121708290.93508  23160308.940    94837662.75547
  21077365.400   110762416.29309  21077364.340    86308413.96648
  22251866.620   116934415.41109  22251864.320    91117752.14347
  24145865.660   126887386.97408  24145863.800    98873287.06945
  22624961.820   118895003.19309  22624959.800    92645460.05647
  24393362.560   128188027.74008  24393359.840    99886819.85545
  20645831.200   108494636.46809  20645826.740    84541293.63649
  21538858.520   113187538.45209  21538853.680    88198066.11348
  20609608.000   108304349.08009  20609608.020    84393035.92049
  21699784.700   114033203.83409  21699783.900    88857067.42248
 15 03 01 03 06  0.0000000  0 10G01G04G11G14G16G18G19G22G27G32
  23147348.040   121640192.83808  23147350.180    94784599.38246
  21069338.960   110720237.23209  21069337.900    86275547.20048
  22238497.900   116864163.03309  22238495.700    91063010.08547
  24134138.360   126825758.67708  24134136.240    98825265.05245
  22643605.660   118992977.05809  22643603.680    92721803.34147
  24410273.940   128276897.95708  24410271.340    99956069.40744
  20641530.160   108472033.99909  20641525.640    84523681.33649
  21549168.740   113241719.06809  21549163.860    88240284.78348
  20613793.940   108326346.30409  20613793.920    84410176.61249
  21682155.740   113940562.84209  21682154.860    88784879.66848
 15 03 01 03 06 30.0000000  0 10G01G04G11G14G16G18G19G22G27G32
  23134422.040   121572265.65808  23134424.020    94731669.19247
  21061363.840   110678328.00409  21061362.760    86242890.68548
  22225158.660   116794065.60509  22225156.640    91008388.76847
  24122449.920   126764334.58208  24122447.600    98777402.13545
  22662295.000   119091189.91809  22662293.020    92798332.88048
  24427212.620   128365911.79207  24427210.160   100025430.83745
  20637286.680   108449734.19309  20637282.100    84506304.87449
  21559556.620   113296308.01709  21559551.760    88282821.62648
  20618050.200   108348712.94909  20618050.100    84427605.15649
  21664598.300   113848297.57809  21664597.320    88712984.75348
 15 03 01 03 07  0.0000000  0 10G01G04G11G14G16G18G19G22G27G32
  23121529.000   121504511.97308  23121530.920    94678874.19947
  21053440.520   110636691.02809  21053439.440    86210446.31948
  22211849.540   116724126.27209  22211847.660    90953890.63847
  24110801.320   126703119.92708  24110798.940    98729702.41945
  22681029.720   119189641.16109  22681027.640    92875048.15847
  24444178.700   128455069.70407  24444176.340   100094904.54244
  20633101.540   108427741.02009  20633096.880    84489167.34849
  21570022.340   113351306.12009  21570017.540    88325677.29348
  20622377.400   108371452.16009  20622377.200    84445324.01749
  21647113.240   113756412.93409  21647112.200    88641386.43948
 15 03 01 03 07 30.0000000  0 10G01G04G11G14G16G18G19G22G27G32
  23108668.540   121436929.73708  23108670.480    94626212.79447
  21045568.660   110595324.34309  21045567.500    86178212.57148
  22198570.320   116654344.02809  22198568.600    90899514.90947
  24099192.680   126642115.79508  24099190.300    98682166.74745
  22699808.960   119288326.32809  22699806.780    92951945.79448
  24461171.540   128544367.96707  24461169.360   100164487.63945
  20628974.560   108406053.61509  20628969.860    84472268.08149
  21580565.160   113406709.24709  21580560.400    88368848.56448
  20626775.280   108394562.72909  20626775.000    84463332.24949
  21629700.700   113664909.50009  21629699.560    88570085.07848
 15 03 01 03 08  0.0000000  0 10G01G04G11G14G16G18G19G22G27G32
  23095840.760   121369519.62408  23095842.800    94573685.52347
  21037748.320   110554228.22109  21037747.040    86146189.64748
  22185321.220   116584719.74509  22185319.540    90845262.27247
  24087624.760   126581325.74108  24087622.140    98634797.89545
  22718632.240   119387243.08809  22718629.960    93029023.79847
  24478190.840   128633805.00308  24478188.720   100234178.83244
  20624906.180   108384674.31509  20624901.480    84455608.89849
  21591184.840   113462516.06009  21591180.140    88412334.39748
  20631244.040   108418045.90809  20631243.740    84481630.82649
  21612361.320   113573790.52209  21612360.160    88499083.26348
 15 03 01 03 08 30.0000000  0 10G01G04G11G14G16G18G19G22G27G32
  23083045.920   121302283.25308  23083048.040    94521293.63247
  21029979.780   110513404.26709  21029978.420    86114378.80748
  22172102.680   116515255.60209  22172100.940    90791134.41747
  24076098.340   126520754.23208  24076095.800    98587599.34745
  22737499.360   119486390.64409  22737497.040    93106281.72247
  24495236.560   128723380.61408  24495234.320   100303978.02844
  20620896.960   108363606.03209  20620892.280    84439192.07349
  21601881.280   113518726.10509  21601876.580    88456134.44148
  20635784.080   108441904.00309  20635783.800    84500221.55149
  21595095.920   113483060.36909  21595094.780    88428384.45348
 15 03 01 03 09  0.0000000  0 10G01G04G11G14G16G18G19G22G27G32
  23070283.700   121235218.50108  23070285.920    94469035.46747
  21022262.640   110472850.17609  21022261.220    86082778.24548
  22158914.360   116445950.11009  22158912.420    90737130.18547
  24064613.620   126460402.07508  24064611.220    98540571.72945
  22756409.300   119585763.61909  22756406.940    93183715.15047
  24512307.900   128813090.49908  24512305.580   100373881.85544
  20616946.780   108342847.97409  20616942.140    84423016.97349
  21612653.780   113575335.66809  21612649.080    88500245.80048
  20640395.120   108466135.60809  20640394.980    84519103.31949
  21577904.620   113392719.57809  21577903.480    88357989.07248
 15 03 01 03 09 30.0000000  0 10G01G04G11G14G16G18G19G22G27G32
  23057553.960   121168324.45008  23057556.320    94416910.31947
  21014596.600   110432564.95109  21014595.180    86051387.18148
  22145756.080   116376802.88509  22145754.020    90683249.27147
  24053170.960   126400271.16708  24053168.640    98493716.47846
  22775361.640   119685359.27409  22775359.280    93261322.16247
  24529404.220   128902931.81508  24529401.720   100443888.07145
  20613055.680   108322400.42709  20613051.080    84407083.82349
  21623501.720   113632341.75109  21623497.080    88544666.12148
  20645077.140   108490740.40909  20645077.140    84538275.88349
  21560787.700   113302769.63709  21560786.540    88287898.25848
 15 03 01 03 10  0.0000000  0 10G01G04G11G14G16G18G19G22G27G32
  23044857.620   121101605.53508  23044860.060    94364921.64847
  21006982.500   110392552.79009  21006981.160    86020208.90548
  22132628.900   116307819.04409  22132626.720    90629495.68247
  24041771.820   126340368.96208  24041769.640    98447039.46845
  22794356.580   119785178.74109  22794354.320    93339103.53947
  24546526.020   128992907.01108  24546523.380   100513998.62644
  20609224.780   108302269.13709  20609220.200    84391397.11649
  21634425.520   113689746.76509  21634420.940    88589397.31748
  20649831.160   108515723.48309  20649831.240    84557743.21849
  21543746.420   113213217.50109  21543745.280    88218117.39948
 15 03 01 03 10 30.0000000  0 10G01G04G11G14G16G18G19G22G27G32
  23032193.440   121035055.44808  23032195.960    94313064.52347
  20999419.060   110352807.21209  20999417.900    85989238.36248
  22119531.640   116238992.56509  22119529.380    90575864.70047
  24030415.540   126280692.20408  24030413.500    98400538.11445
  22813392.460   119885213.20809  22813390.300    93417052.42447
  24563671.740   129083008.03808  24563669.040   100584207.22945
  20605453.140   108282449.18009  20605448.580    84375953.00449
  21645423.660   113747542.83609  21645419.220    88634433.22448
  20654656.100   108541079.29709  20654656.260    84577500.99949
  21526780.160   113124059.68109  21526779.060    88148643.83148
 15 03 01 03 11  0.0000000  0 10G01G04G11G14G16G18G19G22G27G32
  23019562.100   120968677.50008  23019564.660    94261341.52947
  20991907.060   110313331.74309  20991906.000    85958478.28948
  22106465.140   116170327.74609  22106462.820    90522359.69247
  24019103.260   126221246.80908  24019101.260    98354217.05245
  22832469.480   119985463.73709  22832467.460    93495169.68347
  24580841.600   129173235.92308  24580838.800   100654514.67944
  20601741.660   108262945.34409  20601737.100    84360755.22249
  21656496.500   113805731.22609  21656492.100    88679774.83748
  20659552.780   108566811.68709  20659552.980    84597552.21949
  21509890.020   113035301.86109  21509888.960    88079481.94948
 15 03 01 03 11 30.0000000  0 10G01G04G11G14G16G18G19G22G27G32
  23006963.780   120902472.98908  23006966.360    94209753.68547
  20984446.660   110274127.16609  20984445.600    85927929.30248
  22093429.740   116101826.19409  22093427.280    90468981.90047
  24007835.840   126162037.06908  24007833.980    98308079.63145
  22851587.280   120085928.32609  22851585.360    93573453.72547
  24598035.460   129263589.96508  24598032.600   100724920.46344
  20598090.840   108243760.21909  20598086.240    84345805.78249
  21667643.780   113864311.05109  21667639.460    88725421.45848
  20664521.560   108592922.56909  20664521.700    84617898.36649
  21493076.700   112946947.87509  21493075.720    88010634.74048
 15 03 01 03 12  0.0000000  0 10G01G04G11G14G16G18G19G22G27G32
  22994397.960   120836439.24908  22994400.500    94158298.90647
  20977037.360   110235190.93209  20977036.220    85897589.40048
  22080425.040   116033486.10209  22080422.500    90415729.91547
  23996613.420   126103063.36608  23996611.700    98262126.11145
  22870744.840   120186602.14609  22870743.060    93651900.82747
  24615252.500   129354065.84708  24615249.600   100795421.14544
  20594500.340   108224892.27409  20594495.780    84331103.49449
  21678864.680   113923277.69909  21678860.440    88771369.49648
  20669562.040   108619409.98909  20669562.080    84638537.90449
  21476340.240   112858997.61509  21476339.280    87942102.09248
 15 03 01 03 12 30.0000000  0 10G01G04G11G14G16G18G19G22G27G32
  22981864.900   120770577.50008  22981867.360    94106978.14547
  20969679.320   110196524.05209  20969678.060    85867459.40148
  22067451.320   115965309.09809  22067448.820    90362605.02647
  23985436.660   126044329.74208  23985435.080    98216359.67545
  22889941.920   120287483.63509  22889940.280    93730509.75847
  24632492.460   129444662.63308  24632489.620   100866016.06344
  20590970.760   108206344.41109  20590966.220    84316650.62649
  21690159.100   113982630.45209  21690154.900    88817618.40548
  20674674.500   108646275.72709  20674674.440    84659472.23949
  21459681.340   112771454.89109  21459680.400    87873887.04848
 15 03 01 03 13  0.0000000  0 10G01G04G11G14G16G18G19G22G27G32
  22969364.460   120704887.40808  22969366.800    94055791.14247
  20962372.480   110158126.14409  20962371.080    85837538.98648
  22054508.740   115897295.83809  22054506.280    90309607.72847
  23974306.060   125985838.85908  23974304.620    98170782.39845
  22909177.860   120388569.41309  22909176.280    93809277.83847
  24649754.980   129535378.19707  24649752.280   100936703.56944
  20587502.340   108188117.91709  20587497.820    84302448.17749
  21701526.720   114042367.27609  21701522.360    88864166.58748
  20679859.020   108673520.10109  20679858.860    84680701.62249
  21443100.480   112684321.89109  21443099.480    87805991.26848
 15 03 01 03 13 30.0000000  0 10G01G04G11G14G16G18G19G22G27G32
  22956896.820   120639369.68808  22956899.020    94004738.44747
  20955116.900   110119997.72209  20955115.420    85807828.55148
  22041597.520   115829447.45009  22041595.100    90256738.89747
  23963222.240   125927594.14507  23963220.920    98125396.95245
  22928452.460   120489858.12209  22928450.920    93888204.05447
  24667039.940   129626211.63307  24667037.280   101007482.88444
  20584095.340   108170214.22609  20584090.840    84288497.26049
  21712967.180   114102486.60509  21712962.620    88911012.82448
  20685115.860   108701144.42209  20685115.600    84702227.06349
  21426598.160   112597601.78809  21426597.120    87738417.20048
 15 03 01 03 14  0.0000000  0 10G01G04G11G14G16G18G19G22G27G32
  22944461.560   120574022.44208  22944463.700    93953818.58847
  20947912.100   110082136.42109  20947910.620    85778326.26848
  22028717.420   115761762.55109  22028715.040    90203997.46047
  23952185.460   125869596.55208  23952184.340    98080204.04145
  22947764.720   120591344.75209  22947763.240    93967284.48947
  24684346.540   129717158.63407  24684343.780   101078350.67544
  20580749.680   108152632.93809  20580745.260    84274797.56049
  21724479.640   114162984.58109  21724474.980    88958154.10648
  20690444.680   108729147.31609  20690444.360    84724047.49549
  21410174.520   112511295.13709  21410173.440    87671165.30248
 15 03 01 03 14 30.0000000  0 10G01G04G11G14G16G18G19G22G27G32
  22932058.740   120508846.02608  22932060.860    93903031.85547
  20940758.280   110044542.94809  20940756.780    85749032.67948
  22015868.720   115694242.26409  22015866.280    90151384.28647
  23941196.400   125811849.58508  23941195.440    98035206.43745
  22967114.160   120693026.43009  22967112.640    94046516.90647
  24701674.420   129808217.66307  24701671.520   101149305.76044
  20577465.740   108135375.89509  20577461.360    84261350.52249
  21736063.860   114223859.82309  21736059.200    89005589.36048
  20695845.640   108757529.83609  20695845.340    84746163.74149
  21393830.120   112425404.87009  21393828.960    87604237.85548
 15 03 01 03 15  0.0000000  0 10G01G04G11G14G16G18G19G22G27G32
  22919688.480   120443840.73308  22919690.680    93852378.46447
  20933655.400   110007217.27709  20933653.880    85719947.76948
  22003051.540   115626887.46009  22003049.060    90098900.06647
  23930255.780   125754356.50908  23930254.820    97990406.66646
  22986500.480   120794901.71709  22986498.920    94125900.19347
  24719023.340   129899387.44707  24719020.440   101220347.18744
  20574243.880   108118444.95109  20574239.500    84248157.59349
  21747719.500   114285110.51209  21747714.840    89053317.18348
  20701318.980   108786292.77609  20701318.720    84768576.42349
  21377565.460   112339933.68109  21377564.280    87537636.98048
 15 03 01 03 15 30.0000000  0 10G01G04G11G14G16G18G19G22G27G32
  22907350.680   120379005.88408  22907352.940    93801857.88047
  20926603.320   109970158.62809  20926601.780    85691070.92848
  21990265.860   115559698.16609  21990263.380    90046544.80347
  23919363.940   125697119.18608  23919362.920    97945806.17945
  23005922.960   120896967.08909  23005921.380    94205431.62347
  24736392.820   129990665.14307  24736390.240   101291472.65444
  20571084.120   108101840.40309  20571079.720    84235218.98649
  21759445.980   114346733.90609  21759441.460    89101335.41248
  20706864.660   108815436.07009  20706864.440    84791285.48449
  21361380.900   112254883.43809  21361379.760    87471364.08448
 15 03 01 03 16  0.0000000  0 10G01G04G11G14G16G18G19G22G27G32
  22895045.240   120314340.88108  22895047.520    93751469.64847
  20919601.900   109933366.21409  20919600.360    85662401.54848
  21977511.640   115492674.23009  21977509.160    89994318.40447
  23908521.240   125640140.01308  23908520.020    97901406.87545
  23025381.080   120999219.72409  23025379.400    94285109.04947
  24753782.400   130082048.41507  24753779.760   101362680.41944
  20567986.620   108085562.99609  20567982.240    84222535.30749
  21771242.860   114408727.44409  21771238.460    89149642.07648
  20712482.700   108844959.69309  20712482.520    84814290.90649
  21345276.820   112170256.02609  21345275.680    87405420.67748
 15 03 01 03 16 30.0000000  0 10G01G04G11G14G16G18G19G22G27G32
  22882772.340   120249846.95508  22882774.660    93701214.71447
  20912651.380   109896841.17209  20912649.800    85633940.50248
  21964789.300   115425817.94809  21964786.860    89942222.63747
  23897728.460   125583423.07008  23897727.040    97857211.86645
  23044874.320   121101657.32808  23044872.600    94364930.59547
  24771191.980   130173536.45908  24771189.240   101433969.80544
  20564951.900   108069615.34509  20564947.500    84210108.56249
  21783110.020   114471090.26109  21783105.680    89198236.48148
  20718173.420   108874865.39309  20718173.360    84837594.03849
  21329253.860   112086055.02109  21329252.780    87339809.52548
 15 03 01 03 17  0.0000000  0 10G01G04G11G14G16G18G19G22G27G32
  22870532.080   120185524.70308  22870534.520    93651093.55747
  20905751.840   109860583.91309  20905750.180    85605688.12848
  21952099.020   115359130.64909  21952096.720    89890258.54947
  23886986.160   125526971.93108  23886984.660    97813224.00345
  23064402.340   121204278.05009  23064400.600    94444894.86847
  24788621.360   130265128.26708  24788618.540   101505340.05544
  20561980.340   108053999.73409  20561975.940    84197940.56249
  21795047.280   114533821.22509  21795042.960    89247117.75948
  20723937.180   108905154.33709  20723937.120    84861195.80949
  21313312.580   112002283.54709  21313311.560    87274533.07248
 15 03 01 03 17 30.0000000  0 10G01G04G11G14G16G18G19G22G27G32
  22858324.280   120121372.99908  22858326.680    93601105.29647
  20898903.060   109824593.47009  20898901.420    85577643.65848
  21939440.760   115292611.71909  21939438.580    89838425.65747
  23876294.660   125470788.20008  23876293.280    97769444.50345
  23083964.480   121307078.08408  23083962.680    94524998.78246
  24806069.880   130356820.45408  24806066.800   101576788.53744
  20559071.900   108038716.14409  20559067.520    84186031.27749
  21807054.060   114596917.16909  21807049.720    89296283.44048
  20729773.820   108935825.96909  20729773.700    84885095.78049
  21297453.300   111918942.94409  21297452.320    87209592.40548
 15 03 01 03 18  0.0000000  0 10G01G04G11G14G16G18G19G22G27G32
  22846149.060   120057392.29008  22846151.400    93551250.26647
  20892105.080   109788869.98309  20892103.500    85549807.20148
  21926814.720   115226262.05109  21926812.620    89786724.65447
  23865654.760   125414875.52408  23865653.380    97725876.20945
  23103560.260   121410054.83109  23103558.500    94605240.37747
  24823537.260   130448611.76908  24823533.960   101648314.23544
  20556227.000   108023766.30909  20556222.640    84174382.06149
  21819130.040   114660376.57809  21819125.620    89345732.33348
  20735683.560   108966881.25009  20735683.320    84909294.70649
  21281676.620   111836035.90209  21281675.600    87144989.55548
 15 03 01 03 18 30.0000000  0 10G01G04G11G14G16G18G19G22G27G32
  22834005.920   119993579.73508  22834008.140    93501526.27247
  20885357.380   109753410.47309  20885355.800    85522176.44448
  21914220.620   115160079.60609  21914218.460    89735153.95947
  23855066.500   125359233.60608  23855064.980    97682518.89845
  23123188.820   121513203.78408  23123187.100    94685616.15947
  24841022.660   130540497.71708  24841019.100   101719913.69744
  20553445.340   108009148.93109  20553441.020    84162991.91149
  21831274.260   114724194.40709  21831269.700    89395460.52348
  20741665.900   108998317.89509  20741665.540    84933790.80749
  21265982.460   111753562.23809  21265981.340    87080724.40748
 15 03 01 03 19  0.0000000  0 10G01G04G11G14G16G18G19G22G27G32
  22821895.200   119929937.27008  22821897.260    93451934.79847
  20878660.260   109718216.71709  20878658.620    85494752.76148
  21901658.920   115094066.94909  21901656.560    89683715.54947
  23844530.820   125303867.21708  23844529.040    97639376.26845
  23142849.800   121616523.29408  23142848.160    94766124.83147
  24858526.040   130632478.24507  24858522.300   101791586.82844
  20550727.580   107994867.13509  20550723.260    84151863.23449
  21843486.680   114788370.71009  21843482.000    89445468.03648
  20747721.240   109030138.28309  20747720.820    84958585.92749
  21250371.560   111671526.01309  21250370.360    87016800.10648
 15 03 01 03 19 30.0000000  0 10G01G04G11G14G16G18G19G22G27G32
  22809816.840   119866464.49408  22809818.700    93402475.56247
  20872013.620   109683288.10409  20872011.880    85467535.68148
  21889129.640   115028224.63909  21889127.080    89632409.88647
  23834048.100   125248778.95308  23834046.040    97596450.37345
  23162542.800   121720010.98308  23162541.300    94846764.56346
  24876047.040   130724551.25107  24876043.160   101863332.03944
  20548073.940   107980921.91609  20548069.560    84140996.83249
  21855766.820   114852903.08209  21855762.000    89495753.00148
  20753849.600   109062342.53509  20753849.140    84983680.16249
  21234844.280   111589929.45109  21234843.020    86953218.40448
 15 03 01 03 20  0.0000000  0 10G01G04G11G14G16G18G19G22G27G32
  22797770.920   119803162.59708  22797772.640    93353149.46647
  20865417.680   109648625.98509  20865415.800    85440526.26248
  21876633.180   114962554.46309  21876630.400    89581238.35147
  23823619.000   125193972.74608  23823616.720    97553744.26845
  23182267.460   121823664.82309  23182265.980    94927533.80547
  24893585.460   130816715.95007  24893581.340   101935148.67844
  20545484.900   107967315.87209  20545480.440    84130394.72849
  21868114.480   114917790.48409  21868109.560    89546314.61548
  20760051.280   109094932.35809  20760050.820    85009074.83349
  21219401.300   111508775.96709  21219400.020    86889981.97148
 15 03 01 03 20 30.0000000  0 10G01G04G11G14G16G18G19G22G27G32
  22785757.500   119740031.71508  22785759.120    93303956.64447
  20858872.360   109614230.20709  20858870.460    85413724.38748
  21864169.480   114897056.97509  21864166.580    89530201.38647
  23813244.080   125139451.69008  23813241.460    97511260.36745
  23202023.320   121927482.65808  23202021.920    95008430.86646
  24911140.980   130908970.72807  24911136.780   102007035.55043
  20542960.620   107954050.37109  20542956.120    84120057.98449
  21880529.400   114983031.20509  21880524.420    89597151.54948
  20766326.360   109127908.35709  20766325.960    85034770.43149
  21204043.040   111428068.01609  21204041.780    86827092.70748
 15 03 01 03 21  0.0000000  0 10G01G04G11G14G16G18G19G22G27G32
  22773775.980   119677068.81508  22773777.620    93254894.70847
  20852377.100   109580097.70609  20852375.240    85387127.65648
  21851738.220   114831730.21809  21851735.300    89479297.45147
  23802923.360   125085215.77408  23802920.660    97468998.63745
  23221809.240   122031458.83208  23221807.920    95089451.33347
  24928712.660   131001310.73207  24928708.220   102078988.79844
  20540500.860   107941123.89009  20540496.300    84109985.40549
  21893010.500   115048620.08309  21893005.520    89648259.77248
  20772674.440   109161267.98109  20772674.080    85060764.93249
  21188769.440   111347804.98209  21188768.180    86764550.12048
 15 03 01 03 21 30.0000000  0  9G01G04G11G14G16G19G22G27G32
  22761827.720   119614280.63708  22761829.400    93205968.92047
  20845933.120   109546234.86109  20845931.320    85360741.05048
  21839340.740   114766581.33109  21839337.820    89428532.11947
  23792658.620   125031274.27308  23792656.000    97426966.33745
  23241626.060   122135597.18608  23241624.780    95170598.16246
  20538107.100   107928544.26309  20538102.480    84100183.10749
  21905558.700   115114561.76109  21905553.820    89699642.89948
  20779096.860   109195018.38409  20779096.620    85087063.94049
  21173582.180   111267995.92809  21173581.000    86702361.29048
 15 03 01 03 22  0.0000000  0  9G01G04G11G14G16G19G22G27G32
  22749910.820   119551656.91808  22749912.500    93157171.27747
  20839538.520   109512631.45009  20839536.800    85334556.59948
  21826975.340   114701601.22309  21826972.460    89377898.29947
  23782448.580   124977619.84608  23782445.900    97385157.69545
  23261471.280   122239884.82309  23261470.020    95251861.33447
  20535777.620   107916302.66809  20535773.020    84090644.20049
  21918171.740   115180844.21409  21918166.940    89751291.56248
  20785591.860   109229149.85709  20785591.660    85113659.89249
  21158479.720   111188632.86109  21158478.680    86640519.98448
 15 03 01 03 22 30.0000000  0  9G01G04G11G14G16G19G22G27G32
  22738025.860   119489200.89209  22738027.540    93108504.30547
  20833193.840   109479290.52309  20833192.220    85308576.68048
  21814642.700   114636793.47109  21814639.920    89327398.79147
  23772294.320   124924258.32908  23772291.600    97343577.31745
  23281345.040   122344322.07409  23281343.720    95333241.01047
  20533513.340   107904403.67509  20533508.740    84081372.26849
  21930849.820   115247468.45009  21930845.060    89803206.55748
  20792160.100   109263666.04209  20792159.940    85140555.62049
  21143463.260   111109721.40109  21143462.280    86579030.58648
 15 03 01 03 23  0.0000000  0 10G01G03G04G11G14G16G19G22G27G32
  22726174.300   119426920.32208  22726175.920    93059974.04447
  24621889.060   129388900.32908  24621892.460   100822529.42846
  20826900.620   109446220.02309  20826899.140    85282807.47748
  21802344.540   114572166.85309  21802341.860    89277040.41647
  23762197.840   124871200.42708  23762195.100    97302233.52845
  23301248.420   122448914.56908  23301247.040    95414741.57146
  20531315.960   107892856.37909  20531311.400    84072374.38049
  21943594.100   115314440.45009  21943589.340    89855392.53648
  20798803.140   109298575.18509  20798802.920    85167757.54549
  21128534.680   111031271.49909  21128533.720    86517900.83548
 15 03 01 03 23 30.0000000  0 10G01G03G04G11G14G16G19G22G27G32
  22714354.100   119364804.68608  22714355.620    93011572.30947
  24601121.580   129279766.95008  24601125.260   100737490.34546
  20820656.900   109413409.05509  20820655.420    85257240.51648
  21790079.040   114507711.52309  21790076.420    89226815.52347
  23752157.580   124818438.41008  23752154.880    97261120.30345
  23321178.820   122553649.08909  23321177.420    95496352.83347
  20529183.700   107881651.45809  20529179.220    84063643.28149
  21956402.220   115381747.72509  21956397.500    89907839.77348
  20805519.020   109333867.14109  20805518.760    85195257.78949
  21113692.380   110953275.03509  21113691.420    86457124.41948
 15 03 01 03 24  0.0000000  0 10G01G03G04G11G14G16G19G22G27G32
  22702566.140   119302858.91408  22702567.700    92963302.92947
  24580372.400   129170729.67307  24580376.240   100652526.12246
  20814463.520   109380862.42709  20814461.960    85231879.52348
  21777847.300   114443433.23809  21777844.620    89176728.57647
  23742175.100   124765980.35708  23742172.380    97220243.92946
  23341136.560   122658527.48908  23341135.140    95578076.22547
  20527117.840   107870795.44809  20527113.420    84055184.05749
  21969274.680   115449392.96709  21969269.980    89960550.35748
  20812308.800   109369547.28909  20812308.460    85223060.49049
  21098937.800   110875739.14209  21098936.760    86396706.87448
 15 03 01 03 24 30.0000000  0 10G01G03G04G11G14G16G19G22G27G32
  22690810.180   119241081.76508  22690811.860    92915164.95747
  24559641.740   129061789.38208  24559645.740   100567637.35545
  20808320.200   109348578.96509  20808318.620    85206723.60448
  21765649.200   114379331.43509  21765646.460    89126779.15047
  23732250.720   124713827.44908  23732247.980    97179605.32945
  23361121.000   122763546.49308  23361119.600    95659909.19046
  20525118.360   107860288.25409  20525113.960    84046996.63949
  21982210.800   115517372.63109  21982206.080    90013521.52848
  20819172.260   109405614.78909  20819171.880    85251165.03749
  21084271.060   110798664.81609  21084269.940    86336648.99948
 15 03 01 03 25  0.0000000  0 10G01G03G04G11G14G16G19G22G27G32
  22679086.100   119179472.31808  22679087.980    92867157.64047
  24538929.920   128952947.67608  24538934.060   100482825.44745
  20802226.700   109316557.50109  20802225.120    85181771.82648
  21753484.500   114315405.61509  21753481.780    89076966.84347
  23722384.820   124661981.60308  23722382.040    97139205.98146
  23381131.320   122868701.74508  23381129.980    95741848.29247
  20523185.320   107850130.40709  20523181.000    84039081.43249
  21995210.060   115585683.97809  21995205.300    90066751.14148
  20826109.280   109442069.05409  20826108.920    85279570.94449
  21069692.380   110722053.31209  21069691.180    86276951.75848
 15 03 01 03 25 30.0000000  0 10G01G03G04G11G14G16G19G22G27G32
  22667394.020   119118030.65308  22667395.980    92819281.07647
  24518237.340   128844206.91408  24518241.600   100398092.32546
  20796183.100   109284798.25009  20796181.540    85157024.38048
  21741353.480   114251656.90609  21741350.820    89027292.56147
  23712577.960   124610445.96408  23712575.120    97099048.37545
  23401167.240   122973991.35408  23401165.940    95823892.07047
  20521319.020   107840323.17109  20521314.740    84031439.43449
  22008272.080   115654325.09809  22008267.260    90120237.73048
  20833120.000   109478910.67609  20833119.700    85308278.69549
  21055202.280   110645907.15209  21055201.000    86217617.12548
 15 03 01 03 26  0.0000000  0 10G01G03G04G11G14G16G19G22G27G32
  22655734.120   119056757.57808  22655736.020    92771535.87447
  24497564.520   128735570.23608  24497568.880   100313440.48446
  20790189.440   109253301.45609  20790187.880    85132481.44948
  21729256.500   114188087.20209  21729253.900    88977757.76447
  23702830.700   124559223.76408  23702827.960    97059135.01045
  23421228.340   123079413.06508  23421227.040    95906038.78346
  20519519.820   107830868.62909  20519515.600    84024072.27149
  22021396.640   115723294.60409  22021391.740    90173980.20648
  20840204.560   109516140.78909  20840204.380    85337289.17949
  21040801.220   110570229.09709  21040799.940    86158647.24748
 15 03 01 03 26 30.0000000  0 10G01G03G04G11G14G16G19G22G27G32
  22644106.480   118995653.63409  22644108.280    92723922.45448
  24476911.920   128627040.24008  24476916.320   100228871.90046
  20784245.860   109222067.79809  20784244.280    85108143.55248
  21717193.840   114124697.61909  21717191.220    88928363.31247
  23693143.660   124508318.24608  23693141.080    97019468.39146
  23441314.300   123184965.28208  23441312.880    95988287.31746
  20517788.140   107821768.72109  20517783.900    84016981.42949
  22034583.420   115792591.09309  22034578.420    90227977.46548
  20847363.160   109553760.28009  20847363.140    85366603.05549
  21026489.760   110495022.01409  21026488.480    86100044.36248
 15 03 01 03 27  0.0000000  0 10G01G03G04G11G14G16G19G22G27G32
  22632510.440   118934715.44909  22632512.120    92676438.20348
  24456279.220   128518615.42908  24456283.600   100144385.23546
  20778351.680   109191093.71809  20778350.060    85084007.92848
  21705164.960   114061485.28109  21705162.260    88879106.97647
  23683516.820   124457729.11008  23683514.320    96980048.31346
  23461423.940   123290641.80908  23461422.420    96070632.69646
  20516123.620   107813021.34609  20516119.300    84010165.30149
  22047831.400   115862209.24609  22047826.280    90282225.37448
  20854595.260   109591766.15509  20854595.380    85396218.02549
  21012267.680   110420284.63209  21012266.400    86041807.47548
 15 03 01 03 27 30.0000000  0 10G01G03G04G11G14G16G19G22G27G32
  22620946.600   118873946.19209  22620948.060    92629085.57948
  24435667.500   128410301.16307  24435671.920   100059984.66646
  20772507.540   109160382.48409  20772505.840    85060077.11248
  21693170.660   113998454.48609  21693167.880    88829992.09348
  23673951.300   124407462.10208  23673948.980    96940879.23346
  23481557.340   123396443.09608  23481555.700    96153075.28846
  20514527.040   107804630.83109  20514522.600    84003627.24149
  22061140.760   115932150.22409  22061135.560    90336724.83948
  20861901.600   109630161.90309  20861901.840    85426136.79249
  20998136.020   110346022.36709  20998134.740    85983940.81148
 15 03 01 03 28  0.0000000  0 10G01G03G04G11G14G16G19G22G27G32
  22609414.720   118813345.44709  22609416.060    92581864.25948
  24415077.200   128302099.29708  24415081.620    99975671.70646
  20766713.280   109129933.32409  20766711.500    85036350.51048
  21681210.880   113935605.27109  21681208.000    88781018.70747
  23664447.500   124357519.60408  23664445.360    96901963.03746
  23501713.880   123502365.96908  23501712.120    96235612.61246
  20512998.580   107796598.28609  20512994.020    83997368.11749
  22074510.980   116002411.13809  22074505.700    90391473.60648
  20869282.180   109668947.43309  20869282.500    85456359.27349
  20984095.080   110272236.86109  20984093.840    85926445.64848
 15 03 01 03 28 30.0000000  0 10G01G03G04G11G14G16G19G22G27G32
  22597914.580   118752912.05009  22597915.920    92534773.34048
  24394508.520   128194011.02408  24394512.980    99891447.30646
  20760968.660   109099745.10609  20760966.860    85012827.23848
  21669285.620   113872937.66709  21669282.760    88732186.83747
  23655005.760   124307903.15108  23655003.740    96863300.89146
  23521892.840   123608407.01408  23521891.080    96318242.06346
  20511538.240   107788923.90809  20511533.600    83991388.08549
  22087941.500   116072989.17909  22087936.240    90446469.48148
  20876736.880   109708121.94909  20876737.160    85486884.85349
  20970145.000   110198929.18209  20970143.860    85869322.82648
 15 03 01 03 29  0.0000000  0 10G01G03G04G11G14G16G19G22G27G32
  22586446.260   118692646.53909  22586447.740    92487813.25047
  24373961.960   128086038.98908  24373966.420    99807313.54846
  20755273.780   109069818.30909  20755272.000    84989507.68048
  21657395.100   113810452.77309  21657392.280    88683497.34447
  23645626.740   124258616.10808  23645624.840    96824895.43545
  23542093.800   123714563.53908  23542092.020    96400961.47946
  20510146.320   107781609.29809  20510141.620    83985688.39749
  22101432.020   116143882.71009  22101426.840    90501711.20048
  20884265.820   109747686.29409  20884266.000    85517714.21349
  20956286.320   110126101.85009  20956285.260    85812574.29748
 15 03 01 03 29 30.0000000  0 10G01G03G04G11G14G16G19G22G27G32
  22575009.820   118632548.69709  22575011.540    92440983.81048
  24353437.840   127978184.97008  24353442.200    99723271.69346
  20749628.520   109040152.54409  20749626.820    84966391.51648
  21645539.480   113748151.22209  21645536.680    88634950.69947
  23636310.860   124209660.69108  23636308.900    96786748.38245
  23562316.240   123820833.03108  23562314.440    96483768.85146
  20508823.000   107774655.57009  20508818.340    83980269.90749
  22114982.180   116215089.53909  22114977.120    90557197.03948
  20891868.900   109787640.57809  20891869.020    85548847.41149
  20942519.480   110053756.87009  20942518.440    85756201.61548
 15 03 01 03 30  0.0000000  0 10G01G03G04G11G14G16G19G22G27G32
  22563605.100   118572617.45108  22563607.020    92394284.17948
  24332936.460   127870450.15808  24332940.700    99639322.70846
  20744032.680   109010746.66009  20744031.080    84943477.85348
  21633718.720   113686032.87209  21633715.960    88586546.81647
  23627058.380   124161038.65208  23627056.360    96748861.10945
  23582559.360   123927211.43208  23582557.580    96566661.11146
  20507568.340   107768062.87109  20507563.800    83975132.73949
  22128591.360   116286606.31009  22128586.380    90612924.38948
  20899545.980   109827983.98709  20899546.060    85580283.81549
  20928844.640   109981895.21109  20928843.600    85700205.55248
 15 03 01 03 30 30.0000000  0 10G01G03G04G11G14G16G19G22G27G32
  22552231.880   118512851.39408  22552233.960    92347713.26648
  24312457.900   127762835.30908  24312462.060    99555467.18846
  20738486.000   108981599.08909  20738484.480    84920765.47448
  21621932.680   113624096.86809  21621929.860    88538285.01847
  23617869.580   124112751.40508  23617867.540    96711234.70445
  23602822.540   124033695.07208  23602820.780    96649635.35746
  20506382.300   107761831.08709  20506377.960    83970276.80849
  22142258.900   116358429.67509  22142254.000    90668890.65248
  20907296.900   109868715.40509  20907296.960    85612022.56249
  20915261.900   109910517.49309  20915260.840    85644586.59148
 15 03 01 03 31  0.0000000  0 10G01G03G04G11G14G16G19G22G27G32
  22540890.420   118453251.98708  22540892.560    92301272.21748
  24292002.820   127655344.04908  24292006.900    99471707.96646
  20732988.760   108952711.10509  20732987.300    84898255.37748
  21610181.800   113562345.53809  21610178.880    88490167.11447
  23608745.260   124064803.19008  23608743.220    96673872.49145
  23623105.600   124140283.23208  23623103.840    96732691.03646
  20505265.580   107755963.19309  20505261.340    83965704.42949
  22155984.680   116430559.09209  22155979.860    90725095.38948
  20915121.980   109909836.54609  20915122.020    85644064.98549
  20901771.940   109839627.31709  20901770.840    85589347.52748
 15 03 01 03 31 30.0000000  0 10G01G03G04G11G14G16G19G22G27G32
  22529581.060   118393821.15408  22529583.240    92254962.52848
  24271572.080   127547980.55108  24271576.040    99388048.29546
  20727541.320   108924084.81909  20727539.880    84875949.19948
  21598466.560   113500781.82509  21598463.660    88442195.41347
  23599686.280   124017198.48808  23599684.260    96636777.93846
  23643408.300   124246974.73808  23643406.560    96815827.26846
  20504218.780   107750462.34609  20504214.560    83961418.05449
  22169768.660   116502994.33509  22169763.920    90781538.43248
  20923021.660   109951349.59509  20923021.680    85676412.79249
  20888375.480   109769228.50309  20888374.360    85534491.34548
 15 03 01 03 32  0.0000000  0 10G01G03G04G11G14G16G19G22G27G32
  22518303.580   118334557.62808  22518305.720    92208783.20547
  24251165.860   127440745.69508  24251169.720    99304488.82546
  20722143.360   108895718.59309  20722141.940    84853845.66248
  21586786.880   113439405.20209  21586784.060    88394369.49747
  23590692.900   123969938.61708  23590690.960    96599952.09546
  23663729.900   124353765.50608  23663728.120    96899040.83546
  20503241.840   107745328.20009  20503237.600    83957417.42749
  22183610.220   116575732.16109  22183605.520    90838217.25948
  20930995.780   109993253.59209  20930995.740    85709065.24149
  20875072.660   109699321.82209  20875071.540    85480018.63848
 15 03 01 03 32 30.0000000  0 10G01G03G04G11G14G16G19G22G27G32
  22507057.480   118275459.12908  22507059.640    92162732.45748
  24230784.040   127333639.20708  24230787.880    99221029.34546
  20716794.520   108867610.23609  20716793.060    84831943.05048
  21575142.500   113378214.25309  21575139.760    88346688.25747
  23581765.260   123923023.98808  23581763.360    96563395.25045
  23684069.580   124460651.19908  23684067.800    96982328.35746
  20502334.560   107740559.83809  20502330.200    83953701.81549
  22197508.520   116648768.17009  22197503.860    90895128.42748
  20939043.920   110035546.42209  20939043.780    85742020.67949
  20861863.480   109629907.06509  20861862.320    85425929.24348
 15 03 01 03 33  0.0000000  0 10G01G03G04G11G14G16G19G22G27G32
  22495843.220   118216528.06808  22495845.380    92116812.20348
  24210427.600   127226665.84508  24210431.380    99137673.58546
  20711495.200   108839762.01809  20711493.740    84810243.16548
  21563534.060   113317212.09109  21563531.420    88299154.13747
  23572904.300   123876459.72108  23572902.480    96527111.43646
  23704427.200   124567631.25308  23704425.440    97065689.41846
  20501497.620   107736161.11909  20501493.120    83950274.24949
  22211463.580   116722102.74509  22211459.020    90952272.25648
  20947166.560   110078230.76809  20947166.300    85775281.19649
  20848748.800   109560988.59409  20848747.520    85372226.57548
 15 03 01 03 33 30.0000000  0 10G01G03G04G11G14G16G19G22G27G32
  22484660.360   118157762.26508  22484662.560    92071020.70747
  24190096.500   127119825.59808  24190100.180    99054421.54446
  20706244.980   108812171.67909  20706243.460    84788744.21448
  21551961.340   113256397.61709  21551958.840    88251766.26447
  23564110.080   123830246.11908  23564108.280    96491100.87045
  23724801.860   124674700.96708  23724800.140    97149120.31646
  20500730.720   107732130.92209  20500726.200    83947133.82849
  22225474.660   116795731.70609  22225470.100    91009645.46448
  20955363.340   110121304.65409  20955362.960    85808845.25549
  20835728.520   109492566.19309  20835727.120    85318910.43948
 15 03 01 03 34  0.0000000  0 10G01G03G04G11G14G16G19G22G27G32
  22473508.800   118099160.80208  22473510.940    92025357.26647
  24169790.940   127013119.63308  24169794.480    98971274.11946
  20701043.600   108784837.95109  20701042.020    84767445.21748
  21540424.220   113195770.35509  21540421.820    88204524.27247
  23555382.980   123784385.07208  23555381.200    96455365.01846
  23745192.920   124781856.69708  23745191.360    97232618.21946
  20500033.900   107728469.46309  20500029.460    83944280.74349
  22239541.160   116869652.08309  22239536.620    91067245.76247
  20963634.060   110164767.30509  20963633.640    85842712.24849
  20822802.840   109424640.87409  20822801.340    85265981.64148
 15 03 01 03 34 30.0000000  0 10G01G03G04G11G14G16G19G22G27G32
  22462388.920   118040725.63608  22462390.980    91979823.40747
  24149511.760   126906552.19308  24149515.120    98888234.63546
  20695891.440   108757763.01009  20695889.860    84746347.86948
  21528923.420   113135333.67909  21528921.060    88157430.78147
  23546723.800   123738880.89508  23546722.020    96419907.23846
  23765600.300   124889097.89308  23765598.680    97316182.72746
  20499407.840   107725180.13409  20499403.580    83941717.61949
  22253663.060   116943863.63309  22253658.540    91125072.93647
  20971979.120   110208620.92809  20971978.740    85876883.88649
  20809972.420   109357216.49809  20809970.920    85213443.19048
 15 03 01 03 35  0.0000000  0 10G01G03G04G11G14G16G19G22G27G32
  22451300.340   117982454.79709  22451302.320    91934417.58347
  24129259.020   126800123.42908  24129262.280    98805303.22146
  20690788.120   108730944.78809  20690786.540    84725450.56548
  21517458.660   113075086.10809  21517456.320    88110484.64547
  23538132.700   123693734.37808  23538130.880    96384728.16345
  23786023.060   124996420.01608  23786021.440    97399810.28446
  20498852.520   107722262.35709  20498848.360    83939444.02149
  22267839.580   117018362.22909  22267835.080    91183123.78447
  20980398.240   110252863.71609  20980397.920    85911358.76749
  20797237.220   109290293.03809  20797235.840    85161295.06648
 15 03 01 03 35 30.0000000  0 10G01G03G04G11G14G16G19G22G27G32
  22440243.480   117924350.43209  22440245.380    91889141.49148
  24109033.480   126693837.67408  24109036.680    98722483.27746
  20685733.980   108704385.13209  20685732.380    84704754.75048
  21506030.520   113015030.75609  21506028.080    88063688.29748
  23529610.520   123648950.24408  23529608.700    96349831.46145
  23806461.060   125103822.30008  23806459.440    97483500.29746
  20498368.580   107719719.26609  20498364.460    83937462.39249
  22282070.820   117093148.10809  22282066.340    91241398.49047
  20988891.800   110297497.97709  20988891.640    85946138.70049
  20784598.100   109223874.48809  20784596.820    85109540.37948
 15 03 01 03 36  0.0000000  0 10G01G03G04G11G14G16G19G22G27G32
  22429217.760   117866409.51209  22429219.580    91843992.74948
  24088834.880   126587693.99608  24088838.040    98639774.09746
  20680728.460   108678080.79209  20680726.800    84684257.86548
  21494638.620   112955165.54709  21494636.040    88017040.09147
  23521157.200   123604528.22508  23521155.360    96315216.92646
  23826913.340   125211299.47008  23826911.680    97567248.66246
  20497955.660   107717548.87609  20497951.440    83935771.17349
  22296355.820   117168216.03509  22296351.320    91299892.96947
  20997459.300   110342520.77209  20997459.320    85981221.37349
  20772054.860   109157959.69709  20772053.600    85058178.22848
 15 03 01 03 36 30.0000000  0 10G01G03G04G11G14G16G19G22G27G32
  22418223.640   117808634.50109  22418225.320    91798973.28948
  24068664.240   126481697.12908  24068667.380    98557179.29646
  20675772.080   108652034.54709  20675770.340    84663962.10148
  21483283.520   112895493.58109  21483280.760    87970542.48447
  23512773.760   123560473.34708  23512771.940    96280888.48446
  23847379.840   125318851.56908  23847378.200    97651055.42546
  20497614.460   107715755.11509  20497610.100    83934373.43249
  22310694.600   117243566.47509  22310690.000    91358607.59547
  21006101.300   110387934.77009  21006101.420    86016608.88649
  20759608.320   109092552.96709  20759607.040    85007211.97148
 15 03 01 03 37  0.0000000  0 10G01G03G04G11G14G16G19G22G27G32
  22407260.680   117751023.35009  22407262.220    91754081.51448
  24048521.480   126375846.99908  24048524.620    98474698.85646
  20670864.420   108626244.15209  20670862.540    84643865.69948
  21471965.000   112836013.89009  21471962.100    87924194.69447
  23504460.200   123516785.79708  23504458.400    96246846.26245
  23867859.660   125426473.80008  23867858.140    97734916.82646
  20497344.740   107714336.87209  20497340.200    83933268.29849
  22325086.460   117319195.70009  22325081.740    91417539.45548
  21014817.400   110433738.05609  21014817.620    86052299.74749
  20747258.400   109027654.17709  20747257.140    84956641.50848
 15 03 01 03 37 30.0000000  0 10G01G03G04G11G14G16G19G22G27G32
  22396329.080   117693577.24109  22396330.560    91709318.34148
  24028407.220   126270147.03508  24028410.340    98392335.45646
  20666005.600   108600710.62809  20666003.640    84623969.46148
  21460683.460   112776728.43509  21460680.400    87877998.25447
  23496217.260   123473469.29608  23496215.360    96213093.16746
  23888352.540   125534164.77108  23888351.140    97818831.76646
  20497146.880   107713296.36009  20497142.200    83932457.50949
  22339531.120   117395102.28809  22339526.260    91476687.44048
  21023607.820   110479931.85909  21023608.120    86088294.90049
  20735005.680   108963266.20409  20735004.500    84906469.08148
 15 03 01 03 38  0.0000000  0 10G01G03G04G11G14G16G19G22G27G32
  22385428.700   117636295.45509  22385430.180    91664683.21148
  24008321.800   126164598.64108  24008324.860    98310090.16746
  20661195.460   108575433.12509  20661193.480    84604272.71848
  21449438.860   112717637.37609  21449435.720    87831953.29447
  23488045.420   123430525.95508  23488043.420    96179630.85246
  23908857.740   125641920.74808  23908856.500    97902797.37246
  20497021.040   107712634.58309  20497016.240    83931941.83649
  22354028.100   117471283.76009  22354023.140    91536049.61547
  21032472.460   110526515.65409  21032472.820    86124593.94749
  20722850.340   108899390.14709  20722849.240    84856695.56548
 15 03 01 03 38 30.0000000  0 10G01G03G04G11G14G16G19G22G27G32
  22374559.440   117579177.25509  22374560.880    91620175.55848
  23988265.520   126059203.19208  23988268.460    98227964.05746
  20656433.840   108550410.91109  20656431.900    84584774.90548
  21438231.300   112658741.00409  21438228.040    87786060.03847
  23479944.920   123387957.39408  23479942.880    96146460.55846
  23929374.880   125749738.97208  23929373.760    97986811.49746
  20496967.220   107712351.75909  20496962.400    83931721.45749
  22368576.800   117547737.15009  22368571.780    91595623.68147
  21041411.140   110573488.74309  21041411.620    86161196.34049
  20710792.680   108836027.11509  20710791.660    84807321.80148
 15 03 01 03 39  0.0000000  0 10G01G03G04G11G14G16G19G22G27G32
  22363721.540   117522224.16609  22363723.020    91575796.56448
  23968239.040   125953964.42508  23968241.920    98145960.09946
  20651720.980   108525645.27909  20651719.160    84565477.02248
  21427061.120   112600041.48809  21427057.860    87740320.17147
  23471916.440   123345767.72508  23471914.340    96113585.51745
  23949903.680   125857618.28708  23949902.660    98070873.22346
  20496985.960   107712450.53809  20496981.160    83931798.42549
  22383177.120   117624461.91609  22383172.060    91655409.20747
  21050424.260   110620852.70909  21050424.780    86198103.31249
  20698833.300   108773180.30709  20698832.320    84758350.28248
 15 03 01 03 39 30.0000000  0 10G01G03G04G11G14G16G19G22G27G32
  22352915.060   117465436.21909  22352916.540    91531546.24748
  23948242.780   125848884.43408  23948245.580    98064079.86946
  20647056.960   108501136.31909  20647055.260    84546379.14248
  21415928.580   112541540.02609  21415925.340    87694734.63147
  23463960.480   123303959.28508  23463958.360    96081007.54246
  23970443.660   125965556.25808  23970442.660    98154980.64546
  20497077.580   107712932.22809  20497072.820    83932173.76449
  22397828.700   117701456.06309  22397823.580    91715404.63048
  21059511.820   110668607.71709  21059512.260    86235314.99849
  20686972.600   108710851.63209  20686971.540    84709782.50648
 15 03 01 03 40  0.0000000  0 10G01G03G04G11G14G16G19G22G27G32
  22342139.660   117408811.16209  22342141.100    91487422.86348
  23928276.680   125743962.80308  23928279.400    97982322.90946
  20642441.380   108476881.58009  20642439.700    84527479.35948
  21404833.400   112483235.07209  21404830.280    87649302.22347
  23456077.100   123262532.50308  23456075.080    96048726.96646
  23990993.920   126073547.89908  23990992.860    98239129.90446
  20497241.880   107713795.66709  20497237.080    83932846.57349
  22412530.680   117778715.26909  22412525.580    91775606.61248
  21068673.340   110716751.48009  21068673.680    86272829.61549
  20675210.440   108649040.40409  20675209.260    84661617.93248
 15 03 01 03 40 30.0000000  0 10G01G03G04G11G14G16G19G22G27G32
  22331395.460   117352349.99709  22331396.860    91443427.18048
  23908341.360   125639202.83808  23908344.020    97900691.87846
  20637874.460   108452882.00609  20637872.680    84508778.39948
  21393775.980   112425128.56509  21393773.020    87604024.44947
  23448267.020   123221490.59808  23448265.160    96016746.29346
  24011554.100   126181591.69408  24011552.980    98323319.80646
  20497479.220   107715042.78709  20497474.400    83933818.35149
  22427282.900   117856238.66109  22427277.840    91836014.43847
  21077909.080   110765285.08809  21077909.260    86310648.00549
  20663547.220   108587749.31209  20663545.920    84613858.65048
 15 03 01 03 41  0.0000000  0 10G01G03G04G11G14G16G19G22G27G32
  22320681.980   117296050.39809  22320683.360    91399557.40648
  23888436.800   125534604.40008  23888439.560    97819186.73746
  20633355.680   108429135.12109  20633353.780    84490274.34748
  21382756.080   112367219.13809  21382753.240    87558900.24547
  23440530.340   123180834.03308  23440528.400    95985065.87546
  24032123.280   126289682.86808  24032122.260    98407546.61946
  20497789.380   107716672.60709  20497784.560    83935088.34349
  22442084.480   117934021.63609  22442079.520    91896624.54747
  21087218.520   110814206.25509  21087218.560    86348768.38849
  20651982.820   108526977.82009  20651981.480    84566504.26248
 15 03 01 03 41 30.0000000  0 10G01G03G04G11G14G16G19G22G27G32
  22309999.940   117239916.20108  22310001.300    91355816.51048
  23868564.060   125430173.36608  23868566.920    97737812.02446
  20628885.740   108405644.89409  20628883.740    84471970.28648
  21371774.620   112309511.48109  21371771.860    87513933.26448
  23432868.200   123140568.91108  23432866.240    95953690.47246
  24052701.560   126397822.15508  24052700.540    98491810.93346
  20498173.340   107718690.22009  20498168.540    83936660.51149
  22456935.680   118012065.76309  22456930.900    91957438.13748
  21096602.400   110863518.75409  21096602.320    86387193.70649
  20640518.220   108466731.26809  20640516.900    84519558.92048
 15 03 01 03 42  0.0000000  0 10G01G03G04G11G14G16G19G22G27G32
  22299348.740   117183944.26408  22299350.140    91312202.04048
  23848723.040   125325908.78008  23848725.920    97656566.98446
  20624463.920   108382408.05209  20624461.920    84453863.66248
  21360831.220   112252003.53909  21360828.500    87469121.88548
  23425280.440   123100694.56108  23425278.340    95922619.57245
  24073288.020   126506004.47708  24073286.980    98576108.77546
  20498630.600   107721093.27909  20498625.900    83938533.02749
  22471835.660   118090366.08509  22471830.960    92018451.36247
  21106060.140   110913219.51609  21106059.960    86425921.55449
  20629153.260   108407008.23709  20629151.940    84473021.49948
 15 03 01 03 42 30.0000000  0 10G01G03G04G11G14G16G19G22G27G32
  22288728.640   117128135.73508  22288730.080    91268714.91848
  23828914.280   125221813.87908  23828917.280    97575454.20147
  20620090.400   108359425.53609  20620088.540    84435955.22848
  21349926.240   112194697.25209  21349923.540    87424467.66548
  23417767.700   123061214.47008  23417765.500    95891855.90446
  24093882.420   126614228.15408  24093881.240    98660438.85846
  20499161.640   107723884.30209  20499157.080    83940707.85849
  22486784.200   118168921.79509  22486779.600    92079663.60547
  21115591.980   110963309.60709  21115591.720    86464952.79049
  20617888.440   108347811.46809  20617887.140    84426894.16448
 15 03 01 03 43  0.0000000  0 10G01G03G04G11G14G16G19G22G27G32
  22278139.380   117072489.25509  22278140.900    91225354.05548
  23809138.060   125117889.47808  23809141.080    97494474.29647
  20615765.000   108336696.12009  20615763.280    84418244.00548
  21339059.560   112137592.25309  21339056.880    87379970.28248
  23410330.160   123022129.82308  23410328.000    95861400.34746
  24114483.960   126722489.36508  24114482.680    98744798.18245
  20499766.440   107727062.79209  20499761.960    83943184.60149
  22501780.640   118247729.14509  22501776.120    92141071.91947
  21125197.620   111013787.69909  21125197.280    86504286.35349
  20606723.820   108289141.21809  20606722.560    84381177.09848
 15 03 01 03 43 30.0000000  0 10G01G03G04G11G14G16G19G22G27G32
  22267580.980   117017004.78309  22267582.540    91182119.42848
  23789394.680   125014137.52808  23789397.640    97413628.78747
  20611487.660   108314219.15609  20611486.020    84400729.50048
  21328231.360   112080689.40409  21328228.700    87335630.41448
  23402968.200   122983442.66708  23402966.160    95831254.53246
  24135092.100   126830785.44908  24135090.840    98829184.68745
  20500445.240   107730629.80509  20500440.720    83945964.09849
  22516824.620   118326786.43909  22516820.200    92202675.00047
  21134877.080   111064653.66009  21134876.660    86543922.16549
  20595659.640   108230999.00609  20595658.440    84335871.48648
 15 03 01 03 44  0.0000000  0 10G01G03G04G11G14G16G19G22G27G32
  22257053.680   116961683.32709  22257055.140    91139011.83948
  23769684.780   124910561.21508  23769687.600    97332920.16646
  20607258.740   108291996.08709  20607257.080    84383412.84148
  21317441.940   112023990.47509  21317439.240    87291449.45748
  23395682.520   122945156.61508  23395680.620    95801421.28346
  24155706.560   126939114.68708  24155705.360    98913597.03745
  20501198.400   107734587.52509  20501193.840    83949048.04849
  22531915.900   118406092.02209  22531911.500    92264471.55347
  21144630.480   111115908.47209  21144630.040    86583860.97649
  20584696.420   108173387.38709  20584695.280    84290979.35148
 15 03 01 03 44 30.0000000  0 10G01G03G04G11G14G16G19G22G27G32
  22246557.120   116906523.08809  22246558.440    91096029.86148
  23750008.280   124807160.64708  23750010.980    97252348.44847
  20603077.760   108270024.83609  20603076.000    84366292.38648
  21306691.180   111967494.88909  21306688.440    87247426.93948
  23388473.260   122907272.06808  23388471.540    95771900.87446
  24176326.620   127047472.98208  24176325.400    98998032.02545
  20502025.780   107738935.26809  20502021.160    83952435.88749
  22547053.800   118485642.54409  22547049.420    92326458.95647
  21154457.500   111167550.25209  21154457.080    86624101.30349
  20573834.120   108116306.07809  20573833.000    84246500.44148
 15 03 01 03 45  0.0000000  0 10G01G03G04G11G14G16G19G22G27G32
  22236091.640   116851526.19909  22236092.840    91053175.16748
  23730365.940   124703940.00208  23730368.540    97171916.86746
  20598945.140   108248307.56909  20598943.280    84349369.84348
  21295979.700   111911205.46609  21295976.840    87203565.05948
  23381341.300   122869793.58408  23381339.660    95742696.88946
  24196952.160   127155860.11408  24196950.780    99082489.49845
  20502927.960   107743676.25309  20502923.280    83956130.15949
  22562238.460   118565438.18409  22562233.920    92388637.36347
  21164358.500   111219581.01309  21164358.200    86664644.72249
  20563073.440   108059758.60209  20563072.300    84202437.48948
 15 03 01 03 45 30.0000000  0 10G01G03G04G11G14G16G19G22G27G32
  22225656.660   116796689.82009  22225657.740    91010445.54548
  23710757.680   124600898.66508  23710760.180    97091625.01246
  20594860.280   108226841.27709  20594858.340    84332642.87848
  21285307.100   111855120.35209  21285304.140    87159862.38948
  23374286.540   122832720.61908  23374284.980    95713808.89946
  24217581.980   127264269.94108  24217580.520    99166964.64946
  20503904.560   107748808.53109  20503899.840    83960129.33549
  22577468.800   118645473.69609  22577464.140    92451002.69947
  21174333.020   111271997.91009  21174332.780    86705489.05249
  20552414.140   108003743.81209  20552413.020    84158789.63048
 15 03 01 03 46  0.0000000  0 10G01G03G04G11G14G16G19G22G27G32
  22215252.560   116742016.02609  22215253.600    90967842.61448
  23691184.320   124498040.57608  23691186.740    97011475.92446
  20590823.500   108205627.91009  20590821.540    84316112.98448
  21274673.940   111799242.61409  21274670.880    87116321.30648
  23367309.800   122796057.54308  23367308.240    95685240.27946
  24238216.160   127372702.89208  24238214.700    99251457.80045
  20504956.220   107754335.35709  20504951.540    83964435.93649
  22592744.840   118725749.22909  22592740.060    92513555.05047
  21184381.420   111324802.82709  21184381.220    86746635.73049
  20541856.880   107948265.00809  20541855.740    84115559.40948
 15 03 01 03 46 30.0000000  0 11G01G03G04G11G14G16G19G22G27G28G32
  22204879.400   116687505.09409  22204880.500    90925366.58748
  23671646.360   124395368.28708  23671648.720    96931471.59647
  20586834.900   108184667.77309  20586832.980    84299780.42248
  21264080.500   111743573.46909  21264077.320    87072942.76648
  23360411.480   122759807.02908  23360409.960    95656993.14546
  24258854.300   127481156.71808  24258852.820    99335967.24445
  20506083.220   107760257.95009  20506078.580    83969050.93349
  22608066.260   118806263.22209  22608061.340    92576293.22347
  21194503.720   111377995.97009  21194503.540    86788084.92249
  25093200.020   131865652.49907  25093199.800   102752445.52344
  20531401.940   107893324.10609  20531400.860    84072748.34548
 15 03 01 03 47  0.0000000  0 11G01G03G04G11G14G16G19G22G27G28G32
  22194536.940   116633155.80909  22194538.140    90883016.52248
  23652143.940   124292882.51808  23652146.240    96851612.61447
  20582894.240   108163959.64909  20582892.420    84283644.22548
  21253526.600   111688112.53709  21253523.440    87029726.46648
  23353591.820   122723970.13008  23353590.300    95629068.31646
  24279495.540   127589627.17208  24279494.120    99420489.62545
  20507285.540   107766576.15009  20507280.940    83973974.19649
  22623432.320   118887011.88409  22623427.340    92639214.24847
  21204699.640   111431575.97809  21204699.480    86829835.56349
  25077656.780   131783972.11907  25077655.780   102688798.46544
  20521049.400   107838921.30409  20521048.360    84030356.58248
 15 03 01 03 47 30.0000000  0 11G01G03G04G11G14G16G19G22G27G28G32
  22184224.560   116578964.49909  22184225.920    90840789.54348
  23632676.740   124190581.77308  23632679.060    96771897.84046
  20579000.880   108143499.63109  20578999.060    84267701.36048
  21243011.820   111632857.23909  21243008.700    86986670.40448
  23346850.580   122688545.25308  23346849.080    95601464.53846
  24300138.700   127698107.89108  24300137.320    99505020.00245
  20508562.680   107773287.15109  20508558.060    83979203.53749
  22638841.940   118967989.77909  22638837.000    92702313.89647
  21214968.480   111485538.98309  21214968.360    86871884.64649
  25062166.660   131702569.08208  25062164.800   102625367.45143
  20510798.840   107785054.15809  20510797.780    83988382.21348
 15 03 01 03 48  0.0000000  0 11G01G03G04G11G14G16G19G22G27G28G32
  22173943.460   116524937.31909  22173944.880    90798690.46948
  23613246.220   124088474.08508  23613248.620    96692333.46746
  20575155.860   108123293.71709  20575154.040    84251956.49148
  21232537.480   111577814.63909  21232534.420    86943780.07548
  23340189.340   122653540.80008  23340188.000    95574188.36345
  24320784.600   127806603.11208  24320783.400    99589561.68145
  20509915.960   107780398.26809  20509911.300    83984744.65549
  22654295.940   119049201.01609  22654291.020    92765595.36347
  21225311.320   111539890.99309  21225311.240    86914236.83549
  25046730.760   131621451.84707  25046728.460   102562159.20444
  20500651.700   107731730.20709  20500650.540    83946831.08348
 15 03 01 03 48 30.0000000  0 11G01G03G04G11G14G16G19G22G27G28G32
  22163693.060   116471070.74609  22163694.380    90756716.53648
  23593852.180   123986558.07108  23593854.640    96612918.46346
  20571358.520   108103338.37709  20571356.620    84236406.88148
  21222103.160   111522982.39609  21222100.180    86901053.66648
  23333607.900   122618955.50408  23333606.580    95547238.80046
  24341432.060   127915106.50108  24341431.080    99674109.74445
  20511344.900   107787907.08809  20511340.240    83990595.67749
  22669793.280   119130639.93509  22669788.420    92829054.25047
  21235727.500   111594628.36209  21235727.480    86956889.32649
  25031348.920   131540619.44608  25031346.540   102499172.91744
  20490607.540   107678947.27809  20490606.240    83905701.49048
 15 03 01 03 49  0.0000000  0 11G01G03G04G11G14G16G19G22G27G28G32
  22153473.160   116417364.37009  22153474.380    90714867.43548
  23574494.940   123884835.35108  23574497.360    96533654.10246
  20567608.740   108083633.32909  20567606.840    84221052.31048
  21211708.960   111468360.74809  21211706.040    86858491.35948
  23327106.700   122584791.35408  23327105.320    95520617.40946
  24362080.540   128023615.37208  24362079.760    99758662.06445
  20512849.640   107795814.24509  20512845.020    83996757.10149
  22685333.480   119212304.12909  22685328.700    92892688.68647
  21246216.900   111649750.41809  21246216.920    86999841.57549
  25016021.660   131460073.95608  25016019.120   102436410.14544
  20480666.600   107626706.52309  20480665.160    83864994.43048
 15 03 01 03 49 30.0000000  0 11G01G03G04G11G14G16G19G22G27G28G32
  22143283.820   116363818.63309  22143284.960    90673143.49848
  23555174.920   123783308.28908  23555177.360    96454542.18047
  20563906.600   108064178.77709  20563904.700    84205892.92248
  21201355.140   111413951.15909  21201352.240    86816094.28148
  23320686.220   122551050.95508  23320684.780    95494326.20446
  24382729.760   128132127.45608  24382728.980    99843216.92045
  20514430.380   107804120.62509  20514425.680    84003229.59449
  22700916.180   119294191.96209  22700911.500    92956497.37047
  21256779.560   111705257.40809  21256779.620    87043093.76949
  25000749.460   131379818.01208  25000746.980   102373873.02945
  20470829.060   107575009.37309  20470827.520    83824710.89948
 15 03 01 03 50  0.0000000  0 11G01G03G04G11G14G16G19G22G27G28G32
  22133124.880   116310432.83509  22133125.980    90631544.20448
  23535892.380   123681978.28108  23535894.740    96375583.79347
  20560252.000   108044974.01409  20560250.140    84190928.18948
  21191041.800   111359753.98609  21191038.880    86773862.73248
  23314346.580   122517735.39608  23314344.980    95468366.04446
  24403378.940   128240639.14308  24403378.100    99927771.46746
  20516087.220   107812826.83409  20516082.400    84010013.67349
  22716540.920   119376300.70109  22716536.320    93020478.20447
  21267415.260   111761148.42809  21267415.420    87086645.20349
  24985532.660   131299853.47908  24985530.380   102311563.00245
  20461095.020   107523856.58209  20461093.500    83784851.57348
 15 03 01 03 50 30.0000000  0 11G01G03G04G11G14G16G19G22G27G28G32
  22122996.620   116257208.66709  22122997.760    90590070.84648
  23516648.040   123580849.00108  23516650.420    96296781.84546
  20556645.180   108026020.35909  20556643.420    84176159.11648
  21180769.420   111305771.92909  21180766.440    86731798.80148
  23308088.540   122484848.81208  23308086.780    95442740.15146
  24424028.000   128349150.22008  24424027.040   100012325.54545
  20517820.520   107821935.46609  20517815.640    84017111.31549
  22732207.640   119458630.09909  22732203.160    93084630.97347
  21278124.320   111817424.87909  21278124.600    87130496.95649
  24970372.080   131220184.54608  24970369.880   102249483.29545
  20451465.100   107473251.03509  20451463.640    83745418.66348
 15 03 01 03 51  0.0000000  0 11G01G03G04G11G14G16G19G22G27G28G32
  22112898.640   116204143.86309  22112899.880    90548721.67348
  23497441.860   123479920.09108  23497444.220    96218135.97047
  20553085.800   108007315.89109  20553084.140    84161584.21048
  21170537.680   111252003.72809  21170534.640    86689901.51248
  23301912.120   122452391.07408  23301910.220    95417448.42446
  24444675.960   128457655.85108  24444674.920   100096875.37345
  20519630.080   107831445.26209  20519625.240    84024521.54149
  22747915.480   119541175.57109  22747911.100    93148952.11047
  21288906.280   111874084.34309  21288906.660    87174647.19049
  24955267.780   131140811.18408  24955265.640   102187633.90245
  20441939.100   107423191.75409  20441937.740    83706411.43748
 15 03 01 03 51 30.0000000  0 11G01G03G04G11G14G16G19G22G27G28G32
  22102831.160   116151239.11909  22102832.460    90507497.22448
  23478274.340   123379194.36408  23478276.780    96139648.45646
  20549573.900   107988860.92609  20549572.320    84147203.72648
  21160346.820   111198450.75209  21160343.820    86648171.93948
  23295817.800   122420364.70708  23295815.740    95392492.84246
  24465322.540   128566154.05908  24465321.360   100181419.46445
  20521516.280   107841357.91409  20521511.500    84032245.70049
  22763664.140   119623935.97109  22763659.980    93213440.72147
  21299761.240   111931127.18209  21299761.600    87219096.17149
  24940220.360   131061736.38708  24940218.340   102126017.17145
  20432517.360   107373680.55409  20432516.080    83667831.30848
 15 03 01 03 52  0.0000000  0 11G01G03G04G11G14G16G19G22G27G28G32
  22092794.060   116098493.93909  22092795.420    90466397.10648
  23459145.760   123278673.24508  23459148.280    96061320.36847
  20546109.440   107970655.16109  20546107.880    84133017.42348
  21150197.020   111145113.64709  21150194.060    86606610.57548
  23289805.940   122388771.74208  23289803.700    95367874.96946
  24485967.080   128674642.00208  24485965.820   100265955.52745
  20523479.120   107851673.41209  20523474.460    84040283.76349
  22779453.220   119706908.67709  22779449.260    93278094.76747
  21310689.000   111988552.58909  21310689.340    87263843.23049
  24925230.200   130982962.58108  24925228.140   102064634.99045
  20423200.040   107324718.19309  20423198.800    83629678.83548
 15 03 01 03 52 30.0000000  0 11G01G03G04G11G14G16G19G22G27G28G32
  22082787.320   116045908.30709  22082788.760    90425421.30348
  23440056.500   123178358.63808  23440059.000    95983153.16347
  20542692.360   107952698.22609  20542690.700    84119025.01548
  21140088.540   111091993.57009  21140085.580    86565218.31448
  23283876.900   122357614.08508  23283874.540    95343596.28946
  24506609.020   128783116.74308  24506607.860   100350481.29844
  20525518.880   107862393.03509  20525514.280    84048636.71449
  22795282.380   119790091.66609  22795278.460    93342912.67947
  21321689.540   112046360.26009  21321689.820    87308888.15049
  24910297.660   130904491.52207  24910295.420   102003488.69845
  20413987.340   107276305.61909  20413986.140    83591954.71748
 15 03 01 03 53  0.0000000  0 11G01G03G04G11G14G16G19G22G27G28G32
  22072811.000   115993482.81709  22072812.540    90384570.29548
  23421007.060   123078253.09208  23421009.540    95905148.82747
  20539322.780   107934990.87509  20539321.040    84105227.08948
  21130021.620   111039091.90309  21130018.720    86523996.25048
  23278031.120   122326894.28008  23278028.780    95319658.79846
  24527248.200   128891576.68208  24527247.000   100434995.57044
  20527635.860   107873518.26609  20527631.300    84057305.71349
  22811151.300   119873483.46909  22811147.420    93407893.29947
  21332762.880   112104550.50009  21332763.040    87354231.18049
  24895423.320   130826326.47207  24895421.060   101942580.85845
  20404879.660   107228444.87909  20404878.520    83554660.65048
 15 03 01 03 53 30.0000000  0 11G01G03G04G11G14G16G19G22G27G28G32
  22062865.160   115941217.40709  22062866.780    90343844.02748
  23401997.820   122978358.64408  23402000.260    95827308.99747
  20536000.660   107917532.92209  20535998.840    84091623.49948
  21119996.400   110986409.20909  21119993.480    86482944.80748
  23272269.040   122296614.36908  23272266.740    95296064.09046
  24547884.140   129000019.56707  24547883.020   100519496.56345
  20529830.180   107885049.69009  20529825.640    84066291.23449
  22827059.580   119957081.94809  22827055.720    93473034.96047
  21343908.960   112163122.93809  21343909.020    87399872.02949
  24880607.580   130748469.17507  24880605.320   101881912.85545
  20395877.140   107181136.87409  20395876.040    83517797.28448
 15 03 01 03 54  0.0000000  0 11G01G03G04G11G14G16G19G22G27G28G32
  22052949.560   115889110.81309  22052951.220    90303241.51248
  23383028.840   122878675.82308  23383031.280    95749634.01047
  20532725.740   107900322.92009  20532723.860    84078213.11448
  21110012.960   110933945.95609  21110010.000    86442064.36148
  23266590.760   122266775.19208  23266588.500    95272812.79846
  24568516.100   129108441.50408  24568515.040   100603981.20145
  20532101.760   107896986.83909  20532097.260    84075592.91949
  22843006.580   120040883.83508  22843002.620    93538335.12447
  21355127.440   112222075.95209  21355127.440    87445809.43449
  24865850.760   130670921.46507  24865848.480   101821486.07745
  20386979.820   107134381.45509  20386978.740    83481364.53148
 15 03 01 03 54 30.0000000  0 11G01G03G04G11G14G16G19G22G27G28G32
  22043064.240   115837163.07709  22043065.860    90262762.77748
  23364100.520   122779206.77208  23364102.940    95672125.64547
  20529498.000   107883360.90009  20529496.080    84064995.95848
  21100071.520   110881703.03909  21100068.460    86401355.59948
  23260996.720   122237378.74708  23260994.580    95249906.49846
  24589143.640   129216840.04507  24589142.500   100688447.65245
  20534450.780   107909330.86209  20534446.320    84085211.65049
  22858991.980   120124887.09109  22858987.860    93603792.21047
  21366418.240   112281409.25709  21366418.240    87492043.19949
  24851153.360   130593685.59207  24851151.000   101761302.28144
  20378187.840   107088179.69509  20378186.800    83445363.22348
 15 03 01 03 55  0.0000000  0 11G01G03G04G11G14G16G19G22G27G28G32
  22033208.980   115785373.22909  22033210.500    90222407.07148
  23345213.060   122679952.52708  23345215.460    95594784.70147
  20526317.220   107866645.81209  20526315.360    84051971.22048
  21090171.960   110829680.17209  21090168.820    86360818.31248
  23255487.080   122208426.01908  23255485.060    95227345.94746
  24609766.000   129325211.55608  24609765.020   100772893.01945
  20536877.200   107922081.63609  20536872.740    84095147.31449
  22875015.160   120209088.84509  22875010.880    93669403.95847
  21377781.080   112341121.52109  21377781.140    87538572.24649
  24836515.540   130516762.84207  24836512.920   101701362.44644
  20369501.260   107042531.54309  20369500.260    83409793.27348
 15 03 01 03 55 30.0000000  0 11G01G03G04G11G14G16G19G22G27G28G32
  22023383.920   115733742.08509  22023385.260    90182175.04048
  23326367.000   122580915.68408  23326369.340    95517613.15147
  20523183.580   107850178.53309  20523181.800    84039139.58748
  21080314.620   110777879.15409  21080311.460    86320453.89348
  23250062.360   122179919.71908  23250060.500    95205133.26846
  24630382.940   129433554.58908  24630382.080   100857316.23045
  20539381.360   107935240.80709  20539376.840    84105401.23049
  22891075.840   120293487.91708  22891071.460    93735169.46747
  21389216.080   112401213.08809  21389216.200    87585396.82949
  24821937.880   130440156.47807  24821935.080   101641669.18744
  20360920.480   106997438.93009  20360919.380    83374656.20348
 15 03 01 03 56  0.0000000  0 11G01G03G04G11G14G16G19G22G27G28G32
  22013589.600   115682272.44409  22013590.760    90142068.83848
  23307563.220   122482101.03008  23307565.480    95440614.75647
  20520097.540   107833961.57009  20520095.900    84026503.00248
  21070500.180   110726303.70809  21070497.060    86280265.24448
  23244723.580   122151864.98408  23244721.960    95183272.44846
  24650994.580   129541869.41208  24650993.740   100941717.50245
  20541963.880   107948811.69909  20541959.320    84115975.93149
  22907174.120   120378084.94209  22907169.660    93801089.20447
  21400723.820   112461686.42809  21400723.900    87632518.89849
  24807421.320   130363871.20608  24807418.400   101582226.13744
  20352446.180   106952905.74709  20352444.940    83339955.06648
 15 03 01 03 56 30.0000000  0 11G01G03G04G11G14G16G19G22G27G28G32
  22003825.260   115630960.44409  22003826.280    90102085.48048
  23288801.280   122383506.58808  23288803.540    95363787.96347
  20517058.420   107817991.11509  20517056.880    84014058.50448
  21060728.140   110674951.22309  21060725.100    86240250.33548
  23239470.220   122124259.34208  23239468.860    95161761.58346
  24671599.560   129650149.27808  24671598.740   101026091.53245
  20544624.200   107962791.54709  20544619.600    84126869.31449
  22923308.960   120462874.11708  22923304.440    93867158.68947
  21412303.460   112522537.37709  21412303.380    87679935.26749
  24792965.680   130287905.95308  24792962.580   101523032.39244
  20344077.740   106908928.94809  20344076.420    83305687.46848
 15 03 01 03 57  0.0000000  0 11G01G03G04G11G14G16G19G22G27G28G32
  21994090.860   115579805.90209  21994091.800    90062224.81748
  23270081.520   122285134.07608  23270083.900    95287134.12447
  20514066.160   107802266.86609  20514064.680    84001805.85148
  21050998.660   110623822.43209  21050995.680    86200409.72848
  23234302.800   122097104.81908  23234301.580    95140602.23446
  24692197.460   129758391.92608  24692196.520   101110436.56145
  20547362.400   107977180.84509  20547357.780    84138081.74549
  22939479.920   120547852.95109  22939475.300    93933375.95047
  21423954.780   112583765.08009  21423954.560    87727645.16149
  24778571.240   130212262.61608  24778568.180   101464089.51144
  20335815.260   106865509.21009  20335813.900    83271853.92448
 15 03 01 03 57 30.0000000  0 11G01G03G04G11G14G16G19G22G27G28G32
  21984386.620   115528810.00609  21984387.580    90022487.76548
  23251404.620   122186986.52008  23251407.000    95210655.53947
  20511120.960   107786789.96709  20511119.540    83989745.92648
  21041312.180   110572919.58009  21041309.280    86160745.17148
  23229221.860   122070404.39308  23229220.640    95119796.71446
  24712788.080   129866596.23808  24712787.180   101194751.70245
  20550178.840   107991981.36609  20550174.200    84149614.60449
  22955686.820   120633020.68309  22955682.180    93999740.39847
  21435677.880   112645370.37309  21435677.580    87775649.26349
  24764238.700   130136944.75708  24764235.580   101405400.24844
  20327659.180   106822648.77809  20327657.780    83238456.17748
 15 03 01 03 58  0.0000000  0 11G01G03G04G11G14G16G19G22G27G28G32
  21974712.500   115477972.26709  21974713.460    89982873.96548
  23232770.780   122089065.42908  23232773.160    95134353.46647
  20508222.700   107771559.80509  20508221.340    83977878.28148
  21031668.720   110522242.93209  21031665.860    86121256.89448
  23224227.520   122044159.46908  23224226.380    95099346.15946
  24733370.780   129974759.33308  24733369.840   101279034.77244
  20553073.560   108007193.44909  20553068.900    84161468.18149
  22971929.260   120718375.07409  22971924.600    94066250.31147
  21447472.580   112707352.36009  21447472.300    87823946.92448
  24749968.420   130061954.17108  24749965.400   101346966.02544
  20319609.620   106780348.01809  20319608.220    83205494.59448
 15 03 01 03 58 30.0000000  0 11G01G03G04G11G14G16G19G22G27G28G32
  21965068.540   115427292.77609  21965069.480    89943383.46548
  23214180.400   121991372.70908  23214182.780    95058229.33247
  20505371.440   107756576.49809  20505370.060    83966202.97948
  21022068.520   110471793.98009  21022065.720    86081946.03248
  23219320.340   122018371.95408  23219318.980    95079252.00546
  24753945.060   130082878.67607  24753944.020   101363283.72345
  20556046.760   108022818.29009  20556042.180    84173643.38049
  22988206.820   120803913.98709  22988202.120    94132903.99547
  21459338.820   112769710.68209  21459338.620    87872537.84048
  24735760.860   129987293.34408  24735757.840   101288788.72344
  20311666.800   106738607.89609  20311665.340    83172969.87248
 15 03 01 03 59  0.0000000  0 11G01G03G04G11G14G16G19G22G27G28G32
  21955454.680   115376771.27009  21955455.560    89904016.07548
  23195633.820   121893909.94408  23195636.120    94982284.40147
  20502567.140   107741839.67109  20502565.680    83954719.73948
  21012511.680   110421573.24309  21012508.960    86042813.00948
  23214500.580   121993043.49808  23214498.960    95059515.56246
  24774510.440   130190951.40507  24774509.440   101447496.34245
  20559098.640   108038856.25109  20559094.080    84186140.48449
  23004519.040   120889635.20009  23004514.300    94199699.74047
  21471276.480   112832444.52809  21471276.420    87921421.36949
  24721616.420   129912964.29908  24721613.540   101230869.95644
  20303830.740   106697428.90809  20303829.260    83140882.40148
