     2.11           OBSERVATION DATA    G                   RINEX VERSION / TYPE
SPIDER V4,0,0,3554                      2015 03 24 05:27    PGM / RUN BY / DATE 
OJGS                                                        MARKER NAME         
OJGS                                                        MARKER NUMBER       
                                                            OBSERVER / AGENCY   
496552              LEICA GRX1200+GNSS  8.20/4.007          REC # / TYPE / VERS 
10401003            LEIAR25         NONE                    ANT # / TYPE        
  5198100.9450    88691.2920  3684205.7148                  APPROX POSITION XYZ 
        0.1200        0.0000        0.0000                  ANTENNA: DELTA H/E/N
     1     1                                                WAVELENGTH FACT L1/2
     4    C1    L1    P2    L2                              # / TYPES OF OBSERV 
    30.000                                                  INTERVAL            
  2015    03    01    00    00    0.0000000     GPS         TIME OF FIRST OBS   
  2015    03    01    23    59   30.0000000     GPS         TIME OF LAST OBS    
    16                                                      LEAP SECONDS        
    30                                                      # OF SATELLITES     
   G 1   833   833   833   833                              PRN / # OF OBS      
   G 2   925   924   924   924                              PRN / # OF OBS      
   G 3   839   839   839   839                              PRN / # OF OBS      
   G 4   845   845   844   844                              PRN / # OF OBS      
   G 5   673   673   673   673                              PRN / # OF OBS      
   G 6   732   732   731   731                              PRN / # OF OBS      
   G 7   723   723   722   722                              PRN / # OF OBS      
   G 9   782   782   782   782                              PRN / # OF OBS      
   G10   784   784   783   783                              PRN / # OF OBS      
   G11   798   798   798   798                              PRN / # OF OBS      
   G12   811   811   811   811                              PRN / # OF OBS      
   G13   821   821   821   821                              PRN / # OF OBS      
   G14   933   932   930   930                              PRN / # OF OBS      
   G15   733   733   733   733                              PRN / # OF OBS      
   G16   693   693   693   693                              PRN / # OF OBS      
   G17   930   930   929   929                              PRN / # OF OBS      
   G18   938   938   938   938                              PRN / # OF OBS      
   G19   782   782   782   782                              PRN / # OF OBS      
   G20   800   800   800   800                              PRN / # OF OBS      
   G21   672   657   642   641                              PRN / # OF OBS      
   G22   802   800   800   799                              PRN / # OF OBS      
   G23   726   726   726   726                              PRN / # OF OBS      
   G24   834   826   824   821                              PRN / # OF OBS      
   G25   821   821   821   821                              PRN / # OF OBS      
   G27   831   831   831   831                              PRN / # OF OBS      
   G28   913   913   913   913                              PRN / # OF OBS      
   G29   718   718   718   718                              PRN / # OF OBS      
   G30   692   692   692   692                              PRN / # OF OBS      
   G31   763   763   763   763                              PRN / # OF OBS      
   G32   740   740   740   740                              PRN / # OF OBS      
BIT 2 OF LLI FLAGS DATA COLLECTED UNDER A/S CONDITION       COMMENT             
SNR is mapped to RINEX snr flag value [2-9]                 COMMENT             
Lx:     = 25dBHz -> 1; 26-27dBHz -> 2; 28-31dBHz -> 3       COMMENT             
       32-35dBHz -> 4; 36-38dBHz -> 5; 39-41dBHz -> 6       COMMENT             
       42-44dBHz -> 7; 45-48dBHz -> 8; >=49dBHz -> 9        COMMENT             
                                                            END OF HEADER       
 15 03 01 00 00  0.0000000  0  7G16G18G21G22G27G29G31
  21435688.240   112645335.19809  21435685.840    87775601.69748
  22693710.260   119256328.63009  22693708.500    92927027.15746
  21484498.760   112901814.45609  21484495.560    87975433.81148
  23835305.260   125255352.22708  23835305.400    97601586.49346
  22506452.580   118272286.20908  22506453.380    92160252.76148
  24410172.620   128276307.87208  24410172.060    99955554.22846
  22985356.120   120788831.11009  22985355.460    94121151.28947
 15 03 01 00 00 30.0000000  0  7G16G18G21G22G27G29G31
  21423413.900   112580833.66609  21423411.540    87725340.77748
  22682947.980   119199772.36509  22682946.220    92882957.37146
  21492936.860   112946156.82409  21492933.540    88009986.30548
  23817946.700   125164133.26408  23817946.940    97530506.72846
  22495067.840   118212459.80108  22495068.720    92113634.81748
  24424686.320   128352576.94208  24424685.600   100014984.64045
  23003196.720   120882583.72009  23003196.080    94194205.18347
 15 03 01 00 01  0.0000000  0  7G16G18G21G22G27G29G31
  21411193.560   112516615.81109  21411191.280    87675300.90548
  22672243.860   119143521.70809  22672242.040    92839125.70546
  21501436.320   112990821.67708  21501432.880    88044790.08748
  23800592.720   125072937.95408  23800592.960    97459445.59346
  22483707.620   118152761.82008  22483708.420    92067116.96148
  24439200.320   128428847.43408  24439199.360   100074416.17745
  23021069.400   120976504.79409  23021068.700    94267390.31647
 15 03 01 00 01 30.0000000  0  7G16G18G21G22G27G29G31
  21399027.620   112452683.42809  21399025.380    87625483.46748
  22661598.320   119087579.11309  22661596.560    92795534.10046
  21509996.820   113035807.20909  21509993.260    88079843.75448
  23783243.660   124981768.54408  23783243.880    97388404.72146
  22472371.780   118093191.99908  22472372.440    92020698.95648
  24453714.360   128505118.87208  24453713.140   100133848.40945
  23038973.600   121070591.52209  23038972.860    94340704.56147
 15 03 01 00 02  0.0000000  0  7G16G18G21G22G27G29G31
  21386915.540   112389034.02309  21386913.280    87575886.54148
  22651010.900   119031942.00309  22651009.180    92752180.53146
  21518617.200   113081107.49309  21518613.640    88115142.67548
  23765899.060   124890622.52808  23765899.180    97317381.94446
  22461059.560   118033745.59808  22461060.040    91974377.10948
  24468227.620   128581386.82508  24468226.660   100193277.93245
  23056907.820   121164836.06909  23056907.040    94414141.75447
 15 03 01 00 02 30.0000000  0  7G16G18G21G22G27G29G31
  21374858.240   112325672.60509  21374855.940    87526514.02648
  22640482.660   118976615.54909  22640480.840    92709069.03346
  21527297.720   113126723.80009  21527294.180    88150687.85948
  23748560.080   124799506.39308  23748560.140    97246382.52446
  22449771.420   117974425.66708  22449771.840    91928153.82248
  24482740.900   128657654.24008  24482740.080   100252707.01346
  23074872.100   121259238.56409  23074871.260    94487702.03147
 15 03 01 00 03  0.0000000  0  7G16G18G21G22G27G29G31
  21362856.220   112262601.67209  21362853.940    87477367.85048
  22630014.060   118921602.65609  22630012.260    92666201.87046
  21536038.060   113172654.35708  21536034.520    88186477.90048
  23731227.280   124708422.63708  23731227.340    97175408.38446
  22438507.380   117915232.34108  22438507.720    91882029.18448
  24497254.080   128733921.12208  24497253.320   100312135.68846
  23092865.900   121353796.28709  23092865.060    94561383.25747
 15 03 01 00 03 30.0000000  0  7G16G18G21G22G27G29G31
  21350909.520   112199821.47909  21350907.200    87428448.23848
  22619605.200   118866903.67509  22619603.320    92623579.31846
  21544837.440   113218895.45909  21544833.980    88222509.93548
  23713900.780   124617372.20308  23713900.880    97104460.35646
  22427267.100   117856163.66908  22427267.300    91836001.69348
  24511766.780   128810185.54908  24511766.120   100371562.48045
  23110888.360   121448504.46509  23110887.540    94635181.69847
 15 03 01 00 04  0.0000000  0  7G16G18G21G22G27G29G31
  21339019.120   112137337.21009  21339016.860    87379759.21348
  22609257.040   118812523.59609  22609255.000    92581205.24746
  21553696.140   113265448.21009  21553692.720    88258784.80848
  23696581.600   124526360.53808  23696581.720    97033542.51547
  22416051.140   117797222.68409  22416051.220    91790073.68148
  24526279.560   128886450.73108  24526279.040   100430989.83546
  23128939.480   121543363.16009  23128938.720    94709097.42347
 15 03 01 00 04 30.0000000  0  7G16G18G21G22G27G29G31
  21327185.260   112075149.94809  21327183.040    87331301.62148
  22598969.900   118758464.20509  22598967.780    92539081.07746
  21562613.660   113312309.98909  21562610.260    88295300.48248
  23679270.140   124435389.25308  23679270.140    96962656.03746
  22404859.200   117738408.22209  22404859.160    91744244.26548
  24540792.180   128962715.12908  24540791.700   100490416.55546
  23147018.460   121638368.22109  23147017.700    94783127.20847
 15 03 01 00 05  0.0000000  0  7G16G18G21G22G27G29G31
  21315407.880   112013258.99109  21315405.580    87283074.89748
  22588743.580   118704724.79409  22588741.540    92497206.22146
  21571589.120   113359476.36009  21571585.800    88332053.48848
  23661966.320   124344458.20008  23661966.300    96891800.90545
  22393690.860   117679717.71609  22393690.700    91698511.42648
  24555304.280   129038976.56708  24555303.840   100549841.00046
  23165124.280   121733514.21709  23165123.520    94857266.78147
 15 03 01 00 05 30.0000000  0  6G16G18G21G22G27G31
  21303681.900   111951638.44509  21303679.580    87235058.91048
  22578573.220   118651279.75109  22578571.300    92455560.76446
  21580616.840   113406917.30409  21580613.580    88369020.45948
  23644665.400   124253542.38908  23644665.360    96820957.58446
  22382540.700   117621123.05309  22382540.460    91652853.27848
  23183250.980   121828770.05409  23183250.320    94931491.94047
 15 03 01 00 06  0.0000000  0  6G16G18G21G22G27G31
  21292019.540   111890352.03009  21292017.140    87187303.26648
  22568471.000   118598192.79709  22568469.120    92414194.31946
  21589708.100   113454692.31109  21589704.920    88406247.73148
  23627379.600   124162705.94308  23627379.420    96750176.10745
  22371420.460   117562685.77709  22371420.140    91607317.76948
  23201409.760   121924194.39009  23201409.200    95005848.39947
 15 03 01 00 06 30.0000000  0  6G16G18G21G22G27G31
  21280415.020   111829369.73409  21280412.540    87139784.61348
  22558431.240   118545434.07709  22558429.380    92373083.65946
  21598856.620   113502768.14209  21598853.540    88443709.42048
  23610103.240   124071919.23808  23610103.060    96679433.42147
  22360324.020   117504373.60409  22360323.660    91561879.74348
  23219593.960   122019752.22609  23219593.460    95080308.89647
 15 03 01 00 07  0.0000000  0  6G16G18G21G22G27G31
  21268868.760   111768693.62609  21268866.220    87092504.53048
  22548454.360   118493005.69709  22548452.560    92332230.39846
  21608061.920   113551142.45109  21608058.960    88481403.68148
  23592836.980   123981185.31008  23592836.820    96608731.91946
  22349251.340   117446186.46709  22349251.020    91516539.14548
  23237802.960   122115440.40209  23237802.540    95154870.95647
 15 03 01 00 07 30.0000000  0  6G16G18G21G22G27G31
  21257380.920   111708324.44109  21257378.300    87045463.61948
  22538540.440   118440907.91409  22538538.720    92291634.74546
  21617323.340   113599811.91009  21617320.500    88519327.92648
  23575581.000   123890505.23008  23575580.720    96538072.43746
  22338202.200   117388122.84709  22338201.880    91471294.78848
  23256035.940   122211254.59409  23256035.460    95229531.20346
 15 03 01 00 08  0.0000000  0  7G16G18G19G21G22G27G31
  21245952.360   111648266.66109  21245949.680    86998665.36148
  22528690.500   118389146.21409  22528688.800    92251300.97646
  24535731.760   128936134.31408  24535729.180   100469711.31544
  21626641.000   113648776.91908  21626638.200    88557482.48148
  23558336.160   123799884.01408  23558335.740    96467458.78746
  22327177.060   117330185.38209  22327176.820    91426148.74948
  23274292.780   122307194.22109  23274292.260    95304289.20947
 15 03 01 00 08 30.0000000  0  7G16G18G19G21G22G27G31
  21234581.740   111588513.42109  21234579.100    86952104.40348
  22518903.240   118337713.71809  22518901.560    92211223.72346
  24520635.900   128856803.78308  24520633.040   100407895.38745
  21636012.940   113698027.47708  21636010.200    88595859.52948
  23541101.320   123709315.14908  23541100.740    96396885.90446
  22316174.240   117272364.96309  22316173.980    91381093.89348
  23292571.260   122403247.60109  23292570.740    95379135.83746
 15 03 01 00 09  0.0000000  0  7G16G18G19G21G22G27G31
  21223276.360   111529103.32209  21223273.720    86905810.82348
  22509185.920   118286648.86209  22509184.180    92171432.94646
  24505561.720   128777590.62908  24505559.880   100346170.96045
  21645445.800   113747597.98708  21645443.160    88634485.89448
  23523883.880   123618837.95208  23523883.140    96326384.43846
  22305200.520   117214698.00309  22305200.220    91336158.63048
  23310877.720   122499448.12509  23310877.260    95454097.11647
 15 03 01 00 09 30.0000000  0  7G16G18G19G21G22G27G31
  21212029.280   111470000.03509  21212026.780    86859756.34148
  22499531.600   118235915.13909  22499529.800    92131900.19446
  24490502.660   128698455.53908  24490501.280   100284507.34745
  21654931.860   113797447.73509  21654929.280    88673329.85548
  23506677.120   123528416.52508  23506676.240    96255926.43746
  22294248.680   117157145.86609  22294248.300    91291312.85048
  23329204.260   122595754.27809  23329203.920    95529140.72046
 15 03 01 00 10  0.0000000  0  7G16G18G19G21G22G27G31
  21200842.600   111411213.92109  21200840.080    86813948.98648
  22489942.300   118185523.08309  22489940.460    92092633.68146
  24475460.300   128619407.50608  24475458.960   100222911.56845
  21664472.300   113847583.12209  21664469.780    88712396.38548
  23489483.140   123438062.19708  23489482.140    96185520.72546
  22283320.340   117099716.92609  22283319.880    91246563.05348
  23347551.880   122692171.49609  23347551.720    95604270.87647
 15 03 01 00 10 30.0000000  0  7G16G18G19G21G22G27G31
  21189717.840   111352752.97309  21189715.220    86768395.00248
  22480419.460   118135480.27309  22480417.640    92053639.30447
  24460435.400   128540452.30107  24460433.880   100161388.10146
  21674067.880   113898008.05708  21674065.300    88751688.53948
  23472303.540   123347783.26508  23472302.340    96115173.76946
  22272416.560   117042417.04709  22272416.040    91201913.82748
  23365921.220   122788702.66108  23365921.160    95679489.80247
 15 03 01 00 11  0.0000000  0  7G16G18G19G21G22G27G31
  21178654.200   111294613.15309  21178651.500    86723091.25048
  22470962.460   118085783.57409  22470960.720    92014914.62646
  24445427.100   128461583.94008  24445425.640   100099932.33445
  21683717.100   113948714.91109  21683714.360    88791200.36648
  23455137.620   123257576.54308  23455136.320    96044883.08546
  22261536.180   116985240.18009  22261535.500    91157360.45148
  23384310.580   122885338.68809  23384310.520    95754790.48246
 15 03 01 00 11 30.0000000  0  7G16G18G19G21G22G27G31
  21167651.920   111236796.04909  21167649.280    86678038.97448
  22461571.540   118036434.11409  22461569.840    91976460.52646
  24430435.320   128382801.55508  24430433.760   100038543.50745
  21693419.540   113999701.19109  21693416.620    88830929.93047
  23437985.780   123167443.81908  23437984.360    95974650.08546
  22250678.920   116928185.39009  22250678.240    91112902.20048
  23402719.180   122982075.81908  23402719.100    95830169.94846
 15 03 01 00 12  0.0000000  0  7G16G18G19G21G22G27G31
  21156713.220   111179312.80009  21156710.620    86633246.83448
  22452248.940   117987443.56709  22452247.180    91938286.09246
  24415461.560   128304114.60908  24415460.040    99977229.11445
  21703176.620   114050974.77709  21703173.680    88870883.37247
  23420850.300   123077397.09408  23420848.660    95904484.07846
  22239846.720   116871262.30409  22239846.200    91068546.58248
  23421148.320   123078920.84709  23421148.220    95905633.43847
 15 03 01 00 12 30.0000000  0  7G16G18G19G21G22G27G31
  21145835.960   111122152.44209  21145833.420    86588706.31448
  22442992.540   117938800.82509  22442990.820    91900382.68846
  24400503.800   128225510.26408  24400502.260    99915979.04545
  21712985.400   114102519.98809  21712982.380    88911048.46947
  23403729.240   122987426.09408  23403727.460    95834377.07546
  22229037.060   116814457.60409  22229036.600    91024283.21248
  23439594.840   123175857.43808  23439594.760    95981168.28246
 15 03 01 00 13  0.0000000  0  7G16G18G19G21G22G27G31
  21135023.160   111065330.47409  21135020.540    86544429.45948
  22433805.200   117890520.90709  22433803.460    91862762.00146
  24385564.040   128147001.40008  24385562.800    99854803.39345
  21722848.120   114154348.72608  21722845.020    88951434.49947
  23386625.660   122897547.05008  23386623.760    95764341.71246
  22218252.580   116757784.79009  22218252.040    90980122.61048
  23458060.740   123272895.94608  23458060.760    96056782.54646
 15 03 01 00 13 30.0000000  0  7G16G18G19G21G22G27G31
  21124274.100   111008843.60909  21124271.340    86500413.72148
  22424686.300   117842600.66209  22424684.540    91825421.57246
  24370641.440   128068582.83107  24370640.240    99793698.08046
  21732763.380   114206453.79308  21732760.240    88992035.84447
  23369539.000   122807756.87808  23369537.000    95694375.59946
  22207492.080   116701238.28809  22207491.620    90936060.43848
  23476544.520   123370028.30308  23476544.620    96132469.92147
 15 03 01 00 14  0.0000000  0  7G16G18G19G21G22G27G31
  21113589.320   110952694.27309  21113586.400    86456660.99948
  22415636.260   117795042.22009  22415634.480    91788363.07546
  24355736.040   127990254.65108  24355734.860    99732663.23545
  21742730.700   114258832.52308  21742727.500    89032850.43747
  23352469.900   122718058.73809  23352467.700    95624481.18846
  22196755.640   116644818.38809  22196755.280    90892096.91848
  23495045.560   123467251.39608  23495045.780    96208227.98147
 15 03 01 00 14 30.0000000  0  7G16G18G19G21G22G27G31
  21102969.120   110896884.71909  21102966.220    86413173.04348
  22406655.560   117747848.31009  22406653.720    91751588.62246
  24340847.840   127912017.08208  24340846.560    99671698.97145
  21752750.020   114311484.27908  21752746.760    89073877.77348
  23335418.860   122628455.55409  23335416.440    95554660.74846
  22186043.320   116588525.29509  22186043.140    90848232.19948
  23513563.400   123564562.68508  23513563.680    96284054.79147
 15 03 01 00 15  0.0000000  0  7G16G18G19G21G22G27G31
  21092413.340   110841413.53609  21092410.440    86369948.75148
  22397743.900   117701017.14409  22397741.980    91715096.83646
  24325976.420   127833867.21808  24325974.560    99610803.01845
  21762820.280   114364403.71908  21762817.060    89115113.70647
  23318385.740   122538946.47709  23318383.100    95484913.64146
  22175354.540   116532355.72909  22175354.460    90804463.74548
  23532096.840   123661956.00208  23532097.240    96359945.54047
 15 03 01 00 15 30.0000000  0  7G16G18G19G21G22G27G31
  21081922.480   110786283.61609  21081919.600    86326990.38048
  22388901.880   117654551.88209  22388899.940    91678890.16846
  24311121.720   127755805.29808  24311119.660    99549975.58345
  21772941.180   114417589.54108  21772938.040    89156557.20047
  23301371.160   122449535.07809  23301368.420    95415242.63646
  22164689.340   116476310.27909  22164689.360    90760791.99848
  23550645.420   123759428.99008  23550645.840    96435898.32247
 15 03 01 00 16  0.0000000  0  7G16G18G19G21G22G27G31
  21071499.220   110731508.81009  21071496.300    86284308.71948
  22380132.020   117608466.01409  22380130.040    91642979.12946
  24296285.820   127677843.35808  24296284.000    99489226.09745
  21783114.780   114471052.34108  21783111.700    89198216.50848
  23284377.980   122360235.92709  23284375.200    95345659.10046
  22154050.040   116420400.86609  22154050.200    90717226.24748
  23569210.940   123856990.71808  23569211.400    96511920.25546
 15 03 01 00 16 30.0000000  0  7G16G18G19G21G22G27G31
  21061140.820   110677075.05909  21061137.920    86241892.82348
  22371431.600   117562745.20309  22371429.600    91607352.55846
  24281465.980   127599965.04808  24281463.800    99428541.77845
  21793337.320   114524772.17208  21793334.280    89240076.11947
  23267403.520   122271035.29909  23267400.660    95276152.33347
  22143433.560   116364611.16809  22143433.780    90673753.78448
  23587789.620   123954621.73908  23587790.180    96587996.21546
 15 03 01 00 17  0.0000000  0  7G16G18G19G21G22G27G31
  21050850.140   110622996.83909  21050847.180    86199753.95348
  22362803.460   117517404.19809  22362801.400    91572021.92546
  24266664.120   127522182.48307  24266662.200    99367932.07546
  21803611.100   114578761.16608  21803608.080    89282145.45947
  23250450.640   122181948.34109  23250447.840    95206734.11446
  22132842.260   116308953.69809  22132842.560    90630384.35348
  23606383.320   124052331.59308  23606383.920    96664133.57247
 15 03 01 00 17 30.0000000  0  7G16G18G19G21G22G27G31
  21040626.160   110569269.17509  21040623.100    86157888.24748
  22354246.620   117472437.82109  22354244.540    91536983.22046
  24251879.340   127444489.07508  24251877.780    99307391.85146
  21813934.400   114633010.60508  21813931.460    89324417.74348
  23233518.660   122092970.90809  23233515.820    95137401.24246
  22122274.740   116253421.55709  22122275.160    90587112.58348
  23624990.200   124150110.46908  23624990.800    96740324.68946
 15 03 01 00 18  0.0000000  0  7G16G18G19G21G22G27G31
  21030469.060   110515893.40209  21030466.020    86116296.75148
  22345761.300   117427847.15309  22345759.160    91502237.27046
  24237111.400   127366883.88608  24237110.040    99246920.37145
  21824306.640   114687517.30708  21824303.800    89366890.48347
  23216607.940   122004105.21809  23216605.040    95068155.43247
  22111730.860   116198014.03709  22111731.420    90543937.91548
  23643609.420   124247954.68708  23643610.080    96816566.74046
 15 03 01 00 18 30.0000000  0  7G16G18G19G21G22G27G31
  21020379.600   110462872.97609  21020376.500    86074982.13648
  22337348.180   117383635.87709  22337345.960    91467786.95446
  24222360.680   127289368.68408  24222359.380    99186518.98245
  21834727.800   114742281.14108  21834725.100    89409563.59248
  23199719.280   121915355.33409  23199716.300    94998999.85647
  22101210.960   116142732.54109  22101211.720    90500861.44748
  23662240.820   124345862.75808  23662241.560    96892858.52847
 15 03 01 00 19  0.0000000  0  7G16G18G19G21G22G27G31
  21010358.160   110410210.00109  21010355.040    86033946.06448
  22329007.520   117339805.66009  22329005.320    91433633.56746
  24207627.120   127211943.08808  24207625.900    99126187.43545
  21845197.540   114797299.94008  21845194.840    89452435.38248
  23182853.040   121826723.50609  23182850.040    94929936.26847
  22090715.040   116087576.98909  22090715.940    90457883.12348
  23680883.820   124443831.59108  23680884.620    96969197.62947
 15 03 01 00 19 30.0000000  0  7G16G18G19G21G22G27G31
  21000405.960   110357910.87909  21000402.880    85993193.51448
  22320740.520   117296362.55809  22320738.340    91399781.83846
  24192911.380   127134611.52008  24192910.120    99065929.17745
  21855716.240   114852575.98708  21855713.560    89495507.62248
  23166010.640   121738216.95909  23166007.580    94860970.29547
  22080243.940   116032551.79109  22080245.020    90415006.36648
  23699538.760   124541862.95308  23699539.600    97045585.48646
 15 03 01 00 20  0.0000000  0  7G16G18G19G21G22G27G31
  20990522.640   110305973.59809  20990519.620    85952722.91548
  22312546.820   117253304.64409  22312544.720    91366230.23946
  24178212.720   127057369.71108  24178211.460    99005740.80845
  21866282.860   114908103.69008  21866280.180    89538775.95647
  23149191.800   121649834.38309  23149188.740    94792100.91346
  22069796.860   115977652.89509  22069798.120    90372228.02648
  23718204.220   124639949.47208  23718205.140    97122016.30746
 15 03 01 00 20 30.0000000  0  7G16G18G19G21G22G27G31
  20980709.120   110254403.19109  20980706.080    85912538.19148
  22304427.280   117210636.56809  22304425.260    91332982.41846
  24163531.660   126980220.89608  24163530.460    98945624.94645
  21876897.500   114963883.81908  21876894.840    89582240.97948
  23132397.700   121561581.65609  23132394.740    94723332.71047
  22059374.420   115922883.40509  22059375.820    90329550.52248
  23736880.240   124738091.49808  23736881.180    97198490.37746
 15 03 01 00 21  0.0000000  0  7G16G18G19G21G22G27G31
  20970964.760   110203195.94209  20970961.640    85872636.44348
  22296381.300   117168354.95709  22296379.380    91300035.73346
  24148867.340   126903159.62408  24148865.840    98885577.27345
  21887558.860   115019909.41808  21887556.220    89625897.28448
  23115627.780   121473455.89609  23115624.800    94654663.42847
  22048975.520   115868237.75709  22048977.040    90286969.51248
  23755565.160   124836280.55608  23755566.160    97275001.12046
 15 03 01 00 21 30.0000000  0  7G16G18G19G21G22G27G31
  20961291.060   110152360.40609  20961287.860    85833024.33448
  22288410.440   117126467.97609  22288408.560    91267396.55946
  24134220.720   126826191.98107  24134219.280    98825602.56645
  21898267.700   115076184.18908  21898264.880    89669747.75347
  23098883.720   121385466.14509  23098880.760    94586100.11947
  22038601.500   115813722.40009  22038603.100    90244490.03048
  23774259.720   124934520.12008  23774260.680    97351551.20746
 15 03 01 00 22  0.0000000  0  7G16G18G19G21G22G27G31
  20951687.600   110101894.14509  20951684.480    85793699.98448
  22280514.100   117084972.56609  22280512.240    91235062.49847
  24119591.120   126749313.62608  24119590.000    98765697.45145
  21909022.880   115132702.88708  21909019.980    89713788.27647
  23082165.200   121297610.63309  23082162.280    94517641.42247
  22028251.580   115759332.91709  22028253.160    90202108.63548
  23792962.420   125032802.63908  23792963.440    97428134.76946
 15 03 01 00 22 30.0000000  0  7G16G18G19G21G22G27G31
  20942155.420   110051802.40109  20942152.360    85754667.46648
  22272693.300   117043874.08909  22272691.440    91203037.73846
  24104979.140   126672527.36508  24104977.880    98705864.10045
  21919824.580   115189466.15908  21919821.660    89758019.39547
  23065473.340   121209895.10009  23065470.540    94449291.79147
  22017926.260   115705072.50609  22017927.720    90159827.81348
  23811673.400   125131128.46208  23811674.420    97504752.08946
 15 03 01 00 23  0.0000000  0  7G16G18G19G21G22G27G31
  20932695.080   110002087.85009  20932691.960    85715928.85748
  22264948.560   117003175.21909  22264946.620    91171324.36147
  24090384.780   126595834.00608  24090383.500    98646103.14745
  21930672.620   115246473.10908  21930669.720    89802440.38948
  23048808.780   121122323.05209  23048806.080    94381053.97147
  22007625.600   115650941.84609  22007626.960    90117648.10348
  23830392.220   125229495.43808  23830393.200    97581401.44646
 15 03 01 00 23 30.0000000  0  7G16G18G19G21G22G27G31
  20923305.680   109952746.54309  20923302.620    85677481.08948
  22257279.060   116962871.84309  22257277.100    91139919.15647
  24075807.100   126519227.96208  24075806.020    98586410.19945
  21941565.460   115303715.44108  21941562.580    89847044.79147
  23032171.020   121034891.59009  23032168.300    94312925.67847
  21997348.520   115596935.26909  21997349.800    90075565.06648
  23849117.200   125327894.87308  23849118.160    97658076.09846
 15 03 01 00 24  0.0000000  0  7G16G18G19G21G22G27G31
  20913988.480   109903784.59009  20913985.480    85639328.92848
  22249685.880   116922969.42309  22249683.940    91108826.39247
  24061246.860   126442713.09808  24061245.860    98526788.33445
  21952503.580   115361195.53408  21952500.620    89891834.48047
  23015561.240   120947607.28809  23015558.460    94244912.06947
  21987095.840   115543056.77709  21987097.080    90033581.86048
  23867848.520   125426327.66208  23867849.540    97734776.72346
 15 03 01 00 24 30.0000000  0  7G16G18G19G21G22G27G31
  20904744.060   109855205.06609  20904741.120    85601474.75148
  22242169.620   116883471.03909  22242167.620    91078048.44747
  24046704.180   126366290.62308  24046702.960    98467238.42145
  21963486.900   115418913.24308  21963483.980    89936809.30147
  22998980.160   120860473.64709  22998977.260    94177015.83847
  21976867.840   115489307.55209  21976868.860    89991699.36648
  23886585.860   125524792.03708  23886586.920    97811501.96846
 15 03 01 00 25  0.0000000  0  7G16G18G19G21G22G27G31
  20895572.500   109807008.27209  20895569.600    85563918.80648
  22234730.180   116844376.50009  22234728.060    91047585.20247
  24032178.640   126289958.44508  24032177.140    98407758.91045
  21974514.520   115476863.93808  21974511.540    89981965.68447
  22982427.940   120773491.92708  22982425.080    94109237.98947
  21966664.180   115435685.98509  21966664.920    89949916.35348
  23905328.360   125623283.52308  23905329.520    97888248.32846
 15 03 01 00 25 30.0000000  0  7G16G18G19G21G22G27G31
  20886474.580   109759198.54009  20886471.720    85526664.47548
  22227368.380   116805690.02709  22227366.180    91017439.91946
  24017670.800   126213718.74508  24017669.160    98348351.46445
  21985586.600   115535048.52108  21985583.520    90027304.32247
  22965905.540   120686666.84909  22965902.680    94041582.19947
  21956485.280   115382194.33509  21956485.760    89908234.57048
  23924075.860   125721801.28608  23924077.100    97965015.15246
 15 03 01 00 26  0.0000000  0  7G16G18G19G21G22G27G31
  20877450.280   109711775.91409  20877447.500    85489711.78048
  22220084.180   116767411.40009  22220081.940    90987612.43647
  24003180.260   126137570.53308  24003178.440    98289015.26245
  21996702.580   115593463.61408  21996699.540    90072822.57047
  22949413.280   120599999.99508  22949410.380    93974049.70047
  21946330.780   115328831.02109  21946331.020    89866652.79648
  23942827.580   125820341.11008  23942828.900    98041799.14246
 15 03 01 00 26 30.0000000  0  7G16G18G19G21G22G27G31
  20868500.040   109664742.38009  20868497.320    85453062.27148
  22212877.820   116729542.10109  22212875.660    90958103.92247
  23988707.000   126061513.03808  23988704.920    98229749.77045
  22007862.040   115652107.02908  22007858.960    90118518.73047
  22932951.500   120513493.47708  22932948.660    93906642.12847
  21936200.620   115275595.76209  21936200.620    89825170.80648
  23961582.760   125918899.32608  23961584.220    98118597.43546
 15 03 01 00 27  0.0000000  0  7G16G18G19G21G22G27G31
  20859624.800   109618102.91309  20859622.040    85416719.83348
  22205750.220   116692086.73109  22205748.160    90928917.94247
  23974251.460   125985549.30108  23974249.640    98170557.35445
  22019064.960   115710978.97908  22019061.900    90164392.97847
  22916521.320   120427153.12108  22916518.500    93839364.04347
  21926095.420   115222491.93309  21926095.240    89783791.23148
  23980341.680   126017476.93608  23980343.140    98195410.85046
 15 03 01 00 27 30.0000000  0  7G16G18G19G21G22G27G31
  20850824.560   109571857.62609  20850821.860    85380684.54748
  22198701.540   116655045.94309  22198699.440    90900055.00547
  23959813.420   125909677.77708  23959811.640    98111436.77645
  22030310.860   115770077.13908  22030307.980    90210443.47047
  22900122.940   120340979.83809  22900120.180    93772216.12447
  21916014.860   115169517.82609  21916014.560    89742512.74048
  23999103.240   126116068.76908  23999104.760    98272235.32746
 15 03 01 00 28  0.0000000  0  7G16G18G19G21G22G27G31
  20842099.600   109526007.88009  20842096.920    85344957.47248
  22191731.920   116618420.34309  22191729.800    90871515.60947
  23945392.700   125833897.36708  23945390.700    98052387.19445
  22041599.240   115829398.53908  22041596.520    90256667.92547
  22883756.720   120254975.51008  22883754.020    93705199.87347
  21905958.800   115116672.68509  21905958.440    89701334.73948
  24017866.840   126214671.18608  24017868.500    98349068.05046
 15 03 01 00 28 30.0000000  0  7G16G18G19G21G22G27G31
  20833450.020   109480554.21509  20833447.380    85309539.02548
  22184841.260   116582209.75409  22184839.160    90843299.58247
  23930989.180   125758206.81808  23930986.960    97993407.63245
  22052929.580   115888939.68008  22052926.780    90303063.60647
  22867422.900   120169141.62608  22867420.300    93638316.42347
  21895927.000   115063955.30109  21895926.620    89660256.28748
  24036631.700   126313280.20008  24036633.560    98425905.90146
 15 03 01 00 29  0.0000000  0  7G16G18G19G21G22G27G31
  20824876.340   109435499.26409  20824873.760    85274431.27048
  22178030.020   116546416.54309  22178027.900    90815408.79347
  23916602.920   125682606.93208  23916600.720    97934498.70345
  22064301.740   115948700.10708  22064298.840    90349630.16947
  22851122.160   120083481.52108  22851119.700    93571568.39047
  21885919.580   115011366.49609  21885919.240    89619278.03548
  24055397.480   126411893.62908  24055399.360    98502747.17946
 15 03 01 00 29 30.0000000  0  7G16G18G19G21G22G27G31
  20816379.240   109390846.76509  20816376.720    85239637.12148
  22171298.900   116511044.44009  22171296.760    90787846.13947
  23902234.300   125607099.66908  23902232.160    97875661.93845
  22075715.480   116008678.97708  22075712.440    90396366.94547
  22834855.380   119997999.87408  22834852.980    93504959.40547
  21875936.940   114958908.21409  21875936.740    89578401.48848
  24074164.000   126510510.47808  24074165.760    98579591.12946
 15 03 01 00 30  0.0000000  0  7G16G18G19G21G22G27G31
  20807959.220   109346599.50309  20807956.840    85205158.73748
  22164648.300   116476095.60309  22164646.120    90760613.30647
  23887883.440   125531685.49008  23887881.140    97816897.74245
  22087170.500   116068875.30808  22087167.540    90443273.15947
  22818623.180   119912699.88608  22818620.880    93438491.97047
  21865979.280   114906581.27809  21865979.200    89537627.28048
  24092930.740   126609128.73408  24092932.520    98656436.23246
 15 03 01 00 30 30.0000000  0  7G16G18G19G21G22G27G31
  20799616.260   109302757.02909  20799613.880    85170995.76248
  22158078.160   116441569.46609  22158075.960    90733709.83947
  23873549.900   125456362.50808  23873547.740    97758204.59645
  22098666.140   116129285.14908  22098663.360    90490345.74247
  22802425.620   119827582.07208  22802423.520    93372166.48647
  21856046.240   114854383.68309  21856046.300    89496953.85248
  24111696.700   126707743.27608  24111698.540    98733278.44446
 15 03 01 00 31  0.0000000  0  7G16G18G19G21G22G27G31
  20791350.780   109259321.65909  20791348.380    85137150.03148
  22151588.880   116407468.07709  22151586.660    90707137.35347
  23859233.760   125381130.66608  23859231.920    97699582.45246
  22110202.100   116189906.71808  22110199.340    90537583.32247
  22786263.340   119742649.73108  22786261.360    93305985.53247
  21846137.900   114802315.76109  21846138.000    89456381.47448
  24130461.460   126806351.54408  24130463.360    98810115.76146
 15 03 01 00 31 30.0000000  0  7G16G18G19G21G22G27G31
  20783163.740   109216298.63409  20783161.300    85103625.59848
  22145181.320   116373796.26909  22145179.080    90680899.60547
  23844935.580   125305993.31208  23844933.860    97641033.96346
  22121778.780   116250742.29608  22121776.000    90584987.64447
  22770137.580   119657908.84008  22770135.620    93239953.75247
  21836254.920   114750381.02409  21836255.060    89415912.87048
  24149225.100   126904954.01308  24149227.040    98886948.59246
 15 03 01 00 32  0.0000000  0  7G16G18G19G21G22G27G31
  20775055.140   109173687.89009  20775052.720    85070422.41948
  22138855.320   116340553.18809  22138853.140    90654995.93447
  23830654.900   125230948.37308  23830653.340    97582557.47145
  22133395.320   116311787.36008  22133392.460    90632555.21647
  22754048.360   119573359.76808  22754046.420    93174071.44247
  21826396.920   114698577.50909  21826397.120    89375546.51848
  24167986.680   127003545.84408  24167988.720    98963773.17146
 15 03 01 00 32 30.0000000  0  7G16G18G19G21G22G27G31
  20767025.420   109131491.27709  20767022.940    85037541.94348
  22132611.300   116307740.61509  22132609.120    90629427.71647
  23816391.860   125155996.03408  23816390.360    97524153.13046
  22145051.280   116373039.86208  22145048.320    90680284.43047
  22737996.200   119489005.34208  22737994.240    93108340.80147
  21816563.920   114646905.42309  21816564.180    89335282.57348
  24186745.800   127102124.28408  24186747.820    99040587.35245
 15 03 01 00 33  0.0000000  0  7G16G18G19G21G22G27G31
  20759074.740   109089709.91909  20759072.220    85004985.04748
  22126449.260   116275358.88909  22126447.060    90604195.23147
  23802146.280   125081135.50708  23802144.840    97465820.34346
  22156746.200   116434497.18608  22156743.260    90728173.24047
  22721981.480   119404847.61508  22721979.460    93042763.42747
  21806755.860   114595364.14609  21806756.160    89295120.56348
  24205501.620   127200685.81708  24205503.660    99117388.40545
 15 03 01 00 33 30.0000000  0  7G16G18G19G21G22G27G31
  20751203.580   109048346.56009  20751201.100    84972753.86448
  22120369.720   116243410.77009  22120367.620    90579300.61147
  23787918.380   125006367.55408  23787916.660    97407559.69845
  22168479.980   116496158.73208  22168477.140    90776221.17747
  22706004.900   119320890.18308  22706002.820    92977342.12747
  21796972.900   114543954.66209  21796973.260    89255061.24648
  24224253.840   127299228.55408  24224255.900    99194174.90945
 15 03 01 00 34  0.0000000  0  7G16G18G19G21G22G27G31
  20743411.980   109007401.10509  20743409.460    84940848.31548
  22114372.540   116211895.42909  22114370.440    90554743.22347
  23773707.900   124931690.63808  23773705.980    97349369.95745
  22180252.000   116558020.94908  22180249.120    90824425.49247
  22690066.600   119237133.70908  22690064.440    92912077.42247
  21787214.740   114492675.28509  21787215.140    89215103.31048
  24243001.520   127397747.73608  24243003.660    99270943.05646
 15 03 01 00 34 30.0000000  0  7G16G18G19G21G22G27G31
  20735700.860   108966878.54409  20735698.320    84909272.29148
  22108458.700   116180817.83209  22108456.520    90530526.93447
  23759515.200   124857107.34908  23759512.800    97291253.17445
  22192062.400   116620084.85408  22192059.540    90872786.96447
  22674167.640   119153583.98209  22674165.400    92846973.81247
  21777482.000   114441529.18609  21777482.400    89175249.22748
  24261744.720   127496243.63908  24261746.980    99347693.13645
 15 03 01 00 35  0.0000000  0  7G16G18G19G21G22G27G31
  20728070.360   108926779.65409  20728067.780    84878026.41448
  22102628.180   116150178.24809  22102625.940    90506651.95647
  23745340.100   124782616.95108  23745337.480    97233208.78446
  22203910.520   116682347.23508  22203907.680    90921303.09047
  22658308.320   119070242.48008  22658305.960    92782032.45048
  21767774.440   114390515.45109  21767774.880    89135498.28548
  24280482.760   127594712.39108  24280484.880    99424422.15946
 15 03 01 00 35 30.0000000  0  7G16G18G19G21G22G27G31
  20720521.220   108887108.40609  20720518.600    84847113.74448
  22096881.600   116119979.94209  22096879.380    90483120.82347
  23731182.940   124708221.44808  23731180.460    97175238.32545
  22215796.500   116744808.52308  22215793.520    90969974.21847
  22642489.500   118987113.81709  22642486.980    92717256.94447
  21758092.560   114339636.34209  21758092.940    89095852.24748
  24299215.400   127693153.02908  24299217.520    99501129.25444
 15 03 01 00 36  0.0000000  0  7G16G18G19G21G22G27G31
  20713053.640   108847865.89009  20713050.980    84816535.16948
  22091219.140   116090223.68009  22091216.980    90459934.13747
  23717043.420   124633919.64508  23717040.980    97117340.91146
  22227719.840   116807465.97708  22227716.840    91018798.19447
  22626711.620   118904200.36409  22626708.980    92652649.11847
  21748436.220   114288891.26809  21748436.500    89056310.63948
  24317942.020   127791562.39608  24317944.180    99577811.97646
 15 03 01 00 36 30.0000000  0  7G16G18G19G21G22G27G31
  20705667.480   108809051.21009  20705664.780    84786289.97248
  22085640.520   116060907.98609  22085638.440    90437090.76447
  23702921.340   124559709.10308  23702919.540    97059514.61346
  22239679.680   116870315.16808  22239676.680    91067771.58847
  22610974.640   118821501.95009  22610971.940    92588208.87548
  21738804.820   114238277.61009  21738805.020    89016871.45148
  24336661.560   127889934.52408  24336663.760    99654465.68046
 15 03 01 00 37  0.0000000  0  7G16G18G19G21G22G27G31
  20698363.300   108770667.43309  20698360.540    84756380.53348
  22080146.220   116032035.60209  22080144.220    90414592.82547
  23688817.060   124485591.45808  23688815.460    97001760.69145
  22251675.820   116933355.66708  22251673.020    91116894.03147
  22595279.400   118739022.63109  22595276.620    92523939.33548
  21729198.760   114187797.05609  21729198.900    88977535.96948
  24355373.780   127988268.32909  24355376.000    99731089.53546
 15 03 01 00 37 30.0000000  0  7G16G18G19G21G22G27G31
  20691141.380   108732716.21609  20691138.660    84726808.15848
  22074736.580   116003607.93609  22074734.560    90392441.41747
  23674730.540   124411566.34608  23674728.660    96944078.85346
  22263708.020   116996585.66708  22263705.340    91166164.14147
  22579626.220   118656764.69109  22579623.380    92459842.29947
  21719618.000   114137449.48609  21719618.100    88938304.11748
  24374078.080   128086560.56508  24374080.240    99807680.80446
 15 03 01 00 38  0.0000000  0  7G16G18G19G21G22G27G31
  20684001.960   108695198.18409  20683999.200    84697573.32848
  22069411.580   115975625.07209  22069409.560    90370636.60947
  23660661.500   124337632.83108  23660659.600    96886468.38246
  22275775.720   117060002.09808  22275772.980    91215579.52947
  22564015.460   118574729.87509  22564012.560    92395919.13348
  21710062.360   114087234.18809  21710062.480    88899175.33248
  24392773.820   128184807.72308  24392776.140    99884237.04146
 15 03 01 00 38 30.0000000  0  7G16G18G19G21G22G27G31
  20676945.920   108658118.36009  20676943.160    84668679.95648
  22064172.020   115948091.08209  22064169.940    90349181.56847
  23646610.480   124263793.65308  23646608.480    96828931.44446
  22287879.200   117123606.28808  22287876.480    91265141.22447
  22548448.220   118492923.70009  22548445.320    92332174.12947
  21700532.480   114037154.14109  21700532.600    88860151.93948
  24411461.040   128283010.01008  24411463.400    99960758.32445
 15 03 01 00 39  0.0000000  0  7G16G18G19G21G22G27G31
  20669973.180   108621476.24509  20669970.400    84640127.66248
  22059017.740   115921005.42109  22059015.680    90328075.87447
  23632576.980   124190046.81508  23632574.780    96771466.44946
  22300017.620   117187393.97408  22300014.860    91314845.89247
  22532924.660   118411346.86809  22532921.700    92268607.82648
  21691028.000   113987207.50209  21691028.160    88821232.50048
  24430138.760   128381162.58308  24430141.240   100037240.95745
 15 03 01 00 39 30.0000000  0  7G16G18G19G21G22G27G31
  20663084.720   108585277.08909  20663081.940    84611920.52248
  22053949.600   115894372.46709  22053947.560    90307322.94847
  23618561.660   124116396.11108  23618559.380    96714076.34646
  22312191.300   117251366.92308  22312188.460    91364694.93147
  22517445.880   118330005.36209  22517442.860    92205224.89948
  21681549.600   113937398.04509  21681549.740    88782419.95148
  24448807.140   128479265.99408  24448809.700   100113685.24346
 15 03 01 00 40  0.0000000  0  7G16G18G19G21G22G27G31
  20656280.020   108549518.27709  20656277.300    84584056.52048
  22048967.060   115868189.20109  22048965.000    90286920.41947
  23604563.760   124042836.78908  23604561.480    96656757.46946
  22324399.060   117315519.04108  22324396.220    91414683.57947
  22502011.580   118248897.72809  22502008.480    92142024.21548
  21672096.440   113887721.55309  21672096.560    88743711.02148
  24467464.860   128577313.40308  24467467.500   100190085.94246
 15 03 01 00 40 30.0000000  0  7G16G18G19G21G22G27G31
  20649560.020   108514204.84609  20649557.340    84556539.56048
  22044070.980   115842459.99009  22044068.880    90266871.70247
  23590583.820   123969372.16408  23590581.800    96599512.36446
  22336641.160   117379851.41308  22336638.340    91464812.68247
  22486622.860   118168029.47209  22486619.620    92079010.04148
  21662669.100   113838181.22009  21662669.280    88705108.18848
  24486111.900   128675304.86908  24486114.520   100266443.01945
 15 03 01 00 41  0.0000000  0  7G16G18G19G21G22G27G31
  20642924.800   108479336.90009  20642922.120    84529369.72448
  22039261.320   115817184.90409  22039259.240    90247176.85047
  23576621.580   123896000.30508  23576619.700    96542339.55246
  22348916.920   117444360.60808  22348914.080    91515079.56647
  22471279.820   118087401.69909  22471276.620    92016183.26648
  21653267.480   113788775.95109  21653267.660    88666610.59748
  24504747.500   128773236.09908  24504750.080   100342753.04645
 15 03 01 00 41 30.0000000  0  7G16G18G19G21G22G27G31
  20636374.400   108444914.45009  20636371.720    84502547.03848
  22034537.980   115792363.06709  22034535.800    90227835.17547
  23562676.880   123822720.05208  23562674.860    96485238.10946
  22361225.780   117509043.56808  22361222.800    91565481.86147
  22455982.680   118007015.28709  22455979.500    91953544.56648
  21643891.320   113739504.20509  21643891.440    88628217.04948
  24523370.820   128871102.82708  24523373.420   100419012.89544
 15 03 01 00 42  0.0000000  0  7G16G18G19G21G22G27G31
  20629910.340   108410945.60109  20629907.700    84476077.80348
  22029902.300   115768002.10509  22029900.080    90208852.62847
  23548750.740   123749537.69208  23548748.440    96428212.94346
  22373568.640   117573904.94908  22373565.380    91616023.19547
  22440733.300   117926879.65709  22440730.080    91891101.28248
  21634541.780   113690372.67209  21634541.860    88589932.75648
  24541982.580   128968909.08708  24541985.400   100495225.64146
 15 03 01 00 42 30.0000000  0  7G16G18G19G21G22G27G31
  20623532.140   108377427.85309  20623529.520    84449960.07548
  22025353.700   115744099.03209  22025351.480    90190226.87547
  23534842.340   123676449.43408  23534839.840    96371261.12445
  22385944.180   117638938.55408  22385940.880    91666698.71046
  22425531.400   117846993.28309  22425528.160    91828852.21148
  21625218.120   113641377.33809  21625218.220    88551754.59448
  24560581.460   129066647.55808  24560584.340   100571385.44746
 15 03 01 00 43  0.0000000  0  7G16G18G19G21G22G27G31
  20617240.040   108344362.53109  20617237.400    84424194.88748
  22020892.340   115720654.58209  22020890.140    90171958.48747
  23520951.800   123603454.49508  23520949.020    96314381.99646
  22398352.060   117704142.39008  22398348.700    91717506.88847
  22410377.180   117767357.56609  22410373.900    91766798.46748
  21615920.400   113592518.21209  21615920.480    88513682.56048
  24579166.980   129164315.35808  24579169.860   100647490.28645
 15 03 01 00 43 30.0000000  0  7G16G18G19G21G22G27G31
  20611034.180   108311750.54809  20611031.500    84398782.94848
  22016518.200   115697668.58909  22016516.040    90154047.34447
  23507078.900   123530551.95908  23507076.440    96257574.86146
  22410791.780   117769513.51508  22410788.460    91768445.41347
  22395271.220   117687975.33709  22395267.880    91704942.23248
  21606648.420   113543794.38009  21606648.520    88475715.96048
  24597738.440   129261909.08708  24597741.300   100723537.38045
 15 03 01 00 44  0.0000000  0  7G16G18G19G21G22G27G31
  20604915.860   108279598.21809  20604913.060    84373729.18048
  22012232.540   115675147.57709  22012230.460    90136498.51447
  23493224.680   123457747.12608  23493222.200    96200843.87646
  22423263.900   117835055.20008  22423260.600    91819516.83446
  22380214.840   117608853.69409  22380211.500    91643289.05748
  21597403.220   113495211.00709  21597403.380    88437858.80748
  24616296.020   129359430.11708  24616298.860   100799527.66246
 15 03 01 00 44 30.0000000  0  7G16G18G19G21G22G27G31
  20598884.580   108247903.32809  20598881.720    84349031.86348
  22008034.860   115653088.56209  22008032.760    90119309.69247
  23479388.400   123385036.20108  23479385.720    96144186.05546
  22435767.340   117900761.41808  22435764.140    91870716.47047
  22365207.780   117529991.21909  22365204.440    91581837.83148
  21588184.140   113446764.74009  21588184.280    88400108.49048
  24634838.720   129456872.52608  24634841.420   100875456.68845
 15 03 01 00 45  0.0000000  0  7G16G18G19G21G22G27G31
  20592940.360   108216666.03309  20592937.460    84324691.11648
  22003924.960   115631490.81109  22003922.800    90102480.29547
  23465569.560   123312416.78708  23465566.780    96087599.54646
  22448301.560   117966629.14708  22448298.460    91922041.96446
  22350250.140   117451388.48509  22350246.780    91520588.99848
  21578990.880   113398453.91209  21578991.100    88362463.71148
  24653365.620   129554231.68008  24653368.140   100951320.73845
 15 03 01 00 45 30.0000000  0  7G16G18G19G21G22G27G31
  20587084.940   108185895.43109  20587081.980    84300714.01348
  21999904.380   115610362.66509  21999902.200    90086016.81148
  23451769.360   123239896.58808  23451766.780    96031090.37646
  22460867.640   118032664.19108  22460864.520    91973497.82646
  22335343.920   117373056.05109  22335340.540    91459550.78548
  21569824.940   113350286.15709  21569825.160    88324930.41448
  24671877.660   129651512.60008  24671880.300   101027123.86645
 15 03 01 00 46  0.0000000  0  7G16G18G19G21G22G27G31
  20581317.740   108155588.51709  20581314.780    84277098.23248
  21995972.540   115589700.78209  21995970.360    90069916.66148
  23437987.080   123167471.37908  23437984.660    95974655.18546
  22473464.200   118098859.67608  22473461.020    92025078.71347
  22320488.780   117294991.82609  22320485.360    91398721.57348
  21560685.480   113302257.47109  21560685.740    88287505.48648
  24690373.520   129748708.36208  24690376.180   101102860.76045
 15 03 01 00 46 30.0000000  0  6G16G18G19G21G22G27
  20575637.120   108125736.82809  20575634.300    84253837.18448
  21992127.720   115569496.27209  21992125.560    90054172.90148
  23424221.000   123095131.03108  23424218.500    95918286.14046
  22486089.200   118165204.35708  22486085.940    92076775.86747
  22305683.280   117217188.41709  22305679.840    91338095.58048
  21551570.620   113254358.00709  21551570.880    88250181.25348
 15 03 01 00 47  0.0000000  0  6G16G18G19G21G22G27
  20570046.540   108096358.16809  20570043.820    84230944.72248
  21988373.260   115549766.65609  21988371.140    90038799.18747
  23410474.380   123022892.52608  23410471.860    95861996.45346
  22498745.360   118231712.98708  22498742.180    92128600.76446
  22290931.120   117139665.20609  22290927.620    91277687.93548
  21542483.600   113206604.82409  21542483.820    88212970.99748
 15 03 01 00 47 30.0000000  0  6G16G18G19G21G22G27
  20564545.980   108067452.31809  20564543.280    84208420.68048
  21984708.900   115530510.42709  21984706.780    90023794.34648
  23396746.580   122950752.99408  23396743.980    95805783.87946
  22511431.800   118298380.66808  22511428.760    92180549.58847
  22276232.200   117062421.84509  22276228.720    91217498.34348
  21533423.920   113158995.38009  21533424.080    88175872.74748
 15 03 01 00 48  0.0000000  0  6G16G18G19G21G22G27
  20559134.780   108039015.99709  20559131.980    84186262.50648
  21981133.900   115511723.77009  21981131.740    90009155.40748
  23383036.800   122878707.94508  23383034.060    95749644.92946
  22524147.400   118365201.50008  22524144.420    92232617.75247
  22261586.160   116985456.44509  22261582.640    91157525.34848
  21524390.740   113111525.54609  21524390.880    88138883.28548
 15 03 01 00 48 30.0000000  0  6G16G18G19G21G22G27
  20553813.260   108011051.03609  20553810.400    84164471.63048
  21977648.420   115493407.73609  21977646.260    89994883.18248
  23369345.140   122806757.94608  23369342.540    95693580.07547
  22536891.860   118432174.29508  22536889.160    92284804.32946
  22246993.500   116908771.74409  22246989.960    91097771.08448
  21515384.160   113064195.85409  21515384.340    88102003.03648
 15 03 01 00 49  0.0000000  0  6G16G18G19G21G22G27
  20548581.600   107983558.30409  20548578.680    84143048.72248
  21974252.720   115475563.17709  21974250.540    89980978.34648
  23355671.540   122734902.37008  23355668.880    95637588.78146
  22549664.660   118499296.48908  22549661.980    92337107.32247
  22232454.740   116832370.09409  22232451.140    91038237.37448
  21506404.280   113017006.16309  21506404.420    88065231.86348
 15 03 01 00 49 30.0000000  0  6G16G18G19G21G22G27
  20543440.560   107956541.64909  20543437.540    84121996.78348
  21970947.280   115458192.84209  21970945.060    89967443.03248
  23342016.360   122663143.32308  23342013.280    95581672.71046
  22562466.020   118566568.53208  22562463.520    92389527.08246
  22217970.720   116756256.11909  22217967.080    90978927.83248
  21497451.500   112969958.83709  21497451.620    88028571.62148
 15 03 01 00 50  0.0000000  0  6G16G18G19G21G22G27
  20538390.000   107930000.78809  20538386.920    84101315.58648
  21967731.900   115441295.56209  21967729.600    89954276.31848
  23328379.180   122591479.29608  23328375.980    95525830.64646
  22575295.320   118633987.22108  22575292.780    92442061.10147
  22203541.560   116680430.50509  22203537.900    90919842.97348
  21488525.540   112923052.56109  21488525.540    87992021.28448
 15 03 01 00 50 30.0000000  0  6G16G18G19G21G22G27
  20533430.560   107903939.10709  20533427.540    84081007.78948
  21964607.120   115424874.61909  21964604.740    89941480.79848
  23314760.400   122519912.26608  23314757.220    95470064.19646
  22588152.540   118701552.27908  22588150.060    92494709.18246
  22189168.120   116604897.72609  22189164.400    90860986.31548
  21479626.780   112876289.54609  21479626.740    87955582.58748
 15 03 01 00 51  0.0000000  0  6G16G18G19G21G22G27
  20528562.900   107878359.59609  20528559.960    84061075.70748
  21961573.360   115408932.02409  21961570.880    89929058.00948
  23301160.160   122448443.63408  23301157.240    95414374.41447
  22601037.640   118769263.82608  22601035.240    92547471.41247
  22174851.140   116529661.53509  22174847.340    90802360.75748
  21470755.580   112829671.49309  21470755.540    87919256.84648
 15 03 01 00 51 30.0000000  0  6G16G18G19G21G22G27
  20523786.920   107853261.85409  20523784.100    84041519.02048
  21958630.460   115393467.01109  21958628.020    89917007.36048
  23287578.260   122377071.78908  23287575.660    95358760.07047
  22613949.860   118837118.13708  22613947.620    92600344.86846
  22160590.780   116454722.88209  22160586.940    90743967.04148
  21461911.620   112783196.97109  21461911.700    87883042.94148
 15 03 01 00 52  0.0000000  0  6G16G18G19G21G22G27
  20519102.900   107828647.22309  20519100.140    84022338.78949
  21955778.460   115378479.72409  21955776.080    89905328.97348
  23274014.740   122305796.64208  23274012.480    95303221.04347
  22626888.840   118905112.47808  22626886.520    92653327.45847
  22146387.460   116380084.17609  22146383.620    90685807.06548
  21453095.000   112736866.15309  21453095.220    87846941.03248
 15 03 01 00 52 30.0000000  0  6G16G18G19G21G22G27
  20514510.700   107804515.28309  20514507.960    84003534.68448
  21953017.240   115363969.48009  21953014.900    89894022.29848
  23260469.340   122234616.10408  23260467.380    95247755.76547
  22639854.100   118973244.97208  22639851.540    92706417.69746
  22132241.420   116305746.40809  22132237.560    90627881.57848
  21444305.460   112690677.59909  21444305.800    87810949.97148
 15 03 01 00 53  0.0000000  0  6G16G18G19G21G22G27
  20510011.340   107780871.05809  20510008.600    83985110.61048
  21950347.540   115349940.12809  21950345.120    89883090.33948
  23246942.880   122163534.47108  23246940.900    95192367.53947
  22652845.860   119041516.73008  22652843.240    92759616.43846
  22118153.680   116231715.11309  22118149.800    90570194.90448
  21435543.740   112644635.09909  21435544.200    87775072.71348
 15 03 01 00 53 30.0000000  0  6G16G18G19G21G22G27
  20505603.980   107757710.41409  20505601.260    83967063.35549
  21947768.500   115336387.40209  21947766.060    89872529.79448
  23233434.160   122092545.73608  23233431.940    95137051.69947
  22665862.760   119109920.55208  22665859.980    92812918.10546
  22104123.680   116157987.38809  22104119.820    90512744.78348
  21426808.900   112598733.54609  21426809.480    87739305.29248
 15 03 01 00 54  0.0000000  0  6G16G18G19G21G22G27
  20501290.100   107735041.35509  20501287.500    83949399.15548
  21945281.440   115323318.13109  21945279.040    89862345.95748
  23219944.300   122021656.24308  23219942.100    95081813.18846
  22678905.740   119178461.16508  22678902.800    92866326.36746
  22090153.180   116084572.25409  22090149.360    90455538.23048
  21418102.260   112552979.76609  21418102.880    87703653.00948
 15 03 01 00 54 30.0000000  0  6G16G18G19G21G22G27
  20497070.060   107712865.48909  20497067.560    83932119.26548
  21942886.660   115310733.81109  21942884.300    89852540.00648
  23206473.520   121950867.04508  23206471.540    95026652.84247
  22691974.420   119247137.37608  22691971.340    92919840.27746
  22076242.760   116011472.72509  22076238.920    90398577.61948
  21409423.960   112507374.72109  21409424.540    87668116.62548
 15 03 01 00 55  0.0000000  0  6G16G18G19G21G22G27
  20492942.880   107691177.25609  20492940.420    83915219.32949
  21940582.980   115298628.00909  21940580.600    89843106.92548
  23193020.680   121880171.42408  23193018.480    94971565.38947
  22705067.200   119315940.41308  22705064.240    92973453.00446
  22062391.540   115938684.27209  22062387.680    90341859.37648
  21400772.660   112461911.74009  21400773.160    87632690.94448
 15 03 01 00 55 30.0000000  0  6G16G18G19G21G22G27
  20488909.760   107669983.28309  20488907.420    83898704.54748
  21938371.420   115287006.34609  21938369.000    89834051.10048
  23179586.600   121809574.36508  23179584.240    94916554.75847
  22718184.760   119384873.80508  22718181.840    93027167.32646
  22048600.860   115866214.22409  22048597.080    90285389.25748
  21392149.400   112416596.34809  21392149.880    87597380.26348
 15 03 01 00 56  0.0000000  0  6G16G18G19G21G22G27
  20484971.220   107649286.27809  20484969.000    83882577.01348
  21936252.380   115275870.84709  21936250.000    89825374.10448
  23166171.520   121739077.00008  23166168.920    94861621.80247
  22731327.040   119453937.06608  22731324.240    93080982.83946
  22034871.540   115794066.61809  22034867.840    90229170.39248
  21383554.600   112371430.15609  21383555.000    87562185.83648
 15 03 01 00 56 30.0000000  0  6G16G18G19G21G22G27
  20481127.080   107629085.11509  20481124.860    83866835.84348
  21934225.500   115265219.76209  21934223.160    89817074.57248
  23152775.000   121668677.50508  23152772.160    94806765.10546
  22744493.420   119523126.70208  22744490.400    93134896.84046
  22021203.640   115722241.72309  22021199.940    90173202.98248
  21374987.800   112326411.30209  21374988.140    87527106.23548
 15 03 01 00 57  0.0000000  0  6G16G18G19G21G22G27
  20477378.200   107609384.14809  20477375.880    83851484.43648
  21932291.520   115255056.63709  21932289.160    89809155.26648
  23139397.540   121598378.79408  23139394.660    94751986.93847
  22757684.040   119592443.73608  22757681.060    93188910.09346
  22007598.180   115650744.81909  22007594.480    90117491.15248
  21366449.700   112281543.28909  21366450.000    87492144.16348
 15 03 01 00 57 30.0000000  0  6G16G18G19G21G22G27
  20473724.080   107590181.53609  20473721.740    83836521.35848
  21930449.880   115245378.94209  21930447.520    89801614.22448
  23126038.640   121528177.82608  23126035.860    94697284.96546
  22770897.980   119661883.25508  22770894.960    93243018.79246
  21994054.980   115579575.11409  21994051.300    90062034.28448
  21357939.760   112236823.27609  21357940.100    87457297.42048
 15 03 01 00 58  0.0000000  0  6G16G18G19G21G22G27
  20470164.980   107571478.27909  20470162.620    83821947.39549
  21928700.700   115236187.02109  21928698.320    89794451.70648
  23112698.360   121458074.55508  23112695.700    94642659.08447
  22784134.900   119731443.61808  22784132.000    93297221.65646
  21980574.460   115508734.81609  21980570.820    90006834.09548
  21349458.020   112192251.47709  21349458.360    87422566.16448
 15 03 01 00 58 30.0000000  0  6G16G18G19G21G22G27
  20466701.700   107553278.55609  20466699.360    83807765.78949
  21927044.560   115227484.25909  21927042.240    89787670.34648
  23099377.260   121388071.90408  23099374.820    94588111.62847
  22797394.960   119801125.88708  22797392.140    93351519.51646
  21967157.660   115438229.39509  21967154.040    89951894.84548
  21341005.140   112147831.10309  21341005.480    87387952.90848
 15 03 01 00 59  0.0000000  0  6G16G18G19G21G22G27
  20463334.400   107535583.01809  20463332.020    83793977.05449
  21925481.480   115219270.51809  21925479.240    89781270.04048
  23086075.220   121318169.42508  23086072.880    94533642.21747
  22810677.860   119870927.70108  22810675.040    93405910.53346
  21953804.880   115368060.35209  21953801.320    89897217.70948
  21332581.080   112103561.93809  21332581.340    87353457.47848
 15 03 01 00 59 30.0000000  0  6G16G18G19G21G22G27
  20460062.780   107518390.72309  20460060.460    83780580.45849
  21924011.200   115211544.16509  21924008.960    89775249.51848
  23072791.880   121248365.10408  23072789.400    94479249.28147
  22823982.800   119940845.53608  22823980.020    93460391.95146
  21940516.240   115298228.25909  21940512.680    89842803.13248
  21324185.500   112059442.41309  21324185.600    87319078.64348
 15 03 01 01 00  0.0000000  0  6G16G18G19G21G22G27
  20456887.040   107501702.31409  20456884.740    83767576.50449
  21922633.800   115204305.83509  21922631.540    89769609.28148
  23059527.200   121178658.93208  23059524.540    94424932.83447
  22837309.500   120010877.53308  22837306.600    93514962.33446
  21927292.100   115228735.26209  21927288.580    89788652.78448
  21315818.460   112015472.87709  21315818.360    87284816.68648
 15 03 01 01 00 30.0000000  0  6G16G18G19G21G22G27
  20453808.420   107485524.12309  20453806.140    83754970.11848
  21921350.140   115197559.98309  21921347.860    89764352.78748
  23046282.000   121109055.37508  23046279.340    94370696.35147
  22850658.540   120081026.88808  22850655.660    93569624.15746
  21914133.840   115159588.13409  21914130.260    89734771.94848
  21307480.780   111971658.03609  21307480.580    87250675.27848
 15 03 01 01 01  0.0000000  0  6G16G18G19G21G22G27
  20450826.280   107469852.75609  20450823.960    83742758.65749
  21920159.440   115191302.64609  21920157.140    89759476.94748
  23033055.540   121039550.42608  23033052.860    94316536.69447
  22864028.640   120151287.35108  22864025.820    93624372.55546
  21901041.020   115090784.97709  21901037.360    89681159.13948
  21299171.800   111927994.10909  21299171.540    87216651.45948
 15 03 01 01 01 30.0000000  0  6G16G18G19G21G22G27
  20447941.360   107454692.38809  20447939.020    83730945.38849
  21919062.400   115185537.60709  21919060.080    89754984.72948
  23019848.460   120970147.06808  23019845.720    94262456.22747
  22877420.040   120221659.95608  22877417.180    93679208.35046
  21888014.580   115022330.69409  21888010.840    89627818.18048
  21290892.160   111884484.52509  21290891.840    87182747.91248
 15 03 01 01 02  0.0000000  0  6G16G18G19G21G22G27
  20445153.160   107440040.17209  20445150.760    83719528.07749
  21918058.320   115180261.00809  21918056.020    89750873.10348
  23006660.060   120900841.38708  23006657.200    94208451.83947
  22890831.840   120292139.54308  22890828.940    93734127.49646
  21875054.340   114954224.25109  21875050.560    89574748.26248
  21282641.220   111841125.68509  21282640.880    87148961.81748
 15 03 01 01 02 30.0000000  0  6G16G18G19G21G22G27
  20442463.120   107425903.41809  20442460.580    83708512.42049
  21917148.400   115175479.37209  21917146.140    89747147.17248
  22993491.600   120831640.03808  22993488.520    94154528.75447
  22904264.860   120362730.82908  22904262.020    93789133.68946
  21862161.900   114886474.05909  21862158.040    89521955.94548
  21274420.240   111797924.35609  21274419.880    87115298.47448
 15 03 01 01 03  0.0000000  0  6G16G18G19G21G22G27
  20439869.820   107412275.10309  20439867.180    83697892.95649
  21916331.260   115171185.16509  21916329.000    89743801.05048
  22980341.660   120762535.28608  22980338.280    94100680.96147
  22917717.280   120433424.15408  22917714.660    93844219.38046
  21849336.180   114819074.50609  21849332.260    89469436.85848
  21266227.780   111754873.14009  21266227.560    87081752.10348
 15 03 01 01 03 30.0000000  0  6G16G18G19G21G22G27
  20437374.660   107399162.73609  20437372.000    83687675.52548
  21915608.080   115167384.91209  21915605.860    89740839.82948
  22967211.180   120693532.91808  22967207.620    94046912.94447
  22931189.960   120504223.78108  22931187.460    93899387.91046
  21836578.820   114752034.03709  21836574.840    89417197.57248
  21258065.140   111711978.50609  21258065.000    87048327.73348
 15 03 01 01 04  0.0000000  0  6G16G18G19G21G22G27
  20434978.300   107386569.52209  20434975.620    83677862.63748
  21914979.380   115164081.10509  21914977.180    89738265.44848
  22954100.480   120624635.37808  22954096.840    93993226.59247
  22944683.000   120575130.57908  22944680.540    93954639.94446
  21823890.580   114685356.98809  21823886.600    89365241.47648
  21249932.800   111669243.07609  21249932.720    87015027.42348
 15 03 01 01 04 30.0000000  0  6G16G18G19G21G22G27
  20432679.880   107374491.03509  20432677.140    83668450.82849
  21914444.080   115161268.04609  21914441.860    89736073.47048
  22941008.720   120555837.59108  22941004.960    93939617.97847
  22958195.180   120646137.52508  22958192.740    94009970.04046
  21811270.920   114619040.24609  21811266.920    89313566.13548
  21241829.820   111626661.94409  21241829.840    86981847.33648
 15 03 01 01 05  0.0000000  0  6G16G18G19G21G22G27
  20430480.160   107362931.36309  20430477.380    83659443.29549
  21914002.880   115158949.52909  21914000.620    89734266.85448
  22927936.540   120487142.70908  22927932.720    93886089.55647
  22971726.620   120717245.86108  22971724.060    94065379.12146
  21798720.860   114553089.30609  21798716.820    89262175.83948
  21233756.880   111584238.61809  21233757.000    86948790.22448
 15 03 01 01 05 30.0000000  0  6G16G18G19G21G22G27
  20428379.500   107351892.58609  20428376.760    83650841.64449
  21913656.100   115157127.09309  21913653.740    89732846.78348
  22914884.020   120418551.88108  22914880.120    93832642.20347
  22985277.280   120788455.35208  22985274.640    94120867.02146
  21786240.940   114487507.12109  21786236.820    89211072.87648
  21225714.240   111541974.65109  21225714.500    86915857.28148
 15 03 01 01 06  0.0000000  0  7G04G16G18G19G21G22G27
  24609205.540   129322249.46408                                
  20426377.820   107341373.92509  20426375.120    83642645.29148
  21913403.420   115155798.93809  21913400.920    89731811.87548
  22901850.920   120350063.83908  22901847.260    93779274.96347
  22998846.480   120859762.52808  22998844.020    94176431.03946
  21773831.360   114422294.71109  21773827.200    89160258.06148
  21217701.660   111499868.81609  21217702.060    86883047.56048
 15 03 01 01 06 30.0000000  0  7G04G16G18G19G21G22G27
  24589884.120   129220714.82708  24589888.960   100691490.12545
  20424479.460   107331398.10809  20424476.740    83634871.92748
  21913248.900   115154986.88609  21913246.400    89731179.12748
  22888841.580   120281700.29508  22888838.020    93726004.71847
  23012438.340   120931187.94008  23012435.900    94232087.21246
  21761496.680   114357475.75009  21761492.460    89109749.82948
  21209723.520   111457943.55209  21209723.960    86850378.54748
 15 03 01 01 07  0.0000000  0  7G04G16G18G19G21G22G27
  24570585.320   129119300.04608  24570589.880   100612466.02644
  20422676.000   107321921.11109  20422673.260    83627487.25849
  21913184.080   115154646.37809  21913181.640    89730913.81348
  22875847.520   120213416.38008  22875843.860    93672796.51747
  23026043.720   121002684.71008  23026041.200    94287798.96146
  21749228.760   114293007.74809  21749224.560    89059515.06948
  21201771.340   111416154.21409  21201771.720    86817815.44548
 15 03 01 01 07 30.0000000  0  7G04G16G18G19G21G22G27
  24551313.740   129018028.92308  24551318.520   100533553.88544
  20420972.080   107312967.05309  20420969.340    83620510.06949
  21913213.380   115154800.47409  21913210.980    89731033.90648
  22862873.100   120145235.61308  22862869.460    93619668.69848
  23039666.920   121074274.48708  23039664.200    94343583.19646
  21737032.440   114228915.89809  21737028.220    89009573.40548
  21193849.580   111374524.40709  21193849.800    86785376.64948
 15 03 01 01 08  0.0000000  0  7G04G16G18G19G21G22G27
  24532070.680   128916907.28508  24532075.320   100454758.07545
  20419368.780   107304541.62609  20419366.040    83613944.80348
  21913337.700   115155453.86409  21913335.280    89731543.06048
  22849919.120   120077162.55608  22849915.540    93566624.80747
  23053308.400   121145960.42508  23053305.560    94399442.36946
  21724909.020   114165207.12709  21724904.800    88959930.25248
  21185959.200   111333059.43609  21185959.220    86753066.30148
 15 03 01 01 08 30.0000000  0  7G04G16G18G19G21G22G27
  24512855.340   128815931.04008  24512859.940   100376075.55344
  20417865.240   107296640.26009  20417862.460    83607787.88849
  21913556.140   115156601.64009  21913553.660    89732437.44748
  22836984.640   120009191.93308  22836981.280    93513660.74047
  23066966.880   121217735.78608  23066963.920    94455371.20946
  21712857.840   114101878.19009  21712853.680    88910583.06548
  21178099.220   111291754.45509  21178099.080    86720880.61448
 15 03 01 01 09  0.0000000  0  7G04G16G18G19G21G22G27
  24493668.060   128715102.09108  24493672.540   100297507.80545
  20416461.660   107289264.21609  20416458.860    83602040.31948
  21913868.700   115158244.14609  21913866.200    89733717.33248
  22824069.920   119941324.83208  22824066.700    93460777.31948
  23080642.160   121289599.40808  23080639.180    94511368.83446
  21700879.380   114038931.29709  21700875.320    88861533.56948
  21170269.780   111250610.37909  21170269.580    86688820.30648
 15 03 01 01 09 30.0000000  0  7G04G16G18G19G21G22G27
  24474509.400   128614423.70408  24474513.700   100219057.48945
  20415158.620   107282416.80009  20415155.860    83596704.67448
  21914275.880   115160383.87309  21914273.380    89735384.67648
  22811175.160   119873563.61408  22811172.080    93407976.41847
  23094334.400   121361552.29608  23094331.520    94567436.00846
  21688974.720   113976372.03609  21688970.680    88812786.14648
  21162471.520   111209630.27209  21162471.240    86656887.78648
 15 03 01 01 10  0.0000000  0  7G04G16G18G19G21G22G27
  24455379.200   128513894.96008  24455383.400   100140723.73445
  20413955.900   107276096.56309  20413953.180    83591779.81448
  21914777.320   115163019.10209  21914774.820    89737438.12848
  22798300.100   119805906.61408  22798297.220    93355256.73347
  23108042.900   121433590.95508  23108040.180    94623570.01446
  21677143.840   113914200.40509  21677139.780    88764340.76048
  21154704.120   111168812.83009  21154703.880    86625082.00848
 15 03 01 01 10 30.0000000  0  7G04G16G18G19G21G22G27
  24436278.440   128413521.05708  24436282.620   100062510.54145
  20412854.640   107270309.43209  20412851.920    83587270.35749
  21915373.820   115166154.05709  21915371.340    89739880.96048
  22785445.780   119738358.12808  22785443.280    93302621.59048
  23121768.260   121505718.08008  23121765.440    94679772.96846
  21665387.820   113852422.25009  21665383.760    88716201.97148
  21146968.500   111128162.55509  21146968.420    86593406.48148
 15 03 01 01 11  0.0000000  0  7G04G16G18G19G21G22G27
  24417206.180   128313296.76608  24417210.160    99984413.91845
  20411853.680   107265049.49109  20411850.960    83583171.69848
  21916064.160   115169782.20909  21916061.700    89742708.10948
  22772611.220   119670912.51408  22772608.880    93250066.59548
  23135508.800   121577925.83308  23135505.980    94736038.72746
  21653705.920   113791033.54609  21653701.860    88668366.65648
  21139263.620   111087673.79209  21139263.660    86561856.81248
 15 03 01 01 11 30.0000000  0  7G04G16G18G19G21G22G27
  24398163.100   128213225.41208  24398166.960    99906436.52044
  20410953.500   107260319.25209  20410950.840    83579485.79348
  21916848.680   115173905.23409  21916846.280    89745920.88048
  22759796.580   119603571.38908  22759794.300    93197593.03647
  23149264.880   121650214.40108  23149262.160    94792367.48946
  21642098.960   113730038.65209  21642094.900    88620838.20948
  21131590.020   111047349.03309  21131590.040    86530434.94248
 15 03 01 01 12  0.0000000  0  7G04G16G18G19G21G22G27
  24379150.020   128113311.67508  24379153.740    99828581.86044
  20410155.120   107256123.70509  20410152.480    83576216.53248
  21917728.180   115178527.37709  21917725.820    89749522.56248
  22747002.560   119536338.82308  22747000.300    93145204.05647
  23163036.900   121722586.66208  23163034.280    94848761.44146
  21630568.020   113669443.39709  21630564.000    88573621.16948
  21123948.500   111007192.84809  21123948.500    86499144.42148
 15 03 01 01 12 30.0000000  0  7G04G16G18G19G21G22G27
  24360166.620   128013553.97608  24360170.220    99750848.88144
  20409457.980   107252460.30709  20409455.360    83573361.93048
  21918702.140   115183645.62309  21918699.760    89753510.82448
  22734228.680   119469212.08008  22734226.400    93092897.53648
  23176823.940   121795037.69208  23176821.180    94905216.77245
  21619112.840   113609246.34609  21619108.860    88526714.41548
  21116338.600   110967202.53009  21116338.540    86467983.14248
 15 03 01 01 13  0.0000000  0  7G04G16G18G19G21G22G27
  24341213.340   127913954.83408  24341216.780    99673239.36345
  20408862.640   107249331.66109  20408859.980    83570924.01849
  21919770.840   115189261.78809  21919768.480    89757887.06648
  22721475.420   119402193.46208  22721473.060    93040675.25448
  23190626.040   121867568.26408  23190623.400    94961734.08946
  21607734.320   113549452.17709  21607730.420    88480121.59148
  21108760.800   110927380.79609  21108760.660    86436953.22848
 15 03 01 01 13 30.0000000  0  7G04G16G18G19G21G22G27
  24322290.020   127814512.92308  24322293.320    99595752.33145
  20408368.680   107246735.93909  20408366.040    83568901.37949
  21920933.680   115195372.90309  21920931.360    89762648.99448
  22708742.220   119335280.54908  22708740.040    92988535.37348
  23204442.460   121940174.01508  23204439.760    95018309.98046
  21596432.400   113490060.38409  21596428.520    88433842.31048
  21101214.620   110887725.51509  21101214.600    86406053.02148
 15 03 01 01 14  0.0000000  0  7G04G16G18G19G21G22G27
  24303397.460   127715233.10308  24303400.780    99518391.64045
  20407977.020   107244677.63909  20407974.420    83567297.50949
  21922191.400   115201982.59209  21922189.140    89767799.42048
  22696029.840   119268477.30008  22696027.840    92936480.93948
  23218273.740   122012857.75608  23218271.000    95074946.65946
  21585208.140   113431076.41009  21585204.240    88387880.81548
  21093700.880   110848241.10409  21093701.020    86375285.96048
 15 03 01 01 14 30.0000000  0  7G04G16G18G19G21G22G27
  24284535.260   127616112.47408  24284538.480    99441154.96245
  20407687.040   107243153.69209  20407684.480    83566110.01449
  21923543.360   115209087.39409  21923541.180    89773335.63848
  22683337.840   119201780.64508  22683335.780    92884509.54248
  23232118.780   122085613.95608  23232116.040    95131639.79046
  21574061.180   113372498.75509  21574057.260    88342235.93148
  21086219.080   110808924.40009  21086219.360    86344649.57648
 15 03 01 01 15  0.0000000  0  7G04G16G18G19G21G22G27
  24265703.820   127517153.40108  24265707.280    99364044.17045
  20407499.100   107242165.98209  20407496.560    83565340.36748
  21924989.740   115216688.11709  21924987.580    89779258.29848
  22670666.320   119135191.40208  22670664.100    92832621.84348
  23245977.460   122158442.12308  23245974.660    95188388.99746
  21562992.160   113314330.79709  21562988.240    88296910.28748
  21078769.580   110769777.13709  21078769.980    86314145.22948
 15 03 01 01 15 30.0000000  0  7G04G16G18G19G21G22G27
  24246904.080   127418360.94908  24246907.600    99287063.29545
  20407414.060   107241719.06209  20407411.500    83564992.11448
  21926531.200   115224788.43109  21926529.020    89785570.23948
  22658016.000   119068713.88208  22658013.900    92780821.22948
  23259850.340   122231344.95208  23259847.680    95245196.38646
  21552002.180   113256578.40109  21551998.240    88251908.46148
  21071353.240   110730803.94409  21071353.680    86283776.52048
 15 03 01 01 16  0.0000000  0  7G04G16G18G19G21G22G27
  24228135.120   127319730.46008  24228138.640    99210208.67945
  20407430.920   107241807.77009  20407428.360    83565061.23349
  21928166.540   115233381.95409  21928164.320    89792266.50148
  22645385.920   119002342.70308  22645383.980    92729103.45748
  23273736.060   122304314.96608  23273733.660    95302056.11946
  21541090.520   113199237.43209  21541086.540    88207227.22248
  21063969.020   110691999.59109  21063969.440    86253539.37148
 15 03 01 01 16 30.0000000  0  7G04G16G18G19G21G22G27
  24209397.820   127221266.26708  24209401.260    99133483.62745
  20407550.400   107242435.54909  20407547.820    83565550.40448
  21929896.460   115242472.46909  21929894.140    89799350.02748
  22632776.860   118936081.45608  22632774.760    92677471.34448
  23287635.140   122377354.83008  23287632.760    95358970.29846
  21530258.120   113142313.20709  21530254.220    88162870.70948
  21056617.660   110653368.16409  21056618.100    86223436.96748
 15 03 01 01 17  0.0000000  0  7G04G16G18G19G21G22G27
  24190692.560   127122970.53208  24190695.820    99056889.72945
  20407773.040   107243605.49109  20407770.440    83566462.04449
  21931721.240   115252061.42909  21931718.880    89806821.95248
  22620189.040   118869931.91608  22620186.820    92625926.28048
  23301547.540   122450464.65708  23301545.040    95415938.97446
  21519505.880   113085809.99309  21519502.040    88118842.27448
  21049299.680   110614911.92509  21049300.100    86193471.07348
 15 03 01 01 17 30.0000000  0  7G04G16G18G19G21G22G27
  24172018.740   127024839.77808  24172021.800    98980424.35945
  20408097.980   107245312.93309  20408095.320    83567792.51549
  21933639.900   115262143.63809  21933637.480    89814678.22948
  22607621.540   118803889.78308  22607619.380    92574464.92348
  23315471.860   122523637.59708  23315469.280    95472956.83346
  21508833.240   113029724.80709  21508829.380    88075139.56748
  21042014.220   110576626.57209  21042014.540    86163638.34048
 15 03 01 01 18  0.0000000  0  7G04G16G18G19G21G22G27
  24153377.600   126926880.78508  24153380.580    98904092.78545
  20408526.380   107247564.25909  20408523.700    83569546.79948
  21935653.400   115272724.64909  21935650.960    89822923.18548
  22595075.700   118737961.14608  22595073.560    92523091.99448
  23329409.020   122596878.31408  23329406.600    95530027.50146
  21498241.560   112974065.25609  21498237.680    88031768.52448
  21034762.500   110538518.68409  21034762.780    86133943.88848
 15 03 01 01 18 30.0000000  0  7G04G16G18G19G21G22G27
  24134768.700   126829090.72908  24134771.720    98827892.89445
  20409057.580   107250355.71309  20409054.860    83571721.94948
  21937760.880   115283799.59209  21937758.400    89831553.01748
  22582550.740   118672141.97408  22582548.500    92471804.34448
  23343358.020   122670181.45808  23343355.620    95587146.81246
  21487730.380   112918828.49609  21487726.460    87988726.92248
  21027543.880   110500584.60809  21027544.100    86104384.88148
 15 03 01 01 19  0.0000000  0  7G04G16G18G19G21G22G27
  24116192.580   126731473.26408  24116195.680    98751827.52545
  20409692.200   107253690.59509  20409689.480    83574320.55748
  21939962.880   115295371.43009  21939960.420    89840570.05048
  22570047.160   118606435.65608  22570045.040    92420604.66548
  23357319.360   122743548.67108  23357316.900    95644316.07145
  21477300.760   112864020.40409  21477296.820    87946019.35348
  21020359.100   110462827.99609  21020359.200    86074964.15048
 15 03 01 01 19 30.0000000  0  7G04G16G18G19G21G22G27
  24097648.880   126634026.03308  24097652.060    98675894.88645
  20410429.760   107257566.19209  20410427.000    83577340.49649
  21942258.640   115307436.12409  21942256.220    89849971.11648
  22557564.480   118540838.90308  22557562.440    92369490.34148
  23371292.000   122816975.10908  23371289.600    95701531.46946
  21466952.340   112809638.94309  21466948.360    87903644.22348
  21013207.620   110425246.12609  21013207.620    86045679.58848
 15 03 01 01 20  0.0000000  0  7G04G16G18G19G21G22G27
  24079138.380   126536753.07408  24079141.520    98600098.06945
  20411270.820   107261985.67609  20411268.000    83580784.25349
  21944648.760   115319996.67609  21944646.380    89859758.56948
  22545103.400   118475354.99209  22545101.400    92318463.95948
  23385276.200   122890462.05308  23385273.600    95758794.02446
  21456685.960   112755689.03009  21456682.020    87861605.37148
  21006090.060   110387842.58909  21006089.980    86016533.98748
 15 03 01 01 20 30.0000000  0  7G04G16G18G19G21G22G27
  24060661.200   126439655.92608  24060664.360    98524438.26245
  20412215.640   107266950.61309  20412212.760    83584653.02448
  21947133.220   115333053.04509  21947130.840    89869932.36848
  22532664.000   118409984.91008  22532661.840    92267526.26048
  23399271.780   122964009.10208  23399269.100    95816103.40145
  21446502.160   112702173.24709  21446498.240    87819904.78948
  20999006.660   110350618.81009  20999006.540    85987528.45448
 15 03 01 01 21  0.0000000  0  7G04G16G18G19G21G22G27
  24042217.100   126342732.63508  24042220.060    98448913.86145
  20413263.640   107272457.86109  20413260.760    83588944.38249
  21949711.480   115346602.15609  21949709.080    89880490.13148
  22520245.760   118344726.25008  22520243.380    92216675.39948
  23413277.980   123037611.99808  23413275.140    95873456.28946
  21436400.800   112649090.45209  21436396.880    87778541.60948
  20991957.000   110313572.51609  20991956.820    85958661.21949
 15 03 01 01 21 30.0000000  0  7G04G16G18G19G21G22G27
  24023806.760   126245986.84108  24023809.760    98373527.74345
  20414415.560   107278511.16509  20414412.680    83593661.23648
  21952383.900   115360646.17509  21952381.600    89891433.51848
  22507849.280   118279581.79309  22507846.680    92165913.49948
  23427295.040   123111271.96708  23427292.240    95930853.67145
  21426382.780   112596445.59109  21426378.860    87737519.66448
  20984941.740   110276706.99109  20984941.560    85929934.84348
 15 03 01 01 22  0.0000000  0  7G04G16G18G19G21G22G27
  24005430.180   126149418.14908  24005433.120    98298279.61745
  20415671.120   107285109.18009  20415668.260    83598802.53948
  21955150.200   115375183.34009  21955148.000    89902761.19348
  22495474.380   118214550.51409  22495471.640    92115239.80548
  23441322.380   123184986.43308  23441319.840    95988293.49446
  21416448.120   112544238.69209  21416444.140    87696838.99948
  20977960.720   110240021.53409  20977960.600    85901348.78648
 15 03 01 01 22 30.0000000  0  7G04G16G18G19G21G22G27
  23987087.620   126053027.94508  23987090.260    98223170.59645
  20417030.400   107292252.57909  20417027.560    83604368.81348
  21958010.380   115390213.72909  21958008.200    89914473.18548
  22483121.120   118149633.04809  22483118.080    92064654.79448
  23455360.040   123258754.40608  23455357.640    96045775.02846
  21406597.280   112492472.18909  21406593.300    87656501.48648
  20971014.140   110203517.34609  20971014.140    85872903.96648
 15 03 01 01 23  0.0000000  0  7G04G16G18G19G21G22G27
  23968779.240   125956817.30508  23968781.740    98148201.52445
  20418493.540   107299941.74409  20418490.760    83610360.36448
  21960964.220   115405736.42909  21960962.080    89926568.79948
  22470789.620   118084829.73509  22470786.280    92014158.73048
  23469407.600   123332574.28808  23469405.140    96103297.01045
  21396830.520   112441147.60009  21396826.500    87616508.33748
  20964102.100   110167194.92709  20964102.180    85844600.78748
 15 03 01 01 23 30.0000000  0  7G04G16G18G19G21G22G27
  23950505.580   125860789.40108  23950508.000    98073374.82645
  20420061.160   107308179.57209  20420058.440    83616779.44248
  21964012.220   115421753.99209  21964010.040    89939050.02848
  22458480.180   118020143.37009  22458476.860    91963753.81148
  23483465.180   123406447.39908  23483462.640    96160860.46046
  21387148.680   112390269.16709  21387144.620    87576862.83748
  20957225.300   110131057.68509  20957225.520    85816441.90949
 15 03 01 01 24  0.0000000  0  7G04G16G18G19G21G22G27
  23932266.640   125764943.92908  23932269.020    97998690.25745
  20421732.860   107316964.41709  20421730.180    83623624.76449
  21967154.020   115438264.24709  21967151.860    89951915.16148
  22446192.800   117955573.21409  22446189.580    91913439.44348
  23497532.420   123480371.55408  23497529.900    96218463.68746
  21377551.880   112339837.73709  21377547.780    87537565.64648
  20950383.640   110095104.93109  20950383.980    85788426.78948
 15 03 01 01 24 30.0000000  0  7G04G16G18G19G21G22G27
  23914062.080   125669279.48408  23914064.420    97924146.73545
  20423508.400   107326295.05609  20423505.740    83630895.38448
  21970389.020   115455264.12409  21970386.860    89965161.82348
  22433927.280   117891117.39809  22433924.000    91863214.15448
  23511608.760   123554342.68108  23511606.220    96276103.52346
  21368039.980   112289852.67809  21368035.940    87498616.27648
  20943576.840   110059335.08209  20943577.220    85760554.17949
 15 03 01 01 25  0.0000000  0  7G04G16G18G19G21G22G27
  23895892.680   125573799.84408  23895894.920    97849747.22845
  20425388.320   107336174.04409  20425385.620    83638593.28848
  21973717.760   115472756.45809  21973715.540    89978792.22748
  22421684.020   117826778.66209  22421680.660    91813080.10948
  23525694.280   123628362.06308  23525691.640    96333780.95145
  21358613.800   112240318.17509  21358609.820    87460017.99848
  20936805.580   110023751.51609  20936805.900    85732826.73949
 15 03 01 01 25 30.0000000  0  7G04G16G18G19G21G22G27
  23877758.920   125478507.52908  23877761.120    97775493.70745
  20427372.960   107346603.32409  20427370.240    83646719.99248
  21977140.280   115490741.32509  21977137.940    89992806.41647
  22409463.500   117762559.11209  22409460.180    91763038.93448
  23539789.040   123702430.27208  23539786.280    96391496.45345
  21349274.040   112191237.66209  21349270.040    87421773.46448
  20930070.320   109988356.61309  20930070.420    85705246.29649
 15 03 01 01 26  0.0000000  0  7G04G16G18G19G21G22G27
  23859660.400   125383400.61508  23859662.580    97701384.63945
  20429461.840   107357580.46009  20429459.180    83655273.59248
  21980656.020   115509216.27209  21980653.560    90007202.48348
  22397265.360   117698456.74909  22397261.900    91713089.07248
  23553892.280   123776543.31908  23553889.500    96449246.85945
  21340020.620   112142610.62209  21340016.580    87383882.29448
  20923370.620   109953148.62409  20923370.520    85677811.50148
 15 03 01 01 26 30.0000000  0  7G04G16G18G19G21G22G27
  23841597.480   125288480.27308  23841599.660    97627420.94345
  20431654.980   107369105.38309  20431652.380    83664254.04049
  21984264.900   115528180.74909  21984262.300    90021980.00348
  22385089.540   117634471.71609  22385085.860    91663230.62548
  23568003.800   123850700.17808  23568000.920    96507031.41645
  21330853.700   112094438.16109  21330849.640    87346345.33748
  20916706.480   109918127.98009  20916706.280    85650522.69449
 15 03 01 01 27  0.0000000  0  7G04G16G18G19G21G22G27
  23823570.120   125193746.96608  23823572.380    97553603.00045
  20433952.240   107381177.79009  20433949.640    83673661.10148
  21987966.700   115547633.71309  21987964.040    90037138.16548
  22372935.980   117570603.79409  22372932.040    91613463.43948
  23582123.300   123924899.00308  23582120.540    96564848.68045
  21321773.600   112046721.78809  21321769.500    87309163.77348
  20910078.100   109883295.29609  20910077.720    85623380.35249
 15 03 01 01 27 30.0000000  0  7G04G16G18G19G21G22G27
  23805578.980   125099203.90108  23805581.300    97479933.27845
  20436354.280   107393800.64009  20436351.660    83683497.08648
  21991761.700   115567576.49409  21991759.020    90052678.00747
  22360805.180   117506855.67609  22360801.160    91563789.62648
  23596251.040   123999140.87308  23596248.400    96622699.47946
  21312781.000   111999465.41109  21312776.860    87272340.65148
  20903486.060   109848653.51309  20903485.600    85596386.77248
 15 03 01 01 28  0.0000000  0  7G04G16G18G19G21G22G27
  23787623.960   125004850.52508  23787626.400    97406411.37245
  20438860.840   107406972.42309  20438858.160    83693760.79948
  21995649.400   115588006.84809  21995646.740    90068597.76548
  22348696.900   117443226.40009  22348692.640    91514208.40748
  23610386.480   124073423.10308  23610383.920    96680581.73346
  21303875.940   111952669.18609  21303871.820    87235876.08548
  20896930.200   109814201.96609  20896929.660    85569541.42348
 15 03 01 01 28 30.0000000  0  7G04G16G18G19G21G22G27
  23769705.920   124910691.55908  23769708.400    97333040.92745
  20441472.580   107420697.06509  20441469.960    83704455.31548
  21999630.560   115608928.31609  21999628.020    90084900.20747
  22336612.100   117379720.44709  22336607.740    91464723.27448
  23624530.060   124147748.01008  23624527.540    96738497.23745
  21295059.640   111906339.14909  21295055.480    87199774.77848
  20890411.420   109779945.47709  20890410.780    85542848.06748
 15 03 01 01 29  0.0000000  0  7G04G16G18G19G21G22G27
  23751823.780   124816721.54808  23751826.340    97259817.74445
  20444188.240   107434967.85209  20444185.680    83715575.39648
  22003703.800   115630333.57009  22003701.340    90101579.63547
  22324549.600   117316331.69009  22324545.160    91415329.46748
  23638680.460   124222108.62008  23638677.820    96796440.56245
  21286331.020   111860469.91709  21286326.780    87164032.54648
  20883928.620   109745878.16009  20883927.960    85516302.10848
 15 03 01 01 29 30.0000000  0  7G04G16G18G19G21G22G27
  23733978.300   124722944.20808  23733980.940    97186744.69145
  20447008.500   107449788.37909  20447005.920    83727123.85748
  22007869.580   115652225.32809  22007867.240    90118638.16047
  22312510.000   117253063.66909  22312505.740    91366029.75048
  23652837.920   124296506.47408  23652835.200    96854412.93345
  21277691.040   111815066.35609  21277686.740    87128653.17448
  20877482.480   109712003.86209  20877481.940    85489906.57448
 15 03 01 01 30  0.0000000  0  7G04G16G18G19G21G22G27
  23716170.300   124629363.61108  23716172.880    97113824.91745
  20449933.900   107465161.32609  20449931.220    83739102.76048
  22012128.400   115674605.84109  22012126.120    90136077.52047
  22300494.060   117189919.80409  22300489.760    91316826.76548
  23667002.760   124370943.34208  23667000.060    96912415.67946
  21269140.480   111770133.04109  21269136.140    87093640.22248
  20871073.800   109678326.42109  20871073.380    85463664.41848
 15 03 01 01 30 30.0000000  0  7G04G16G18G19G21G22G27
  23698399.460   124535978.26508  23698402.060    97041057.29345
  20452964.040   107481084.64809  20452961.340    83751510.53349
  22016479.580   115697471.58309  22016477.280    90153894.98247
  22288501.300   117126898.13509  22288497.160    91267719.00748
  23681174.180   124445415.46408  23681171.620    96970445.87145
  21260679.220   111725669.22409  21260674.980    87058993.11048
  20864702.300   109644844.31709  20864701.980    85437574.47748
 15 03 01 01 31  0.0000000  0  7G04G16G18G19G21G22G27
  23680665.680   124442787.52608  23680668.380    96968441.31945
  20456098.600   107497556.66209  20456095.920    83764345.86348
  22020922.680   115720820.39109  22020920.340    90172088.86248
  22276531.660   117063997.43609  22276527.640    91218705.51448
  23695351.880   124519920.42108  23695349.340    97028501.69245
  21252307.160   111681674.18509  21252303.040    87024711.29348
  20858367.840   109611556.90209  20858367.620    85411636.23549
 15 03 01 01 31 30.0000000  0  8G04G07G16G18G19G21G22G27
  23662969.240   124349792.95708  23662971.900    96895978.19745
  24533909.360   128926560.55607                                
  20459337.740   107514578.24709  20459335.100    83777609.43248
  22025457.760   115744652.23709  22025455.300    90190659.14047
  22264585.260   117001219.11609  22264581.300    91169787.38248
  23709535.860   124594457.78608  23709533.400    97086582.76046
  21244025.040   111638151.60309  21244020.960    86990797.61148
  20852070.660   109578465.61509  20852070.620    85385850.82749
 15 03 01 01 32  0.0000000  0  8G04G07G16G18G19G21G22G27
  23645314.420   124257017.08508  23645317.100    96823685.49445
  24529327.660   128902482.65407  24529328.100   100443492.56546
  20462685.480   107532170.68409  20462682.820    83791317.81848
  22030088.720   115768988.07009  22030086.200    90209622.14147
  22252666.320   116938585.48109  22252662.360    91120981.99948
  23723729.840   124669047.93908  23723727.560    97144704.94445
  21235837.120   111595123.97709  21235833.060    86957269.61948
  20845815.060   109545592.95609  20845815.220    85360235.78549
 15 03 01 01 32 30.0000000  0  8G04G07G16G18G19G21G22G27
  23627690.240   124164402.06108  23627692.920    96751518.09745
  24524838.640   128878886.04908  24524837.600   100425105.56446
  20466130.720   107550275.48809  20466127.960    83805425.44749
  22034804.340   115793768.43709  22034801.760    90228931.51847
  22240763.740   116876037.77309  22240759.920    91072243.55248
  23737922.520   124743630.87508  23737920.440    97202821.50046
  21227732.540   111552533.95609  21227728.420    86924082.60648
  20839590.060   109512880.98009  20839590.360    85334745.94049
 15 03 01 01 33  0.0000000  0  8G04G07G16G18G19G21G22G27
  23610106.140   124071997.54608  23610108.780    96679514.75346
  24520450.320   128855819.64908  24520448.100   100407131.71746
  20469682.660   107568941.24509  20469679.900    83819970.18248
  22039613.600   115819041.10309  22039611.060    90248624.50647
  22228886.900   116813625.35909  22228883.100    91023610.54148
  23752123.000   124818254.41008  23752120.580    97260969.73645
  21219720.840   111510431.92609  21219716.600    86891275.85848
  20833405.180   109480379.27409  20833405.480    85309419.94748
 15 03 01 01 33 30.0000000  0  8G04G07G16G18G19G21G22G27
  23592561.040   123979797.72808  23592563.620    96607670.89046
  24516161.340   128833277.17408  24516158.060   100389566.12746
  20473340.100   107588161.05109  20473337.360    83834946.64248
  22044515.120   115844798.69409  22044512.560    90268695.37347
  22217034.640   116751342.23509  22217030.940    90975078.26348
  23766329.620   124892910.92008  23766327.180    97319143.64046
  21211801.020   111468812.71509  21211796.680    86858845.32448
  20827259.280   109448082.13409  20827259.540    85284253.34949
 15 03 01 01 34  0.0000000  0  8G04G07G16G18G19G21G22G27
  23575054.920   123887803.39008  23575057.580    96535987.15845
  24511971.500   128811258.22808  24511967.740   100372408.51345
  20477102.940   107607934.70609  20477100.240    83850354.68648
  22049508.740   115871040.26209  22049506.180    90289143.35247
  22205207.080   116689188.67109  22205203.560    90926646.95148
  23780542.260   124967598.90808  23780539.840    97377342.04945
  21203973.280   111427677.62709  21203968.880    86826792.02548
  20821152.480   109415990.33409  20821152.600    85259246.76349
 15 03 01 01 34 30.0000000  0  8G04G07G16G18G19G21G22G27
  23557586.700   123796008.23308  23557589.340    96464458.62446
  24507879.800   128789756.28408  24507875.940   100355653.73346
  20480969.880   107628255.37709  20480967.120    83866188.96248
  22054592.960   115897758.02109  22054590.400    90309962.38947
  22193402.900   116627158.21109  22193399.560    90878311.56748
  23794759.340   125042309.98108  23794756.860    97435558.47045
  21196236.660   111387021.27009  21196232.180    86795111.76648
  20815083.520   109384097.58709  20815083.520    85234395.28849
 15 03 01 01 35  0.0000000  0  8G04G07G16G18G19G21G22G27
  23540157.560   123704418.19908  23540160.140    96393089.92646
  24503887.440   128768776.59008  24503883.680   100339305.90146
  20484941.740   107649127.55009  20484938.900    83882452.98948
  22059768.600   115924956.12809  22059765.920    90331155.73547
  22181623.260   116565256.50209  22181620.000    90830076.50848
  23808981.860   125117048.78808  23808979.240    97493796.51746
  21188592.260   111346849.83209  21188587.780    86763809.37548
  20809053.560   109352409.74609  20809053.440    85209703.47349
 15 03 01 01 35 30.0000000  0  8G04G07G16G18G19G21G22G27
  23522767.980   123613035.93608  23522770.580    96321883.11546
  24499994.680   128748321.05908  24499991.620   100323366.54947
  20489018.940   107670553.13609  20489015.980    83899148.23748
  22065035.780   115952635.33009  22065033.120    90352723.94347
  22169868.480   116503485.74409  22169865.360    90781943.47748
  23823209.600   125191815.72408  23823207.120    97552056.44546
  21181040.760   111307166.67609  21181036.280    86732887.45448
  20803063.160   109320929.73209  20803062.960    85185173.60249
 15 03 01 01 36  0.0000000  0  8G04G07G16G18G19G21G22G27
  23505417.260   123521857.46608  23505419.820    96250835.12246
  24496200.760   128728385.08408  24496198.040   100307832.04447
  20493200.420   107692526.73609  20493197.480    83916270.51848
  22070393.400   115980789.87309  22070390.780    90374662.56047
  22158137.880   116441841.37909  22158134.740    90733908.94248
  23837441.520   125266604.60908  23837438.920    97610333.51445
  21173581.500   111267968.25509  21173577.000    86702343.25648
  20797111.480   109289653.38209  20797111.260    85160802.43749
 15 03 01 01 36 30.0000000  0  8G04G07G16G18G19G21G22G27
  23488106.000   123430886.23508  23488108.340    96179948.58746
  24492506.020   128708970.35508  24492503.480   100292703.66346
  20497486.640   107715050.70909  20497483.720    83933821.65548
  22075841.800   116009421.40809  22075839.240    90396972.85247
  22146432.000   116380326.80909  22146428.900    90685975.53748
  23851677.780   125341416.99608  23851675.140    97668628.88545
  21166215.220   111229258.38109  21166210.760    86672179.73548
  20791199.200   109258584.11209  20791198.960    85136592.62248
 15 03 01 01 37  0.0000000  0  8G04G07G16G18G19G21G22G27
  23470833.700   123340119.57608  23470835.720    96109221.47146
  24488909.940   128690074.00208  24488907.380   100277979.20146
  20501876.900   107738121.57609  20501873.980    83951798.94048
  22081380.160   116038525.71309  22081377.580    90419651.54947
  22134750.300   116318939.06409  22134747.260    90638140.97548
  23865917.720   125416248.67008  23865915.400    97726939.25646
  21158941.600   111191035.11909  21158937.120    86642395.40148
  20785325.820   109227719.50009  20785325.560    85112542.29348
 15 03 01 01 37 30.0000000  0  8G04G07G16G18G19G21G22G27
  23453601.680   123249564.58908  23453603.460    96038659.29145
  24485413.560   128671702.57107  24485411.480   100263663.82146
  20506372.520   107761745.90009  20506369.500    83970207.49448
  22087009.440   116068107.90509  22087006.960    90442702.60647
  22123094.140   116257685.09609  22123091.140    90590410.63548
  23880162.320   125491104.71908  23880160.000    97785268.66345
  21151762.140   111153306.70209  21151757.660    86612996.65748
  20779492.780   109197066.79109  20779492.520    85088657.07848
 15 03 01 01 38  0.0000000  0  8G04G07G16G18G19G21G22G27
  23436408.920   123159215.98608  23436410.520    95968257.93645
  24482015.920   128653849.89107  24482014.480   100249752.66346
  20510972.100   107785916.54909  20510969.020    83989041.75448
  22092728.360   116098160.72809  22092725.880    90466120.40047
  22111462.300   116196559.13609  22111459.220    90542780.05648
  23894410.220   125565977.65808  23894407.780    97843611.21145
  21144675.820   111116067.61309  21144671.320    86583979.20848
  20773699.020   109166620.48509  20773698.780    85064932.69749
 15 03 01 01 38 30.0000000  0  8G04G07G16G18G19G21G22G27
  23419256.560   123069079.73909  23419258.020    95898022.03046
  24478717.680   128636521.08107  24478716.640   100236249.72646
  20515676.580   107810638.50809  20515673.480    84008305.60448
  22098537.660   116128688.62709  22098535.100    90489908.37547
  22099856.020   116135567.31609  22099852.980    90495253.99148
  23908662.180   125640872.20808  23908659.520    97901970.61345
  21137683.840   111079324.52309  21137679.340    86555348.24948
  20767945.740   109136387.02009  20767945.620    85041374.15448
 15 03 01 01 39  0.0000000  0  8G04G07G16G18G19G21G22G27
  23402143.780   122979151.21908  23402145.160    95827948.00046
  24475518.220   128619710.60907  24475517.660   100223150.63246
  20520484.720   107835905.76209  20520481.780    84027994.36548
  22104436.160   116159685.18809  22104433.520    90514061.55447
  22088274.300   116074704.42209  22088271.160    90447828.38848
  23922917.060   125715781.57408  23922914.260    97960341.54445
  21130785.420   111043073.42809  21130780.920    86527100.66148
  20762232.020   109106361.71509  20762232.020    85017977.82749
 15 03 01 01 39 30.0000000  0  8G04G07G16G18G19G21G22G27
  23385071.440   122889435.27208  23385072.740    95758039.60146
  24472418.300   128603422.18007  24472418.080   100210458.35245
  20525397.380   107861722.49809  20525394.640    84048111.29448
  22110424.420   116191153.50409  22110421.720    90538582.33247
  22076718.040   116013975.09609  22076714.640    90400506.86848
  23937175.200   125790708.98708  23937172.500    98018726.52245
  21123981.560   111007319.34709  21123977.080    86499240.36348
  20756558.840   109076549.49209  20756558.960    84994747.53549
 15 03 01 01 40  0.0000000  0  8G04G07G16G18G19G21G22G27
  23368039.120   122799930.12808  23368040.300    95688295.47246
  24469417.460   128587653.53907  24469417.140   100198171.10645
  20530414.060   107888085.67909  20530411.360    84068654.01848
  22116501.720   116223090.04209  22116499.060    90563467.94847
  22065186.820   115953377.48509  22065183.280    90353287.99348
  23951436.160   125865650.81108  23951433.440    98077122.76545
  21117272.160   110972061.36209  21117267.760    86471766.62848
  20750925.980   109046948.91809  20750926.180    84971682.15949
 15 03 01 01 40 30.0000000  0  8G04G07G16G18G19G21G22G27
  23351047.320   122710638.13409  23351048.400    95618717.41446
  24466516.040   128572405.95408  24466515.660   100186289.88545
  20535534.980   107914996.38709  20535532.220    84089623.38248
  22122668.140   116255494.89209  22122665.420    90588718.48147
  22053681.020   115892913.72009  22053677.420    90306173.40448
  23965699.980   125940607.40508  23965697.320    98135530.49645
  21110657.660   110937301.90809  21110653.300    86444681.36348
  20745333.840   109017562.18109  20745334.080    84948783.40749
 15 03 01 01 41  0.0000000  0  8G04G07G16G18G19G21G22G27
  23334096.040   122621559.02208  23334097.020    95549305.25145
  24463713.780   128557678.23408  24463712.600   100174813.69644
  20540759.880   107942453.30409  20540757.060    84111018.37448
  22128923.400   116288366.45809  22128920.540    90614332.70847
  22042200.540   115832583.30909  22042196.940    90259162.73348
  23979966.220   126015576.87308  23979963.640    98193948.26845
  21104138.040   110903041.33709  21104133.720    86417984.83448
  20739782.440   108988389.39609  20739782.660    84926051.37749
 15 03 01 01 41 30.0000000  0  8G04G07G16G18G19G21G22G27
  23317185.660   122532695.06908  23317186.680    95480060.74646
  24461010.780   128543472.01208  24461009.060   100163743.89545
  20546088.920   107970457.32709  20546086.100    84132839.67948
  22135267.360   116321704.52109  22135264.540    90640310.42447
  22030745.820   115772388.28609  22030742.280    90212257.54948
  23994234.980   126090559.61808  23994232.300    98252376.38345
  21097713.760   110869281.97509  21097709.440    86391678.85648
  20734272.220   108959432.87309  20734272.420    84903487.85349
 15 03 01 01 42  0.0000000  0  8G04G07G16G18G19G21G22G27
  23300316.260   122444046.55408  23300317.280    95410984.10045
  24458406.860   128529785.96108  24458404.720   100153079.42945
  20551521.920   107999007.68009  20551519.140    84155086.69748
  22141699.840   116355507.90509  22141697.100    90666650.72747
  22019316.860   115712328.74809  22019313.280    90165457.94848
  24008505.980   126165554.00908  24008503.220    98310813.57745
  21091385.140   110836025.06509  21091380.820    86365764.39948
  20728803.240   108930693.08209  20728803.420    84881093.22649
 15 03 01 01 42 30.0000000  0  8G04G07G16G18G19G21G22G27
  23283487.800   122355613.20909  23283488.740    95342075.12946
  24455901.780   128516619.39308  24455899.500   100142819.72345
  20557058.440   108028102.39909  20557055.660    84177757.89948
  22148220.500   116389774.32209  22148217.780    90693351.84847
  22007913.660   115652404.62209  22007910.060    90118763.86748
  24022778.900   126240558.52108  24022776.160    98369258.63845
  21085152.200   110803270.73409  21085147.880    86340241.56848
  20723375.520   108902170.10209  20723375.620    84858867.53649
 15 03 01 01 43  0.0000000  0  8G04G07G16G18G19G21G22G27
  23266701.280   122267400.33108  23266702.180    95273337.93445
  24453496.000   128503976.18507  24453494.140   100132967.92446
  20562699.300   108057745.55309  20562696.500    84200856.44148
  22154829.900   116424507.22709  22154827.300    90720416.45947
  21996537.140   115592620.76609  21996533.580    90072179.08348
  24037054.360   126315576.61908  24037051.560    98427714.30645
  21079015.840   110771024.14909  21079011.560    86315114.38048
  20717990.080   108873869.18509  20717990.080    84836814.88449
 15 03 01 01 43 30.0000000  0  8G04G07G16G18G19G21G22G27
  23249956.400   122179406.52508  23249957.400    95204771.46745
  24451189.220   128491854.20108  24451187.700   100123522.24846
  20568444.120   108087934.99809  20568441.320    84224380.67048
  22161527.500   116459703.49209  22161525.020    90747842.12247
  21985187.040   115532975.46509  21985183.380    90025702.25348
  24051331.800   126390604.99108  24051329.160    98486177.95646
  21072975.980   110739284.71509  21072971.720    86290382.37048
  20712646.660   108845789.24509  20712646.600    84814934.41749
 15 03 01 01 44  0.0000000  0  8G04G07G16G18G19G21G22G27
  23233252.520   122091628.01308  23233253.580    95136372.74746
  24448980.960   128480248.71508  24448979.200   100114478.97846
  20574291.880   108118665.24509  20574289.140    84248326.30948
  22168312.080   116495356.92909  22168309.580    90775624.03047
  21973862.600   115473465.18609  21973858.800    89979330.64048
  24065610.160   126465638.16108  24065607.400    98544645.35145
  21067031.940   110708048.70009  21067027.680    86266042.63648
  20707344.620   108817926.75509  20707344.560    84793223.40249
 15 03 01 01 44 30.0000000  0  8G04G07G16G18G19G21G22G27
  23216590.600   122004069.63108  23216591.680    95068145.55846
  24446871.680   128469163.29408  24446869.740   100105840.98746
  20580243.260   108149940.12909  20580240.660    84272696.34448
  22175184.260   116531470.72309  22175181.680    90803764.66147
  21962564.680   115414094.57009  21962560.980    89933067.86848
  24079890.080   126540679.42108  24079887.060    98603119.10345
  21061184.720   110677321.26009  21061180.400    86242099.20148
  20702084.960   108790286.74809  20702084.840    84771685.74649
 15 03 01 01 45  0.0000000  0  8G04G07G16G18G19G21G22G27
  23199971.020   121916733.91608  23199971.940    95000091.87246
  24444861.600   128458599.51608  24444859.060   100097609.40745
  20586298.480   108181760.82909  20586296.000    84297491.68348
  22182144.220   116568045.77809  22182141.660    90832264.72047
  21951293.780   115354866.18509  21951290.040    89886915.91248
  24094171.580   126615729.41308  24094168.440    98661599.61245
  21055434.880   110647105.64909  21055430.500    86218554.58648
  20696868.160   108762872.01309  20696867.960    84750323.63049
 15 03 01 01 45 30.0000000  0  8G04G07G16G18G19G21G22G27
  23183393.140   121829617.43108  23183394.140    94932209.02646
  24442949.800   128448552.77408  24442947.120   100089780.73946
  20592456.560   108214122.08909  20592454.100    84322708.24548
  22189190.820   116605075.85009  22189188.180    90861119.33247
  21940049.200   115295776.28309  21940045.480    89840871.87248
  24108453.820   126690783.21708  24108450.760    98720083.08945
  21049781.800   110617398.44209  21049777.380    86195406.13348
  20691693.600   108735679.27809  20691693.320    84729134.50449
 15 03 01 01 46  0.0000000  0  8G04G07G16G18G19G21G22G27
  23166857.940   121742724.94609  23166858.940    94864500.71345
  24441137.060   128439026.97907  24441134.700   100082358.02646
  20598718.240   108247027.83409  20598715.800    84348349.07048
  22196324.760   116642564.83709  22196322.080    90890331.54647
  21928831.940   115236829.87509  21928828.260    89794939.64448
  24122737.280   126765844.08308  24122734.580    98778572.05445
  21044226.460   110588204.76509  21044222.000    86172657.83248
  20686562.240   108708713.70709  20686561.960    84708122.39349
 15 03 01 01 46 30.0000000  0  8G04G07G16G18G19G21G22G27
  23150365.120   121656055.05509  23150366.080    94796965.84945
  24439422.560   128430019.25707  24439421.020   100075339.05846
  20605083.020   108280475.26009  20605080.640    84374411.98948
  22203545.300   116680508.96809  22203542.600    90919898.40547
  21917641.760   115178025.42609  21917637.980    89749118.01348
  24137021.640   126840908.87508  24137019.020    98837064.10045
  21038768.680   110559523.46809  21038764.160    86150308.77748
  20681473.860   108681974.16609  20681473.600    84687286.39849
 15 03 01 01 47  0.0000000  0  8G04G07G16G18G19G21G22G27
  23133914.700   121569607.79808  23133915.500    94729604.46345
  24437806.760   128421528.75708  24437805.780   100068723.10747
  20611550.600   108314462.80309  20611548.320    84400895.77348
  22210852.080   116718906.19109  22210849.440    90949818.32747
  21906478.520   115119362.77409  21906474.720    89703406.89048
  24151306.440   126915976.16108  24151303.480    98895558.11945
  21033408.380   110531354.61709  21033403.840    86128359.04448
  20676428.480   108655460.82509  20676428.240    84666626.66449
 15 03 01 01 47 30.0000000  0  8G04G07G16G18G19G21G22G27
  23117506.640   121483383.23108  23117507.300    94662416.61045
  24436289.400   128413554.42708  24436288.400   100062509.32746
  20618120.740   108348989.17409  20618118.540    84427799.43148
  22218244.680   116757754.69209  22218242.080    90980089.89247
  21895342.320   115060841.99009  21895338.480    89657806.32248
  24165591.360   126991044.19008  24165588.440    98954052.66545
  21028145.700   110503698.99509  21028141.160    86106809.23348
  20671426.220   108629174.15009  20671426.000    84646143.54849
 15 03 01 01 48  0.0000000  0  8G04G07G16G18G19G21G22G27
  23101141.800   121397386.25708  23101142.480    94595406.08346
  24434870.780   128406099.94108  24434869.860   100056700.64946
  20624794.200   108384058.21809  20624791.960    84455125.95648
  22225723.720   116797057.27009  22225721.160    91010715.29047
  21884234.120   115002467.95709  21884230.200    89612320.10048
  24179877.120   127066116.36907  24179874.380    99012550.49145
  21022981.560   110476561.60309  21022977.060    86085663.23348
  20666468.100   108603119.39009  20666467.940    84625841.16049
 15 03 01 01 48 30.0000000  0  8G04G07G16G18G19G21G22G27
  23084820.240   121311616.93709  23084821.100    94528572.97546
  24433551.060   128399164.25307  24433549.900   100051296.14145
  20631570.540   108419667.92709  20631568.160    84482873.76848
  22233288.820   116836811.98409  22233286.260    91041693.00047
  21873153.920   114944240.85309  21873149.920    89566948.35948
  24194163.180   127141191.23207  24194160.680    99071050.32945
  21017916.060   110449942.63809  21017911.640    86064921.20048
  20661554.200   108577296.78609  20661554.140    84605719.66449
 15 03 01 01 49  0.0000000  0  8G04G07G16G18G19G21G22G27
  23068542.360   121226077.02708  23068543.420    94461918.61146
  24432329.140   128392747.57906  24432328.380   100046296.23545
  20638449.900   108455819.08209  20638447.420    84511043.48248
  22240939.960   116877018.84409  22240937.460    91073023.02847
  21862102.080   114886162.79809  21862097.980    89521692.75848
  24208449.880   127216268.97007  24208447.360    99129552.46245
  21012949.660   110423844.17709  21012945.320    86044584.75548
  20656684.900   108551708.53909  20656684.900    84585780.78449
 15 03 01 01 49 30.0000000  0  8G04G07G16G18G19G21G22G27
  23052306.580   121140758.07708  23052307.640    94395436.42846
  24431204.540   128386840.69607  24431204.280   100041693.45146
  20645430.400   108492501.56809  20645427.900    84539627.22348
  22248675.040   116917666.86909  22248672.520    91104696.82547
  21851076.960   114828224.98909  21851072.820    89476546.45248
  24222735.360   127291339.44508  24222732.640    99188048.93945
  21008080.680   110398257.66709  21008076.360    86024647.24148
  20651858.620   108526346.30409  20651858.640    84566018.01749
 15 03 01 01 50  0.0000000  0  8G04G07G16G18G19G21G22G27
  23036114.140   121055666.96608  23036115.220    94329131.78846
  24430178.620   128381449.22707  24430178.160   100037492.22646
  20652512.960   108529720.31009  20652510.500    84568628.82848
  22256495.040   116958761.35909  22256492.520    91136718.51147
  21840079.720   114770433.90809  21840075.620    89431514.47048
  24237020.600   127366407.97708  24237017.740    99246543.91945
  21003310.480   110373190.19909  21003306.120    86005114.16848
  20647076.760   108501217.41009  20647076.740    84546437.07649
 15 03 01 01 50 30.0000000  0  9G04G07G11G16G18G19G21G22G27
  23019964.880   120970802.66208  23019966.000    94263003.87246
  24429250.640   128376571.16907  24429250.160   100033691.09347
  24694383.740   129769862.25208  24694384.000   101119372.88345
  20659697.320   108567473.92709  20659694.880    84598047.21848
  22264399.480   117000299.52209  22264397.040    91169085.91947
  21829110.400   114712789.32209  21829106.280    89386596.64348
  24251304.880   127441472.53207  24251302.200    99305035.74746
  20998639.020   110348641.29609  20998634.520    85985985.16448
  20642339.260   108476321.49809  20642339.180    84527037.67449
 15 03 01 01 51  0.0000000  0  9G04G07G11G16G18G19G21G22G27
  23003857.680   120886159.04209  23003858.800    94197047.91246
  24428418.660   128372198.30207  24428418.620   100030283.69546
  24677081.540   129678939.57608  24677081.580   101048524.26144
  20666981.880   108605754.21209  20666979.380    84627876.00648
  22272386.640   117042272.60709  22272384.220    91201792.22547
  21818167.660   114655284.84609  21818163.680    89341788.00348
  24265586.860   127516525.13308  24265584.520    99363518.24846
  20994065.080   110324604.64009  20994060.460    85967255.32548
  20637644.860   108451652.43009  20637644.800    84507815.04049
 15 03 01 01 51 30.0000000  0  9G04G07G11G16G18G19G21G22G27
  22987796.880   120801759.08108  22987797.920    94131281.81745
  24427686.900   128368352.56407  24427686.940   100027287.00646
  24659798.040   129588116.52507  24659798.640   100977753.27144
  20674370.700   108644582.52109  20674368.100    84658131.81648
  22280460.560   117084701.58409  22280458.160    91234853.77847
  21807256.040   114597943.47509  21807252.080    89297106.44948
  24279870.800   127591587.33707  24279868.260    99422008.29445
  20989593.060   110301103.74809  20989588.360    85948942.96548
  20632998.080   108427233.66009  20632998.060    84488787.44149
 15 03 01 01 52  0.0000000  0  9G04G07G11G16G18G19G21G22G27
  22971780.240   120717591.51109  22971781.200    94065696.79846
  24427052.500   128365021.54206  24427052.480   100024691.44345
  24642531.120   129497380.93608  24642531.880   100907050.42844
  20681861.340   108683946.01309  20681858.680    84688804.65348
  22288618.760   117127573.28009  22288616.380    91268260.29747
  21796373.360   114540754.14309  21796369.260    89252543.35948
  24294154.080   127666646.24908  24294151.600    99480495.75745
  20985220.680   110278126.98609  20985216.060    85931039.01248
  20628396.880   108403054.18509  20628396.800    84469946.30349
 15 03 01 01 52 30.0000000  0  9G04G07G11G16G18G19G21G22G27
  22955806.660   120633649.96309  22955807.480    94000287.90246
  24426515.280   128362197.84308  24426514.760   100022491.08445
  24625280.020   129406727.09608  24625280.740   100836411.25744
  20689452.340   108723836.78509  20689449.680    84719888.36148
  22296859.680   117170879.63109  22296857.300    91302005.50747
  21785518.400   114483710.83309  21785514.240    89208094.06048
  24308435.240   127741694.42207  24308432.840    99538974.83945
  20980946.880   110255668.32809  20980942.300    85913538.77848
  20623840.140   108379108.32609  20623839.960    84451287.20649
 15 03 01 01 53  0.0000000  0  9G04G07G11G16G18G19G21G22G27
  22939877.120   120549939.90209  22939877.760    93935059.38745
  24426075.220   128359885.22307  24426074.300   100020689.01245
  24608045.580   129316160.13108  24608046.200   100765839.80444
  20697144.480   108764259.15309  20697141.840    84751386.29748
  22305183.880   117214623.73409  22305181.420    91336091.82947
  21774692.140   114426818.82109  21774688.060    89163762.64648
  24322715.040   127816735.49308  24322712.560    99597448.39145
  20976772.780   110233733.50009  20976768.160    85896446.72048
  20619328.900   108355401.73109  20619328.700    84432814.54749
 15 03 01 01 53 30.0000000  0  9G04G07G11G16G18G19G21G22G27
  22923991.880   120466462.78809  22923992.340    93870012.38446
  24425732.540   128358083.90208  24425731.180   100019285.38345
  24590827.780   129225681.34008  24590828.260   100695337.05344
  20704937.660   108805212.39109  20704935.000    84783297.90048
  22313591.360   117258805.11109  22313588.740    91370518.89747
  21763894.960   114370079.72209  21763890.980    89119550.39648
  24336993.580   127891769.48207  24336991.100    99655916.44146
  20972698.640   110212323.78409  20972693.980    85879763.84948
  20614863.540   108331936.31109  20614863.360    84414529.81849
 15 03 01 01 54  0.0000000  0  9G04G07G11G16G18G19G21G22G27
  22908150.980   120383218.82209  22908151.460    93805147.05946
  24425487.340   128356792.78408  24425485.680   100018279.27545
  24573626.680   129135290.12608  24573627.140   100624902.53144
  20712831.600   108846695.41009  20712828.900    84815622.31648
  22322081.600   117303421.57309  22322078.960    91405284.95947
  21753126.900   114313494.07009  21753122.980    89075457.69748
  24351270.620   127966795.95008  24351268.340    99714378.58845
  20968724.500   110191439.71309  20968719.940    85863490.56249
  20610444.220   108308712.73309  20610444.060    84396433.52749
 15 03 01 01 54 30.0000000  0  9G04G07G11G16G18G19G21G22G27
  22892354.440   120300207.82309  22892354.920    93740463.25946
  24425338.800   128356010.21707  24425337.200   100017669.47045
  24556442.320   129044986.22808  24556442.800   100554536.02944
  20720826.060   108888706.70709  20720823.300    84848358.38148
  22330654.260   117348471.15609  22330651.600    91440388.53647
  21742388.020   114257061.78109  21742384.280    89031484.51748
  24365545.920   128041812.58708  24365543.680    99772833.12145
  20964850.200   110171080.51809  20964845.780    85847626.27948
  20606070.920   108285731.13109  20606070.800    84378525.79849
 15 03 01 01 55  0.0000000  0  9G04G07G11G16G18G19G21G22G27
  22876602.820   120217432.89809  22876603.340    93675963.42846
  24425286.860   128355737.82307  24425284.840   100017457.24744
  24539275.080   128954772.59008  24539275.700   100484239.89144
  20728921.260   108931247.42209  20728918.520    84881506.98548
  22339309.460   117393954.63909  22339306.780    91475830.22347
  21731678.880   114200785.99809  21731675.400    88987633.28848
  24379819.660   128116821.01108  24379817.380    99831281.24446
  20961076.560   110151249.93009  20961072.180    85832173.89148
  20601744.340   108262995.00709  20601744.240    84360809.35649
 15 03 01 01 55 30.0000000  0  9G04G07G11G16G18G19G21G22G27
  22860895.620   120134891.17009  22860896.080    93611645.28346
  24425331.600   128355971.79308  24425328.340   100017639.47544
  24522124.500   128864646.35408  24522125.280   100414011.81644
  20737116.320   108974312.90809  20737113.640    84915064.48448
  22348046.380   117439867.30809  22348043.600    91511606.33347
  21720999.020   114144664.22909  21720995.820    88943902.06548
  24394091.100   128191817.58507  24394088.820    99889720.11644
  20957403.000   110131945.16009  20957398.560    85817131.22748
  20597464.060   108240502.22509  20597464.020    84343282.52149
 15 03 01 01 56  0.0000000  0  9G04G07G11G16G18G19G21G22G27
  22845233.800   120052588.08909  22845234.200    93547513.11846
  24425473.580   128356715.82707  24425469.860   100018219.21644
  24504991.640   128774612.61408  24504992.240   100343855.83444
  20745412.080   109017907.28509  20745409.440    84949034.11948
  22356865.540   117486212.40409  22356862.700    91547719.40346
  21710349.660   114088702.24809  21710346.520    88900295.34648
  24408360.860   128266806.03507  24408358.560    99948152.65045
  20953830.460   110113171.49109  20953825.940    85802502.42148
  20593231.240   108218258.53809  20593231.160    84325949.78849
 15 03 01 01 56 30.0000000  0  9G04G07G11G16G18G19G21G22G27
  22829616.820   119970520.79209  22829617.140    93483564.66546
  24425711.580   128357965.30908  24425707.080   100019192.83444
  24487875.700   128684668.30208  24487876.080   100273769.52344
  20753807.620   109062025.89009  20753804.980    84983412.25048
  22365766.000   117532984.80809  22365763.140    91584165.44947
  21699730.260   114032897.07609  21699727.040    88856810.82848
  24422628.280   128341781.97508  24422625.800   100006575.46245
  20950358.260   110094925.33509  20950353.780    85788284.66148
  20589045.340   108196261.35109  20589045.160    84308809.13749
 15 03 01 01 57  0.0000000  0  9G04G07G11G16G18G19G21G22G27
  22814044.840   119888690.01809  22814045.160    93419800.51446
  24426045.780   128359719.86008  24426041.140   100020559.93144
  24470776.820   128594813.94508  24470777.220   100203753.29044
  20762302.740   109106667.86909  20762300.100    85018198.19848
  22374747.540   117580183.30809  22374744.680    91620943.51147
  21689140.980   113977249.68009  21689137.560    88813449.24548
  24436893.420   128416745.00608  24436890.660   100064988.26545
  20946986.860   110077208.68509  20946982.440    85774479.50249
  20584906.640   108174512.04709  20584906.400    84291861.63849
 15 03 01 01 57 30.0000000  0  9G04G07G11G16G18G19G21G22G27
  22798518.240   119807097.60509  22798518.560    93356222.10246
  24426475.940   128361979.92207  24426471.900   100022320.99344
  24453695.560   128505051.47908  24453695.980   100133808.69344
  20770897.440   109151833.12009  20770894.740    85053391.88248
  22383810.160   117627807.60309  22383807.440    91658053.35147
  21678582.200   113921762.41709  21678578.600    88770212.43148
  24451156.240   128491695.83708  24451153.360   100123391.51045
  20943716.580   110060023.01909  20943712.120    85761088.08848
  20580815.540   108153013.07609  20580815.300    84275109.19749
 15 03 01 01 58  0.0000000  0  9G04G07G11G16G18G19G21G22G27
  22783037.100   119725743.98309  22783037.460    93292829.75946
  24427001.980   128364744.18608  24426998.440   100024474.94545
  24436631.660   128415380.65208  24436631.920   100063935.48145
  20779591.400   109197520.05109  20779588.660    85088992.07848
  22392953.480   117675855.92409  22392950.760    91695493.60447
  21668053.940   113866435.59609  21668050.080    88727100.63948
  24465416.480   128566633.22108  24465413.720   100181784.25845
  20940547.220   110043368.03809  20940542.760    85748110.20349
  20576772.200   108131765.15809  20576771.960    84258552.39049
 15 03 01 01 58 30.0000000  0  9G04G07G11G16G18G19G21G22G27
  22767601.680   119644630.99409  22767602.120    93229624.92146
  24427623.780   128368012.99708  24427620.380   100027022.05245
  24419585.460   128325803.48008  24419585.740    99994135.23944
  20788384.860   109243729.93009  20788382.160    85124999.76148
  22402177.560   117724328.36609  22402174.720    91733264.34847
  21657556.540   113811271.35509  21657552.600    88684115.54948
  24479674.140   128641558.00607  24479671.500   100240167.16145
  20937479.160   110027245.65509  20937474.680    85735547.32848
  20572777.140   108110770.77609  20572776.860    84242193.13649
 15 03 01 01 59  0.0000000  0  9G04G07G11G16G18G19G21G22G27
  22752212.340   119563759.95309  22752212.700    93166608.60946
  24428341.840   128371786.48808  24428339.320   100029962.40246
  24402557.300   128236320.85408  24402557.640    99924408.67244
  20797277.600   109290461.60709  20797274.960    85161414.04748
  22411482.040   117773223.59709  22411479.200    91771364.53847
  21647090.460   113756271.62809  21647086.320    88641258.64748
  24493929.060   128716469.88507  24493926.520   100298540.03745
  20934512.760   110011657.29909  20934508.260    85723400.58049
  20568830.640   108090031.62109  20568830.360    84226032.77149
 15 03 01 01 59 30.0000000  0  9G04G07G11G16G18G19G21G22G27
  22736868.340   119483126.92009  22736868.660    93103777.76746
  24429154.880   128376058.72708  24429153.020   100033291.39946
  24385546.340   128146928.99308  24385546.880    99854752.83044
  20806268.560   109337709.08709  20806265.920    85198230.25748
  22420865.820   117822535.47509  22420863.020    91809789.38247
  21636655.020   113701432.52209  21636650.680    88598526.89448
  24508180.780   128791364.11707  24508178.420   100356899.19345
  20931647.300   109996599.07309  20931642.760    85711666.92049
  20564932.040   108069544.30509  20564931.780    84210068.64049
 15 03 01 02 00  0.0000000  0  9G04G07G11G16G18G19G21G22G27
  22721569.640   119402732.01109  22721570.000    93041132.45746
  24430062.380   128380828.31508  24430061.120   100037007.96345
  24368552.640   128057627.75808  24368553.240    99785167.60944
  20815357.380   109385471.06909  20815354.720    85235447.37848
  22430328.500   117872262.30209  22430325.700    91848537.56147
  21626250.320   113646754.50009  21626245.820    88555920.66348
  24522429.160   128866239.89608  24522426.880   100415243.97245
  20928882.720   109982071.07309  20928878.200    85700346.41748
  20561081.460   108049309.49209  20561081.160    84194301.26349
 15 03 01 02 00 30.0000000  0  9G04G07G11G16G18G19G21G22G27
  22706317.280   119322580.43909  22706317.620    92978676.77446
  24431065.460   128386099.28908  24431064.220   100041115.15246
  24351577.260   127968422.39408  24351577.560    99715657.05444
  20824544.780   109433751.14009  20824542.100    85273068.19648
  22439870.680   117922406.97809  22439867.960    91887611.34447
  21615877.420   113592243.60009  21615872.840    88513444.65448
  24536674.800   128941100.83508  24536672.640   100473577.15745
  20926219.940   109968078.12209  20926215.440    85689442.83948
  20557280.060   108029332.97609  20557279.720    84178735.15349
 15 03 01 02 01  0.0000000  0  9G04G07G11G16G18G19G21G22G27
  22691110.720   119242669.62909  22691111.060    92916408.69946
  24432163.240   128391867.25808  24432161.920   100045609.66145
  24334619.580   127879309.83308  24334619.640    99646218.83044
  20833829.900   109482544.73009  20833827.220    85311089.16348
  22449491.480   117972964.77009  22449488.860    91927007.01947
  21605535.700   113537897.01609  21605531.080    88471096.69448
  24550916.820   129015942.46407  24550914.460   100531895.32244
  20923658.420   109954617.44909  20923653.900    85678954.02348
  20553527.400   108009612.69609  20553527.060    84163368.71549
 15 03 01 02 01 30.0000000  0 10G04G07G11G16G18G19G21G22G27G32
  22675950.240   119163000.94809  22675950.440    92854329.29346
  24433355.600   128398131.93008  24433353.760   100050491.18345
  24317680.020   127790291.70808  24317680.180    99576854.17644
  20843212.680   109531851.45609  20843209.980    85349509.97248
  22459190.700   118023934.78309  22459188.200    91966723.90447
  21595225.480   113483716.23209  21595220.860    88428877.91348
  24565155.160   129090765.47507  24565152.760   100590198.93245
  20921198.440   109941690.30309  20921193.840    85668880.93548
  20549823.820   107990150.48609  20549823.520    84148203.36549
  24506019.760   128780002.41708  24506022.740   100348061.06344
 15 03 01 02 02  0.0000000  0 10G04G07G11G16G18G19G21G22G27G32
  22660834.360   119083566.45909  22660834.280    92792432.37946
  24434640.660   128404884.09708  24434637.900   100055752.52145
  24300756.840   127701359.78608  24300756.960    99507556.72444
  20852691.240   109581661.58309  20852688.540    85388323.04248
  22468966.540   118075307.29809  22468964.040    92006754.45547
  21584945.460   113429694.79509  21584940.980    88386783.31248
  24579388.540   129165561.83408  24579386.240   100648481.77045
  20918838.500   109929289.01909  20918833.940    85659217.62349
  20546168.000   107970939.14609  20546167.740    84133233.49749
  24483472.300   128661515.37508  24483475.240   100255733.68045
 15 03 01 02 02 30.0000000  0 10G04G07G11G16G18G19G21G22G27G32
  22645767.160   119004387.63709  22645766.840    92730734.68346
  24436021.960   128412142.91708  24436018.920   100061408.70745
  24283853.980   127612534.89608  24283853.840    99438342.66444
  20862269.280   109631994.57609  20862266.600    85427543.54548
  22478822.580   118127101.42709  22478820.160    92047113.51747
  21574699.620   113375853.15509  21574695.260    88344828.80148
  24593620.520   129240350.21908  24593617.840   100706758.45345
  20916582.520   109917434.11309  20916578.040    85649980.05548
  20542564.080   107952000.51809  20542563.800    84118476.14049
  24460928.560   128543048.18608  24460931.400   100163421.63445
 15 03 01 02 03  0.0000000  0 10G04G07G11G16G18G19G21G22G27G32
  22630745.860   118925450.04609  22630745.400    92669224.95046
  24437496.400   128419892.95607  24437493.760   100067447.62445
  24266968.720   127523803.00708  24266968.700    99369201.06745
  20871943.720   109682834.18009  20871941.080    85467158.80948
  22488755.640   118179300.64009  22488753.280    92087788.21246
  21564485.420   113322177.56609  21564481.180    88303003.67948
  24607848.020   129315115.55107  24607844.700   100765017.17544
  20914427.800   109906111.32809  20914423.380    85641157.11949
  20539009.500   107933320.93509  20539009.140    84103920.62649
  24438386.440   128424589.31808  24438389.320   100071116.30945
 15 03 01 02 03 30.0000000  0 10G04G07G11G16G18G19G21G22G27G32
  22615771.680   118846760.12009  22615771.200    92607908.20946
  24439064.940   128428138.55907  24439063.340   100073872.74245
  24250102.340   127435170.01108  24250102.040    99300136.50344
  20881715.520   109734185.39109  20881712.860    85507172.72548
  22498766.640   118231908.76309  22498764.300    92128781.57147
  21554304.140   113268675.34809  21554300.160    88261313.66448
  24622071.900   129389863.48806  24622068.760   100823262.32145
  20912375.560   109895326.76809  20912371.100    85632753.58249
  20535505.540   107914907.28309  20535505.080    84089572.33049
  24415847.440   128306146.89108  24415850.260    99978823.81444
 15 03 01 02 04  0.0000000  0 10G04G07G11G16G18G19G21G22G27G32
  22600843.880   118768314.09409  22600843.320    92546781.51746
  24440726.940   128436874.53207  24440726.280   100080679.99046
  24233253.920   127346632.56908  24233253.980    99231146.43045
  20891583.600   109786042.46709  20891580.920    85547580.83048
  22508854.300   118284919.91309  22508852.060    92170088.95747
  21544155.200   113215343.12809  21544151.440    88219756.10048
  24636291.460   129464588.84707  24636288.820   100881489.81645
  20910425.020   109885076.58709  20910420.460    85624766.44949
  20532051.600   107896756.53509  20532051.080    84075428.90249
  24393311.260   128187719.36208  24393314.000    99886542.87845
 15 03 01 02 04 30.0000000  0 10G04G07G11G16G18G19G21G22G27G32
  22585962.740   118690113.33809  22585962.140    92485845.94746
  24442482.200   128446100.37807  24442481.640   100087868.88744
  24216423.940   127258191.86708  24216424.040    99162231.70844
  20901547.780   109838404.59409  20901545.080    85588382.47148
  22519018.580   118338333.71809  22519016.360    92211710.10146
  21534038.940   113162182.34609  21534035.340    88178332.13748
  24650507.020   129539291.81908  24650504.600   100939699.91446
  20908576.300   109875361.79209  20908571.760    85617196.49849
  20528648.000   107878870.61709  20528647.480    84061491.83249
  24370778.600   128069310.32808  24370781.440    99794276.32845
 15 03 01 02 05  0.0000000  0 10G04G07G11G16G18G19G21G22G27G32
  22571128.500   118612159.17309  22571127.940    92425102.51546
  24444330.460   128455815.92907  24444330.380   100095439.43845
  24199612.780   127169848.83208  24199612.860    99093393.11344
  20911607.960   109891271.31209  20911605.320    85629577.30348
  22529259.320   118392149.14109  22529257.020    92253644.20146
  21523955.760   113109194.98809  21523952.140    88137043.28848
  24664718.520   129613972.65007  24664716.040   100997892.76745
  20906829.720   109866183.54709  20906825.240    85610044.63549
  20525295.160   107861251.46809  20525294.680    84047762.62749
  24348250.100   127950923.42008  24348253.040    99702027.10045
 15 03 01 02 05 30.0000000  0 10G04G07G11G16G18G19G21G22G27G32
  22556341.000   118534451.07709  22556340.680    92364550.83046
  24446271.980   128466018.56808  24446272.060   100103389.49346
  24182820.040   127081602.89508  24182820.180    99024630.14345
  20921763.740   109944640.26809  20921761.140    85671163.48548
  22539575.940   118446363.40809  22539573.780    92295889.07447
  21513905.480   113056380.65709  21513901.940    88095889.27648
  24678925.260   129688630.04506  24678922.540   101056067.33244
  20905184.980   109857540.27809  20905180.480    85603309.63049
  20521993.060   107843898.89209  20521992.600    84034241.14349
  24325726.080   127832560.05508  24325728.960    99609796.26344
 15 03 01 02 06  0.0000000  0 10G04G07G11G16G18G19G21G22G27G32
  22541600.560   118456990.23809  22541600.320    92304191.81046
  24448306.440   128476708.10308  24448306.280   100111718.93746
  24166046.180   126993455.39508  24166046.200    98955943.89844
  20932014.960   109998510.71609  20932012.360    85713140.44448
  22549968.300   118500975.58409  22549966.020    92338444.02646
  21503888.380   113003741.26109  21503885.040    88054871.58648
  24693127.280   129763263.68807  24693124.440   101114223.40744
  20903642.440   109849434.22009  20903637.900    85596993.23749
  20518742.100   107826815.04709  20518741.640    84020929.06149
  24303207.160   127714223.91608  24303209.980    99517586.61444
 15 03 01 02 06 30.0000000  0 10G04G07G11G16G18G19G21G22G27G32
  22526907.140   118379776.43009  22526907.020    92244025.29746
  24450433.220   128487882.23507  24450433.260   100120426.00046
  24149290.900   126905405.88308  24149290.740    98887333.99944
  20942361.140   110052880.18809  20942358.560    85755506.25648
  22560435.780   118555982.73009  22560433.480    92381306.73646
  21493904.660   112951276.92109  21493901.320    88013990.29448
  24707324.800   129837872.46907  24707322.140   101172360.13844
  20902201.840   109841863.88109  20902197.300    85591094.28949
  20515542.340   107810000.15809  20515541.880    84007826.55649
  24280693.800   127595916.71608  24280696.500    99425399.47045
 15 03 01 02 07  0.0000000  0 10G04G07G11G16G18G19G21G22G27G32
  22512260.800   118302809.67509  22512260.600    92184051.26846
  24452652.020   128499539.34608  24452651.840   100129509.38746
  24132554.300   126817454.26008  24132554.000    98818800.39244
  20952801.900   110107746.62609  20952799.320    85798259.31048
  22570978.160   118611382.97809  22570975.760    92424475.75446
  21483954.360   112898987.90709  21483950.940    87973245.61648
  24721517.460   129912455.17007  24721514.940   101230476.49945
  20900863.120   109834829.02609  20900858.600    85585612.59549
  20512393.880   107793454.88909  20512393.420    83994934.14249
  24258186.420   127477640.91808  24258188.940    99333236.80645
 15 03 01 02 07 30.0000000  0 10G04G07G11G16G18G19G21G22G27G32
  22497662.220   118226093.87709  22497661.880    92124272.79446
  24454962.820   128511681.73808  24454962.600   100138970.95946
  24115837.020   126729604.66208  24115836.780    98750346.24644
  20963337.760   110163112.98109  20963335.200    85841401.91848
  22581595.760   118667178.51109  22581593.140    92467952.80346
  21474038.460   112846879.31409  21474034.880    87932641.52848
  24735705.840   129987015.62307  24735703.420   101288575.50745
  20899627.080   109828333.48409  20899622.560    85580551.14949
  20509297.560   107777183.98809  20509297.160    83982255.52249
  24235686.220   127359402.79908  24235688.600    99241103.47045
 15 03 01 02 08  0.0000000  0 10G04G07G11G16G18G19G21G22G27G32
  22483110.920   118149626.62109  22483110.440    92064687.99246
  24457365.220   128524305.05408  24457364.660   100148807.24345
  24099138.640   126641854.44808  24099138.320    98681969.55844
  20973967.800   110218974.51209  20973965.260    85884930.36548
  22592287.560   118723364.08409  22592284.780    92511733.77346
  21464156.480   112794948.82809  21464152.740    87892176.22648
  24749889.220   130061549.96107  24749886.940   101346654.13845
  20898493.160   109822374.60809  20898488.640    85575907.88349
  20506253.140   107761185.64809  20506252.800    83969789.28349
  24213193.180   127241202.32908  24213195.580    99148999.55045
 15 03 01 02 08 30.0000000  0 10G04G07G11G16G18G19G21G22G27G32
  22468606.760   118073406.87209  22468606.200    92005296.05446
  24459858.400   128537406.50308  24459857.560   100159016.11645
  24082458.920   126554202.33308  24082458.400    98613669.30544
  20984691.480   110275327.95409  20984688.920    85928842.12648
  22603052.960   118779936.53809  22603050.200    92555816.19246
  21454308.320   112743196.17709  21454304.460    87851849.50848
  24764067.260   130136055.41507  24764064.940   101404710.36344
  20897461.060   109816950.78809  20897456.440    85571681.54249
  20503260.560   107745459.45209  20503260.200    83957535.10349
  24190707.540   127123040.64208  24190709.760    99056925.86645
 15 03 01 02 09  0.0000000  0 10G04G07G11G16G18G19G21G22G27G32
  22454150.740   117997439.94009  22454150.040    91946101.10147
  24462443.260   128550989.52207  24462441.840   100169600.25345
  24065798.820   126466653.76308  24065798.300    98545449.73444
  20995509.320   110332176.20609  20995506.760    85973139.45148
  22613892.560   118836898.88109  22613889.760    92600202.43446
  21444495.020   112691626.77209  21444491.140    87811665.57048
  24778240.680   130210536.21307  24778238.160   101462747.37345
  20896531.620   109812066.65309  20896526.940    85567875.73349
  20500320.920   107730011.19809  20500320.560    83945497.50849
  24168230.700   127004925.21408  24168232.740    98964888.28245
 15 03 01 02 09 30.0000000  0 10G04G07G11G16G18G19G21G22G27G32
  22439742.660   117921724.81409  22439741.960    91887102.37546
  24465118.940   128565051.03507  24465117.480   100180557.20745
  24049158.140   126379207.52908  24049157.780    98477309.92444
  21006420.860   110389516.72709  21006418.280    86017820.35848
  22624805.740   118894248.10809  22624803.080    92644890.13546
  21434716.500   112640240.13709  21434712.560    87771624.05548
  24792409.060   130284991.31106  24792406.400   101520764.30945
  20895704.660   109807720.79909  20895699.880    85564489.36549
  20497434.100   107714840.65709  20497433.720    83933676.30749
  24145762.760   126886857.19008  24145764.820    98872887.59545
 15 03 01 02 10  0.0000000  0  9G04G11G16G18G19G21G22G27G32
  22425382.220   117846260.21809  22425381.480    91828298.86846
  24032536.880   126291862.52308  24032536.380    98409248.96444
  21017425.420   110447346.06709  21017422.860    86062882.17148
  22635791.940   118951980.78109  22635789.300    92689876.64246
  21424972.720   112589035.88309  21424968.660    87731724.64648
  24806571.820   130359417.95206  24806569.560   101578759.02145
  20894979.940   109803912.09409  20894975.120    85561521.55849
  20494600.020   107699947.30009  20494599.620    83922071.10349
  24123304.040   126768837.84008  24123306.080    98780924.79344
 15 03 01 02 10 30.0000000  0  9G04G11G16G18G19G21G22G27G32
  22411069.680   117771047.50009  22411069.040    91769691.62046
  24015934.900   126204619.60408  24015934.640    98341267.56345
  21028522.760   110505663.18209  21028520.260    86108324.06148
  22646850.820   119010095.55908  22646848.140    92735160.87846
  21415263.940   112538015.68409  21415259.800    87691968.66248
  24820729.320   130433816.54507  24820727.260   101636731.88545
  20894357.500   109800640.93709  20894352.660    85558972.61249
  20491819.020   107685332.96509  20491818.620    83910683.30549
  24100855.340   126650870.56808  24100857.180    98689002.53445
 15 03 01 02 11  0.0000000  0  9G04G11G16G18G19G21G22G27G32
  22396804.600   117696084.01909  22396803.940    91711278.58646
  23999352.160   126117476.86708  23999351.900    98273364.22244
  21039712.200   110564464.24909  21039709.760    86154143.07448
  22657981.540   119068588.04209  22657978.740    92780739.44546
  21405589.800   112487177.78009  21405585.680    87652354.72948
  24834881.000   130508183.76008  24834878.780   101694680.40244
  20893836.840   109797904.56409  20893831.940    85556840.38649
  20489090.860   107670996.10909  20489090.380    83899511.73549
  24078416.600   126532955.60208  24078418.320    98597121.00844
 15 03 01 02 11 30.0000000  0  9G04G11G16G18G19G21G22G27G32
  22382587.880   117621374.69609  22382587.240    91653063.59746
  23982789.340   126030438.70508  23982789.000    98205542.39444
  21050994.220   110623751.91409  21050991.820    86200341.25448
  22669184.540   119127460.26008  22669181.720    92826613.89246
  21395951.420   112436527.58309  21395947.280    87612887.05148
  24849027.460   130582523.21307  24849024.900   101752607.31744
  20893418.740   109795707.15009  20893413.740    85555128.12949
  20486416.520   107656942.06309  20486415.940    83888560.52249
  24055989.100   126415099.79908  24055990.820    98505285.59545
 15 03 01 02 12  0.0000000  0  9G04G11G16G18G19G21G22G27G32
  22368419.300   117546918.27109  22368418.600    91595045.66546
  23966246.240   125943503.83308  23966245.560    98137801.01744
  21062368.100   110683522.10409  21062365.700    86246915.40648
  22680459.260   119186709.44708  22680456.400    92872782.09046
  21386348.560   112386063.97409  21386344.420    87573564.77748
  24863168.040   130656832.94106  24863165.560   101810510.95244
  20893102.800   109794046.77109  20893097.740    85553834.33649
  20483795.820   107643170.14509  20483795.220    83877829.16149
  24033573.040   126297304.18808  24033574.920    98413497.06545
 15 03 01 02 12 30.0000000  0  9G04G11G16G18G19G21G22G27G32
  22354298.780   117472714.20709  22354298.060    91537224.38846
  23949722.720   125856671.90808  23949721.980    98070139.86144
  21073833.400   110743772.68909  21073831.040    86293863.90748
  22691805.240   119246332.81708  22691802.460    92919241.86346
  21376781.260   112335787.44709  21376777.100    87534388.27248
  24877302.720   130731111.60107  24877300.640   101868390.34145
  20892888.920   109792922.92109  20892883.860    85552958.62149
  20481228.840   107629680.87109  20481228.340    83867318.04049
  24011168.900   126179570.89608  24011170.780    98321757.04245
 15 03 01 02 13  0.0000000  0  9G04G11G16G18G19G21G22G27G32
  22340226.720   117398764.72209  22340225.860    91479601.46446
  23933219.140   125769945.13608  23933218.440    98002560.64445
  21085390.260   110804504.33209  21085387.940    86341187.26248
  22703222.280   119306329.64609  22703219.500    92965992.63246
  21367250.060   112285700.93909  21367246.020    87495359.84348
  24891431.880   130805360.43308  24891429.820   101926246.55045
  20892777.380   109792336.95909  20892772.380    85552502.03749
  20478716.180   107616476.95309  20478715.780    83857029.26349
  23988777.560   126061904.42508  23988779.300    98230069.07945
 15 03 01 02 13 30.0000000  0  9G04G11G16G18G19G21G22G27G32
  22326202.420   117325066.28409  22326201.540    91422174.18146
  23916734.780   125683319.55408  23916734.060    97935060.27544
  21097037.520   110865710.95209  21097035.220    86388880.72448
  22714709.400   119366694.62808  22714706.560    93013030.28446
  21357754.460   112235801.25909  21357750.500    87456476.98848
  24905554.700   130879575.20707  24905552.220   101984076.24044
  20892767.360   109792284.80309  20892762.480    85552461.40649
  20476257.280   107603555.59809  20476256.960    83846960.67549
  23966398.740   125944303.54208  23966400.400    98138432.22845
 15 03 01 02 14  0.0000000  0  9G04G11G16G18G19G21G22G27G32
  22312227.520   117251627.26809  22312226.580    91364949.02747
  23900271.340   125596804.05808  23900270.560    97867645.67844
  21108776.260   110927398.31909  21108773.960    86436948.79348
  22726267.700   119427434.15109  22726264.960    93060359.77546
  21348296.180   112186097.68309  21348292.300    87417746.93948
  24919672.240   130953763.44906  24919669.660   102041885.30143
  20892860.480   109792774.49809  20892855.640    85552842.99549
  20473853.920   107590926.11909  20473853.680    83837119.52549
  23944034.520   125826779.35108  23944036.140    98046855.14745
 15 03 01 02 14 30.0000000  0  9G04G11G16G18G19G21G22G27G32
  22298300.620   117178440.92009  22298299.720    91307920.77246
  23883827.420   125510391.72708  23883826.720    97800311.49444
  21120604.860   110989557.93409  21120602.540    86485384.83848
  22737895.500   119488538.60308  22737892.840    93107973.62146
  21338874.000   112136583.61909  21338870.140    87379164.55648
  24933783.160   131027917.80406  24933780.480   102099667.92544
  20893055.180   109793797.98709  20893050.400    85553640.52849
  20471504.880   107578582.08809  20471504.660    83827500.79549
  23921683.940   125709327.03208  23921685.500    97955334.04845
 15 03 01 02 15  0.0000000  0  9G04G11G16G18G19G21G22G27G32
  22284422.120   117105509.32609  22284421.240    91251091.01947
  23867403.560   125424085.10208  23867402.960    97733059.67344
  21132523.480   111052190.54709  21132521.200    86534189.47648
  22749592.760   119550008.31109  22749590.160    93155872.09746
  21329488.460   112087262.49709  21329484.680    87340732.52748
  24947887.920   131102038.68408  24947885.400   102157424.42644
  20893352.000   109795357.90309  20893347.240    85554856.05449
  20469210.840   107566526.94009  20469210.620    83818107.16749
  23899347.980   125591951.67908  23899349.460    97863872.99445
 15 03 01 02 15 30.0000000  0  9G04G11G16G18G19G21G22G27G32
  22270591.980   117032832.01709  22270591.240    91194459.39947
  23850999.720   125337883.03008  23850999.320    97665889.30544
  21144531.420   111115292.51909  21144529.140    86583359.84248
  22761358.940   119611839.93808  22761356.440    93204052.58646
  21320139.580   112038134.33509  21320135.840    87302450.85448
  24961986.260   131176125.22007  24961983.860   102215154.17645
  20893750.540   109797452.32909  20893745.780    85556488.08149
  20466971.680   107554760.35609  20466971.520    83808938.40249
  23877026.960   125474654.69508  23877028.380    97772472.97445
 15 03 01 02 16  0.0000000  0  9G04G11G16G18G19G21G22G27G32
  22256811.240   116960414.55709  22256810.580    91138030.27546
  23834616.960   125251791.42308  23834616.480    97598805.00244
  21156629.340   111178867.35209  21156627.000    86632898.66548
  22773194.680   119674037.11609  22773192.120    93252517.91546
  21310828.560   111989205.09609  21310824.840    87264324.18748
  24976078.920   131250182.03807  24976076.500   102272860.77144
  20894251.880   109800086.68009  20894247.100    85558540.83349
  20464788.720   107543288.97809  20464788.600    83799999.66449
  23854722.380   125357444.24008  23854723.760    97681140.33245
 15 03 01 02 16 30.0000000  0  9G04G11G16G18G19G21G22G27G32
  22243078.540   116888249.82109  22243077.940    91081798.06747
  23818254.100   125165803.52508  23818253.460    97531801.53545
  21168815.520   111242906.08409  21168813.120    86682798.96748
  22785098.220   119736590.60509  22785095.620    93301260.88746
  21301554.280   111940468.86209  21301550.540    87226347.90748
  24990164.340   131324201.39906  24990161.820   102330538.13844
  20894854.480   109803253.26209  20894849.700    85561008.30349
  20462660.780   107532106.55709  20462660.660    83791286.08749
  23832433.420   125240315.88408  23832434.820    97589871.66545
 15 03 01 02 17  0.0000000  0  9G04G11G16G18G19G21G22G27G32
  22229395.380   116816345.07409  22229394.860    91025768.45147
  23801912.180   125079925.87708  23801911.360    97464883.97345
  21181091.000   111307413.93309  21181088.560    86733064.81748
  22797070.520   119799505.24208  22797067.980    93350285.27846
  21292318.100   111891932.97309  21292314.440    87188527.75248
  25004243.780   131398189.72107  25004241.360   102388191.36144
  20895559.540   109806958.43809  20895554.740    85563895.46549
  20460589.260   107521220.73009  20460589.180    83782803.62549
  23810161.860   125123278.87108  23810163.260    97498674.15345
 15 03 01 02 17 30.0000000  0  9G04G11G16G18G19G21G22G27G32
  22215760.500   116744693.86109  22215759.980    90969936.38846
  23785590.140   124994152.63608  23785589.280    97398047.75345
  21193454.020   111372381.96009  21193451.600    86783689.24248
  22809109.840   119862772.22509  22809107.280    93399584.21746
  21283119.060   111843592.12509  21283115.540    87150859.56748
  25018316.160   131472140.08508  25018313.440   102445815.04143
  20896365.680   109811194.96609  20896360.880    85567196.66049
  20458573.160   107510625.97709  20458573.080    83774547.96749
  23787907.020   125006329.50208  23787908.320    97407544.93045
 15 03 01 02 18  0.0000000  0  9G04G11G16G18G19G21G22G27G32
  22202174.860   116673301.21409  22202174.240    90914305.80146
  23769288.800   124908488.90808  23769288.120    97331296.88645
  21205905.120   111437812.87709  21205902.740    86834674.35548
  22821216.820   119926394.40309  22821214.200    93449159.94746
  21273958.240   111795451.94109  21273954.700    87113347.75148
  25032382.120   131546056.45307  25032379.420   102503412.21244
  20897273.740   109815967.13509  20897268.980    85570915.24149
  20456613.540   107500328.18809  20456613.440    83766523.71649
  23765670.340   124889475.48008  23765671.600    97316490.07145
 15 03 01 02 18 30.0000000  0  9G04G11G16G18G19G21G22G27G32
  22188638.580   116602167.93709  22188637.900    90858877.32147
  23753008.460   124822935.42208  23753008.100    97264631.90645
  21218444.020   111503705.43609  21218441.720    86886019.20048
  22833391.100   119990370.81108  22833388.520    93499011.68346
  21264836.020   111747514.50409  21264832.440    87075993.91648
  25046441.520   131619939.00907  25046439.080   102560983.01445
  20898283.760   109821275.10209  20898279.040    85575051.33449
  20454710.760   107490329.00409  20454710.620    83758732.14449
  23743452.400   124772720.06108  23743453.540    97225512.09345
 15 03 01 02 19  0.0000000  0  9G04G11G16G18G19G21G22G27G32
  22175151.580   116531293.64209  22175150.900    90803650.64647
  23736748.900   124737492.05308  23736748.660    97198052.74445
  21231070.280   111570057.26109  21231068.060    86937721.91748
  22845632.240   120054698.29408  22845629.620    93549136.99646
  21255752.360   111699779.62409  21255748.740    87038797.91748
  25060494.020   131693786.53006  25060492.040   102618526.49244
  20899395.640   109827118.46209  20899391.020    85579604.60649
  20452864.840   107480628.84709  20452864.760    83751173.58449
  23721253.560   124656065.32608  23721254.580    97134612.56945
 15 03 01 02 19 30.0000000  0  9G04G11G16G18G19G21G22G27G32
  22161713.720   116460677.56009  22161713.020    90748625.17347
  23720510.180   124652157.57708  23720509.980    97131558.41844
  21243783.300   111636864.97309  21243781.120    86989779.86748
  22857939.560   120119373.66808  22857936.940    93599533.37546
  21246707.240   111652247.12209  21246703.600    87001759.61748
  25074539.480   131767597.32107  25074537.340   102676041.33744
  20900609.000   109833494.87509  20900604.420    85584573.24949
  20451075.780   107471227.42809  20451075.780    83743847.80749
  23699074.100   124539512.49108  23699075.060    97043792.40245
 15 03 01 02 20  0.0000000  0  9G04G11G16G18G19G21G22G27G32
  22148325.000   116390319.76109  22148324.320    90693800.96346
  23704292.220   124566932.57008  23704292.020    97065149.39045
  21256582.760   111704126.81809  21256580.580    87042191.66748
  22870312.760   120184395.02608  22870310.020    93650199.37746
  21237700.900   111604918.27509  21237697.140    86964880.01148
  25088578.140   131841371.16107  25088575.980   102733527.46343
  20901923.800   109840404.15309  20901919.180    85589957.10749
  20449343.800   107462125.94909  20449343.860    83736755.74349
  23676914.640   124423064.65008  23676915.500    96953054.00446
 15 03 01 02 20 30.0000000  0  8G04G11G16G18G19G22G27G32
  22134985.140   116320218.58109  22134984.460    90639176.72447
  23688094.940   124481815.53108  23688094.400    96998824.48744
  21269467.880   111771838.51309  21269465.680    87094954.01648
  22882750.920   120249758.06908  22882748.280    93701131.60846
  21228733.160   111557791.94509  21228729.200    86928158.20648
  20903339.500   109847843.69109  20903334.840    85595754.16149
  20447668.660   107453323.28609  20447668.780    83729896.52849
  23654775.340   124306722.26308  23654776.240    96862397.75546
 15 03 01 02 21  0.0000000  0  8G04G11G16G18G19G22G27G32
  22121694.620   116250376.93908  22121693.980    90584754.71147
  23671918.900   124396809.32108  23671918.080    96932585.95145
  21282438.680   111840000.52709  21282436.520    87148067.26048
  22895254.260   120315463.72708  22895251.660    93752330.82646
  21219804.640   111510871.95409  21219800.640    86891597.19448
  20904856.560   109855815.75609  20904851.860    85601966.17049
  20446051.100   107444823.21909  20446051.280    83723273.10549
  23632657.180   124190491.09708  23632658.020    96771828.19145
 15 03 01 02 21 30.0000000  0  9G01G04G11G16G18G19G22G27G32
  24589502.200   129218712.81307  24589508.560   100689907.17545
  22108454.000   116180797.33809  22108453.440    90530536.87847
  23655764.500   124311916.51408  23655763.440    96866435.76645
  21295495.380   111908613.83009  21295493.200    87201532.15948
  22907822.820   120381512.30008  22907820.340    93803797.23246
  21210916.040   111464161.79809  21210912.020    86855199.68048
  20906475.260   109864321.83209  20906470.540    85608594.28849
  20444491.820   107436629.19709  20444492.060    83716888.14949
  23610561.160   124074376.12508  23610561.860    96681349.17845
 15 03 01 02 22  0.0000000  0  9G01G04G11G16G18G19G22G27G32
  24573426.700   129134233.90608  24573432.500   100624079.81446
  22095263.240   116111479.61808  22095262.800    90476523.11847
  23639631.760   124227137.21808  23639630.700    96800374.03045
  21308637.320   111977675.32809  21308635.160    87255346.29248
  22920456.140   120447901.32208  22920453.740    93855528.93246
  21202067.500   111417661.95809  21202063.420    86818966.05148
  20908195.440   109873361.14809  20908190.740    85615637.91649
  20442990.880   107428741.79109  20442991.120    83710742.12049
  23588487.640   123958379.60408  23588488.200    96590962.42646
 15 03 01 02 22 30.0000000  0  9G01G04G11G16G18G19G22G27G32
  24557378.100   129049897.88607  24557383.740   100558363.74845
  22082121.640   116042420.17208  22082121.220    90422710.62247
  23623519.840   124142467.88508  23623518.580    96734397.99645
  21321863.560   112047179.66709  21321861.460    87309505.52848
  22933153.140   120514624.76808  22933150.680    93907521.23146
  21193258.420   111371369.62709  21193254.360    86782894.11948
  20910016.260   109882929.28809  20910011.520    85623093.61849
  20441547.720   107421158.15509  20441548.060    83704832.79749
  23566436.480   123842500.58808  23566437.060    96500667.22446
 15 03 01 02 23  0.0000000  0  9G01G04G11G16G18G19G22G27G32
  24541357.160   128965708.25608  24541362.600   100492761.77845
  22069029.780   115973622.24908  22069029.280    90369101.90047
  23607429.300   124057911.93108  23607428.140    96668510.30745
  21335174.200   112117127.60209  21335172.180    87364010.41948
  22945914.060   120581683.90008  22945911.740    93959775.08846
  21184489.640   111325289.22809  21184485.560    86746987.33348
  20911938.140   109893028.83309  20911933.400    85630963.41249
  20440163.240   107413882.54009  20440163.580    83699163.49149
  23544408.800   123726744.85108  23544409.480    96410468.05946
 15 03 01 02 23 30.0000000  0  9G01G04G11G16G18G19G22G27G32
  24525364.000   128881665.30407  24525369.460   100427274.07746
  22055987.740   115905086.06309  22055987.160    90315697.11947
  23591360.260   123973469.70908  23591359.460    96602711.23945
  21348568.900   112187517.08909  21348566.860    87418859.37848
  22958738.420   120649076.26908  22958735.980    94012288.62245
  21175761.340   111279421.67809  21175757.240    86711246.38748
  20913960.900   109903658.84209  20913956.260    85639246.53649
  20438837.580   107406915.90809  20438837.840    83693734.93649
  23522405.140   123611115.30508  23522405.740    96320367.20845
 15 03 01 02 24  0.0000000  0  9G01G04G11G16G18G19G22G27G32
  24509398.720   128797768.21608  24509404.060   100361900.03245
  22042995.400   115836810.78508  22042994.720    90262495.63647
  23575312.660   123889140.23208  23575312.040    96537000.02745
  21362046.960   112258344.54909  21362044.860    87474049.60048
  22971625.640   120716799.38008  22971623.280    94065059.86346
  21167073.440   111233766.76809  21167069.380    86675671.14348
  20916084.320   109914817.86009  20916079.820    85647941.88049
  20437570.700   107400258.10309  20437570.920    83688547.04149
  23500425.800   123495613.45808  23500426.320    96230365.86046
 15 03 01 02 24 30.0000000  0  9G01G04G11G16G18G19G22G27G32
  24493460.860   128714015.66007  24493466.240   100296638.58746
  22030052.380   115768795.07908  22030051.680    90209496.43047
  23559286.400   123804922.35508  23559285.780    96471375.78045
  21375607.640   112329606.25109  21375605.500    87529578.17948
  22984574.980   120784848.88108  22984572.740    94118085.44446
  21158425.900   111188324.12709  21158421.900    86640261.29748
  20918307.980   109926503.39309  20918303.560    85657047.49749
  20436362.460   107393908.69409  20436362.660    83683599.44749
  23478471.000   123380240.67108  23478471.520    96140465.10745
 15 03 01 02 25  0.0000000  0  9G01G04G11G16G18G19G22G27G32
  24477551.320   128630411.43708  24477556.780   100231492.72446
  22017159.400   115701042.37208  22017158.700    90156702.15347
  23543282.180   123720819.95008  23543281.520    96405841.48545
  21389251.380   112401304.38109  21389249.200    87585446.85248
  22997586.720   120853226.14708  22997584.420    94171366.42946
  21149819.580   111143098.08609  21149815.700    86605020.23448
  20920632.320   109938718.12609  20920627.940    85666565.48149
  20435213.720   107387872.09309  20435213.920    83678895.60649
  23456541.900   123265002.99508  23456542.400    96050669.63446
 15 03 01 02 25 30.0000000  0  9G01G04G11G16G18G19G22G27G32
  24461669.440   128546952.69608  24461674.960   100166460.20646
  22004315.900   115633549.88108  22004315.220    90104110.64347
  23527299.540   123636830.16608  23527298.640    96340394.98245
  21402977.040   112473433.00909  21402974.820    87641650.95748
  23010659.960   120921926.12908  23010657.520    94224898.87246
  21141254.180   111098086.87909  21141250.360    86569946.57448
  20923056.720   109951458.67109  20923052.340    85676493.18049
  20434124.120   107382146.20109  20434124.320    83674433.87049
  23434638.400   123149900.19008  23434639.040    95960979.25046
 15 03 01 02 26  0.0000000  0  9G01G04G11G16G18G19G22G27G32
  24445816.140   128463643.88808  24445821.460   100101544.50845
  21991522.780   115566322.02008  21991522.100    90051725.32147
  23511339.240   123552957.65608  23511338.060    96275039.82745
  21416785.000   112545993.95009  21416782.720    87698191.94448
  23023795.000   120990950.92308  23023792.740    94278684.40546
  21132730.620   111053295.59409  21132726.880    86535044.29348
  20925581.780   109964728.10309  20925577.380    85686833.01249
  20433094.620   107376736.19909  20433094.860    83670218.28049
  23412761.920   123034939.18208  23412762.560    95871399.35046
 15 03 01 02 26 30.0000000  0  9G01G04G11G16G18G19G22G27G32
  24429990.700   128380481.88508  24429995.960   100036743.20146
  21978779.300   115499355.16908  21978778.680    89999543.40547
  23495400.520   123469199.25408  23495399.160    96209773.61945
  21430674.220   112618981.93609  21430671.900    87755065.68548
  23036990.820   121060295.10508  23036988.480    94332718.83246
  21124248.560   111008722.16509  21124244.780    86500311.75748
  20928206.720   109978522.28709  20928202.280    85697581.72949
  20432124.780   107371639.71409  20432125.040    83666246.99549
  23390912.340   122920119.35308  23390912.860    95781929.46446
 15 03 01 02 27  0.0000000  0  9G01G04G11G16G18G19G22G27G32
  24414193.980   128297470.99608  24414199.180    99972059.61146
  21966086.380   115432653.99208  21966085.940    89947568.48647
  23479484.380   123385559.42908  23479482.840    96144599.79345
  21444645.040   112692398.72609  21444642.720    87812273.54448
  23050247.780   121129960.83108  23050245.300    94387003.81846
  21115808.960   110964371.67109  21115805.100    86465752.93048
  20930932.120   109992844.44009  20930927.720    85708741.85649
  20431215.600   107366861.72209  20431215.800    83662523.87849
  23369090.940   122805447.45308  23369091.380    95692574.84946
 15 03 01 02 27 30.0000000  0  9G01G04G11G16G18G19G22G27G32
  24398424.960   128214605.60308  24398430.140    99907489.41645
  21953442.900   115366212.36908  21953442.560    89895795.82747
  23463589.700   123302032.33208  23463588.280    96079513.81745
  21458695.900   112766236.09409  21458693.580    87869809.15048
  23063564.300   121199939.62108  23063561.800    94441532.73446
  21107410.840   110920239.08409  21107406.900    86431363.91448
  20933756.720   110007687.94209  20933752.340    85720308.22949
  20430366.120   107362397.36209  20430366.220    83659045.16049
  23347297.060   122690920.30108  23347297.500    95603333.04746
 15 03 01 02 28  0.0000000  0  9G01G04G11G16G18G19G22G27G32
  24382684.800   128131891.38408  24382689.820    99843037.00545
  21940849.920   115300036.07208  21940849.640    89844229.92147
  23447717.620   123218623.84708  23447715.980    96014520.25845
  21472827.340   112840497.16309  21472825.020    87927674.88948
  23076941.040   121270234.77808  23076938.520    94496308.16445
  21099055.420   110876330.89809  21099051.420    86397149.75148
  20936681.400   110023057.25209  20936676.980    85732284.31349
  20429577.540   107358253.08109  20429577.580    83655815.84649
  23325532.260   122576546.17508  23325532.760    95514210.42746
 15 03 01 02 28 30.0000000  0  9G01G04G11G16G18G19G22G27G32
  24366973.000   128049326.16308  24366978.120    99778700.68945
  21928307.020   115234122.74608  21928306.800    89792868.92647
  23431867.720   123135332.01308  23431865.860    95949617.59545
  21487038.660   112915177.94809  21487036.320    87985867.69648
  23090377.180   121340842.03908  23090374.640    94551326.81745
  21090742.480   110832645.98009  21090738.400    86363109.56848
  20939705.580   110038949.01809  20939701.080    85744667.52249
  20428849.580   107354427.43409  20428849.580    83652834.82449
  23303796.680   122462325.39308  23303797.180    95425207.31145
 15 03 01 02 29  0.0000000  0  9G01G04G11G16G18G19G22G27G32
  24351289.620   127966910.19208  24351294.660    99714480.67046
  21915814.240   115168472.59408  21915813.980    89741712.99347
  23416039.980   123052157.01908  23416038.120    95884805.97645
  21501329.300   112990275.58509  21501326.880    88044385.29248
  23103872.280   121411759.10508  23103869.720    94606586.86246
  21082472.240   110789185.44909  21082468.060    86329244.22948
  20942829.120   110055362.91109  20942824.580    85757457.57249
  20428182.420   107350921.43409  20428182.380    83650102.87349
  23282090.800   122348260.82308  23282091.360    95336325.93446
 15 03 01 02 29 30.0000000  0  9G01G04G11G16G18G19G22G27G32
  24335634.920   127884644.70807  24335639.580    99650377.89946
  21903371.840   115103086.82009  21903371.460    89690763.07847
  23400234.660   122969100.28308  23400233.020    95820086.52745
  21515698.960   113065788.58709  21515696.560    88103226.58248
  23117426.120   121482985.03108  23117423.540    94662087.58246
  21074244.980   110745951.10309  21074240.800    86295555.14748
  20946051.960   110072298.71109  20946047.380    85770654.30149
  20427576.440   107347737.04309  20427576.420    83647621.53349
  23260415.400   122234356.20008  23260415.960    95247569.17346
 15 03 01 02 30  0.0000000  0  9G01G04G11G16G18G19G22G27G32
  24320008.920   127802530.40408  24320013.460    99586392.92746
  21890979.900   115037965.76409  21890979.280    89640019.43347
  23384452.000   122886162.45408  23384450.280    95755459.70445
  21530147.360   113141715.36509  21530144.980    88162390.27348
  23131038.460   121554517.94008  23131035.760    94717827.49645
  21066061.100   110702944.65209  21066056.900    86262043.63548
  20949374.000   110089755.73109  20949369.360    85784257.18749
  20427031.920   107344875.65309  20427031.940    83645391.87649
  23238771.000   122120614.61008  23238771.540    95158939.45946
 15 03 01 02 30 30.0000000  0  9G01G04G11G16G18G19G22G27G32
  24304411.400   127720565.69508  24304415.820    99522524.50346
  21878638.020   114973107.93809  21878637.200    89589480.90547
  23368691.760   122803342.31708  23368689.980    95690924.59945
  21544673.760   113218052.13309  21544671.400    88221873.45248
  23144708.460   121626353.89908  23144705.800    94773803.56446
  21057920.560   110660165.63909  21057916.320    86228709.34548
  20952794.760   110107731.48409  20952790.000    85798264.26949
  20426548.700   107342336.52409  20426548.740    83643413.33349
  23217157.840   122007037.20208  23217158.300    95070437.67746
 15 03 01 02 31  0.0000000  0  9G01G04G11G16G18G19G22G27G32
  24288842.860   127638752.94108  24288847.200    99458774.48946
  21866346.600   114908515.48009  21866345.620    89539149.15147
  23352954.520   122720642.29808  23352952.660    95626483.05945
  21559278.120   113294798.49509  21559275.780    88281675.78348
  23158436.120   121698492.82908  23158433.240    94830015.71846
  21049823.880   110617617.05709  21049819.600    86195554.61048
  20956314.380   110126226.73609  20956309.500    85812676.16249
  20426127.420   107340122.73609  20426127.460    83641688.29249
  23195576.820   121893628.59508  23195577.260    94982067.39546
 15 03 01 02 31 30.0000000  0  9G01G04G11G16G18G19G22G27G32
  24273303.080   127557091.83108  24273307.420    99395142.63445
  21854105.480   114844187.99209  21854104.460    89489023.86247
  23337240.080   122638062.04308  23337238.200    95562134.88345
  21573959.820   113371951.24909  21573957.460    88341794.81148
  23172220.800   121770932.12208  23172217.900    94886461.91445
  21041771.140   110575299.68809  21041766.940    86162580.04548
  20959932.600   110145240.66609  20959927.700    85827492.21549
  20425768.140   107338234.71209  20425768.160    83640217.10149
  23174028.400   121780391.32708  23174028.860    94893830.64346
 15 03 01 02 32  0.0000000  0  9G01G04G11G16G18G19G22G27G32
  24257792.060   127475581.64608  24257796.440    99331628.38845
  21841914.480   114780124.59508  21841913.520    89439104.36147
  23321548.380   122555601.11408  23321546.440    95497879.67145
  21588718.340   113449507.86109  21588716.000    88402228.51848
  23186062.080   121843668.53408  23186059.280    94943139.61946
  21033762.400   110533213.59109  21033758.320    86129785.68648
  20963649.100   110164771.12009  20963644.200    85842710.75349
  20425470.880   107336672.53709  20425470.880    83638999.81149
  23152512.980   121667327.12708  23152513.460    94805728.73046
 15 03 01 02 32 30.0000000  0  9G01G04G11G16G18G19G22G27G32
  24242309.740   127394221.93308  24242313.860    99268231.37845
  21829773.600   114716324.87308  21829772.740    89389390.32447
  23305879.300   122473259.19908  23305877.360    95433717.20545
  21603553.000   113527464.78509  21603550.720    88462974.16748
  23199959.460   121916699.62208  23199956.660    95000046.95446
  21025797.780   110491359.34409  21025793.840    86097171.99248
  20967463.580   110184816.33009  20967458.680    85858330.39949
  20425235.660   107335436.44009  20425235.660    83638036.61649
  23131030.940   121554438.03708  23131031.320    94717763.26745
 15 03 01 02 33  0.0000000  0  9G01G04G11G16G18G19G22G27G32
  24226857.000   127313017.74108  24226861.020    99204955.54946
  21817683.680   114652793.50708  21817683.080    89339885.39647
  23290233.620   122391040.98708  23290231.540    95369651.13345
  21618464.320   113605824.60809  21618462.080    88524033.75748
  23213913.320   121990027.58508  23213910.500    95057185.62145
  21017878.320   110449742.95509  21017874.520    86064743.66048
  20971376.760   110205380.17409  20971371.880    85874354.19249
  20425063.600   107334532.28409  20425063.580    83637332.08249
  23109583.660   121441731.80108  23109583.940    94629940.29446
 15 03 01 02 33 30.0000000  0  9G01G04G11G16G18G19G22G27G32
  24211432.900   127231964.42408  24211436.920    99141797.27845
  21805644.000   114589525.85409  21805643.620    89290585.95647
  23274610.680   122308942.37208  23274608.380    95305678.23245
  21633450.860   113684579.64709  21633448.660    88585401.27848
  23227922.440   122063645.84508  23227919.500    95114550.49645
  21010003.480   110408360.88309  21009999.740    86032497.88548
  20975387.500   110226456.80309  20975382.640    85890777.53749
  20424953.940   107333956.15909  20424953.960    83636883.14149
  23088170.760   121329206.33408  23088170.940    94542258.17546
 15 03 01 02 34  0.0000000  0  9G01G04G11G16G18G19G22G27G32
  24196037.860   127151063.95908  24196042.080    99078758.11546
  21793654.940   114526523.73608  21793654.640    89241493.44147
  23259010.980   122226965.50008  23259008.700    95241800.20745
  21648512.620   113763729.66709  21648510.460    88647076.58448
  23241986.720   122137553.93308  23241983.860    95172141.22246
  21002173.640   110367215.35309  21002169.960    86000436.45048
  20979495.920   110248046.78209  20979491.080    85907600.91049
  20424907.280   107333710.86509  20424907.320    83636692.00849
  23066793.100   121216866.23308  23066793.160    94454720.55846
 15 03 01 02 34 30.0000000  0  9G01G04G11G16G18G19G22G27G32
  24180672.320   127070318.31608  24180676.560    99015839.59545
  21781716.880   114463789.19609  21781716.620    89192609.40847
  23243434.860   122145112.71508  23243432.580    95178018.87645
  21663649.500   113843274.42909  21663647.340    88709059.48548
  23256106.000   122211751.30308  23256103.160    95229957.34245
  20994389.520   110326309.88109  20994385.880    85968562.07048
  20983702.120   110270150.99609  20983697.380    85924824.97949
  20424924.100   107333799.08309  20424924.140    83636760.74649
  23045451.560   121104715.83308  23045451.600    94367330.68146
 15 03 01 02 35  0.0000000  0  9G01G04G11G16G18G19G22G27G32
  24165336.060   126989726.31208  24165340.220    98953040.77045
  21769829.540   114401320.81809  21769829.260    89143932.77747
  23227882.040   122063382.68908  23227879.820    95114333.19645
  21678860.720   113923209.91909  21678858.580    88771346.83548
  23270279.620   122286234.31508  23270276.760    95287996.05345
  20986651.080   110285644.04109  20986647.380    85936874.39748
  20988005.700   110292766.99509  20988001.060    85942447.83148
  20425004.360   107334220.39009  20425004.280    83637089.02549
  23024146.420   120992756.70008  23024146.440    94280089.87546
 15 03 01 02 35 30.0000000  0  9G01G04G11G16G18G19G22G27G32
  24150028.960   126909288.01208  24150033.180    98890361.71546
  21757992.860   114339118.47709  21757992.560    89095463.45147
  23212352.560   121981775.74008  23212350.480    95050743.43145
  21694145.820   114003533.60109  21694143.740    88833936.69048
  23284507.260   122361001.05508  23284504.620    95346255.82845
  20978958.580   110245218.85009  20978954.740    85905374.26548
  20992406.380   110315893.28109  20992401.860    85960468.33249
  20425148.120   107334975.62809  20425147.960    83637677.52249
  23002878.160   120880991.48709  23002878.120    94193000.17046
 15 03 01 02 36  0.0000000  0  9G01G04G11G16G18G19G22G27G32
  24134751.260   126829003.91108  24134755.320    98827802.80245
  21746206.920   114277182.55509  21746206.560    89047201.73147
  23196846.740   121900292.43908  23196844.620    94987249.98945
  21709504.400   114084243.38209  21709502.360    88896827.40848
  23298788.520   122436049.43308  23298785.760    95404735.09646
  20971312.200   110205035.98009  20971308.120    85874062.94548
  20996904.040   110339529.16709  20996899.600    85978885.90349
  20425355.640   107336066.01909  20425355.420    83638527.17749
  22981647.360   120769423.14808  22981647.380    94106063.87146
 15 03 01 02 36 30.0000000  0  9G01G04G11G16G18G19G22G27G32
  24119503.040   126748874.56708  24119507.280    98765364.51446
  21734471.920   114215513.82909  21734471.400    88999148.21047
  23181364.800   121818933.92008  23181362.580    94923853.80445
  21724936.040   114165337.02109  21724934.000    88960017.22648
  23313122.860   122511377.66808  23313120.280    95463432.39345
  20963712.160   110165097.07709  20963707.980    85842941.73548
  21001498.500   110363673.81909  21001494.120    85997699.92848
  20425627.180   107337492.99009  20425626.960    83639639.10549
  22960454.600   120658055.10408  22960454.680    94019283.63746
 15 03 01 02 37  0.0000000  0  9G01G04G11G16G18G19G22G27G32
  24104284.200   126668899.61708  24104288.480    98703046.52346
  21722787.660   114154111.49809  21722786.980    88951302.26147
  23165906.560   121737699.71309  23165904.320    94860554.48445
  21740440.140   114246811.19309  21740438.060    89023503.56948
  23327510.020   122586982.86408  23327507.440    95522345.53146
  20956158.600   110125402.40009  20956154.240    85812010.82748
  21006189.560   110388325.88109  21006185.220    86016909.33048
  20425962.820   107339256.81109  20425962.600    83641013.50749
  22939300.300   120546889.17708  22939300.440    93932660.87846
 15 03 01 02 37 30.0000000  0  9G01G04G11G16G18G19G22G27G32
  24089094.500   126589077.78808  24089098.660    98640847.83245
  21711153.740   114092974.06909  21711152.960    88903662.73248
  23150471.720   121656588.72708  23150469.520    94797351.17145
  21756016.060   114328662.94309  21756014.000    89087284.12948
  23341949.260   122662861.58508  23341946.640    95581471.82245
  20948651.500   110085951.85209  20948646.980    85781270.15348
  21010976.620   110413482.48709  21010972.340    86036511.88248
  20426362.500   107341357.09609  20426362.260    83642650.09149
  22918184.840   120435927.13309  22918184.960    93846196.94546
 15 03 01 02 38  0.0000000  0  9G01G04G11G16G18G19G22G27G32
  24073934.680   126509412.71408  24073938.600    98578771.27045
  21699570.800   114032105.37409  21699570.100    88856232.60747
  23135060.880   121575604.29508  23135058.640    94734246.45745
  21771663.980   114410893.12009  21771661.880    89151359.58248
  23356440.800   122739015.01008  23356438.000    95640812.13145
  20941191.720   110046750.20209  20941187.140    85750723.41748
  21015860.180   110439145.86809  21015855.940    86056509.32248
  20426826.980   107343798.19209  20426826.760    83644552.23249
  22897109.420   120325174.97709  22897109.460    93759896.58046
 15 03 01 02 38 30.0000000  0  9G01G04G11G16G18G19G22G27G32
  24058803.840   126429899.83208  24058807.540    98516813.30946
  21688038.000   113971500.52609  21688037.420    88809008.08147
  23119673.300   121494742.84408  23119671.180    94671237.59845
  21787382.400   114493493.85409  21787380.300    89215723.80248
  23370983.360   122815436.36408  23370980.620    95700361.24145
  20933778.660   110007793.96709  20933774.040    85720367.92448
  21020839.060   110465310.45109  21020834.920    86076897.31248
  20427355.580   107346576.32109  20427355.380    83646717.01349
  22876073.600   120214630.91809  22876073.600    93673758.40346
 15 03 01 02 39  0.0000000  0  9G01G04G11G16G18G19G22G27G32
  24043703.340   126350545.99308  24043706.920    98454979.25945
  21676556.760   113911166.42909  21676556.220    88761994.52548
  23104310.300   121414011.41308  23104308.420    94608330.05745
  21803172.180   114576469.46909  21803170.080    89280380.11348
  23385577.680   122892130.22008  23385574.860    95760122.68345
  20926413.720   109969090.99609  20926409.140    85690209.77548
  21025914.260   110491981.20409  21025910.160    86097679.71548
  20427949.780   107349699.05009  20427949.600    83649150.30449
  22855079.140   120104304.36209  22855079.080    93587789.76146
 15 03 01 02 39 30.0000000  0  9G01G04G11G16G18G19G22G27G32
  24028632.360   126271347.95708  24028636.020    98393266.62146
  21665126.380   113851099.61309  21665125.800    88715189.24148
  23088971.460   121333406.54708  23088969.700    94545521.12045
  21819032.180   114659814.46309  21819030.140    89345324.26848
  23400222.740   122969091.08908  23400220.280    95820092.14945
  20919096.460   109930638.47209  20919091.900    85660246.77148
  21031084.980   110519153.73309  21031080.900    86118853.11148
  20428609.100   107353163.96809  20428609.000    83651850.23249
  22834125.900   119994194.49808  22834125.800    93501989.88346
 15 03 01 02 40  0.0000000  0  9G01G04G11G16G18G19G22G27G32
  24013590.780   126192304.91408  24013594.660    98331674.75246
  21653746.740   113791299.27209  21653746.000    88668591.59747
  23073656.840   121252927.91808  23073655.120    94482810.54845
  21834961.860   114743525.62509  21834959.880    89410553.74948
  23414918.000   123046315.51208  23414915.600    95880267.03046
  20911826.920   109892437.13709  20911822.420    85630479.50948
  21036350.760   110546825.79109  21036346.660    86140415.75348
  20429333.520   107356970.99709  20429333.500    83654816.74649
  22813214.280   119884303.33808  22813214.300    93416360.43646
 15 03 01 02 40 30.0000000  0  9G01G04G11G16G18G19G22G27G32
  23998578.800   126113416.58208  23998582.540    98270203.43446
  21642417.660   113731764.75509  21642416.840    88622201.09947
  23058366.360   121172575.38808  23058364.420    94420198.24145
  21850960.540   114827599.42409  21850958.620    89476065.81348
  23429663.040   123123800.78908  23429660.300    95940645.19045
  20904605.340   109854487.86109  20904600.860    85600908.64948
  21041711.300   110574995.59509  21041707.180    86162366.25448
  20430123.140   107361120.62009  20430123.200    83658050.21649
  22792344.740   119774633.23009  22792344.740    93330903.24746
 15 03 01 02 41  0.0000000  0 10G01G04G11G14G16G18G19G22G27G32
  23983596.760   126034685.54608  23983600.340    98208854.68646
  21631139.660   113672498.68809  21631138.740    88576019.77148
  23043100.420   121092351.77508  23043098.100    94357686.36945
  24704168.060   129821279.82608  24704165.500   101159426.85643
  21867028.240   114912036.06209  21867026.360    89541860.63348
  23444457.840   123201547.62508  23444455.060    96001227.11045
  20897432.420   109816794.22809  20897427.960    85571536.99248
  21047166.820   110603664.56009  21047162.720    86184705.70648
  20430978.600   107365616.22109  20430978.700    83661553.27449
  22771518.260   119665189.32909  22771518.240    93245622.31946
 15 03 01 02 41 30.0000000  0 10G01G04G11G14G16G18G19G22G27G32
  23968644.300   125956110.32208  23968647.800    98147627.35346
  21619912.520   113613499.58809  21619911.480    88530046.47847
  23027858.680   121012255.92708  23027856.300    94295274.07445
  24690705.960   129750535.89807  24690703.960   101104301.69543
  21883164.260   114996831.54309  21883162.320    89607935.08248
  23459301.620   123279551.98208  23459298.760    96062009.74645
  20890308.100   109779356.04109  20890303.740    85542364.38248
  21052716.740   110632829.52609  21052712.640    86207431.65448
  20431899.780   107370457.01809  20431899.880    83665325.32449
  22750735.040   119555972.80209  22750734.960    93160518.58846
 15 03 01 02 42  0.0000000  0 10G01G04G11G14G16G18G19G22G27G32
  23953721.960   125877693.72308  23953725.500    98086523.62945
  21608736.740   113554770.04709  21608735.560    88484283.22348
  23012641.740   120932291.11908  23012639.460    94232963.88145
  24677256.680   129679859.72508  24677254.940   101049229.40844
  21899368.440   115081985.29409  21899366.460    89674288.68948
  23474194.400   123357814.34208  23474191.740    96122993.36645
  20883233.020   109742176.78309  20883228.800    85513393.54048
  21058361.340   110662491.89409  21058357.160    86230545.19048
  20432887.340   107375646.69409  20432887.460    83669369.22749
  22729996.120   119446989.21509  22729996.040    93075596.38646
 15 03 01 02 42 30.0000000  0 10G01G04G11G14G16G18G19G22G27G32
  23938829.900   125799435.71908  23938833.480    98025543.47145
  21597612.200   113496309.90609  21597610.940    88438729.89247
  22997449.620   120852457.24608  22997447.720    94170755.71546
  24663820.680   129609254.09308  24663819.200   100994212.06143
  21915640.380   115167495.19709  21915638.360    89740919.81348
  23489135.880   123436332.42508  23489133.320    96184176.29745
  20876207.360   109705257.43209  20876203.280    85484625.22248
  21064100.280   110692649.95109  21064095.980    86254044.98348
  20433941.380   107381185.87209  20433941.580    83673685.46349
  22709301.980   119338241.05209  22709301.920    92990857.65946
 15 03 01 02 43  0.0000000  0 10G01G04G11G14G16G18G19G22G27G32
  23923967.140   125721331.37008  23923970.640    97964683.03346
  21586537.960   113438114.09009  21586536.660    88393382.53648
  22982281.520   120772749.56708  22982280.100    94108645.90746
  24650397.900   129538716.69508  24650396.440   100939247.83644
  21931978.580   115253353.27709  21931976.540    89807822.25348
  23504124.680   123515098.94108  23504121.880    96245552.82145
  20869230.520   109668594.43709  20869226.580    85456056.65648
  21069932.400   110723297.57609  21069927.960    86277926.24948
  20435061.140   107387070.41609  20435061.400    83678270.82249
  22688652.160   119229725.98509  22688652.200    92906300.54946
 15 03 01 02 43 30.0000000  0 10G01G04G11G14G16G18G19G22G27G32
  23909134.580   125643385.86708  23909137.900    97903946.38245
  21575514.980   113380187.89409  21575513.680    88348245.26848
  22967138.700   120693173.84408  22967137.440    94046638.90646
  24636989.700   129468255.49807  24636988.160   100884343.00544
  21948383.540   115339562.46509  21948381.540    89874998.27648
  23519161.320   123594116.63908  23519158.780    96307125.01045
  20862303.720   109632194.20909  20862299.840    85427692.84948
  21075858.460   110754438.55109  21075853.860    86302191.95248
  20436247.740   107393306.28509  20436248.060    83683129.94349
  22668048.260   119121451.87809  22668048.200    92821931.17046
 15 03 01 02 44  0.0000000  0 10G01G04G11G14G16G18G19G22G27G32
  23894332.080   125565598.96908  23894335.440    97843333.33146
  21564543.160   113322530.66209  21564541.860    88303317.58748
  22952021.080   120613729.90708  22952019.760    93984734.59546
  24623596.420   129397873.10508  24623594.900   100829499.61544
  21964854.860   115426120.00209  21964852.840    89942445.74448
  23534245.240   123673383.07408  23534242.460    96368891.10245
  20855427.060   109596057.35609  20855423.200    85399534.27248
  21081878.000   110786070.87709  21081873.260    86326840.52548
  20437501.320   107399893.96109  20437501.720    83688263.19549
  22647490.640   119013421.08509  22647490.560    92737751.38846
 15 03 01 02 44 30.0000000  0 10G01G04G11G14G16G18G19G22G27G32
  23879559.080   125487966.93508  23879562.500    97782840.93346
  21553621.820   113265138.78809  21553620.560    88258596.67948
  22936927.920   120534414.40608  22936926.340    93922930.34545
  24610217.800   129327568.01208  24610216.260   100774716.44043
  21981391.200   115513018.74209  21981389.100    90010159.07148
  23549375.300   123752892.43608  23549372.420    96430846.43545
  20848600.100   109560181.29209  20848596.240    85371578.89048
  21087990.020   110818189.54809  21087985.180    86351868.06248
  20438821.320   107406830.51609  20438821.760    83693668.29049
  22626979.080   118905632.59309  22626979.100    92653760.44146
 15 03 01 02 45  0.0000000  0 10G01G04G11G14G16G18G19G22G27G32
  23864816.580   125410495.46208  23864820.140    97722473.65446
  21542751.980   113208017.65609  21542750.800    88214086.72848
  22921860.260   120455233.35808  22921858.360    93861230.86046
  24596855.620   129257349.11908  24596853.980   100720000.44444
  21997993.140   115600262.21809  21997990.960    90078141.02348
  23564552.320   123832648.01408  23564549.560    96492993.63545
  20841824.040   109524572.83809  20841820.220    85343832.04848
  21094195.340   110850798.52009  21094190.460    86377277.65448
  20440208.980   107414122.36909  20440209.380    83699350.25049
  22606515.220   118798094.68509  22606515.260    92569964.75546
 15 03 01 02 45 30.0000000  0 10G01G04G11G14G16G18G19G22G27G32
  23850104.200   125333182.52708  23850108.000    97662229.92545
  21531933.200   113151165.14309  21531932.120    88169786.10048
  22906817.760   120376184.86808  22906815.600    93799634.69145
  24583509.920   129187217.14207  24583508.360   100665352.15844
  22014659.700   115687845.45409  22014657.460    90146387.72848
  23579775.380   123912645.45108  23579772.600    96555329.30845
  20835098.740   109489231.08509  20835094.900    85316293.03048
  21100493.220   110883894.01909  21100488.300    86403066.36148
  20441664.000   107421768.24309  20441664.380    83705308.07049
  22586099.160   118690807.98809  22586099.100    92486364.82646
 15 03 01 02 46  0.0000000  0 10G01G04G11G14G16G18G19G22G27G32
  23835421.720   125256026.28608  23835425.520    97602108.27346
  21521165.200   113094579.62009  21521164.260    88125693.50548
  22891800.240   120297267.68308  22891797.900    93738140.80746
  24570180.860   129117172.79807  24570179.460   100610772.15245
  22031390.040   115775763.85009  22031387.740    90214895.57748
  23595043.540   123992879.92408  23595041.020    96617849.62945
  20828424.060   109454155.33109  20828420.180    85288961.27848
  21106883.060   110917472.92009  21106878.080    86429231.74348
  20443186.180   107429767.09009  20443186.520    83711540.93449
  22565731.040   118583773.37609  22565730.940    92402961.32246
 15 03 01 02 46 30.0000000  0 10G01G04G11G14G16G18G19G22G27G32
  23820769.480   125179028.75708  23820773.280    97542110.29746
  21510448.280   113038262.47209  21510447.460    88081810.04548
  22876808.100   120218483.77908  22876805.860    93676750.81346
  24556869.540   129047221.01008  24556868.360   100556264.31544
  22048184.080   115864016.98409  22048181.760    90283664.20048
  23610356.880   124073351.90508  23610354.200    96680555.11045
  20821800.680   109419349.08509  20821796.720    85261839.54048
  21113365.040   110951535.82109  21113360.040    86455774.26748
  20444776.020   107438121.65109  20444776.300    83718050.97949
  22545411.780   118476995.33309  22545411.720    92319757.73246
 15 03 01 02 47  0.0000000  0 10G01G04G11G14G16G18G19G22G27G32
  23806147.540   125102190.58708  23806151.280    97482236.50746
  21499782.700   112982214.64909  21499781.940    88038136.44448
  22861841.560   120139834.37708  22861839.460    93615465.60846
  24543576.500   128977365.15107  24543575.160   100501831.17445
  22065041.420   115952602.49109  22065039.060    90352691.78648
  23625715.160   124154059.70208  23625712.420    96743444.29045
  20815228.840   109384813.65909  20815224.740    85234928.82348
  21119938.920   110986081.47609  21119933.900    86482692.96948
  20446433.840   107446833.33609  20446434.040    83724839.30249
  22525142.020   118370477.26909  22525141.920    92236756.70946
 15 03 01 02 47 30.0000000  0 10G01G04G11G14G16G18G19G22G27G32
  23791555.660   125025510.67308  23791559.380    97422486.02546
  21489168.180   112926434.86509  21489167.360    87994671.70448
  22846900.520   120061318.80508  22846898.520    93554284.67446
  24530301.980   128907606.70508  24530300.680   100447473.96944
  22081961.260   116041516.25909  22081958.880    90421975.16647
  23641117.500   124235000.09908  23641114.820    96806514.73445
  20808708.560   109350549.07509  20808704.380    85208229.15148
  21126604.220   111021107.42009  21126599.140    86509985.91448
  20448159.540   107455901.76909  20448159.720    83731905.60649
  22504922.020   118264220.69909  22504921.900    92153959.42546
 15 03 01 02 48  0.0000000  0 10G01G04G11G14G16G18G19G22G27G32
  23776994.200   124948990.82008  23776998.060    97362860.27846
  21478605.000   112870924.76709  21478604.060    87951417.10048
  22831985.180   119982938.69808  22831983.460    93493209.32146
  24517046.860   128837950.47908  24517045.340   100393196.40744
  22098943.540   116130758.28009  22098941.100    90491514.33448
  23656564.140   124316172.73008  23656561.100    96869766.15345
  20802240.440   109316558.61209  20802236.180    85181743.09348
  21133360.880   111056613.80009  21133355.840    86537653.22648
  20449953.660   107465329.48109  20449953.800    83739251.87349
  22484752.600   118158230.10009  22484752.580    92071369.41446
 15 03 01 02 48 30.0000000  0 10G01G04G11G14G16G18G19G22G27G32
  23762463.040   124872629.82808  23762466.940    97303358.29646
  21468092.900   112815683.09009  21468091.900    87908371.65848
  22817095.600   119904693.87608  22817094.020    93432239.37146
  24503811.340   128768397.87008  24503809.820   100338999.58544
  22115987.460   116220324.24609  22115984.960    90561305.92947
  23672054.200   124397573.56008  23672051.460    96933195.36745
  20795824.420   109282842.08709  20795820.080    85155470.47948
  21140208.400   111092597.85509  21140203.400    86565692.74948
  20451816.000   107475116.08409  20451816.140    83746877.78749
  22464634.100   118052506.98109  22464634.120    91988987.84246
 15 03 01 02 49  0.0000000  0 10G01G04G11G14G16G18G19G22G27G32
  23747962.220   124796428.16708  23747966.100    97243980.48346
  21457631.920   112760710.16409  21457630.860    87865535.64148
  22802231.860   119826584.66108  22802230.220    93371375.09646
  24490596.180   128698952.15608  24490594.680   100284886.06044
  22133092.560   116310212.04209  22133090.120    90631348.28947
  23687587.420   124479201.03008  23687584.640    96996801.19445
  20789460.900   109249401.17209  20789456.440    85129412.63048
  21147146.520   111129058.31009  21147141.640    86594103.49248
  20453746.820   107485262.71109  20453746.980    83754784.24449
  22444567.100   117947054.46609  22444567.060    91906817.13246
 15 03 01 02 49 30.0000000  0 10G01G04G11G14G16G18G19G22G27G32
  23733491.560   124720384.48308  23733495.320    97184725.74446
  21447221.680   112706004.29609  21447220.640    87822907.72548
  22787393.720   119748610.27408  22787392.120    93310615.87546
  24477401.700   128629614.73707  24477400.100   100230856.89344
  22150258.040   116400417.23009  22150255.660    90701637.99247
  23703163.000   124561051.40808  23703160.380    97060580.68645
  20783149.760   109216235.55809  20783145.240    85103569.31048
  21154174.740   111165992.25009  21154169.940    86622883.19548
  20455746.060   107495768.75109  20455746.180    83762970.76549
  22424551.860   117841873.78209  22424551.680    91824858.25446
 15 03 01 02 50  0.0000000  0 10G01G04G11G14G16G18G19G22G27G32
  23719051.260   124644500.33608  23719055.000    97125595.34846
  21436862.600   112651567.29509  21436861.520    87780489.30648
  22772581.600   119670772.69908  22772580.120    93249963.26046
  24464228.760   128560390.17908  24464227.140   100176915.70544
  22167483.740   116490938.53509  22167481.340    90772173.98547
  23718780.840   124643124.10808  23718778.220    97124533.47045
  20776891.520   109183348.06409  20776886.920    85077942.70048
  21161293.140   111203399.93909  21161288.440    86652032.04348
  20457814.140   107506636.57209  20457814.240    83771439.18849
  22404589.120   117736969.11209  22404588.820    91743114.43746
 15 03 01 02 50 30.0000000  0 10G01G04G11G14G16G18G19G22G27G32
  23704641.360   124568775.53208  23704645.060    97066589.10246
  21426554.600   112597398.78109  21426553.460    87738280.10348
  22757795.560   119593072.04108  22757794.180    93189417.32246
  24451077.740   128491280.85307  24451076.160   100123064.29245
  22184769.080   116581773.38609  22184766.720    90842954.35647
  23734440.740   124725416.97008  23734438.000    97188657.76245
  20770686.380   109150739.85409  20770681.760    85052533.71448
  21168501.240   111241279.30409  21168496.660    86681548.43048
  20459951.160   107517866.65909  20459951.220    83780189.89749
  22384679.380   117632342.99309  22384679.040    91661587.66946
 15 03 01 02 51  0.0000000  0 10G01G04G11G14G16G18G19G22G27G32
  23690262.060   124493211.44308  23690265.500    97007708.08246
  21416297.980   112543499.91509  21416296.740    87696281.01648
  22743035.820   119515509.72008  22743034.460    93128979.19246
  24437949.400   128422291.17607  24437947.840   100069306.12345
  22202113.820   116672920.40209  22202111.480    90913977.99547
  23750142.280   124807928.78808  23750139.460    97252952.72945
  20764534.740   109118413.17009  20764530.240    85027344.10848
  21175799.060   111279629.89809  21175794.580    86711432.01248
  20462157.480   107529461.08309  20462157.560    83789224.51349
  22364823.380   117527999.39509  22364823.000    91580281.07246
 15 03 01 02 51 30.0000000  0 10G01G04G11G14G16G18G19G22G27G32
  23675912.860   124417805.90708  23675916.040    96948950.62146
  21406092.220   112489868.39509  21406090.900    87654490.25048
  22728302.140   119438084.08508  22728300.880    93068647.57746
  24424843.880   128353421.55808  24424842.320   100015641.51044
  22219517.020   116764374.86709  22219514.740    90985241.18847
  23765884.580   124890655.27308  23765882.080    97317414.88945
  20758436.560   109086367.34609  20758432.180    85002373.35248
  21183185.740   111318447.71609  21183181.440    86741679.66848
  20464432.840   107541418.46709  20464432.980    83798541.95149
  22345021.240   117423938.78109  22345020.900    91499194.96746
 15 03 01 02 52  0.0000000  0 10G01G04G11G14G16G18G19G22G27G32
  23661594.320   124342561.80008  23661597.580    96890318.94646
  21395937.880   112436507.12809  21395936.580    87612910.07248
  22713595.160   119360798.64108  22713593.840    93008425.19046
  24411762.360   128284677.76408  24411760.920    99962074.93844
  22236978.640   116856136.30508  22236976.400    91056743.58647
  23781667.860   124973596.98408  23781665.240    97382044.82145
  20752392.620   109054606.26609  20752388.240    84977624.46548
  21190661.620   111357734.16609  21190657.460    86772292.48348
  20466777.980   107553742.40009  20466778.140    83808145.00549
  22325274.020   117320166.71509  22325273.640    91418333.67046
 15 03 01 02 52 30.0000000  0 10G01G04G11G14G16G18G19G22G27G32
  23647306.040   124267476.44408  23647309.220    96831810.94846
  21385834.400   112383413.13709  21385833.120    87571538.15448
  22698914.440   119283651.28308  22698913.040    92948310.40346
  24398704.840   128216059.77608  24398703.380    99908606.38044
  22254497.720   116948199.96009  22254495.560    91128481.55348
  23797491.180   125056748.98708  23797488.400    97446838.58145
  20746402.540   109023128.33809  20746398.200    84953096.21848
  21198225.920   111397485.03609  21198221.900    86803267.18048
  20469192.520   107566430.85709  20469192.660    83818032.10849
  22305581.720   117216683.14309  22305581.300    91337697.20646
 15 03 01 02 53  0.0000000  0 10G01G04G11G14G16G18G19G22G27G32
  23633048.200   124192551.56508  23633051.540    96773428.02046
  21375782.100   112330588.25709  21375780.920    87530375.93448
  22684260.300   119206643.63408  22684259.000    92888304.47946
  24385672.120   128147572.44107  24385670.840    99855239.62145
  22272073.980   117040564.15009  22272071.920    91200453.63047
  23813354.360   125140110.58708  23813351.580    97511795.70545
  20740467.000   108991936.91009  20740462.660    84928791.20948
  21205878.600   111437700.36909  21205874.620    86834603.79748
  20471676.940   107579486.34809  20471677.040    83828205.21149
  22285945.160   117113492.47909  22285944.620    91257288.96446
 15 03 01 02 53 30.0000000  0 10G01G04G11G14G16G18G19G22G27G32
  23618821.240   124117788.84008  23618824.580    96715171.43746
  21365781.280   112278033.95809  21365780.200    87489424.56148
  22669633.260   119129778.08508  22669631.820    92828409.28846
  24372665.160   128079220.16108  24372663.740    99801978.13345
  22289707.260   117133228.21608  22289705.320    91272659.42547
  23829257.340   125223681.82908  23829254.820    97576916.12645
  20734586.440   108961034.58209  20734582.080    84904711.48948
  21213619.600   111478380.00609  21213615.700    86866302.21648
  20474231.680   107592911.20409  20474231.720    83838666.13549
  22266365.140   117010598.88709  22266364.460    91177112.18646
 15 03 01 02 54  0.0000000  0 10G01G04G11G14G16G18G19G22G27G32
  23604624.380   124043184.44408  23604627.660    96657038.24246
  21355831.240   112225746.43709  21355830.200    87448681.06748
  22655032.780   119053051.27308  22655031.120    92768622.20246
  24359683.640   128011002.03807  24359682.220    99748821.17945
  22307396.440   117226185.77108  22307394.520    91345093.88147
  23845199.140   125307456.50808  23845196.640    97642195.11045
  20728760.460   108930418.99009  20728756.160    84880855.19848
  21221448.000   111519518.60709  21221444.060    86898358.27948
  20476856.100   107606702.37709  20476856.120    83849412.49749
  22246841.420   116908001.39309  22246840.700    91097166.15947
 15 03 01 02 54 30.0000000  0 10G01G04G11G14G16G18G19G22G27G32
  23590458.100   123968740.46908  23590461.380    96599030.02146
  21345932.280   112173727.34509  21345931.280    87408146.73848
  22640459.180   118976465.35808  22640457.200    92708944.90546
  24346728.540   127942922.88808  24346727.140    99695772.52144
  22325141.280   117319436.01008  22325139.380    91417756.44247
  23861179.640   125391434.19308  23861176.960    97707632.29745
  20722989.680   108900093.29409  20722985.360    84857224.79248
  21229363.820   111561116.19609  21229359.740    86930771.98248
  20479550.740   107620862.57409  20479550.720    83860446.41349
  22227374.940   116805704.62809  22227374.180    91017454.45447
 15 03 01 02 55  0.0000000  0 10G01G04G11G14G16G18G19G22G27G32
  23576322.600   123894458.67408  23576325.980    96541148.21446
  21336084.780   112121978.64409  21336083.780    87367823.09748
  22625912.800   118900022.51108  22625910.540    92649379.08746
  24333800.760   127874987.15108  24333799.400    99642835.58144
  22342941.620   117412977.59409  22342939.720    91490646.07447
  23877198.620   125475614.69008  23877195.820    97773227.51445
  20717274.640   108870060.36409  20717270.320    84833822.51549
  21237367.020   111603172.99109  21237362.860    86963543.51948
  20482316.040   107635394.31109  20482315.980    83871769.84049
  22207966.560   116703713.05809  22207965.760    90937980.56246
 15 03 01 02 55 30.0000000  0 10G01G04G11G14G16G18G19G22G27G32
  23562217.420   123820335.68408  23562220.680    96483390.11946
  21326288.060   112070496.77409  21326287.020    87327707.37948
  22611393.100   118823720.13208  22611390.580    92589922.72246
  24320900.240   127807194.40607  24320898.820    99590010.07345
  22360796.220   117506804.19709  22360794.300    91563757.75248
  23893255.060   125559992.28008  23893252.340    97838976.27445
  20711614.860   108840318.14809  20711610.540    84810646.77749
  21245456.640   111645683.89009  21245452.360    86996668.89748
  20485151.540   107650294.91109  20485151.420    83883380.68849
  22188616.060   116602025.80909  22188615.240    90858743.79846
 15 03 01 02 56  0.0000000  0 10G01G04G11G14G16G18G19G22G27G32
  23548143.020   123746374.74908  23548146.380    96425758.31246
  21316542.720   112019284.93209  21316541.680    87287802.07548
  22596900.680   118747561.70408  22596898.080    92530578.54446
  24308028.040   127739550.89507  24308026.500    99537300.85745
  22378705.240   117600916.90909  22378703.360    91637092.28747
  23909349.280   125644567.97708  23909346.820    97904879.42246
  20706011.300   108810871.18409  20706007.000    84787701.09649
  21253632.960   111688650.39209  21253628.600    87030149.29848
  20488058.000   107665568.29909  20488057.840    83895282.02449
  22169324.620   116500648.80509  22169323.820    90779748.78146
 15 03 01 02 56 30.0000000  0 10G01G04G11G14G16G18G19G22G27G32
  23534099.160   123672574.12108  23534102.280    96368251.40346
  21306848.420   111968341.08109  21306847.340    87248105.59048
  22582435.320   118671545.98408  22582432.740    92471345.56147
  24295184.300   127672057.38507  24295182.820    99484708.53245
  22396667.920   117695311.35309  22396665.960    91710646.46947
  23925480.560   125729338.04208  23925478.220    97970934.01245
  20700463.800   108781718.80109  20700459.480    84764984.96249
  21261895.260   111732068.80109  21261890.860    87063981.82748
  20491035.180   107681213.38509  20491035.020    83907472.99549
  22150092.420   116399583.07709  22150091.600    90700996.33047
 15 03 01 02 57  0.0000000  0 10G01G04G11G14G16G18G19G22G27G32
  23520086.320   123598936.87808  23520089.560    96310871.84346
  21297205.760   111917668.38009  21297204.640    87208620.40148
  22567997.820   118595676.72808  22567995.320    92412226.72346
  24282370.220   127604719.91207  24282368.820    99432237.79845
  22414684.180   117789987.40109  22414682.200    91784420.07347
  23941648.860   125814303.35508  23941646.120    98037140.78644
  20694973.240   108752865.66909  20694968.880    84742502.01648
  21270243.860   111775940.70409  21270239.380    87098167.73948
  20494083.860   107697233.96509  20494083.680    83919956.56849
  22130920.520   116298834.15809  22130919.640    90622490.74147
 15 03 01 02 57 30.0000000  0 10G01G04G11G14G16G18G19G22G27G32
  23506103.860   123525458.86808  23506107.180    96253616.33146
  21287613.900   111867262.60509  21287612.720    87169343.19448
  22553587.380   118519950.15808  22553585.040    92353219.04546
  24269585.660   127537537.27107  24269584.260    99379887.70145
  22432752.700   117884938.06009  22432750.620    91858407.62947
  23957853.000   125899457.41108  23957850.140    98103494.59244
  20689539.020   108724308.49809  20689534.580    84720249.68149
  21278677.620   111820260.02809  21278673.020    87132702.27648
  20497203.320   107713626.55209  20497203.080    83932730.00449
  22111808.640   116198400.67409  22111807.700    90544230.93947
 15 03 01 02 58  0.0000000  0 10G01G04G11G14G16G18G19G22G27G32
  23492151.940   123452141.23808  23492155.180    96196485.79246
  21278073.040   111817124.67209  21278071.760    87130274.69748
  22539204.360   118444367.67408  22539202.140    92294323.64446
  24256831.500   127470513.56408  24256829.980    99327661.47244
  22450873.200   117980161.98809  22450871.080    91932608.11347
  23974092.960   125984799.29408  23974090.140    98169994.79845
  20684161.620   108696049.71809  20684157.060    84698229.85748
  21287196.400   111865026.18009  21287191.680    87167584.99448
  20500393.860   107730392.92109  20500393.520    83945794.70349
  22092757.480   116098286.25209  22092756.520    90466219.76147
 15 03 01 02 58 30.0000000  0 10G01G04G11G14G16G18G19G22G27G32
  23478230.600   123378984.27908  23478233.640    96139480.45946
  21268583.180   111767254.81309  21268581.800    87091415.09848
  22524848.960   118368929.90308  22524846.680    92235541.00247
  24244108.160   127403651.85308  24244106.720    99275561.44645
  22469045.180   118075656.62609  22469043.040    92007019.55147
  23990368.460   126070327.28508  23990365.900    98236639.98645
  20678841.280   108668090.95309  20678836.620    84676443.81948
  21295799.940   111910237.54709  21295795.080    87202814.64448
  20503655.720   107747534.05109  20503655.280    83959151.41949
  22073767.560   115998493.81209  22073766.600    90388459.47946
 15 03 01 02 59  0.0000000  0 10G01G04G11G14G16G18G19G22G27G32
  23464340.100   123305989.49508  23464342.840    96082601.50145
  21259144.540   111717654.42809  21259143.140    87052765.48448
  22510521.600   118293639.18908  22510519.240    92176872.96946
  24231416.500   127336956.62707  24231415.220    99223591.15244
  22487268.340   118171420.24409  22487266.180    92081640.35347
  24006679.020   126156040.22707  24006676.620    98303429.29144
  20673578.560   108640435.14209  20673573.800    84654893.84248
  21304488.100   111955893.80709  21304483.120    87238390.95748
  20506989.300   107765052.13509  20506988.840    83972801.87849
  22054839.680   115899027.52809  22054838.700    90310953.34747
 15 03 01 02 59 30.0000000  0 10G01G04G11G14G16G18G19G22G27G32
  23450480.540   123233157.31508  23450483.200    96025849.23546
  21249757.220   111668323.89109  21249755.800    87014326.13148
  22496222.440   118218496.37808  22496220.040    92118320.19247
  24218757.040   127270431.09107  24218755.880    99171753.09544
  22505542.340   118267450.81509  22505540.320    92156469.12147
  24023024.380   126241936.68007  24023022.120    98370361.59445
  20668373.780   108613083.80909  20668369.020    84633581.12349
  21313260.680   112001993.93709  21313255.620    87274313.14948
  20510394.820   107782948.25809  20510394.340    83986746.90949
  22035974.440   115799890.38809  22035973.420    90233703.68747
 15 03 01 03 00  0.0000000  0 10G01G04G11G14G16G18G19G22G27G32
  23436651.140   123160483.76608  23436653.780    95969220.59246
  21240420.480   111619259.15709  21240419.060    86976093.90148
  22481950.760   118143497.86508  22481948.340    92059879.83446
  24206129.620   127204073.82707  24206128.560    99120046.17145
  22523865.980   118363741.95609  22523864.120    92231501.06147
  24039403.660   126328010.61608  24039401.140    98437432.21444
  20663226.380   108586034.17109  20663221.640    84612503.50048
  21322116.520   112048531.82209  21322111.440    87310576.44848
  20513871.680   107801219.08109  20513871.200    84000983.91449
  22017171.600   115701081.15409  22017170.560    90156709.54647
 15 03 01 03 00 30.0000000  0 10G01G04G11G14G16G18G19G22G27G32
  23422852.460   123087971.00808  23422855.260    95912717.24146
  21231134.660   111570462.19609  21231133.300    86938070.32048
  22467706.980   118068646.23008  22467704.560    92001553.94047
  24193535.260   127137890.24208  24193534.260    99068474.56645
  22542239.160   118460293.09309  22542237.460    92306735.69047
  24055816.920   126414261.88108  24055814.140    98504641.06845
  20658137.120   108559289.88409  20658132.340    84591663.80048
  21331055.700   112095507.69009  21331050.640    87347181.03148
  20517420.360   107819867.36509  20517419.840    84015515.04749
  21998432.040   115602604.40909  21998431.000    90079974.47647
 15 03 01 03 01  0.0000000  0 10G01G04G11G14G16G18G19G22G27G32
  23409084.920   123015621.69808  23409087.620    95856341.25746
  21221900.220   111521935.47709  21221898.980    86900257.32748
  22453491.680   117993944.59508  22453489.300    91943344.92947
  24180974.940   127071885.60907  24180974.080    99017042.40545
  22560661.680   118557103.69008  22560660.060    92382172.46846
  24072263.880   126500691.02108  24072261.140    98571988.44245
  20653106.700   108532854.85909  20653101.940    84571065.09349
  21340078.440   112142922.51609  21340073.380    87384127.66148
  20521041.480   107838896.42909  20521040.940    84030342.89149
  21979756.740   115504465.49709  21979755.680    90003502.64547
 15 03 01 03 01 30.0000000  0 10G01G04G11G14G16G18G19G22G27G32
  23395347.960   122943433.27608  23395350.560    95800090.62946
  21212716.780   111473676.61309  21212715.620    86862653.04248
  22439304.520   117919391.18608  22439302.180    91885251.40246
  24168448.780   127006060.37508  24168447.760    98965750.04644
  22579132.500   118654168.59108  22579130.940    92457807.42946
  24088743.620   126587293.55407  24088741.260    98639470.92445
  20648134.860   108506727.77709  20648130.160    84550706.33648
  21349183.880   112190771.87709  21349178.740    87421412.88548
  20524734.660   107858304.37909  20524734.140    84045465.96449
  21961145.740   115406664.45709  21961144.740    89927294.10347
 15 03 01 03 02  0.0000000  0 10G01G04G11G14G16G18G19G22G27G32
  23381641.840   122871406.99008  23381644.200    95743966.34246
  21203584.500   111425686.44109  21203583.400    86825258.14048
  22425145.840   117844987.57508  22425143.520    91827274.61747
  24155957.480   126940418.73207  24155956.260    98914600.73645
  22597651.500   118751486.70009  22597649.900    92533639.71647
  24105256.300   126674068.61208  24105254.140    98707087.81845
  20643222.020   108480910.94909  20643217.400    84530589.33349
  21358371.880   112239055.26609  21358366.680    87459036.32048
  20528500.280   107878093.09509  20528499.820    84060885.73949
  21942599.780   115309205.16109  21942598.840    89851351.85547
 15 03 01 03 02 30.0000000  0 10G01G04G11G14G16G18G19G22G27G32
  23367966.120   122799540.69108  23367968.520    95687966.72146
  21194503.000   111377963.03109  21194501.920    86788071.09248
  22411015.480   117770732.49208  22411013.140    91769413.56147
  24143501.360   126874961.40008  24143500.060    98863595.02544
  22616217.620   118849052.45908  22616216.100    92609664.93946
  24121801.020   126761011.75508  24121798.700    98774835.74444
  20638368.120   108455403.87409  20638363.560    84510713.69949
  21367641.640   112287768.66709  21367636.480    87496994.81448
  20532338.100   107898260.97009  20532337.680    84076600.96249
  21924118.940   115212087.95409  21924118.000    89775676.14847
 15 03 01 03 03  0.0000000  0 10G01G04G11G14G16G18G19G22G27G32
  23354321.080   122727835.79008  23354323.300    95632092.87046
  21185472.500   111330507.45209  21185471.400    86751092.75348
  22396913.620   117696627.23708  22396911.380    91711669.25647
  24131081.180   126809692.42207  24131079.860    98812736.11645
  22634830.620   118946864.46608  22634829.120    92685882.09146
  24138377.680   126848122.19208  24138374.920    98842714.10744
  20633573.600   108430208.69809  20633569.080    84491081.10048
  21376993.140   112336911.66209  21376988.120    87535288.06948
  20536248.520   107918810.09809  20536248.120    84092613.26349
  21905703.980   115115316.85109  21905703.060    89700270.14447
 15 03 01 03 03 30.0000000  0 10G01G04G11G14G16G18G19G22G27G32
  23340706.680   122656292.02908  23340708.540    95576344.57146
  21176492.940   111283319.53209  21176491.840    86714322.98048
  22382840.380   117622672.43008  22382838.180    91654042.18247
  24118697.420   126744614.70707  24118696.260    98762026.24945
  22653490.000   119044919.95108  22653488.480    92762288.90647
  24154985.580   126935397.79707  24154983.000    98910721.06044
  20628838.700   108405326.77509  20628834.220    84471692.60149
  21386425.960   112386481.95709  21386421.120    87573914.28548
  20540231.520   107939740.80409  20540231.160    84108922.91149
  21887355.300   115018894.24709  21887354.440    89625135.70447
 15 03 01 03 04  0.0000000  0 10G01G04G11G14G16G18G19G22G27G32
  23327123.800   122584914.13808  23327125.640    95520725.52945
  21167565.200   111236403.85309  21167564.120    86677765.33748
  22368796.760   117548873.40708  22368794.520    91596536.50447
  24106351.340   126679735.72108  24106350.240    98711471.21344
  22672196.100   119143220.96308  22672194.620    92838887.03946
  24171625.360   127022840.95408  24171623.040    98978858.56445
  20624164.560   108380764.17709  20624160.120    84452552.92749
  21395940.700   112436482.56109  21395935.960    87612875.79048
  20544288.120   107961058.41809  20544287.820    84125534.03049
  21869074.340   114922827.41709  21869073.560    89550278.48147
 15 03 01 03 04 30.0000000  0 10G01G04G11G14G16G18G19G22G27G32
  23313570.580   122513691.75908  23313572.320    95465227.65846
  21158687.240   111189749.72409  21158686.160    86641411.50348
  22354780.940   117475220.44108  22354778.700    91539144.62747
  24094041.640   126615047.98708  24094040.460    98661065.20345
  22690946.340   119241754.19109  22690944.960    92915666.13246
  24188294.860   127110439.45808  24188292.620    99047117.12845
  20619549.420   108356511.65009  20619545.020    84433654.86449
  21405535.040   112486901.05809  21405530.360    87652162.94148
  20548416.440   107982753.20109  20548416.220    84142439.05449
  21850859.600   114827108.49109  21850858.900    89475692.35647
 15 03 01 03 05  0.0000000  0 10G01G04G11G14G16G18G19G22G27G32
  23300048.740   122442634.16808  23300050.280    95409858.19946
  21149860.880   111143366.70009  21149859.740    86605268.90948
  22340794.780   117401723.13108  22340792.500    91481874.04347
  24081770.620   126550563.58108  24081769.380    98610817.64145
  22709741.980   119340525.95709  22709740.660    92992631.11347
  24204995.300   127198200.27108  24204993.000    99115502.21044
  20614995.360   108332579.95309  20614990.960    84415006.79949
  21415210.380   112537744.95509  21415205.660    87691781.56948
  20552618.420   108004835.02809  20552618.260    84159645.66749
  21832713.260   114731749.39009  21832712.660    89401386.61647
 15 03 01 03 05 30.0000000  0 10G01G04G11G14G16G18G19G22G27G32
  23286557.680   122371738.23008  23286558.960    95354614.69646
  21141085.400   111097251.32509  21141084.240    86569334.88248
  22326837.920   117328379.00308  22326835.520    91424722.81347
  24069538.320   126486282.39708  24069536.980    98560728.43745
  22728581.900   119439530.36508  22728580.540    93069777.41746
  24221725.500   127286118.08207  24221723.000    99184009.65444
  20610502.020   108308967.25009  20610497.560    84396607.29449
  21424965.620   112589009.02209  21424960.940    87731727.59748
  20556893.580   108027301.28509  20556893.460    84177151.83549
  21814635.280   114636749.44509  21814634.780    89327360.72847
 15 03 01 03 06  0.0000000  0 10G01G04G11G14G16G18G19G22G27G32
  23273097.000   122301001.93708  23273098.080    95299495.58946
  21132360.440   111051401.59809  21132359.320    86533607.85248
  22312909.960   117255186.64108  22312907.480    91367689.85547
  24057344.860   126422205.18508  24057343.260    98510798.16345
  22747465.300   119538763.19708  22747463.920    93147101.73147
  24238484.780   127374189.06008  24238482.180    99252636.36644
  20606069.220   108285672.73709  20606064.720    84378455.73549
  21434800.140   112640689.58909  21434795.480    87771998.17348
  20561241.600   108050150.53409  20561241.540    84194956.44449
  21796625.740   114542109.18609  21796625.380    89253615.12947
 15 03 01 03 06 30.0000000  0 10G01G04G11G14G16G18G19G22G27G32
  23259667.340   122230428.68108  23259668.440    95244503.54446
  21123686.620   111005820.73209  21123685.540    86498090.31948
  22299011.580   117182149.75909  22299008.980    91310778.04447
  24045191.360   126358338.33508  24045189.800    98461031.80045
  22766392.320   119638224.99809  22766390.860    93224604.46447
  24255273.520   127462414.36408  24255270.920    99321383.39545
  20601697.820   108262700.99309  20601693.360    84360555.68149
  21444714.140   112692788.09509  21444709.520    87812594.41548
  20565663.200   108073386.81609  20565663.260    84213062.63449
  21778685.820   114447834.68209  21778685.480    89180154.52447
 15 03 01 03 07  0.0000000  0 10G01G04G11G14G16G18G19G22G27G32
  23246268.200   122160015.57308  23246269.240    95189636.26946
  21115063.400   110960505.72509  21115062.320    86462779.95348
  22285142.340   117109266.10609  22285139.580    91253985.61547
  24033077.940   126294681.66508  24033076.420    98411429.24045
  22785361.700   119737909.69708  22785360.260    93302280.85347
  24272090.760   127550789.04708  24272088.340    99390246.74745
  20597387.560   108240050.47409  20597383.120    84342905.93449
  21454706.820   112745299.87509  21454702.260    87853512.68748
  20570158.020   108097007.70709  20570158.180    84231468.51749
  21760815.420   114353925.39109  21760815.080    89106978.50247
 15 03 01 03 07 30.0000000  0 10G01G04G11G14G16G18G19G22G27G32
  23232899.920   122089765.11608  23232901.100    95134895.74346
  21106491.240   110915459.18009  21106490.220    86427678.77748
  22271302.960   117036539.19509  22271300.020    91197315.34047
  24021005.540   126231240.71508  24021004.080    98361994.75345
  22804373.420   119837816.85008  22804371.960    93380130.48846
  24288936.560   127639313.81607  24288933.860    99459227.11444
  20593139.120   108217724.81509  20593134.720    84325509.32349
  21464778.220   112798225.31109  21464773.660    87894753.29148
  20574726.640   108121016.35309  20574726.860    84250176.54549
  21743015.540   114260386.53709  21743015.200    89034091.12847
 15 03 01 03 08  0.0000000  0 10G01G04G11G14G16G18G19G22G27G32
  23219562.340   122019676.23508  23219563.760    95080281.13346
  21097969.940   110870679.69309  21097968.920    86392785.69748
  22257493.240   116963968.20109  22257490.200    91140766.55147
  24008974.580   126168017.30208  24008973.240    98312729.78645
  22823426.820   119937942.85608  22823425.360    93458150.64446
  24305810.120   127727985.41108  24305807.180    99528321.87544
  20588952.560   108195724.56209  20588948.280    84308366.28149
  21474927.700   112851561.34009  21474923.060    87936313.82748
  20579368.940   108145412.16109  20579369.220    84269186.25749
  21725286.400   114167219.46109  21725286.080    88961493.46047
 15 03 01 03 08 30.0000000  0 10G01G04G11G14G16G18G19G22G27G32
  23206255.380   121949748.62908  23206256.920    95025792.18045
  21089499.440   110826167.00709  21089498.340    86358100.51648
  22243713.180   116891553.42309  22243710.100    91084339.50047
  23996985.500   126105013.86908  23996984.100    98263636.22345
  22842521.300   120038284.61108  22842519.880    93536338.93046
  24322711.300   127816801.48008  24322708.360    99597529.23145
  20584828.060   108174050.68309  20584823.900    84291477.55149
  21485154.900   112905305.55509  21485150.140    87978192.44848
  20584084.980   108170195.42409  20584085.300    84288497.88849
  21707628.400   114074426.44209  21707628.120    88889187.27147
 15 03 01 03 09  0.0000000  0 10G01G04G11G14G16G18G19G22G27G32
  23192979.460   121879984.19208  23192980.940    94971430.36646
  21081080.020   110781922.81209  21081078.900    86323624.55848
  22229963.300   116819297.35809  22229960.200    91028036.10847
  23985039.120   126042235.21608  23985037.740    98214717.82744
  22861656.660   120138840.90509  22861655.220    93614694.35547
  24339639.860   127905761.77608  24339637.060    99666848.96944
  20580766.320   108152706.28509  20580762.180    84274845.56449
  21495459.820   112959458.20409  21495455.060    88020389.33248
  20588875.240   108195368.51209  20588875.560    84308113.28449
  21690042.380   113982011.82709  21690042.200    88817175.94647
 15 03 01 03 09 30.0000000  0 10G01G04G11G14G16G18G19G22G27G32
  23179734.580   121810382.62108  23179736.020    94917195.46246
  21072711.640   110737946.84109  21072710.540    86289357.59148
  22216243.700   116747200.29509  22216240.540    90971856.61547
  23973135.860   125979683.79308  23973134.540    98165976.46745
  22880832.420   120239609.19708  22880830.800    93693214.96346
  24356595.480   127994863.97207  24356592.960    99736279.20845
  20576767.460   108131692.26009  20576763.360    84258470.99949
  21505842.000   113014016.89409  21505837.220    88062902.60148
  20593739.720   108220931.64009  20593740.020    84328032.59249
  21672528.800   113889977.72909  21672528.720    88745461.12247
 15 03 01 03 10  0.0000000  0 10G01G04G11G14G16G18G19G22G27G32
  23166520.460   121740942.58508  23166521.900    94863086.42146
  21064394.000   110694237.60809  21064392.940    86255298.47548
  22202554.240   116675261.67109  22202551.080    90915800.58547
  23961276.200   125917361.34808  23961274.820    98117413.56845
  22900047.660   120340585.16409  22900046.000    93771897.41946
  24373577.440   128084104.77908  24373574.920    99805817.46444
  20572831.460   108111008.57709  20572827.400    84242353.86249
  21516300.780   113068978.34109  21516295.980    88105729.70848
  20598678.280   108246884.01109  20598678.560    84348255.21949
  21655087.900   113798325.38609  21655087.840    88674043.77947
 15 03 01 03 10 30.0000000  0 10G01G04G11G14G16G18G19G22G27G32
  23153336.520   121671660.78408  23153337.900    94809100.68646
  21056126.480   110650791.60709  21056125.400    86221444.48348
  22188894.360   116603478.41409  22188891.160    90859865.62347
  23949460.080   125855267.47308  23949458.700    98069028.75145
  22919301.220   120441762.63409  22919299.580    93850736.89246
  24390584.820   128173478.95408  24390581.940    99875459.78944
  20568957.920   108090653.18609  20568953.900    84226492.53349
  21526835.200   113124337.55109  21526830.420    88148866.76448
  20603690.400   108273222.89809  20603690.680    84368779.02349
  21637719.560   113707054.03609  21637719.440    88602923.29547
 15 03 01 03 11  0.0000000  0 10G01G04G11G14G16G18G19G22G27G32
  23140183.520   121602541.41008  23140184.880    94755241.51146
  21047909.900   110607613.29809  21047908.800    86187799.08048
  22175264.980   116531855.72809  22175261.840    90804055.77247
  23937688.800   125793408.96408  23937687.120    98020827.33345
  22938593.460   120543143.50609  22938591.820    93929734.86246
  24407617.940   128262988.44107  24407615.140    99945207.41145
  20565147.980   108070631.73209  20565143.940    84210891.40449
  21537445.800   113180096.64909  21537440.860    88192315.42448
  20608776.980   108299952.88809  20608777.260    84389607.58249
  21620424.940   113616170.25709  21620424.780    88532104.82448
 15 03 01 03 11 30.0000000  0 10G01G04G11G14G16G18G19G22G27G32
  23127061.860   121533586.54508  23127063.240    94701510.51946
  21039744.600   110564704.35209  21039743.460    86154363.55648
  22161666.700   116460396.04809  22161663.500    90748372.95247
  23925963.200   125731790.90908  23925961.440    97972813.30145
  22957924.200   120644726.49508  22957922.520    94008890.35346
  24424676.720   128352633.29707  24424674.000   100015060.50744
  20561402.280   108050947.54109  20561398.160    84195553.06949
  21548132.520   113236255.55209  21548127.600    88236075.60848
  20613938.500   108327076.57509  20613938.760    84410742.91349
  21603204.920   113525678.64109  21603204.700    88461591.96047
 15 03 01 03 12  0.0000000  0 10G01G04G11G14G16G18G19G22G27G32
  23113970.580   121464791.40208  23113971.900    94647903.99046
  21031629.680   110522060.06009  21031628.460    86121134.27448
  22148098.720   116389095.48809  22148095.280    90692814.11147
  23914282.900   125670411.39508  23914281.060    97924985.13545
  22977292.060   120746504.42709  22977290.340    94088197.72246
  24441760.000   128442406.93607  24441757.260   100085014.05344
  20557720.020   108031596.88509  20557715.800    84180474.65449
  21558894.080   113292807.48009  21558889.000    88280142.06448
  20619174.120   108354589.70509  20619174.340    84432181.71549
  21586059.120   113435576.95908  21586058.820    88391382.99747
 15 03 01 03 12 30.0000000  0 10G01G04G11G14G16G18G19G22G27G32
  23100910.180   121396158.74908  23100911.540    94594424.08146
  21023565.640   110479683.12309  21023564.420    86088113.30948
  22134561.560   116317957.25009  22134557.920    90637381.75747
  23902649.180   125609276.12808  23902647.440    97877347.28344
  22996697.020   120848477.43409  22996695.260    94167657.15146
  24458867.960   128532309.93108  24458865.460   100155068.30445
  20554102.020   108012584.19009  20554097.760    84165659.57449
  21569730.520   113349753.27809  21569725.440    88324515.41548
  20624484.480   108382495.49309  20624484.640    84453926.47949
  21568988.500   113345870.48209  21568988.120    88321482.06348
 15 03 01 03 13  0.0000000  0 10G01G04G11G14G16G18G19G22G27G32
  23087880.160   121327686.11508  23087881.700    94541068.83946
  21015552.000   110437570.99709  21015550.760    86055298.69248
  22121055.000   116246979.84309  22121051.260    90582074.72347
  23891062.100   125548385.44908  23891060.400    97829900.02545
  23016137.960   120950639.67508  23016136.140    94247264.00846
  24475999.720   128622337.96407  24475997.220   100225220.02044
  20550548.120   107993908.48509  20550543.840    84151107.09149
  21580641.020   113407088.69209  21580636.060    88369192.36248
  20629869.180   108410791.94409  20629869.280    84475975.65949
  21551993.060   113256558.81809  21551992.500    88251888.68548
 15 03 01 03 13 30.0000000  0 10G01G04G11G14G16G18G19G22G27G32
  23074881.120   121259376.59008  23074882.920    94487840.71946
  21007589.260   110395726.59809  21007588.060    86022692.69748
  22107579.700   116176166.77609  22107576.000    90526895.75347
  23879522.560   125487745.20408  23879521.080    97782647.91545
  23035615.060   121052992.09808  23035613.220    94327019.04646
  24493155.600   128712492.42707  24493152.740   100295470.30844
  20547059.040   107975573.53509  20547054.800    84136820.12549
  21591625.840   113464814.49709  21591620.920    88414173.51648
  20635328.880   108439482.56709  20635328.940    84498331.98349
  21535073.780   113167647.55109  21535073.080    88182607.25748
 15 03 01 03 14  0.0000000  0 10G01G04G11G14G16G18G19G22G27G32
  23061912.600   121191227.14608  23061914.440    94434737.33046
  20999676.820   110354146.56009  20999675.600    85990292.70148
  22094135.200   116105515.60209  22094131.520    90471842.92947
  23868030.660   125427355.14808  23868029.340    97735590.75545
  23055127.140   121155528.57808  23055125.340    94406917.50846
  24510334.500   128802767.84107  24510331.720   100365814.77045
  20543634.560   107957577.78409  20543630.320    84122797.46849
  21602684.060   113522925.75609  21602679.140    88459455.02348
  20640863.080   108468564.77109  20640863.140    84520993.44149
  21518230.600   113079136.13809  21518229.780    88113637.37348
 15 03 01 03 14 30.0000000  0 10G01G04G11G14G16G18G19G22G27G32
  23048975.260   121123241.64808  23048977.060    94381761.67346
  20991815.480   110312835.07609  20991814.240    85958101.96148
  22080722.320   116035030.97009  22080718.700    90416919.87647
  23856587.760   125367222.23408  23856586.540    97688733.94845
  23074674.420   121258249.69709  23074672.560    94486959.92446
  24527536.740   128893166.12708  24527534.040   100436254.94645
  20540275.600   107939926.48309  20540271.440    84109043.21749
  21613816.060   113581424.49609  21613811.140    88505038.46248
  20646472.680   108498042.93509  20646472.680    84543963.43249
  21501464.720   112991030.93609  21501463.800    88044984.03047
 15 03 01 03 15  0.0000000  0 10G01G04G11G14G16G18G19G22G27G32
  23036068.380   121055416.20608  23036070.140    94328910.75546
  20984004.420   110271788.01309  20984003.220    85926117.26148
  22067340.500   115964709.59109  22067336.960    90362124.03347
  23845193.600   125307345.52208  23845192.600    97642076.80845
  23094255.720   121361149.66109  23094253.820    94567141.69046
  24544761.300   128983681.70907  24544758.420   100506786.65044
  20536981.760   107922617.24209  20536977.640    84095555.50949
  21625020.620   113640304.72509  21625015.700    88550919.16248
  20652156.920   108527913.51509  20652156.880    84567239.21149
  21484775.860   112903330.29209  21484774.840    87976645.89548
 15 03 01 03 15 30.0000000  0 10G01G04G11G14G16G18G19G22G27G32
  23023192.200   120987751.88908  23023194.040    94276185.38846
  20976243.840   110231006.37809  20976242.660    85894339.40348
  22053990.080   115894553.25109  22053986.740    90307456.80047
  23833848.880   125247728.52408  23833847.880    97595622.03545
  23113870.660   121464226.58809  23113868.720    94647461.40846
  24562007.900   129074313.52207  24562004.900   100577408.82644
  20533753.440   107905652.05109  20533749.260    84082335.89249
  21636297.540   113699565.42309  21636292.700    88597096.33648
  20657916.080   108558178.05809  20657916.020    84590821.97049
  21468164.700   112816037.84509  21468163.620    87908625.82947
 15 03 01 03 16  0.0000000  0 10G01G04G11G14G16G18G19G22G27G32
  23010346.940   120920249.79408  23010348.820    94223586.41146
  20968533.940   110190491.07409  20968532.780    85862769.05648
  22040671.340   115824563.47809  22040668.100    90252919.35647
  23822554.340   125188375.31308  23822553.440    97549372.79045
  23133518.980   121567479.05108  23133516.980    94727917.89146
  24579276.560   129165060.80908  24579273.600   100648120.94644
  20530591.060   107889033.24609  20530586.760    84069386.17849
  21647646.700   113759205.61409  21647641.840    88643569.21848
  20663750.480   108588838.01409  20663750.420    84614712.84249
  21451631.880   112729157.02609  21451630.700    87840926.49648
 15 03 01 03 16 30.0000000  0 10G01G04G11G14G16G18G19G22G27G32
  22997531.780   120852905.77608  22997533.660    94171110.60446
  20960873.940   110150237.94909  20960872.820    85831403.01048
  22027383.740   115754737.24909  22027380.600    90198509.35047
  23811309.800   125129284.54708  23811308.840    97503328.05945
  23153199.220   121670899.54708  23153197.200    94808505.34046
  24596566.080   129255917.24008  24596563.080   100718918.16144
  20527494.020   107872758.02009  20527489.680    84056704.19049
  21659066.840   113819219.13609  21659061.960    88690333.00248
  20669659.400   108619889.67709  20669659.300    84638908.93949
  21435177.000   112642686.00909  21435175.780    87773546.51348
 15 03 01 03 17  0.0000000  0 10G01G04G11G14G16G18G19G22G27G32
  22984747.840   120785726.18808  22984749.800    94118762.93246
  20953265.040   110110253.26209  20953263.980    85800246.13348
  22014128.660   115685081.71209  22014125.480    90144232.33547
  23800116.860   125070465.56808  23800116.100    97457495.12045
  23172912.100   121774491.72209  23172910.100    94889226.52446
  24613877.220   129346887.66607  24613874.060   100789804.28944
  20524463.840   107856834.35909  20524459.520    84044296.14849
  21670558.880   113879610.56609  21670553.980    88737391.25747
  20675644.180   108651339.82409  20675644.020    84663415.53349
  21418801.780   112556633.71809  21418800.520    87706492.83548
 15 03 01 03 17 30.0000000  0 10G01G04G11G14G16G18G19G22G27G32
  22971994.640   120718708.20108  22971996.640    94066541.17546
  20945706.760   110070534.29609  20945705.620    85769296.31648
  22000905.580   115615594.51009  22000902.480    90090086.50647
  23788975.660   125011918.16408  23788974.860    97411873.80545
  23192656.620   121878250.44808  23192654.640    94970077.60646
  24631208.900   129437966.83707  24631205.820   100860775.06844
  20521500.220   107841260.44409  20521495.940    84032160.63249
  21682121.920   113940374.90709  21682117.020    88784740.10348
  20681704.300   108683185.95609  20681704.120    84688230.69949
  21402506.080   112470999.55209  21402504.780    87639765.02248
 15 03 01 03 18  0.0000000  0 10G01G04G11G14G16G18G19G22G27G32
  22959272.240   120651851.86608  22959274.120    94014445.39546
  20938199.060   110031080.89509  20938197.780    85738553.42748
  21987714.620   115546276.15909  21987711.560    90036072.24647
  23777886.760   124953645.52008  23777885.720    97366466.56845
  23212432.160   121982172.02508  23212430.180    95051055.48646
  24648560.940   129529153.02207  24648558.200   100931829.19745
  20518603.400   107826037.51509  20518599.120    84020298.62449
  21693755.540   114001510.31809  21693750.780    88832378.07648
  20687839.840   108715428.50509  20687839.660    84713354.75949
  21386290.380   112385785.77309  21386289.060    87573364.77348
 15 03 01 03 18 30.0000000  0 10G01G04G11G14G16G18G19G22G27G32
  22946580.280   120585155.12108  22946581.960    93962473.97646
  20930741.500   109991890.85309  20930740.080    85708015.76048
  21974555.620   115477125.42609  21974552.580    89982188.59647
  23766850.260   124895648.09708  23766849.040    97321273.80045
  23232238.020   122086252.75808  23232235.960    95132157.32846
  24665932.640   129620442.51007  24665930.000   101002963.82444
  20515773.260   107811164.98709  20515768.960    84008709.64749
  21705458.980   114063012.42309  21705454.260    88880301.81348
  20694050.500   108748065.79309  20694050.340    84738786.41449
  21370154.780   112300992.85409  21370153.440    87507292.47148
 15 03 01 03 19  0.0000000  0 10G01G04G11G14G16G18G19G22G27G32
  22933918.680   120518618.31908  22933920.240    93910627.16246
  20923334.120   109952964.44609  20923332.580    85677683.52148
  21961428.680   115408143.33509  21961425.660    89928436.34847
  23755866.760   124837929.02708  23755865.380    97276297.91945
  23252073.580   122190489.49708  23252071.500    95213380.75146
  24683323.780   129711833.44708  24683320.900   101074177.58844
  20513010.080   107796644.35709  20513005.740    83997394.87949
  21717231.860   114124879.74109  21717227.160    88928510.11048
  20700336.360   108781098.49409  20700336.240    84764526.17549
  21354099.700   112216623.32009  21354098.380    87441550.12848
 15 03 01 03 19 30.0000000  0 10G01G04G11G14G16G18G19G22G27G32
  22921287.660   120452242.32308  22921289.300    93858905.66846
  20915977.060   109914302.35409  20915975.380    85647557.23448
  21948334.180   115339331.70409  21948331.320    89874816.93848
  23744936.860   124780492.15408  23744935.360    97231541.95145
  23271938.620   122294880.90108  23271936.540    95294724.68346
  24700734.160   129803324.97507  24700731.100   101145469.72945
  20510314.280   107782477.78509  20510309.920    83986355.99849
  21729074.020   114187110.99809  21729069.400    88977001.99748
  20706697.720   108814527.81909  20706697.620    84790574.99349
  21338125.740   112132680.28409  21338124.500    87376140.04348
 15 03 01 03 20  0.0000000  0 10G01G04G11G14G16G18G19G22G27G32
  22908688.040   120386031.30208  22908689.780    93807312.71546
  20908671.120   109875908.93309  20908669.300    85617640.30648
  21935272.980   115270695.31209  21935270.260    89821334.06147
  23734061.980   124723344.29508  23734060.500    97187011.17645
  23291833.280   122399427.77608  23291831.060    95376189.77546
  24718163.960   129894919.35506  24718160.840   101216841.88744
  20507686.960   107768670.76509  20507682.540    83975597.28349
  21740985.880   114249708.16309  21740981.200    89025779.01347
  20713135.460   108848358.28209  20713135.340    84816936.38949
  21322234.160   112049170.21608  21322233.040    87311067.31448
 15 03 01 03 20 30.0000000  0 10G01G04G11G14G16G18G19G22G27G32
  22896118.860   120319980.02508  22896120.700    93755844.25246
  20901415.240   109837778.73509  20901413.360    85587928.48148
  21922244.200   115202229.39209  21922241.680    89767984.02347
  23723241.680   124666483.13208  23723240.120    97142703.78945
  23311756.060   122504122.70208  23311753.800    95457770.26346
  24735611.820   129986609.51907  24735608.900   101288288.69044
  20505127.260   107755219.20709  20505122.780    83965115.55549
  21752966.080   114312664.09509  21752961.280    89074835.58347
  20719648.620   108882584.97909  20719648.460    84843606.53949
  21306424.400   111966089.93209  21306423.280    87246329.36448
 15 03 01 03 21  0.0000000  0 10G01G04G11G14G16G18G19G22G27G32
  22883580.100   120254088.37608  22883581.940    93704500.15846
  20894209.400   109799911.63509  20894207.560    85558421.67748
  21909248.040   115133934.92409  21909245.660    89714767.58847
  23712476.340   124609911.55808  23712474.840    97098622.06845
  23331706.400   122608962.50508  23331704.120    95539463.60146
  24753077.580   130078393.25407  24753074.640   101359808.60543
  20502635.440   107742124.43309  20502630.940    83954911.84649
  21765014.100   114375976.52809  21765009.160    89124169.95548
  20726237.220   108917208.11409  20726237.020    84870585.59949
  21290696.960   111883442.02108  21290695.880    87181928.40347
 15 03 01 03 21 30.0000000  0 10G01G04G11G14G16G18G19G22G27G32
  22871072.140   120188358.75708  22871074.040    93653282.32947
  20887054.000   109762309.76209  20887052.160    85529121.55148
  21896285.140   115065814.73809  21896282.860    89661686.96247
  23701766.980   124553634.50108  23701765.760    97054769.85846
  23351684.260   122713947.03008  23351682.020    95621269.71346
  24770561.360   130170271.16707  24770558.580   101431401.82044
  20500212.220   107729389.90309  20500207.620    83944988.84249
  21777130.040   114439645.76009  21777125.100    89173782.34848
  20732901.760   108952230.36909  20732901.580    84897875.66749
  21275052.660   111801230.91708  21275051.660    87117867.74748
 15 03 01 03 22  0.0000000  0 10G01G04G11G14G16G18G19G22G27G32
  22858594.560   120122788.83708  22858596.540    93602188.92347
  20879948.600   109724970.79609  20879946.800    85500026.27148
  21883355.200   114997867.64709  21883352.980    89608741.20347
  23691113.700   124497652.32708  23691112.880    97011147.41645
  23371688.680   122819071.07008  23371686.480    95703184.60445
  24788062.360   130262239.15107  24788059.880   101503065.09345
  20497857.320   107717014.54209  20497852.620    83935345.70549
  21789313.020   114503667.59509  21789308.100    89223669.48948
  20739641.840   108987649.70209  20739641.700    84925475.13749
  21259491.520   111719456.64509  21259490.580    87054147.53748
 15 03 01 03 22 30.0000000  0 10G01G04G11G14G16G18G19G22G27G32
  22846147.540   120057379.80708  22846149.580    93551220.91047
  20872893.420   109687895.81409  20872891.660    85471136.70648
  21870458.540   114930095.23109  21870456.320    89555931.55147
  23680517.360   124441968.91408  23680516.680    96967757.77146
  23391719.360   122924332.85608  23391717.100    95785206.79646
  24805580.280   130354296.16607  24805578.000   101574797.78244
  20495571.220   107705000.85509  20495566.460    83925984.39549
  21801562.900   114568040.98109  21801558.060    89273830.57548
  20746457.760   109023467.58009  20746457.640    84953385.17249
  21244014.120   111638122.44609  21244013.200    86990770.14548
 15 03 01 03 23  0.0000000  0 10G01G04G11G14G16G18G19G22G27G32
  22833731.240   119992132.29308  22833733.380    93500378.73247
  20865888.640   109651085.64609  20865886.860    85442453.48348
  21857595.400   114862499.12609  21857593.180    89503259.27648
  23669978.700   124386587.75908  23669977.960    96924603.66046
  23411775.920   123029730.85908  23411773.740    95867335.09345
  24823115.000   130446441.28707  24823112.580   101646599.18244
  20493354.280   107693350.68609  20493349.480    83916906.34749
  21813879.440   114632764.73009  21813874.620    89324264.67048
  20753349.740   109059684.95109  20753349.560    84981606.49649
  21228621.080   111557231.29309  21228620.120    86927738.02548
 15 03 01 03 23 30.0000000  0 10G01G04G11G14G16G18G19G22G27G32
  22821345.240   119927043.91508  22821347.420    93449660.56746
  20858933.740   109614537.59709  20858931.980    85413974.50248
  21844765.420   114795077.66209  21844763.260    89450723.10947
  23659497.680   124331509.21708  23659496.680    96881685.33545
  23431857.340   123135259.54308  23431855.200    95949565.13945
  24840665.720   130538670.53907  24840663.160   101718466.18444
  20491206.280   107682062.77009  20491201.500    83908110.57149
  21826261.760   114697834.45809  21826256.940    89374968.35447
  20760317.280   109096299.63109  20760317.060    85010137.40549
  21213312.360   111476783.03809  21213311.400    86865050.99748
 15 03 01 03 24  0.0000000  0 10G01G04G11G14G16G18G19G22G27G32
  22808990.200   119862117.96308  22808992.260    93399068.95247
  20852029.320   109578254.84109  20852027.560    85385702.24648
  21831969.460   114727834.95309  21831967.360    89398326.22247
  23649075.400   124276739.66408  23649074.240    96839007.78145
  23451963.780   123240919.33608  23451961.580    96031897.42045
  24858232.480   130630985.17406  24858230.000   101790399.65244
  20489128.120   107671141.90209  20489123.320    83899600.81049
  21838710.080   114763251.15209  21838705.340    89425942.40147
  20767361.080   109133315.20209  20767360.860    85038980.70149
  21198089.000   111396783.12109  21198087.980    86802713.32148
 15 03 01 03 24 30.0000000  0 10G01G04G11G14G16G18G19G22G27G32
  22796665.020   119797348.75208  22796666.980    93348599.48247
  20845174.340   109542231.83809  20845172.600    85357632.39748
  21819206.640   114660766.05509  21819204.500    89346064.76147
  23638711.160   124222275.75608  23638710.100    96796568.41345
  23472093.660   123346702.38808  23472091.380    96114325.78945
  24875814.020   130723377.53407  24875811.340   101862393.65744
  20487118.940   107660583.45909  20487114.040    83891373.45949
  21851222.920   114829006.78509  21851218.220    89477180.55747
  20774480.120   109170726.19109  20774479.980    85068132.11549
  21182950.280   111317228.06909  21182949.220    86740722.31648
 15 03 01 03 25  0.0000000  0 10G01G04G11G14G16G18G19G22G27G32
  22784371.300   119732744.65708  22784373.280    93298258.66846
  20838370.340   109506476.73209  20838368.600    85329771.29748
  21806478.520   114593879.72209  21806476.440    89293945.57147
  23628407.260   124168128.70408  23628406.340    96754375.93245
  23492247.940   123452613.85509  23492245.620    96196854.37446
  24893411.680   130815854.07407  24893409.020   101934453.30344
  20485180.540   107650397.18709  20485175.560    83883436.10349
  21863801.480   114895107.88009  21863796.740    89528687.90347
  20781676.020   109208541.15109  20781676.000    85097598.30749
  21167898.220   111238128.32409  21167897.140    86679086.09448
 15 03 01 03 25 30.0000000  0 10G01G04G11G14G16G18G19G22G27G32
  22772107.260   119668296.44208  22772109.180    93248039.33747
  20831615.540   109470980.49609  20831613.860    85302111.91448
  21793783.600   114527167.85609  21793781.620    89241962.33047
  23618162.560   124114292.28108  23618161.640    96712425.49145
  23512424.400   123558642.02308  23512422.080    96279473.80045
  24911023.400   130908404.19307  24911020.940   102006570.27544
  20483311.420   107640574.93809  20483306.400    83875782.40649
  21876443.580   114961543.21809  21876438.940    89580455.69347
  20788947.180   109246751.19109  20788947.200    85127372.35949
  21152931.440   111159477.06009  21152930.340    86617799.35848
 15 03 01 03 26  0.0000000  0  9G01G04G11G14G16G19G22G27G32
  22759874.620   119604013.52708  22759876.560    93197948.79347
  20824911.680   109435751.97109  20824910.040    85274661.13348
  21781123.860   114460640.88009  21781122.000    89190123.15547
  23607979.320   124060778.24308  23607978.160    96670726.27945
  23532624.200   123664793.19308  23532621.940    96362189.11445
  20481513.580   107631127.28209  20481508.560    83868420.60749
  21889150.660   115028319.87309  21889146.200    89632489.44448
  20796295.360   109285365.84109  20796295.340    85157461.68649
  21138052.120   111081285.63709  21138051.040    86556871.00748
 15 03 01 03 26 30.0000000  0  9G01G04G11G14G16G19G22G27G32
  22747672.000   119539888.24208  22747673.920    93147981.08247
  20818257.320   109400783.68809  20818255.800    85247413.13748
  21768498.020   114394291.79309  21768496.100    89138422.59047
  23597856.480   124007581.57908  23597854.980    96629274.34645
  23552845.440   123771057.14608  23552843.260    96444992.20745
  20479785.800   107622047.86309  20479780.760    83861345.73149
  21901920.940   115095428.24509  21901916.540    89684781.68447
  20803719.080   109324377.62209  20803719.000    85187860.46649
  21123259.240   111003548.55909  21123258.160    86496296.68848
 15 03 01 03 27  0.0000000  0 10G01G03G04G11G14G16G19G22G27G32
  22735499.320   119475920.28808  22735501.160    93098135.98047
  24627619.560   129419011.82707  24627624.020   100845992.06246
  20811652.380   109366075.20909  20811650.980    85220367.59148
  21755906.120   114328120.81509  21755904.100    89086860.82348
  23587794.480   123954705.03108  23587792.780    96588071.86946
  23573087.640   123877430.96708  23573085.500    96527880.84945
  20478128.240   107613337.57909  20478123.260    83854558.50949
  21914753.960   115162866.06809  21914749.420    89737330.64147
  20811218.340   109363786.44909  20811218.200    85218568.64149
  21108553.140   110926267.61909  21108552.080    86436077.84048
 15 03 01 03 27 30.0000000  0 10G01G03G04G11G14G16G19G22G27G32
  22723358.180   119412118.58908  22723360.000    93048420.40947
  24606944.820   129310365.00908  24606949.180   100761332.46046
  20805098.600   109331635.55609  20805097.320    85193531.51648
  21743350.020   114262137.94309  21743347.980    89035445.62547
  23577795.520   123902159.98408  23577793.720    96547127.70846
  23593351.920   123983920.71108  23593349.820    96610859.79445
  20476542.820   107605006.36109  20476537.880    83848066.64749
  21927651.000   115230640.15209  21927646.420    89790141.61447
  20818794.820   109403601.36209  20818794.700    85249593.24049
  21093935.860   110849453.82209  21093934.840    86376222.99748
 15 03 01 03 28  0.0000000  0 10G01G03G04G11G14G16G19G22G27G32
  22711246.300   119348470.79008  22711248.160    92998824.77147
  24586288.000   129201812.88208  24586292.240   100676746.53245
  20798593.620   109297452.11509  20798592.380    85166895.08348
  21730827.480   114196331.36209  21730825.380    88984167.79947
  23567857.720   123849936.92108  23567855.900    96506434.43645
  23613635.400   124090511.41508  23613633.440    96693917.41845
  20475027.460   107597043.33309  20475022.600    83841861.69349
  21940609.240   115298735.68209  21940604.540    89843203.06247
  20826446.240   109443810.19509  20826446.180    85280924.78849
  21079405.480   110773096.83009  21079404.520    86316724.11448
 15 03 01 03 28 30.0000000  0 10G01G03G04G11G14G16G19G22G27G32
  22699165.560   119284986.25408  22699167.380    92949356.33047
  24565651.400   129093367.00608  24565655.440   100592243.42046
  20792139.200   109263534.25309  20792137.980    85140465.59348
  21718340.480   114130711.56309  21718338.320    88933035.50447
  23557983.400   123798047.71808  23557981.620    96466001.31245
  23633939.400   124197209.83608  23633937.500    96777058.99246
  20473584.160   107589459.06009  20473579.340    83835951.86549
  21953630.060   115367160.24809  21953625.240    89896520.91447
  20834174.460   109484422.44909  20834174.440    85312570.68849
  21064964.280   110697208.21909  21064963.340    86257590.24248
 15 03 01 03 29  0.0000000  0 10G01G03G04G11G14G16G19G22G27G32
  22687114.880   119221659.02008  22687116.520    92900010.47647
  24545034.240   128985023.53308  24545038.040   100507820.13745
  20785734.240   109229876.03009  20785732.940    85114238.43048
  21705888.000   114065273.25009  21705885.860    88882044.64847
  23548172.080   123746489.30608  23548170.340    96425825.96545
  23654262.180   124304006.84508  23654260.300    96860277.32745
  20472212.020   107582248.59509  20472207.260    83830333.32849
  21966711.980   115435905.75009  21966707.120    89950088.84147
  20841978.420   109525432.34409  20841978.360    85344526.44449
  21050611.420   110621783.84009  21050610.460    86198818.08748
 15 03 01 03 29 30.0000000  0 10G01G03G04G11G14G16G19G22G27G32
  22675094.740   119158492.26908  22675096.260    92850789.66647
  24524437.460   128876787.61708  24524441.240   100423480.65945
  20779379.300   109196480.46809  20779377.940    85088215.92948
  21693470.820   114000020.39509  21693468.560    88831198.28948
  23538424.840   123695267.17208  23538423.140    96385912.63246
  23674603.940   124410903.29908  23674602.040    96943573.15445
  20470911.840   107575416.30809  20470907.180    83825009.46249
  21979855.160   115504973.30109  21979850.260    90003907.71047
  20849858.680   109566843.14209  20849858.600    85376794.58949
  21036347.900   110546828.98909  21036346.920    86140411.76748
 15 03 01 03 30  0.0000000  0 10G01G03G04G11G14G16G19G22G27G32
  22663105.040   119095485.39008  22663106.400    92801693.43947
  24503861.360   128768660.67908  24503865.100   100339226.10145
  20773074.280   109163346.89209  20773072.800    85062397.57848
  21681089.040   113934953.36309  21681086.700    88780496.73347
  23528741.900   123644383.45508  23528740.360    96346263.02346
  23694963.960   124517895.48508  23694962.180    97026943.64746
  20469683.780   107568962.68509  20469679.120    83819980.67149
  21993059.020   115574359.95209  21993054.120    90057975.23647
  20857815.100   109608654.33309  20857815.020    85409374.73349
  21022174.000   110472345.13009  21022172.980    86082372.48248
 15 03 01 03 30 30.0000000  0 10G01G03G04G11G14G16G19G22G27G32
  22651145.820   119032639.14908  22651147.080    92752722.38447
  24483306.500   128660645.47708  24483310.320   100255058.58146
  20766819.260   109130475.98309  20766817.660    85036783.89548
  21668742.860   113870073.46809  21668740.380    88729940.99947
  23519124.040   123593841.76408  23519122.460    96306879.92646
  23715341.920   124624981.74708  23715340.220    97110387.38145
  20468528.180   107562889.73009  20468523.480    83815248.49849
  22006323.360   115644064.50809  22006318.480    90112290.47147
  20865847.840   109650866.79309  20865847.780    85442267.55349
  21008090.240   110398334.81909  21008089.180    86024702.13448
 15 03 01 03 31  0.0000000  0 10G01G03G04G11G14G16G19G22G27G32
  22639216.960   118969952.61108  22639218.220    92703875.76847
  24462773.140   128552743.08008  24462776.980   100170978.88146
  20760614.020   109097866.63809  20760612.320    85011374.03348
  21656432.260   113805380.70709  21656429.660    88679531.07447
  23509571.640   123543643.87008  23509570.100    96267764.71346
  23735737.160   124732158.84708  23735735.480    97193901.87546
  20467445.060   107557197.88309  20467440.340    83810813.29549
  22019647.640   115714083.95309  22019642.720    90166851.08247
  20873956.820   109693479.67809  20873956.800    85475472.39049
  20994096.880   110324799.31309  20994095.780    85967401.73048
 15 03 01 03 31 30.0000000  0 10G01G03G04G11G14G16G19G22G27G32
  22627318.380   118907425.14808  22627319.700    92655153.10847
  24442261.580   128444955.02408  24442265.420   100086988.30746
  20754458.420   109065518.45009  20754456.700    84986167.66948
  21644157.320   113740875.43909  21644154.560    88629267.25947
  23500085.120   123493791.60308  23500083.620    96228918.81146
  23756149.040   124839423.02308  23756147.280    97277484.24145
  20466434.540   107551887.62209  20466429.860    83806675.42549
  22033031.200   115784415.46709  22033026.400    90221654.86047
  20882141.900   109736492.40909  20882141.920    85508988.79449
  20980194.120   110251739.81609  20980193.020    85910472.26648
 15 03 01 03 32  0.0000000  0 10G01G03G04G11G14G16G19G22G27G32
  22615449.640   118845054.44108  22615450.920    92606552.60047
  24421771.780   128337281.08208  24421775.660   100003086.66546
  20748351.980   109033428.77609  20748350.280    84961162.74448
  21631917.740   113676556.09309  21631914.820    88579148.31947
  23490664.420   123444285.16808  23490662.900    96190342.39446
  23776576.500   124946769.19808  23776574.720    97361130.54445
  20465496.300   107546957.45609  20465491.680    83802833.73349
  22046473.320   115855054.69909  22046468.540    90276698.42447
  20890402.640   109779902.78009  20890402.700    85542815.04949
  20966381.900   110179155.92609  20966380.820    85853913.32348
 15 03 01 03 32 30.0000000  0 10G01G03G04G11G14G16G19G22G27G32
  22603611.880   118782846.15408  22603613.020    92558078.64147
  24401305.200   128229728.84108  24401309.020    99919279.85546
  20742295.780   109001603.36609  20742294.180    84936363.73648
  21619714.780   113612429.21309  21619711.800    88529179.34447
  23481311.100   123395132.87108  23481309.380    96152041.93446
  23797020.220   125054200.72308  23797018.400    97444843.35645
  20464631.740   107542414.29309  20464627.180    83799293.59849
  22059974.660   115926005.14609  22059969.920    90331984.46847
  20898740.120   109823716.43609  20898740.200    85576955.55249
  20952661.680   110107055.39709  20952660.600    85797731.07448
 15 03 01 03 33  0.0000000  0 10G01G03G04G11G14G16G19G22G27G32
  22591803.760   118720793.54408  22591804.800    92509725.99147
  24380860.920   128122293.68408  24380864.700    99835564.27146
  20736288.580   108970035.38609  20736287.060    84911765.32648
  21607547.360   113548488.77909  21607544.280    88479355.65447
  23472024.400   123346330.60708  23472022.480    96114014.21745
  23817478.320   125161707.81908  23817476.420    97528615.04946
  20463839.800   107538252.70709  20463835.300    83796050.80449
  22073533.640   115997257.96409  22073528.920    90387506.14347
  20907153.020   109867926.69509  20907153.100    85611405.09249
  20939032.540   110035433.41509  20939031.460    85741921.75648
 15 03 01 03 33 30.0000000  0 10G01G03G04G11G14G16G19G22G27G32
  22580026.440   118658903.34108  22580027.420    92461499.90147
  24360440.580   128014984.40208  24360444.240    99751946.84346
  20730331.600   108938731.49409  20730330.120    84887372.70248
  21595416.900   113484742.58209  21595413.760    88429683.31947
  23462806.000   123297887.54408  23462803.960    96076266.39845
  23837951.560   125269294.64308  23837949.680    97612448.89145
  20463121.900   107534480.37509  20463117.480    83793111.32449
  22087151.000   116068817.84509  22087146.280    90443267.08647
  20915642.720   109912540.32209  20915642.720    85646168.95349
  20925496.080   109964298.55609  20925494.940    85686492.01548
 15 03 01 03 34  0.0000000  0 10G01G03G04G11G14G16G19G22G27G32
  22568279.200   118597171.58508  22568280.140    92413397.27247
  24340043.800   127907799.03808  24340047.360    99668425.99546
  20724424.100   108907687.48209  20724422.660    84863182.57348
  21583322.720   113421187.16109  21583319.560    88380159.63948
  23453655.580   123249802.51108  23453653.640    96038797.56545
  23858438.660   125376954.52108  23858436.760    97696339.68445
  20462477.520   107531094.37409  20462473.120    83790472.88049
  22100825.660   116140678.73109  22100820.940    90499262.57447
  20924208.500   109957553.35809  20924208.440    85681244.03449
  20912051.900   109893648.68809  20912050.680    85631440.16748
 15 03 01 03 34 30.0000000  0 10G01G03G04G11G14G16G19G22G27G32
  22556562.360   118535599.45408  22556563.220    92365419.02447
  24319671.180   127800740.75408  24319674.760    99585004.14246
  20718566.300   108876904.71709  20718564.920    84839196.01348
  21571265.340   113357825.11209  21571262.160    88330786.63947
  23444573.920   123202078.93808  23444572.200    96001610.39246
  23878939.340   125484685.90908  23878937.420    97780286.20045
  20461907.180   107528097.21509  20461902.740    83788137.42549
  22114557.360   116212839.54609  22114552.760    90555491.76447
  20932850.520   110002967.00209  20932850.420    85716631.27249
  20898700.560   109823486.89609  20898699.280    85576768.64948
 15 03 01 03 35  0.0000000  0 10G01G03G04G11G14G16G19G22G27G32
  22544875.480   118474184.97708  22544876.420    92317563.62047
  24299322.680   127693809.57708  24299326.280    99501681.36846
  20712757.820   108846381.18509  20712756.500    84815411.45548
  21559244.440   113294654.95109  21559241.180    88281563.15747
  23435561.240   123154717.53908  23435559.580    95964705.42745
  23899452.740   125592484.25408  23899450.860    97864284.93945
  20461410.680   107525488.13709  20461406.280    83786104.37749
  22128345.400   116285296.06409  22128340.660    90611951.39547
  20941568.300   110048779.24209  20941568.260    85752329.11249
  20885442.020   109753813.00809  20885440.740    85522477.30848
 15 03 01 03 35 30.0000000  0 10G01G03G04G11G14G16G19G22G27G32
  22533219.060   118412930.97708  22533220.140    92269833.27247
  24278999.300   127587010.36608  24279002.780    99418461.40746
  20706999.220   108816119.43309  20706997.920    84791830.87948
  21547260.720   113231680.45309  21547257.460    88232492.14847
  23426618.540   123107723.68308  23426616.880    95928086.86446
  23919978.760   125700349.25108  23919976.960    97948335.59645
  20460988.740   107523270.85909  20460984.400    83784376.62849
  22142189.920   116358049.17709  22142185.140    90668642.12047
  20950362.440   110094992.86509  20950362.460    85788339.72149
  20872277.240   109684631.81709  20872275.940    85468569.97048
 15 03 01 03 36  0.0000000  0 10G01G03G04G11G14G16G19G22G27G32
  22521592.480   118351833.73308  22521593.680    92222225.06047
  24258700.740   127480341.47808  24258704.180    99335343.04046
  20701289.700   108786115.53709  20701288.320    84768451.23248
  21535313.700   113168898.90709  21535310.480    88183571.48147
  23417745.560   123061096.35208  23417744.100    95891753.91845
  23940516.360   125808274.96808  23940514.500    98032433.61046
  20460640.820   107521442.58509  20460636.500    83782951.99949
  22156089.740   116431092.89009  22156084.760    90725559.29547
  20959232.220   110141604.10209  20959232.300    85824660.15349
  20859205.840   109615941.18609  20859204.500    85415044.80748
 15 03 01 03 36 30.0000000  0 10G01G03G04G11G14G16G19G22G27G32
  22509996.580   118290897.40608  22509997.880    92174742.23547
  24238428.060   127373809.08408  24238431.520    99252331.05446
  20695630.080   108756374.03109  20695628.660    84745276.04048
  21523404.260   113106315.10009  21523401.140    88134804.89947
  23408943.600   123014842.18208  23408942.240    95855711.72846
  23961065.780   125916263.03008  23961063.860    98116580.20845
  20460367.940   107520008.81909  20460363.640    83781834.77549
  22170045.260   116504429.33309  22170040.160    90782704.56547
  20968178.480   110188617.09709  20968178.560    85861293.63549
  20846228.900   109547747.10609  20846227.580    85361906.56148
 15 03 01 03 37  0.0000000  0 10G01G03G04G11G14G16G19G22G27G32
  22498430.600   118230118.22008  22498432.000    92127381.86547
  24218180.980   127267411.17008  24218184.360    99169423.78846
  20690019.640   108726890.94809  20690018.180    84722302.21848
  21511531.920   113043926.35409  21511529.000    88086190.32148
  23400212.360   122968959.59508  23400211.020    95819959.08746
  23981625.760   126024306.74008  23981623.840    98200770.17146
  20460169.580   107518966.58509  20460165.320    83781022.64349
  22184055.420   116578052.95209  22184050.420    90840073.61347
  20977200.560   110236027.98009  20977200.540    85898237.17249
  20833346.100   109480047.72409  20833344.840    85309153.80248
 15 03 01 03 37 30.0000000  0 10G01G03G04G11G14G16G19G22G27G32
  22486894.880   118169498.12808  22486896.400    92080145.46047
  24197960.260   127161151.65908  24197963.580    99086624.27846
  20684458.780   108697668.14809  20684457.240    84699531.21948
  21499697.260   112981735.40609  21499694.520    88037729.85647
  23391552.640   122923453.01608  23391551.560    95784499.44446
  24002196.220   126132405.41608  24002194.380    98285002.95946
  20460046.300   107518318.77109  20460042.020    83780517.85249
  22198120.120   116651963.07909  22198115.080    90897665.91747
  20986298.680   110283838.60309  20986298.600    85935492.20249
  20820558.100   109412846.63509  20820556.920    85256789.32948
 15 03 01 03 38  0.0000000  0 10G01G03G04G11G14G16G19G22G27G32
  22475388.960   118109034.52308  22475390.540    92033030.99148
  24177765.880   127055030.15908  24177769.180    99003932.28046
  20678946.920   108668702.88609  20678945.240    84676960.88848
  21487899.960   112919740.54109  21487897.300    87989422.18347
  23382964.640   122878322.62208  23382963.700    95749332.92645
  24022776.020   126240553.37108  24022774.180    98369274.12945
  20459997.920   107518064.33509  20459993.580    83780319.58449
  22212238.420   116726155.27009  22212233.400    90955478.00247
  20995472.240   110332046.33009  20995472.240    85973056.64549
  20807864.740   109346142.98509  20807863.700    85204812.47848
 15 03 01 03 38 30.0000000  0 10G01G03G04G11G14G16G19G22G27G32
  22463913.660   118048731.64808  22463915.300    91986041.77547
  24157599.000   126949052.89208  24157602.300    98921352.67346
  20673484.840   108639999.41209  20673483.060    84654594.56348
  21476140.980   112857947.01509  21476138.460    87941271.40047
  23374449.500   122833574.87508  23374448.300    95714464.56245
  24043365.620   126348752.80608  24043363.820    98453585.48445
  20460025.340   107518208.35709  20460020.960    83780431.81249
  22226410.740   116800631.44309  22226405.700    91013511.38847
  21004722.100   110380655.25009  21004722.260    86010933.71849
  20795267.220   109279942.80709  20795266.240    85153227.96048
 15 03 01 03 39  0.0000000  0 10G01G03G04G11G14G16G19G22G27G32
  22452468.080   117988584.97708  22452469.680    91939174.28848
  24137459.080   126843217.33608  24137462.320    98838883.47346
  20668071.640   108611553.05409  20668069.800    84632428.59048
  21464419.620   112796350.97609  21464417.140    87893274.52048
  23366006.780   122789207.85608  23366005.240    95679892.89446
  24063963.560   126456996.23708  24063961.700    98537931.09246
  20460127.920   107518747.30609  20460123.500    83780851.77149
  22240635.920   116875385.00609  22240630.720    91071760.92147
  21014047.480   110429660.69509  21014047.680    86049119.76649
  20782765.020   109214243.19009  20782764.000    85102033.49048
 15 03 01 03 39 30.0000000  0 10G01G03G04G11G14G16G19G22G27G32
  22441053.040   117928598.68608  22441054.620    91892431.73747
  24117347.280   126737529.67608  24117350.540    98756529.55846
  20662708.200   108583368.04209  20662706.320    84610466.24248
  21452736.880   112734957.72609  21452734.380    87845435.63047
  23357637.680   122745227.93908  23357635.900    95645622.85145
  24084570.180   126565285.40208  24084568.360    98622312.32845
  20460306.620   107519686.45209  20460302.240    83781583.56949
  22254914.200   116950417.96309  22254908.940    91130228.15447
  21023449.140   110479066.73809  21023449.340    86087617.96749
  20770359.200   109149050.04209  20770358.100    85051233.65948
 15 03 01 03 40  0.0000000  0 10G01G03G04G11G14G16G19G22G27G32
  22429667.900   117868769.07208  22429669.400    91845811.29747
  24097263.360   126631988.26408  24097266.500    98674289.62846
  20657393.760   108555440.52909  20657391.880    84588704.55648
  21441092.220   112673764.37509  21441089.600    87797752.51847
  23349342.020   122701634.03808  23349340.260    95611653.60646
  24105184.240   126673613.84708  24105182.480    98706724.18845
  20460561.000   107521023.13609  20460556.620    83782625.13549
  22269244.580   117025724.58109  22269239.420    91188908.63447
  21032926.380   110528869.52709  21032926.440    86126425.33149
  20758049.360   109084361.31509  20758048.160    85000826.90048
 15 03 01 03 40 30.0000000  0 10G01G03G04G11G14G16G19G22G27G32
  22418312.680   117809096.84708  22418314.060    91799313.49448
  24077207.800   126526595.65008  24077210.880    98592165.62846
  20652128.460   108527771.13309  20652126.600    84567143.99448
  21429485.980   112612772.48409  21429483.240    87750226.38148
  23341120.440   122658429.04708  23341118.740    95577987.39546
  24125805.380   126781979.45408  24125803.660    98791164.97745
  20460891.280   107522758.78409  20460886.940    83783977.58749
  22283626.780   117101303.55509  22283621.800    91247801.33347
  21042479.220   110579069.61409  21042479.180    86165542.27049
  20745835.920   109020179.27009  20745834.640    84950814.96648
 15 03 01 03 41  0.0000000  0 10G01G03G04G11G14G16G19G22G27G32
  22406987.540   117749582.84208  22406988.840    91752938.97147
  24057181.080   126421354.68908  24057184.080    98510159.78346
  20646912.400   108500360.61809  20646910.540    84545785.16648
  21417918.480   112551983.89209  21417915.600    87702858.66748
  23332973.600   122615616.49608  23332971.940    95544626.98746
  24146433.320   126890380.64408  24146431.800    98875633.46945
  20461297.840   107524895.48209  20461293.540    83785642.54249
  22298060.540   117177153.41609  22298055.620    91306905.11247
  21052107.680   110629667.67609  21052107.660    86204969.32949
  20733719.340   108956506.43309  20733718.020    84901199.79948
 15 03 01 03 41 30.0000000  0 10G01G03G04G11G14G16G19G22G27G32
  22395692.320   117690226.38908  22395693.560    91706687.22647
  24037183.440   126316266.66608  24037186.360    98428273.10346
  20641745.460   108473208.45709  20641743.700    84524627.65448
  21406389.740   112491398.79509  21406386.760    87655649.51348
  23324901.740   122573197.92308  23324900.040    95511573.58246
  24167067.300   126998813.50308  24167065.840    98960126.60645
  20461780.800   107527433.72209  20461776.560    83787620.38749
  22312545.240   117253271.18509  22312540.320    91366217.65447
  21061811.580   110680662.80309  21061811.740    86244705.77749
  20721699.800   108893343.64509  20721698.520    84851982.07148
 15 03 01 03 42  0.0000000  0 10G01G03G04G11G14G16G19G22G27G32
  22384427.400   117631029.15508  22384428.660    91660559.53447
  24017215.540   126211335.14008  24017218.480    98346508.32746
  20636627.960   108446316.22509  20636626.380    84503672.68148
  21394900.220   112431019.94309  21394897.120    87608601.07848
  23316905.620   122531177.43308  23316903.780    95478830.36346
  24187707.280   127107277.70608  24187705.760    99044644.15045
  20462340.580   107530375.69809  20462336.420    83789912.83649
  22327080.820   117329656.57309  22327075.820    91425738.73547
  21071591.340   110732056.51609  21071591.680    86284752.81249
  20709777.980   108830694.21309  20709776.760    84803164.35848
 15 03 01 03 42 30.0000000  0 10G01G03G04G11G14G16G19G22G27G32
  22373192.340   117571988.91108  22373193.640    91614554.16948
  23997277.420   126106559.90608  23997280.320    98264865.31646
  20631559.460   108419681.49309  20631558.040    84482918.34648
  21383449.640   112370845.89309  21383446.420    87561712.21848
  23308985.160   122489555.00308  23308983.200    95446397.31346
  24208352.340   127215768.10508  24208350.700    99129182.06445
  20462977.100   107533720.55209  20462972.940    83792519.20349
  22341666.520   117406305.41209  22341661.740    91485465.09147
  21081446.600   110783846.29709  21081446.980    86325108.47349
  20697953.760   108768557.51009  20697952.600    84754746.17948
 15 03 01 03 43  0.0000000  0 10G01G03G04G11G14G16G19G22G27G32
  22361987.560   117513107.80708  22361988.860    91568672.82147
  23977369.820   126001945.21108  23977372.720    98183347.45646
  20626540.420   108393306.56809  20626539.120    84462366.46048
  21372038.540   112310879.79509  21372035.240    87514985.40948
  23301141.240   122448335.29608  23301139.140    95414278.09446
  24229002.320   127324284.32208  24229000.640    99213740.10445
  20463690.820   107537471.05009  20463686.640    83795441.67149
  22356302.280   117483217.31209  22356297.660    91545396.43547
  21091377.700   110836034.10909  21091378.000    86365774.29449
  20686227.820   108706937.22109  20686226.660    84706730.43348
 15 03 01 03 43 30.0000000  0 10G01G03G04G11G14G16G19G22G27G32
  22350812.560   117454382.84608  22350813.820    91522913.12548
  23957492.600   125897490.03108  23957495.460    98101953.95846
  20621570.160   108367187.90609  20621568.920    84442014.26048
  21360666.520   112251119.57409  21360663.240    87468419.01148
  23293373.860   122407517.37508  23293371.720    95382471.93046
  24249656.140   127432820.67908  24249654.520    99298313.83845
  20464481.360   107541625.20309  20464477.160    83798678.66749
  22370987.220   117560387.65309  22370982.800    91605529.14147
  21101383.960   110888616.71109  21101384.160    86406747.73249
  20674599.860   108645831.83409  20674598.620    84659115.89548
 15 03 01 03 44  0.0000000  0 10G01G03G04G11G14G16G19G22G27G32
  22339667.640   117395815.88508  22339668.900    91477276.57848
  23937646.440   125793197.96908  23937649.300    98020687.54846
  20616649.080   108341327.76409  20616647.920    84421863.50648
  21349334.140   112191567.86709  21349330.900    87422015.10248
  23285683.720   122367105.57708  23285681.620    95350982.24246
  24270313.640   127541376.20608  24270312.020    99382902.48945
  20465349.240   107546185.91909  20465345.040    83802232.47849
  22385721.240   117637815.50309  22385716.840    91665862.51747
  21111465.560   110941595.72209  21111465.720    86448030.06849
  20663070.520   108585244.71509  20663069.220    84611905.22648
 15 03 01 03 44 30.0000000  0 10G01G03G04G11G14G16G19G22G27G32
  22328552.580   117337405.65908  22328553.780    91431762.13648
  23917831.480   125689069.74308  23917834.320    97939548.78347
  20611776.920   108315724.65009  20611775.800    84401913.03648
  21338041.440   112132224.60409  21338038.300    87375773.62148
  23278071.000   122327100.79508  23278069.040    95319809.71146
  24290974.100   127649947.23008  24290972.480    99467503.20545
  20466294.440   107551152.86609  20466290.220    83806102.82449
  22400503.780   117715497.95909  22400499.300    91726394.29747
  21121622.240   110994969.56109  21121622.420    86489620.05949
  20651639.700   108525175.91809  20651638.440    84565098.37748
 15 03 01 03 45  0.0000000  0 10G01G03G04G11G14G16G19G22G27G32
  22317467.420   117279152.70008  22317468.500    91386370.24448
  23898048.140   125585107.81808  23898050.920    97858539.57747
  20606953.820   108290379.18309  20606952.720    84382163.32648
  21326788.600   112073091.04609  21326785.540    87329695.53347
  23270536.240   122287505.92608  23270534.500    95288956.59546
  24311637.140   127758531.89708  24311635.540    99552114.56845
  20467317.220   107556527.54209  20467312.940    83810290.88449
  22415334.440   117793433.57509  22415329.900    91787123.34247
  21131854.140   111048738.49609  21131854.300    86531517.91949
  20640307.920   108465627.50609  20640306.700    84518697.03448
 15 03 01 03 45 30.0000000  0 10G01G03G04G11G14G16G19G22G27G32
  22306412.360   117221057.84208  22306413.320    91341101.54247
  23878296.940   125481314.95608  23878299.740    97777662.10246
  20602179.900   108265291.99609  20602178.780    84362614.87448
  21315575.960   112014168.96309  21315572.920    87283782.24348
  23263080.040   122248324.01408  23263078.540    95258425.26146
  24332302.300   127867127.64108  24332300.660    99636734.52445
  20468417.880   107562311.47609  20468413.600    83814797.83949
  22430213.040   117871620.70409  22430208.260    91848048.36847
  21142161.320   111102903.03209  21142161.520    86573724.03749
  20629075.640   108406601.96009  20629074.480    84472703.16348
 15 03 01 03 46  0.0000000  0 11G01G03G04G11G14G16G19G22G27G28G32
  22295387.260   117163120.46108  22295388.240    91295955.57248
  23858578.140   125377692.42708  23858581.000    97696917.34847
  20597455.040   108240462.40009  20597453.820    84343267.14948
  21304403.600   111955458.78009  21304400.620    87238034.06248
  23255702.800   122209556.66308  23255701.280    95228216.95946
  24352969.140   127975732.13008  24352967.440    99721361.32645
  20469596.520   107568505.17709  20469592.260    83819624.09949
  22445138.980   117950056.73009  22445134.240    91909167.33947
  21152543.660   111157462.26309  21152543.840    86616237.71149
  25091297.580   131855659.04007  25091296.840   102744655.97345
  20617943.020   108348099.76209  20617941.820    84427117.07448
 15 03 01 03 46 30.0000000  0 11G01G03G04G11G14G16G19G22G27G28G32
  22284392.480   117105342.47608  22284393.420    91250933.79848
  23838892.480   125274244.09308  23838895.340    97616308.29746
  20592779.600   108215892.35009  20592778.240    84324121.65848
  21293272.060   111896963.31409  21293269.220    87192453.19047
  23248405.320   122171208.15508  23248403.540    95198335.01646
  24373637.540   128084344.66408  24373635.720    99805994.39245
  20470853.580   107575111.27109  20470849.340    83824771.69549
  22460112.300   118028741.64609  22460107.480    91970480.24547
  21163001.360   111212417.76309  21163001.540    86659060.16549
  25076061.300   131775588.16207  25076059.800   102682263.16146
  20606910.700   108290124.47209  20606909.420    84381941.59348
 15 03 01 03 47  0.0000000  0 11G01G03G04G11G14G16G19G22G27G28G32
  22273426.200   117047714.13808  22273427.060    91206028.61648
  23819238.540   125170962.13308  23819241.240    97535828.88746
  20588151.700   108191572.07809  20588150.180    84305170.81148
  21282179.720   111838673.65709  21282177.020    87147032.69247
  23241186.140   122133270.86608  23241184.060    95168773.51946
  24394304.980   128192952.35208  24394303.220    99890623.70545
  20472187.460   107582120.91309  20472183.240    83830233.75849
  22475130.640   118107663.03709  22475125.820    92031977.42847
  21173532.500   111267759.43309  21173532.740    86702183.53348
  25060879.100   131695801.82308  25060877.140   102620092.00845
  20595977.020   108232667.57409  20595975.660    84337170.02148
 15 03 01 03 47 30.0000000  0 11G01G03G04G11G14G16G19G22G27G28G32
  22262490.440   116990246.47608  22262491.260    91161248.65748
  23799618.760   125067859.48808  23799621.360    97455489.20446
  20583573.400   108167512.47309  20583571.700    84286423.07748
  21271128.920   111780601.97509  21271126.400    87101782.05048
  23234047.760   122095757.93708  23234045.460    95139542.69846
  24414973.040   128301563.49908  24414971.380    99975255.71045
  20473600.380   107589545.89209  20473596.160    83836019.45049
  22490195.700   118186830.16009  22490190.720    92093666.08647
  21184139.160   111323497.96009  21184139.440    86745616.13948
  25045753.400   131616313.52108  25045750.980   102558153.06745
  20585144.340   108175741.35709  20585142.900    84292811.93048
 15 03 01 03 48  0.0000000  0 11G01G03G04G11G14G16G19G22G27G28G32
  22251584.220   116932934.40808  22251585.040    91116589.92348
  23780032.500   124964932.98408  23780035.020    97375286.77946
  20579043.720   108143708.26609  20579041.840    84267874.35748
  21260118.840   111722744.07709  21260116.400    87056697.98548
  23226989.500   122058666.40708  23226987.200    95110640.23246
  24435640.400   128410170.98608  24435638.900   100059884.84445
  20475091.580   107597382.09809  20475087.340    83842125.58149
  22505306.080   118266235.77909  22505301.240    92155540.57747
  21194820.340   111379627.87109  21194820.600    86789353.71248
  25030683.780   131537120.39608  25030680.520   102496444.05344
  20574411.900   108119342.11709  20574410.440    84248864.48048
 15 03 01 03 48 30.0000000  0 11G01G03G04G11G14G16G19G22G27G28G32
  22240708.080   116875780.19808  22240708.820    91072054.19948
  23760480.520   124862186.79308  23760483.020    97295224.83047
  20574563.060   108120161.75509  20574561.060    84249526.43748
  21249150.180   111665103.41109  21249147.700    87011783.19548
  23220012.220   122022000.69508  23220010.000    95082069.57046
  24456306.960   128518774.16008  24456305.420   100144510.63545
  20476661.640   107605632.78009  20476657.360    83848554.67949
  22520461.900   118345879.96709  22520456.780    92217600.99547
  21205576.380   111436151.07709  21205576.620    86833397.75449
  25015671.140   131458227.20008  25015667.180   102434968.68844
  20563780.440   108063473.50709  20563779.000    84205330.51748
 15 03 01 03 49  0.0000000  0 11G01G03G04G11G14G16G19G22G27G28G32
  22229862.140   116818784.33308  22229862.900    91027641.86848
  23740963.260   124759623.26508  23740965.800    97215305.24346
  20570131.520   108096873.55309  20570129.460    84231379.79248
  21238223.100   111607681.07609  21238220.540    86967038.53948
  23213116.520   121985763.66308  23213114.400    95053832.94446
  24476972.360   128627371.13108  24476970.740   100229131.59845
  20478310.840   107614299.26609  20478306.520    83855307.77549
  22535662.780   118425761.12308  22535657.740    92279846.04547
  21216407.260   111493067.61009  21216407.500    86877748.28748
  25000715.700   131379636.61305  25000712.140   102373729.24545
  20553250.300   108008137.30609  20553248.900    84162211.41748
 15 03 01 03 49 30.0000000  0 11G01G03G04G11G14G16G19G22G27G28G32
  22219046.800   116761948.95909  22219047.540    90983354.58248
  23721481.520   124657246.39308  23721484.120    97135531.09846
  20565749.420   108073845.60209  20565747.380    84213435.93948
  21227338.220   111550480.32309  21227335.500    86922466.52748
  23206303.240   121949959.55108  23206301.380    95025933.65646
  24497636.480   128735961.26108  24497634.800   100313747.22645
  20480039.620   107623384.02409  20480035.300    83862386.79949
  22550908.720   118505879.24909  22550903.780    92342275.74047
  21227313.360   111550379.22109  21227313.560    86922406.67148
  24985818.060   131301352.66808  24985815.720   102312728.97546
  20542822.120   107953336.81309  20542820.720    84119509.73148
 15 03 01 03 50  0.0000000  0 11G01G03G04G11G14G16G19G22G27G28G32
  22208260.320   116705265.01709  22208260.860    90939185.30948
  23702034.000   124555049.09008  23702036.540    97055896.89847
  20561415.040   108051068.86209  20561413.120    84195687.83248
  21216493.980   111493493.04909  21216491.140    86878060.87247
  23199570.920   121914580.95208  23199569.280    94998365.93746
  24518296.920   128844532.52108  24518295.380   100398348.12344
  20481846.480   107632879.08809  20481842.160    83869785.54049
  22566197.620   118586223.16608  22566192.580    92404881.39147
  21238292.780   111608076.42809  21238292.980    86967365.52048
  24970978.440   131223369.36309  24970976.320   102251962.74146
  20532494.460   107899064.28909  20532493.000    84077219.47448
 15 03 01 03 50 30.0000000  0 11G01G03G04G11G14G16G19G22G27G28G32
  22197503.460   116648736.53209  22197503.840    90895137.15848
  23682621.740   124453037.21208  23682624.240    96976407.20247
  20557129.100   108028546.96509  20557127.340    84178138.30848
  21205691.300   111436724.34609  21205688.360    86833825.53347
  23192920.900   121879634.35108  23192919.360    94971134.83646
  24538954.200   128953086.95308  24538952.580   100482935.91445
  20483732.300   107642789.28609  20483728.060    83877507.76449
  22581529.880   118666794.90709  22581524.880    92467664.55447
  21249346.240   111666162.78909  21249346.440    87012627.60348
  24956197.400   131145692.71309  24956195.160   102191435.45946
  20522268.220   107845324.89309  20522266.680    84035344.65148
 15 03 01 03 51  0.0000000  0 11G01G03G04G11G14G16G19G22G27G28G32
  22186776.580   116592366.17409  22186776.940    90851212.21948
  23663245.620   124351215.24008  23663248.120    96897065.47646
  20552892.220   108006282.99809  20552890.660    84160789.77148
  21194930.900   111380177.88909  21194927.900    86789763.36548
  23186353.980   121845124.46508  23186352.500    94944244.04646
  24559608.300   129061624.49508  24559606.560   100567510.56045
  20485697.820   107653118.14509  20485693.560    83885556.22349
  22596905.660   118747594.74208  22596900.700    92530625.45647
  21260474.200   111724640.52209  21260474.420    87058194.65349
  24941475.600   131068327.53108  24941472.920   102131150.84644
  20512144.140   107792122.55109  20512142.540    83993888.30648
 15 03 01 03 51 30.0000000  0 11G01G03G04G11G14G16G19G22G27G28G32
  22176079.580   116536153.39909  22176079.980    90807410.09048
  23643905.920   124249584.55208  23643908.320    96817872.81147
  20548704.300   107984276.03409  20548702.920    84143641.49448
  21184212.780   111323853.83309  21184209.820    86745874.51548
  23179870.300   121811052.50408  23179868.760    94917694.49146
  24580258.500   129170141.98408  24580256.780   100652069.57345
  20487743.100   107663865.95409  20487738.780    83893931.13349
  22612324.240   118828620.23709  22612319.420    92593762.19347
  21271676.440   111783508.63809  21271676.720    87104065.89848
  24926812.920   130991275.30906  24926809.760   102071110.02844
  20502122.320   107739457.77609  20502120.700    83952850.84948
 15 03 01 03 52  0.0000000  0 11G01G03G04G11G14G16G19G22G27G28G32
  22165412.820   116480099.75309  22165413.380    90763731.95348
  23624603.220   124148148.50708  23624605.620    96738831.82747
  20544565.700   107962527.81209  20544564.400    84126694.82948
  21173537.460   111267754.82109  21173534.540    86702161.00548
  23173470.720   121777422.45308  23173468.840    94891489.27746
  24600904.660   129278638.46008  24600902.980   100736612.22645
  20489868.420   107675034.56509  20489864.080    83902633.93649
  22627785.660   118909870.71309  22627780.960    92657074.24847
  21282953.180   111842768.15909  21282953.460    87150242.12248
  24912210.400   130914540.48708  24912207.800   102011316.70445
  20492203.320   107687333.32909  20492201.700    83912234.37048
 15 03 01 03 52 30.0000000  0 11G01G03G04G11G14G16G19G22G27G28G32
  22154775.200   116424199.16609  22154775.860    90720173.07548
  23605336.740   124046902.82908  23605339.160    96659939.19947
  20540475.180   107941031.92209  20540473.920    84109944.79348
  21162904.000   111211875.95409  21162901.240    86658619.04548
  23167154.360   121744230.09608  23167152.020    94865625.12346
  24621545.040   129387104.82308  24621543.460   100821131.36445
  20492072.880   107686619.05709  20492068.560    83911660.80949
  22643288.380   118991338.00908  22643283.840    92720555.25047
  21294303.140   111902412.46509  21294303.380    87196718.19048
  24897667.740   130838118.77608  24897665.600   101951767.32946
  20482386.220   107635744.26709  20482384.640    83872035.13648
 15 03 01 03 53  0.0000000  0 11G01G03G04G11G14G16G19G22G27G28G32
  22144167.360   116368454.85609  22144168.060    90676735.97748
  23586107.460   123945852.62708  23586109.880    96581198.88946
  20536433.380   107919791.80109  20536432.100    84093394.05248
  21152313.300   111156221.27609  21152310.580    86615251.77648
  23160922.240   121711480.52608  23160919.700    94840105.99046
  24642179.940   129495542.02807  24642178.580   100905627.82345
  20494357.260   107698623.39209  20494352.940    83921014.83049
  22658832.580   119073023.22709  22658827.900    92784206.06347
  21305726.840   111962444.33009  21305727.040    87243496.24748
  24883185.880   130762015.81808  24883183.840   101892466.33946
  20472671.820   107584694.95809  20472670.300    83832256.48748
 15 03 01 03 53 30.0000000  0 11G01G03G04G11G14G16G19G22G27G28G32
  22133589.380   116312867.39609  22133590.160    90633421.08948
  23566915.820   123845000.27008  23566918.220    96502612.74546
  20532440.380   107898807.84309  20532438.960    84077042.92048
  21141765.520   111100791.94009  21141762.800    86572060.09148
  23154774.900   121679176.33008  23154772.400    94814933.91446
  24662808.920   129603948.33808  24662807.780   100990100.16545
  20496721.760   107711048.57109  20496717.400    83930696.78449
  22674418.000   119154924.74109  22674413.160    92848025.41847
  21317224.300   112022863.76609  21317224.480    87290576.30348
  24868765.060   130686233.81108  24868763.020   101833415.40845
  20463060.460   107534187.00209  20463058.980    83792899.65448
 15 03 01 03 54  0.0000000  0 11G01G03G04G11G14G16G19G22G27G28G32
  22123041.240   116257436.69109  22123042.040    90590228.35248
  23547762.160   123744347.53808  23547764.460    96424182.18247
  20528496.100   107878079.85009  20528494.500    84060891.24748
  21131260.900   111045589.61009  21131258.200    86529045.29948
  23148712.780   121647319.49908  23148710.400    94790110.43346
  24683431.540   129712321.07508  24683430.660   101074546.35845
  20499166.440   107723895.16509  20499162.040    83940707.11149
  22690044.120   119237040.45909  22690039.360    92912011.66946
  21328795.400   112083670.12909  21328795.580    87337957.86448
  24854406.000   130610775.75008  24854403.780   101774616.86846
  20453552.300   107484221.36009  20453550.820    83753965.44148
 15 03 01 03 54 30.0000000  0 11G01G03G04G11G14G16G19G22G27G28G32
  22112522.680   116202161.50009  22112523.600    90547156.81048
  23528646.500   123643894.89708  23528648.840    96345907.53846
  20524600.300   107857606.57809  20524598.520    84044938.06348
  21120799.460   110990613.92309  21120796.640    86486207.12247
  23142735.900   121615910.68009  23142733.680    94765636.04846
  24704047.060   129820656.28208  24704046.220   101158963.29144
  20501691.240   107737162.83409  20501686.760    83951045.55249
  22705710.380   119319366.93209  22705705.620    92976162.18347
  21340439.780   112144861.57509  21340439.940    87385639.50248
  24840108.740   130535642.37408  24840106.460   101716071.37445
  20444147.240   107434797.68309  20444145.740    83715453.48748
 15 03 01 03 55  0.0000000  0 11G01G03G04G11G14G16G19G22G27G28G32
  22102034.060   116147043.78209  22102035.140    90504207.95948
  23509569.600   123543646.14108  23509571.980    96267791.76247
  20520753.280   107837389.86009  20520751.360    84029184.79248
  21110381.620   110935867.44109  21110378.700    86443547.53048
  23136844.960   121584953.61808  23136842.860    94741513.68446
  24724655.300   129928953.20408  24724654.540   101243350.38444
  20504296.660   107750854.27909  20504292.140    83961714.20749
  22721416.700   119401904.13809  22721411.860    93040476.87647
  21352157.720   112206439.51509  21352157.860    87433622.28848
  24825873.620   130460837.66407  24825871.640   101657782.07845
  20434845.860   107385918.98209  20434844.320    83677366.19248
 15 03 01 03 55 30.0000000  0 11G01G03G04G11G14G16G19G22G27G28G32
  22091575.240   116092082.70609  22091576.460    90461381.16548
  23490531.740   123443602.23108  23490534.100    96189835.59547
  20516954.900   107817428.99409  20516952.940    84013630.87748
  21100007.320   110881350.35309  21100004.360    86401066.69248
  23131040.160   121554449.39008  23131038.220    94717744.18346
  24745255.640   130037208.56608  24745255.000   101327705.03545
  20506982.660   107764969.26809  20506978.140    83972712.89549
  22737162.520   119484649.18009  22737157.860    93104953.51647
  21363948.940   112268402.55009  21363949.040    87481905.14248
  24811701.340   130386363.27308  24811699.120   101599750.04844
  20425648.240   107337585.53409  20425646.720    83639703.79548
 15 03 01 03 56  0.0000000  0 11G01G03G04G11G14G16G19G22G27G28G32
  22081146.040   116037277.06909  22081147.340    90418675.50048
  23471532.940   123343763.70908  23471535.320    96112039.45746
  20513204.840   107797722.48509  20513202.920    83998275.16648
  21089676.580   110827062.37609  21089673.620    86358764.38547
  23125321.660   121524399.01708  23125319.940    94694328.33246
  24765847.440   130145418.66707  24765846.720   101412024.48245
  20509749.140   107779507.03709  20509744.620    83984041.02149
  22752947.240   119567598.60409  22752942.700    93169589.42247
  21375813.100   112330748.81409  21375813.160    87530486.63448
  24797592.120   130312219.67307  24797589.520   101541975.73244
  20416554.380   107289797.05809  20416552.840    83602466.06348
 15 03 01 03 56 30.0000000  0 11G01G03G04G11G14G16G19G22G27G28G32
  22070746.440   115982626.72909  22070747.640    90376090.83248
  23452573.620   123244132.22808  23452575.980    96034404.65147
  20509503.100   107778270.22309  20509501.220    83983117.56948
  21079389.680   110773004.57809  21079386.680    86316641.43148
  23119689.780   121494803.65808  23119688.180    94671267.03646
  24786430.080   130253580.49508  24786429.240   101496306.30344
  20512596.200   107794468.29409  20512591.640    83995699.13749
  22768770.440   119650750.22609  22768765.780    93234382.89447
  21387750.040   112393477.55809  21387750.020    87579366.15248
  24783546.300   130238409.27008  24783544.000   101484461.18245
  20407564.380   107242554.27109  20407562.880    83565653.50548
 15 03 01 03 57  0.0000000  0 11G01G03G04G11G14G16G19G22G27G28G32
  22060376.120   115928130.51309  22060377.340    90333626.27148
  23433653.840   123144708.39108  23433656.100    95956931.64146
  20505849.500   107759071.00309  20505847.600    83968157.14048
  21069146.600   110719176.80009  21069143.500    86274697.72748
  23114144.700   121465664.34408  23114142.960    94648561.09846
  24807002.900   130361691.00208  24807002.080   101580548.29744
  20515523.720   107809852.40509  20515519.120    84007686.74649
  22784631.480   119734100.56909  22784626.800    93299331.19547
  21399759.420   112456586.96009  21399759.340    87628542.28948
  24769564.360   130164933.09108  24769562.220   101427206.99845
  20398678.200   107195856.89909  20398676.800    83529265.98748
 15 03 01 03 57 30.0000000  0 11G01G03G04G11G14G16G19G22G27G28G32
  22050035.360   115873789.96809  22050036.720    90291283.01548
  23414774.200   123045495.49708  23414776.320    95879622.99846
  20502244.320   107740126.30309  20502242.460    83953395.04448
  21058947.860   110665581.56809  21058944.640    86232935.22348
  23108687.040   121436984.27608  23108685.220    94626213.01346
  24827565.860   130469749.39008  24827564.780   101664749.86044
  20518532.040   107825661.31209  20518527.460    84020005.37749
  22800530.180   119817649.08509  22800525.560    93364433.93147
  21411841.340   112520077.93609  21411841.320    87678015.75648
  24755646.880   130091794.75308  24755644.620   101370216.04645
  20389896.300   107149707.40809  20389894.900    83493305.36848
 15 03 01 03 58  0.0000000  0 11G01G03G04G11G14G16G19G22G27G28G32
  22039724.520   115819606.69209  22039726.020    90249062.30648
  23395935.300   122946496.88508  23395937.340    95802481.32147
  20498687.900   107721437.58909  20498686.080    83938832.41248
  21048793.840   110612221.24709  21048790.520    86191355.76448
  23103317.380   121408766.88808  23103315.460    94604225.45847
  24848118.640   130577754.72608  24848117.480   101748910.31245
  20521621.660   107841897.25109  20521617.060    84032656.74849
  22816466.560   119901395.55609  22816462.020    93429690.92147
  21423996.000   112583951.35509  21423996.100    87727787.22948
  24741794.340   130018997.99008  24741792.060   101313491.29746
  20381219.060   107104108.20709  20381217.700    83457773.55448
 15 03 01 03 58 30.0000000  0 11G01G03G04G11G14G16G19G22G27G28G32
  22029443.400   115765579.50409  22029445.000    90206963.21948
  23377137.300   122847713.13108  23377139.280    95725507.06346
  20495179.980   107703003.70009  20495178.260    83924468.35348
  21038684.540   110559096.02309  21038681.080    86149959.50448
  23098035.900   121381012.72508  23098034.000    94582598.85447
  24868660.340   130685702.65007  24868659.180   101833025.99544
  20524792.500   107858559.98309  20524787.880    84045640.68749
  22832439.940   119985336.50509  22832435.340    93495099.42847
  21436223.140   112648205.39109  21436223.320    87777855.29348
  24728006.680   129946543.80407  24728004.740   101257033.52346
  20372646.460   107059058.93709  20372645.020    83422670.26448
 15 03 01 03 59  0.0000000  0 11G01G03G04G11G14G16G19G22G27G28G32
  22019192.280   115711710.04109  22019193.940    90164987.03648
  23358380.780   122749147.59608  23358382.800    95648702.83746
  20491720.900   107684826.23009  20491719.260    83910304.09748
  21028620.360   110506208.36309  21028616.860    86108748.35547
  23092843.320   121353725.30208  23092841.480    94561335.94246
  24889190.820   130793592.18808  24889189.500   101917096.06644
  20528044.940   107875651.64709  20528040.300    84058958.85849
  22848450.420   120069471.50209  22848445.820    93560659.17447
  21448522.880   112712840.98509  21448523.040    87828220.67048
  24714284.840   129874436.06008  24714282.980   101200845.68945
  20364178.940   107014562.04309  20364177.380    83387997.39148
 15 03 01 03 59 30.0000000  0 11G01G03G04G11G14G16G19G22G27G28G32
  22008970.380   115657993.88809  22008971.960    90123130.31248
  23339665.320   122650797.51908  23339667.280    95572066.49647
  20488309.880   107666900.63409  20488308.180    83896336.10648
  21018600.660   110453554.78109  21018597.120    86067719.60648
  23087739.040   121326901.89108  23087737.300    94540434.60646
  24909708.780   130901415.87807  24909707.340   102001114.71944
  20531378.220   107893168.19109  20531373.600    84072608.10549
  22864496.460   120153793.92909  22864491.820    93626364.95446
  21460894.260   112777852.91209  21460894.400    87878879.29048
  24700628.660   129802672.24708  24700626.800   101144925.81945
  20355815.820   106970613.80309  20355814.180    83353752.02648
 15 03 01 04 00  0.0000000  0 11G01G03G04G11G14G16G19G22G27G28G32
  21998778.340   115604434.73809  21998779.920    90081395.93648
  23320991.920   122552668.46508  23320993.780    95495602.38746
  20484947.540   107649230.78509  20484945.760    83882567.39648
  21008626.360   110401139.86009  21008622.880    86026876.82447
  23082724.040   121300547.86708  23082722.240    94519899.03046
  24930214.640   131009175.73307  24930212.940   102085083.58244
  20534793.100   107911113.62009  20534788.540    84086591.54649
  22880578.560   120238305.77808  22880573.780    93692218.35047
  21473337.860   112843244.30109  21473337.960    87929833.59948
  24687039.000   129731258.09908  24687037.000   101089278.47845
  20347558.020   106927218.95209  20347556.380    83319937.86948
 15 03 01 04 00 30.0000000  0 11G01G03G04G11G14G16G19G22G27G28G32
  21988615.700   115551030.03209  21988617.300    90039781.89648
  23302360.440   122454759.52408  23302362.220    95419309.77347
  20481633.320   107631813.73709  20481631.440    83868995.68348
  20998697.220   110348962.23909  20998693.760    85986218.95148
  23077798.140   121274662.24808  23077796.060    94499728.43846
  24950707.400   131116866.85208  24950705.540   102168998.94245
  20538289.360   107929486.19609  20538284.740    84100907.83549
  22896695.780   120323002.06508  22896691.020    93758215.43046
  21485853.020   112909011.75309  21485853.060    87981080.94348
  24673516.160   129660193.54508  24673513.440   101033903.39645
  20339405.180   106884375.48909  20339403.600    83286553.39348
 15 03 01 04 01  0.0000000  0 10G01G03G04G11G14G19G22G27G28G32
  21978484.040   115497788.18309  21978485.720    89998294.76748
  23283772.760   122357080.77208  23283774.480    95343196.54446
  20478368.760   107614657.96709  20478366.840    83855627.56948
  20988815.020   110297031.43009  20988811.660    85945753.39948
  23072963.320   121249255.31508  23072961.160    94479930.84947
  20541868.600   107948294.77209  20541863.880    84115563.86049
  22912849.320   120407889.13608  22912844.360    93824361.21046
  21498441.180   112975162.90909  21498441.200    88032627.28148
  24660061.720   129589488.63808  24660058.720   100978808.63545
  20331358.980   106842092.49609  20331357.500    83253605.62148
 15 03 01 04 01 30.0000000  0 10G01G03G04G11G14G19G22G27G28G32
  21968380.460   115444693.74609  21968382.180    89956922.49548
  23265226.240   122259618.47008  23265227.960    95267251.97246
  20475150.940   107597748.06209  20475149.000    83842451.01748
  20978977.020   110245333.01109  20978973.740    85905468.92547
  23068216.900   121224313.13008  23068214.860    94460495.39546
  20545527.880   107967524.37609  20545523.160    84130547.95249
  22929035.740   120492949.38408  22929030.740    93890641.90847
  21511099.260   113041681.57709  21511099.360    88084459.97548
  24646673.100   129519130.37408  24646670.220   100923984.03245
  20323416.620   106800355.22809  20323415.220    83221083.07848
