     2.11           OBSERVATION DATA    G                   RINEX VERSION / TYPE
SPIDER V4,0,0,3554                      2015 04 17 01:40    PGM / RUN BY / DATE 
CABS                                                        MARKER NAME         
CABS                                                        MARKER NUMBER       
                                                            OBSERVER / AGENCY   
462287              LEICA GRX1200PRO    8.10/2.127          REC # / TYPE / VERS 
103298              LEIAT504                                ANT # / TYPE        
  5116912.3402   671231.6412  3737143.4301                  APPROX POSITION XYZ 
        0.0600        0.0000        0.0000                  ANTENNA: DELTA H/E/N
     1     1                                                WAVELENGTH FACT L1/2
     4    C1    L1    P2    L2                              # / TYPES OF OBSERV 
    30.000                                                  INTERVAL            
  2015    02    22    00    00    0.0000000     GPS         TIME OF FIRST OBS   
  2015    02    22    23    59   30.0000000     GPS         TIME OF LAST OBS    
    16                                                      LEAP SECONDS        
    30                                                      # OF SATELLITES     
   G 1   801   801   800   800                              PRN / # OF OBS      
   G 2   935   935   935   935                              PRN / # OF OBS      
   G 3   847   847   847   847                              PRN / # OF OBS      
   G 4   831   831   831   831                              PRN / # OF OBS      
   G 5   642   642   642   642                              PRN / # OF OBS      
   G 6   830   830   830   830                              PRN / # OF OBS      
   G 7   673   673   673   673                              PRN / # OF OBS      
   G 9   807   807   807   807                              PRN / # OF OBS      
   G10   743   743   743   743                              PRN / # OF OBS      
   G11   767   767   767   767                              PRN / # OF OBS      
   G12   824   824   824   824                              PRN / # OF OBS      
   G13   792   792   792   792                              PRN / # OF OBS      
   G14   936   936   936   936                              PRN / # OF OBS      
   G15   697   697   697   697                              PRN / # OF OBS      
   G16   664   664   664   664                              PRN / # OF OBS      
   G17   943   943   943   943                              PRN / # OF OBS      
   G18   903   903   903   903                              PRN / # OF OBS      
   G19   749   749   749   749                              PRN / # OF OBS      
   G20   773   773   773   773                              PRN / # OF OBS      
   G21   742   742   742   742                              PRN / # OF OBS      
   G22   657   657   657   657                              PRN / # OF OBS      
   G23   755   755   755   755                              PRN / # OF OBS      
   G24   816   816   816   816                              PRN / # OF OBS      
   G25   856   856   856   856                              PRN / # OF OBS      
   G27   801   801   801   801                              PRN / # OF OBS      
   G28   878   878   878   878                              PRN / # OF OBS      
   G29   768   768   768   768                              PRN / # OF OBS      
   G30   719   719   719   719                              PRN / # OF OBS      
   G31   871   871   871   871                              PRN / # OF OBS      
   G32   767   767   767   767                              PRN / # OF OBS      
BIT 2 OF LLI FLAGS DATA COLLECTED UNDER A/S CONDITION       COMMENT             
SNR is mapped to RINEX snr flag value [2-9]                 COMMENT             
Lx:     = 25dBHz -> 1; 26-27dBHz -> 2; 28-31dBHz -> 3       COMMENT             
       32-35dBHz -> 4; 36-38dBHz -> 5; 39-41dBHz -> 6       COMMENT             
       42-44dBHz -> 7; 45-48dBHz -> 8; >=49dBHz -> 9        COMMENT             
                                                            END OF HEADER       
 15 02 22 00 00  0.0000000  0  7G16G18G21G25G27G29G31
  22469353.700   118077259.85608  22469355.180    92008264.91246
  23100325.840   121393059.16107  23100327.740    94591999.99345
  20961907.020   110155641.12708  20961907.880    85835604.49849
  23998488.860   126112935.46206  23998493.660    98269845.34744
  23727402.000   124688345.10706  23727406.420    97159768.11445
  23020699.520   120974865.32507  23020701.760    94266252.49946
  22334437.760   117368275.08508  22334439.580    91455805.39748
 15 02 22 00 00 30.0000000  0  7G16G18G21G25G27G29G31
  22453571.760   117994325.33608  22453573.180    91943640.62147
  23086204.440   121318850.58507  23086206.160    94534175.15745
  20965151.260   110172689.64708  20965152.100    85848889.05849
  24016887.740   126209620.28006  24016892.240    98345184.14645
  23713630.240   124615974.35306  23713634.640    97103375.35245
  23034126.880   121045426.55407  23034129.120    94321235.25347
  22349539.120   117447633.37608  22349541.020    91517642.99547
 15 02 22 00 01  0.0000000  0  7G16G18G21G25G27G29G31
  22437823.720   117911569.02408  22437825.060    91879155.18947
  23072117.380   121244822.61407  23072118.940    94476491.07145
  20968470.580   110190132.75508  20968471.400    85862481.08949
  24035322.060   126306491.10206  24035326.320    98420667.87945
  23699874.520   124543688.25305  23699878.960    97047048.56046
  23047564.080   121116039.28607  23047566.300    94376258.12946
  22364698.100   117527294.33208  22364700.020    91579716.43347
 15 02 22 00 01 30.0000000  0  7G16G18G21G25G27G29G31
  22422110.120   117828993.72208  22422111.400    91814810.81247
  23058065.500   121170979.46007  23058067.060    94418950.98845
  20971865.060   110207970.80408  20971865.880    85876380.87249
  24053791.700   126403548.11706  24053795.960    98496296.67545
  23686135.200   124471488.27005  23686139.660    96990788.85546
  23061011.400   121186704.97707  23061013.480    94431322.29446
  22379914.480   117607256.57308  22379916.260    91642024.64447
 15 02 22 00 02  0.0000000  0  7G16G18G21G25G27G29G31
  22406431.240   117746600.44408  22406432.440    91750608.26047
  23044049.040   121097322.76007  23044050.800    94361556.18545
  20975334.180   110226201.09508  20975335.000    85890586.29849
  24072296.140   126500788.78106  24072300.500    98572068.57946
  23672412.140   124399373.25005  23672416.520    96934595.38046
  23074468.440   121257422.15507  23074470.580    94486426.56646
  22395187.420   117687516.21508  22395189.080    91704564.58847
 15 02 22 00 02 30.0000000  0  7G16G18G21G25G27G29G31
  22390787.400   117664391.31808  22390788.600    91686549.21347
  23030068.520   121023854.72307  23030070.400    94304308.38545
  20978877.700   110244822.51608  20978878.540    85905096.49649
  24090835.080   126598211.80506  24090839.660    98647982.57744
  23658705.280   124327343.16406  23658709.680    96878468.07846
  23087935.220   121328190.64907  23087937.420    94541570.83546
  22410516.340   117768070.16508  22410517.960    91767333.86347
 15 02 22 00 03  0.0000000  0  7G16G18G21G25G27G29G31
  22375179.320   117582369.92808  22375180.480    91622636.44847
  23016124.840   120950579.96707  23016126.780    94247211.18845
  20982495.680   110263835.23108  20982496.540    85919911.59949
  24109408.440   126695816.97006  24109413.520    98724038.52645
  23645014.840   124255399.19806  23645019.180    96822407.89445
  23101411.900   121399011.40107  23101414.120    94596755.81646
  22425901.000   117848916.91208  22425902.600    91830331.29747
 15 02 22 00 03 30.0000000  0  7G16G18G21G25G27G29G31
  22359606.900   117500536.32508  22359608.120    91558870.02047
  23002217.940   120877498.53607  23002219.980    94190264.65145
  20986187.380   110283235.43508  20986188.280    85935028.64149
  24128015.740   126793600.72105  24128021.320    98800233.61945
  23631340.340   124183539.11106  23631344.720    96766413.06946
  23114898.120   121469881.77307  23114900.280    94651979.47246
  22441340.440   117930051.62208  22441342.080    91893553.11747
 15 02 22 00 04  0.0000000  0  7G16G18G21G25G27G29G31
  22344070.540   117418892.42508  22344071.860    91495251.41147
  22988348.440   120804613.58207  22988350.500    94133471.22245
  20989952.680   110303022.39308  20989953.600    85950447.05049
  24146656.960   126891562.29605  24146662.800    98876567.28445
  23617681.920   124111763.44506  23617686.320    96710484.00446
  23128393.820   121540801.94007  23128395.960    94707241.90346
  22456834.240   118011471.88608  22456835.980    91956997.45847
 15 02 22 00 04 30.0000000  0  7G16G18G21G25G27G29G31
  22328570.820   117337440.77608  22328572.140    91431782.60647
  22974516.740   120731927.38207  22974518.820    94076832.64345
  20993791.300   110323194.58008  20993792.260    85966165.63549
  24165331.800   126989699.93906  24165337.640    98953038.13945
  23604039.500   124040071.95006  23604043.940    96654620.53846
  23141898.940   121611771.67707  23141901.060    94762542.97146
  22472381.780   118093174.66508  22472383.600    92020661.93247
 15 02 22 00 05  0.0000000  0  7G16G18G21G25G27G29G31
  22313108.140   117256183.96008  22313109.460    91368465.61947
  22960723.440   120659443.50007  22960725.580    94020351.72745
  20997703.140   110343751.49108  20997704.140    85982184.00949
  24184040.160   127088013.20805  24184045.960    99029645.81845
  23590413.200   123968465.46206  23590417.680    96598823.30646
  23155413.640   121682791.62407  23155415.720    94817883.15846
  22487982.620   118175157.64608  22487984.520    92084544.74647
 15 02 22 00 05 30.0000000  0  7G16G18G21G25G27G29G31
  22297682.800   117175123.35108  22297684.100    91305301.52247
  22946968.860   120587163.19907  22946970.980    93964029.44145
  21001687.720   110364690.65208  21001688.720    85998500.24149
  24202781.620   127186499.49606  24202787.100    99106388.32544
  23576802.820   123896942.74506  23576807.320    96543091.35146
  23168937.580   121753860.23807  23168939.620    94873261.27446
  22503636.040   118257416.91608  22503637.960    92148642.84147
 15 02 22 00 06  0.0000000  0  7G16G18G21G25G27G29G31
  22282295.420   117094262.28608  22282296.760    91242292.91547
  22933253.700   120515090.47707  22933255.800    93907868.90746
  21005744.980   110386011.72408  21005745.980    86015114.06149
  24221556.060   127285158.64905  24221561.060    99183265.56445
  23563208.640   123825505.03606  23563213.040    96487425.62246
  23182470.900   121824978.28507  23182472.900    94928677.91446
  22519341.720   118339950.71808  22519343.580    92212954.86147
 15 02 22 00 06 30.0000000  0  7G16G18G21G25G27G29G31
  22266946.240   117013601.85308  22266947.600    91179440.64847
  22919578.460   120443227.46507  22919580.500    93851871.77945
  21009874.600   110407712.90308  21009875.580    86032024.07049
  24240363.080   127383988.77905  24240367.540    99260276.01845
  23549630.520   123754151.93606  23549634.900    96431825.81246
  23196013.520   121896145.75107  23196015.620    94984133.06446
  22535099.040   118422755.93108  22535100.780    92277478.36847
 15 02 22 00 07  0.0000000  0  7G16G18G21G25G27G29G31
  22251635.700   116933144.23108  22251637.020    91116746.41147
  22905943.620   120371576.69607  22905945.680    93796040.05045
  21014076.300   110429792.83008  21014077.240    86049229.20449
  24259202.340   127482988.24006  24259206.400    99337418.44944
  23536068.480   123682883.15306  23536072.780    96376291.73646
  23209565.420   121967361.73707  23209567.600    95039626.01146
  22550907.380   118505829.31008  22550909.020    92342210.82647
 15 02 22 00 07 30.0000000  0  8G16G18G21G22G25G27G29G31
  22236365.180   116852897.03808  22236366.460    91054216.13747
  22892350.760   120300145.98207  22892352.740    93740379.79045
  21018350.760   110452255.27708  21018351.680    86066732.40849
  24553889.080   129031542.14206  24553892.020   100544080.33244
  24278074.380   127582160.91506  24278078.360    99414695.82945
  23522523.540   123611703.97606  23522527.700    96320827.47746
  23223127.540   122038631.30607  23223129.680    95095160.70146
  22566767.180   118589173.11108  22566768.800    92407154.01947
 15 02 22 00 08  0.0000000  0  8G16G18G21G22G25G27G29G31
  22221131.280   116772842.53708  22221132.520    90991836.02346
  22878796.540   120228917.87007  22878798.400    93684877.39646
  21022694.040   110475079.14708  21022694.900    86084517.23749
  24535784.880   128936404.33106  24535786.720   100469947.22344
  24296975.240   127681485.53106  24296979.300    99492091.56845
  23508991.860   123540594.47106  23508995.920    96265417.49846
  23236696.120   122109934.85607  23236698.240    95150721.89946
  22582674.120   118672764.51408  22582675.740    92472290.14047
 15 02 22 00 08 30.0000000  0  8G16G18G21G22G25G27G29G31
  22205939.980   116693012.16108  22205941.200    90929630.55147
  22865287.000   120157924.22707  22865288.780    93629557.69345
  21027111.380   110498292.38808  21027112.220    86102605.47949
  24517669.260   128841207.63205  24517671.520   100395768.27645
  24315910.140   127780990.06905  24315914.700    99569627.50545
  23495478.980   123469584.14306  23495483.060    96210084.79846
  23250276.620   122181301.10207  23250278.860    95206331.93646
  22598633.240   118756630.22108  22598634.940    92537640.01347
 15 02 22 00 09  0.0000000  0  8G16G18G21G22G25G27G29G31
  22190788.540   116613391.01608  22190789.720    90867588.11747
  22851819.480   120087151.15407  22851821.240    93574409.85845
  21031599.260   110521876.49608  21031600.120    86120982.71049
  24499539.620   128745937.52005  24499542.500   100321532.09945
  24334875.840   127880656.00505  24334880.660    99647289.24444
  23481981.720   123398656.00706  23481985.860    96154816.14146
  23263865.820   122252712.94007  23263868.340    95261977.49646
  22614640.840   118840750.48608  22614642.600    92603188.24547
 15 02 22 00 09 30.0000000  0  8G16G18G21G22G25G27G29G31
  22175677.920   116533984.26708  22175679.060    90805712.74047
  22838394.840   120016603.45907  22838396.600    93519437.64045
  21036157.960   110545832.71608  21036158.840    86139649.89849
  24481396.940   128650598.95605  24481399.940   100247242.59445
  24353872.440   127980484.69405  24353877.580    99725077.76645
  23468500.680   123327812.65306  23468504.820    96099613.57046
  23277464.220   122324172.97307  23277466.900    95317660.61546
  22630696.780   118925124.82308  22630698.620    92668934.44947
 15 02 22 00 10  0.0000000  0  8G16G18G21G22G25G27G29G31
  22160608.720   116454795.11008  22160609.860    90744006.92047
  22825013.820   119946285.40107  22825015.740    93464644.36346
  21040787.500   110570161.24908  21040788.420    86158607.19749
  24463242.100   128555195.72905  24463245.040   100172902.66445
  24372900.020   128080475.82805  24372905.460    99802992.86345
  23455036.060   123257055.33206  23455040.180    96044478.04246
  23291071.900   122395681.97407  23291074.700    95373381.87646
  22646800.780   119009751.52508  22646802.620    92734877.30347
 15 02 22 00 10 30.0000000  0  8G16G18G21G22G25G27G29G31
  22145580.960   116375823.98708  22145582.220    90682470.99547
  22811676.500   119876197.19607  22811678.620    93410030.19546
  21045487.160   110594858.21808  21045488.100    86177851.57949
  24445074.980   128459728.42406  24445077.920   100098512.87044
  24391958.020   128180626.19405  24391963.680    99881032.05644
  23441587.400   123186382.23906  23441591.460    95989408.12446
  23304688.460   122467237.69007  23304691.420    95429139.55846
  22662951.960   119094625.91008  22662953.700    92801013.15947
 15 02 22 00 11  0.0000000  0  8G16G18G21G22G25G27G29G31
  22130595.360   116297074.46908  22130596.700    90621107.74647
  22798383.560   119806342.67407  22798385.840    93355598.09646
  21050256.920   110619923.62408  21050257.920    86197383.06349
  24426896.220   128364200.37905  24426899.520   100024075.68444
  24411046.200   128280935.38305  24411052.100    99959195.01145
  23428154.980   123115794.50106  23428159.000    95934404.70046
  23318314.260   122538841.93106  23318317.300    95484935.04046
  22679149.920   119179746.21008  22679151.540    92867340.62447
 15 02 22 00 11 30.0000000  0  8G16G18G21G22G25G27G29G31
  22115652.200   116218547.73908  22115653.540    90559918.09647
  22785135.540   119736724.37407  22785137.940    93301350.08146
  21055096.360   110645355.07608  21055097.360    86217199.78449
  24408706.420   128268613.89606  24408709.540    99949592.95845
  24430164.300   128381401.51305  24430170.280   100037480.25745
  23414738.740   123045291.72606  23414742.720    95879467.48746
  23331949.040   122610493.68806  23331952.140    95540767.54146
  22695393.900   119265108.90908  22695395.480    92933856.97647
 15 02 22 00 12  0.0000000  0  8G16G18G21G22G25G27G29G31
  22100751.680   116140244.99908  22100753.020    90498902.98847
  22771932.720   119667343.65207  22771935.080    93247287.21146
  21060005.180   110671151.15708  21060006.180    86237300.62849
  24390505.820   128172970.61306  24390508.960    99875065.99944
  24449311.900   128482022.24705  24449317.980   100115885.98344
  23401338.480   122974873.00506  23401342.500    95824595.77546
  23345592.600   122682191.90706  23345595.800    95596636.25746
  22711683.300   119350710.36008  22711684.860    93000559.37547
 15 02 22 00 12 30.0000000  0  8G16G18G21G22G25G27G29G31
  22085894.420   116062169.40208  22085895.700    90438064.86847
  22758775.740   119598203.66507  22758777.960    93193411.92146
  21064983.160   110697310.70808  21064984.160    86257684.69349
  24372295.080   128077273.51906  24372298.040    99800497.03245
  24468488.780   128582796.80705  24468494.960   100194411.58745
  23387954.360   122904539.07406  23387958.420    95769790.12946
  23359245.200   122753937.29606  23359248.380    95652541.72046
  22728017.700   119436548.50308  22728019.340    93067446.21147
 15 02 22 00 13  0.0000000  0  8G16G18G21G22G25G27G29G31
  22071080.760   115984322.90708  22071082.040    90377405.26947
  22745665.000   119529306.29507  22745667.000    93139725.68845
  21070029.900   110723831.48708  21070030.860    86278350.24049
  24354074.500   127981524.45806  24354077.340    99725887.60144
  24487694.620   128683723.05206  24487700.620   100273055.38045
  23374586.300   122834289.31606  23374590.340    95715050.06846
  23372906.680   122825729.01306  23372909.820    95708483.27046
  22744396.300   119522619.18408  22744398.120    93134514.24747
 15 02 22 00 13 30.0000000  0  8G16G18G21G22G25G27G29G31
  22056311.380   115906709.15208  22056312.660    90316927.02247
  22732601.240   119460655.77607  22732602.980    93086231.81746
  21075145.380   110750713.32708  21075146.300    86299297.12649
  24335844.720   127885727.44205  24335847.540    99651240.79345
  24506929.300   128784800.94006  24506935.080   100351817.30744
  23361234.520   122764125.18306  23361238.600    95660376.71646
  23386577.280   122897567.79907  23386580.220    95764461.51545
  22760818.920   119608921.10808  22760820.900    93201762.47547
 15 02 22 00 14  0.0000000  0  8G16G18G21G22G25G27G29G31
  22041586.240   115829328.06108  22041587.600    90256630.07747
  22719584.700   119392253.12907  22719586.240    93032931.08245
  21080329.060   110777953.73908  21080329.980    86320523.42349
  24317606.080   127789883.45206  24317608.700    99576557.36645
  24526192.280   128886027.49505  24526197.820   100430695.06845
  23347898.720   122694045.15206  23347902.880    95605768.89546
  23400256.680   122969452.52507  23400259.420    95820475.56846
  22777284.840   119695450.05408  22777286.860    93269187.59147
 15 02 22 00 14 30.0000000  0  8G16G18G21G22G25G27G29G31
  22026906.200   115752184.30908  22026907.660    90196518.07247
  22706616.120   119324102.56007  22706617.500    92979826.75545
  21085580.960   110805552.69608  21085581.860    86342029.10649
  24299359.240   127693996.86106  24299361.880    99501840.73945
  24545483.700   128987403.07005  24545488.820   100509689.01745
  23334579.240   122624051.18507  23334583.460    95551228.17546
  23413945.200   123041384.73507  23413947.840    95876526.60946
  22793793.860   119782204.87508  22793795.820    93336788.71747
 15 02 22 00 15  0.0000000  0  8G16G18G21G22G25G27G29G31
  22012271.640   115675279.57308  22012273.180    90136592.30847
  22693695.780   119256206.01207  22693697.140    92926920.37245
  21090900.740   110833508.39708  21090901.660    86363812.77549
  24281104.560   127598069.54106  24281107.480    99427092.37945
  24564802.940   129088925.78105  24564807.820   100588797.53944
  23321276.120   122554142.85207  23321280.280    95496754.16946
  23427642.720   123113363.93407  23427645.300    95932614.27546
  22810345.220   119869181.97308  22810347.060    93404563.04547
 15 02 22 00 15 30.0000000  0  8G16G18G21G22G25G27G29G31
  21997682.980   115598615.76308  21997684.500    90076854.28147
  22680824.320   119188566.22707  22680825.800    92874214.06146
  21096287.980   110861818.55808  21096288.900    86385872.64549
  24262842.460   127502103.41805  24262845.620    99352313.77245
  24584149.740   129190593.68305  24584154.380   100668019.20745
  23307989.240   122484319.79007  23307993.320    95442346.61346
  23441349.060   123185389.71307  23441351.500    95988738.22246
  22826938.320   119956378.28808  22826940.000    93472508.19047
 15 02 22 00 16  0.0000000  0  8G16G18G21G22G25G27G29G31
  21983140.500   115522194.48408  21983141.980    90017305.23447
  22668001.920   119121184.65707  22668003.680    92821708.96046
  21101742.440   110890481.72608  21101743.340    86408207.58749
  24244573.380   127406100.77605  24244577.020    99277506.71946
  24603523.840   129292404.68305  24603528.320   100747352.39445
  23294718.500   122414581.48807  23294722.540    95388005.11246
  23455064.020   123257461.28107  23455066.300    96044897.86946
  22843572.380   120043790.19808  22843573.960    93540621.33347
 15 02 22 00 16 30.0000000  0  8G16G18G21G22G25G27G29G31
  21968644.900   115446019.58608  21968646.320    89957948.16547
  22655229.460   119054065.53907  22655231.520    92769408.37746
  21107264.140   110919498.13508  21107265.000    86430817.78649
  24226298.220   127310065.87706  24226302.140    99202674.54145
  24622925.040   129394358.89805  24622929.580   100826797.19344
  23281464.160   122344929.53807  23281468.240    95333730.89146
  23468787.940   123329580.10307  23468790.120    96101094.34046
  22860247.100   120131416.36208  22860248.660    93608901.42946
 15 02 22 00 17  0.0000000  0  8G16G18G21G22G25G27G29G31
  21954196.580   115370092.99208  21954197.920    89898784.57647
  22642507.480   118987211.28307  22642509.720    92717314.17446
  21112852.640   110948865.73008  21112853.480    86453701.63249
  24208017.320   127214000.67605  24208021.220    99127818.73745
  24642353.160   129496454.54405  24642357.920   100906352.15644
  23268226.160   122275363.74307  23268230.380    95279523.79946
  23482520.620   123401745.73207  23482522.840    96157327.28346
  22876961.860   120219253.48908  22876963.520    93677345.90746
 15 02 22 00 17 30.0000000  0  8G16G18G21G22G25G27G29G31
  21939795.860   115294416.80008  21939797.180    89839816.11547
  22629836.400   118920623.98508  22629838.540    92665427.99046
  21118507.520   110978582.23808  21118508.340    86476857.35749
  24189731.240   127117907.24505  24189735.260    99052940.92445
  24661807.820   129598689.65905  24661812.800   100986015.82744
  23255004.520   122205883.81107  23255008.880    95225383.63746
  23496262.040   123473957.70207  23496264.160    96213596.33645
  22893716.060   120307298.28208  22893717.880    93745952.21246
 15 02 22 00 18  0.0000000  0  8G16G18G21G22G25G27G29G31
  21925442.980   115218991.72008  21925444.260    89781043.32147
  22617216.380   118854304.75608  22617218.260    92613750.70846
  21124228.300   111008645.10308  21124229.120    86500282.97349
  24171440.340   127021787.11706  24171444.000    98978042.30245
  24681288.440   129701061.50205  24681293.680   101065786.03144
  23241798.980   122136488.48807  23241803.420    95171309.38846
  23510012.040   123546214.77806  23510013.980    96269900.56246
  22910509.080   120395546.66808  22910511.020    93814717.15847
 15 02 22 00 18 30.0000000  0  8G16G18G21G22G25G27G29G31
  21911138.540   115143821.42508  21911139.840    89722469.06847
  22604648.080   118788257.26908  22604649.700    92562285.16446
  21130014.980   111039054.37208  21130015.820    86523978.50949
  24153145.080   126925644.08606  24153148.400    98903125.84545
  24700795.000   129803569.93605  24700800.380   101145662.69645
  23228609.880   122067179.23107  23228614.320    95117302.19946
  23523770.840   123618518.24607  23523772.640    96326240.87346
  22927340.580   120483996.70508  22927342.520    93883639.23046
 15 02 22 00 19  0.0000000  0  8G16G18G21G22G25G27G29G31
  21896882.860   115068907.17108  21896884.140    89664094.32247
  22592131.720   118722483.20308  22592133.180    92511032.68046
  21135867.000   111069807.08108  21135867.860    86547941.66349
  24134845.740   126829479.87506  24134848.720    98828192.87844
  24720326.880   129906212.42705  24720332.680   101225643.76744
  23215436.920   121997955.05607  23215441.380    95063361.29446
  23537538.400   123690866.85507  23537540.060    96382616.39845
  22944209.800   120572644.52408  22944211.640    93952715.42047
 15 02 22 00 19 30.0000000  0  8G16G18G21G22G25G27G29G31
  21882676.220   114994250.86608  21882677.580    89605920.58847
  22579667.740   118656984.81207  22579669.200    92459995.00946
  21141784.140   111100902.01708  21141785.000    86572171.49149
  24116542.760   126733296.46406  24116545.420    98753244.92545
  24739884.140   130008986.99704  24739889.920   101305727.80746
  23202280.060   121928815.68207  23202284.580    95009486.47146
  23551314.440   123763259.99007  23551315.900    96439026.55345
  22961116.060   120661487.01608  22961117.780    94021943.30046
 15 02 22 00 20  0.0000000  0  8G16G18G21G22G25G27G29G31
  21868519.220   114919855.19508  21868520.580    89547949.93847
  22567256.700   118591765.00308  22567258.220    92409174.40646
  21147766.120   111132337.62108  21147766.980    86596666.77949
  24098236.620   126637096.78106  24098239.180    98678284.31545
  24759466.600   130111892.53905  24759472.120   101385913.84444
  23189139.420   121859761.60406  23189143.980    94955678.10746
  23565099.080   123835698.47607  23565100.420    96495472.13346
  22978058.840   120750521.52308  22978060.420    94091320.79646
 15 02 22 00 20 30.0000000  0  8G16G18G21G22G25G27G29G31
  21854412.340   114845722.88508  21854413.680    89490184.50647
  22554899.120   118526826.39107  22554900.820    92358572.91046
  21153812.740   111164112.94408  21153813.620    86621426.77649
  24079927.840   126540883.78206  24079930.100    98603313.29445
  24779073.840   130214927.96405  24779079.080   101466201.09844
  23176015.080   121790793.33607  23176019.620    94901936.62346
  23578892.360   123908182.41507  23578893.760    96551953.08945
  22995037.640   120839745.51507  22995039.160    94160845.95546
 15 02 22 00 21  0.0000000  0  8G16G18G21G22G25G27G29G31
  21840356.340   114771857.79408  21840357.600    89432627.29647
  22542595.940   118462173.22908  22542597.780    92308193.83846
  21159924.060   111196228.13408  21159924.940    86646451.60549
  24061617.240   126444661.79106  24061619.420    98528335.27845
  24798705.920   130318093.32305  24798710.860   101546589.64243
  23162907.440   121721912.50207  23162911.920    94848263.27246
  23592694.380   123980713.25506  23592696.200    96608470.58646
  23012052.220   120929157.66807  23012053.760    94230517.72846
 15 02 22 00 21 30.0000000  0  8G16G18G21G22G25G27G29G31
  21826351.120   114698259.98708  21826352.380    89375278.36147
  22530347.260   118397805.89008  22530349.140    92258037.49046
  21166099.300   111228679.16108  21166100.160    86671738.13249
  24043304.860   126348431.25606  24043307.280    98453350.64846
  24818362.040   130421384.95505  24818366.620   101627076.54244
  23149816.140   121653117.09007  23149820.440    94794656.48846
  23606504.840   124053288.63506  23606507.020    96665022.81446
  23029101.620   121018752.91108  23029103.240    94300332.16946
 15 02 22 00 22  0.0000000  0  7G16G18G21G22G27G29G31
  21812397.880   114624935.28408  21812399.160    89318142.23547
  22518154.180   118333730.18108  22518156.000    92208108.38446
  21172338.760   111261467.66008  21172339.600    86697287.61848
  24024992.040   126252198.15406  24024994.420    98378363.95045
  23136741.800   121584410.53607  23136745.940    94741118.93846
  23620324.500   124125912.30306  23620327.020    96721612.66846
  23046185.900   121108531.58007  23046187.680    94370289.53246
 15 02 22 00 22 30.0000000  0  7G16G18G21G22G27G29G31
  21798496.260   114551881.68308  21798497.540    89261217.36447
  22506016.240   118269944.28708  22506017.960    92158405.11746
  21178641.400   111294588.09408  21178642.200    86723095.75448
  24006678.640   126155961.16506  24006680.940    98303374.27945
  23123683.580   121515788.84107  23123687.620    94687647.52846
  23634152.520   124198579.87406  23634155.360    96778236.74446
  23063303.800   121198486.62807  23063305.680    94440384.33246
 15 02 22 00 23  0.0000000  0  7G16G18G21G22G27G29G31
  21784646.760   114479101.75708  21784647.960    89204505.74547
  22493933.880   118206450.77008  22493935.500    92108929.67046
  21185006.860   111328038.86508  21185007.660    86749161.29049
  23988364.960   126059722.26606  23988367.060    98228383.07145
  23110641.500   121447252.08507  23110645.440    94634242.30146
  23647988.960   124271291.10406  23647992.020    96834894.83046
  23080454.740   121288615.01608  23080456.660    94510614.21447
 15 02 22 00 23 30.0000000  0  7G16G18G21G22G27G29G31
  21770849.700   114406597.62308  21770850.860    89148009.02847
  22481907.520   118143251.95608  22481909.080    92059683.86746
  21191434.940   111361818.75608  21191435.720    86775483.29548
  23970051.480   125963483.96406  23970053.300    98153392.34346
  23097615.580   121378800.26107  23097619.480    94580903.24846
  23661833.820   124344046.13706  23661836.940    96891587.04046
  23097638.160   121378913.82008  23097640.060    94580976.88146
 15 02 22 00 24  0.0000000  0  7G16G18G21G22G27G29G31
  21757105.680   114334372.47808  21757106.840    89091729.70247
  22469937.800   118080351.34408  22469939.340    92010670.42646
  21197925.540   111395927.02608  21197926.280    86802061.17448
  23951739.000   125867250.72506  23951740.380    98078405.55745
  23084606.020   121310434.64807  23084609.940    94527631.38146
  23675687.320   124416845.93507  23675690.240    96948314.13146
  23114853.620   121469381.23407  23114855.460    94651470.92346
 15 02 22 00 24 30.0000000  0  7G16G18G21G22G27G29G31
  21743415.240   114262429.13308  21743416.460    89035669.96148
  22458025.280   118017751.66608  22458026.880    91961891.48146
  21204478.420   111430362.66608  21204479.120    86828894.14748
  23933427.860   125771025.07407  23933428.960    98003424.67845
  23071612.920   121242155.62307  23071616.840    94474427.00146
  23689549.500   124489690.79307  23689552.140    97005076.33146
  23132100.620   121560014.45707  23132102.380    94722094.17747
 15 02 22 00 25  0.0000000  0  7G16G18G21G22G27G29G31
  21729779.020   114190770.47008  21729780.280    88979832.05247
  22446170.660   117955456.10908  22446172.320    91913349.51046
  21211093.340   111465124.19008  21211094.000    86855981.05248
  23915118.680   125674810.33806  23915119.700    97928452.31245
  23058636.460   121173963.84207  23058640.340    94421290.59346
  23703420.440   124562581.57407  23703422.880    97061874.32046
  23149378.720   121650811.26207  23149380.420    94792844.89146
 15 02 22 00 25 30.0000000  0  7G16G18G21G22G27G29G31
  21716197.560   114119399.51408  21716198.860    88924218.33248
  22434374.600   117893467.68908  22434376.300    91865046.86846
  21217770.180   111500211.13108  21217770.820    86883321.53548
  23896812.040   125578609.85906  23896813.180    97853491.04545
  23045676.760   121105860.26107  23045680.620    94368222.89647
  23717300.080   124635518.58907  23717302.340    97118708.31246
  23166687.500   121741769.53307  23166689.180    94863721.42346
 15 02 22 00 26  0.0000000  0  7G16G18G21G22G27G29G31
  21702671.420   114048319.11308  21702672.700    88868831.01748
  22422637.660   117831789.52208  22422639.460    91816985.97746
  21224508.740   111535622.51108  21224509.380    86910914.82248
  23878508.500   125482426.79306  23878509.720    97778543.33245
  23032733.920   121037845.59607  23032737.860    94315224.48247
  23731188.480   124708502.14807  23731190.580    97175578.57146
  23184026.520   121832886.92207  23184028.260    94934721.93046
 15 02 22 00 26 30.0000000  0  7G16G18G21G22G27G29G31
  21689200.780   113977530.27208  21689202.000    88813670.89448
  22410960.060   117770422.74408  22410961.940    91769167.73446
  21231308.480   111571355.30208  21231309.100    86938758.55948
  23860208.500   125386262.69106  23860210.040    97703610.39945
  23019807.820   120969918.86507  23019811.820    94262294.60147
  23745085.560   124781531.80206  23745087.660    97232484.80146
  23201394.920   121924159.02907  23201396.800    95005843.00446
 15 02 22 00 27  0.0000000  0  7G16G18G21G22G27G29G31
  21675785.920   113907034.62008  21675787.060    88758739.21748
  22399342.020   117709368.82008  22399343.920    91721593.26846
  21238168.940   111607407.04208  21238169.540    86966850.82648
  23841912.380   125290119.14306  23841914.260    97628693.48445
  23006898.240   120902079.11907  23006902.300    94209432.47446
  23758990.980   124854606.14206  23758993.280    97289425.79245
  23218792.120   122015582.19807  23218794.140    95077081.79946
 15 02 22 00 27 30.0000000  0  7G16G18G21G22G27G29G31
  21662427.040   113836833.19808  21662428.160    88704036.82248
  22387783.620   117648628.78108  22387785.540    91674263.39246
  21245089.540   111643775.00408  21245090.140    86995189.50748
  23823620.620   125193997.73305  23823622.820    97553793.80346
  22994005.060   120834325.52907  22994009.180    94156637.49947
  23772904.680   124927724.31606  23772907.340    97346400.97645
  23236217.280   122107152.20007  23236219.420    95148435.01146
 15 02 22 00 28  0.0000000  0  7G16G18G21G22G27G29G31
  21649124.440   113766927.70808  21649125.580    88649565.01448
  22376285.300   117588204.37608  22376287.120    91627179.45446
  21252069.840   111680456.88808  21252070.500    87023772.79648
  23805333.800   125097900.56306  23805335.960    97478913.00845
  22981128.180   120766657.31207  22981132.340    94103909.05146
  23786826.640   125000885.62706  23786829.440    97403409.76945
  23253669.720   122198865.34307  23253671.940    95219899.75146
 15 02 22 00 28 30.0000000  0  7G16G18G21G22G27G29G31
  21635878.700   113697321.09808  21635879.880    88595326.10748
  22364847.660   117528099.19308  22364849.360    91580344.26146
  21259109.860   111717452.47208  21259110.540    87052600.53048
  23787052.320   125001830.44606  23787054.280    97404053.30945
  22968267.780   120699075.44907  22968271.940    94051247.88847
  23800757.000   125074090.10806  23800759.640    97460452.24645
  23271149.040   122290719.42207  23271151.340    95291474.31346
 15 02 22 00 29  0.0000000  0  7G16G18G21G22G27G29G31
  21622690.040   113628014.25308  21622691.260    88541320.77848
  22353470.780   117468313.54308  22353472.320    91533758.05246
  21266208.880   111754758.20508  21266209.560    87081669.93648
  23768776.500   124905789.22606  23768778.180    97329216.13445
  22955423.580   120631578.79807  22955427.780    93998653.12447
  23814695.680   125147336.92806  23814698.060    97517527.66645
  23288654.460   122382710.46807  23288656.800    95363155.60946
 15 02 22 00 29 30.0000000  0  7G16G18G21G22G27G29G31
  21609559.600   113559013.36208  21609560.860    88487553.85648
  22342155.980   117408853.74708  22342157.300    91487425.76246
  21273367.260   111792375.78808  21273367.960    87110982.33648
  23750507.440   124809783.13306  23750508.780    97254406.31045
  22942596.300   120564171.06807  22942600.560    93946127.64547
  23828643.140   125220629.69907  23828645.360    97574638.87545
  23306186.080   122474839.07307  23306188.380    95434944.09346
 15 02 22 00 30  0.0000000  0  7G16G18G21G22G27G29G31
  21596487.880   113490321.17808  21596489.180    88434027.48548
  22330903.760   117349722.63708  22330904.900    91441349.59546
  21280584.900   111830304.82108  21280585.620    87140537.42948
  23732245.600   124713815.41506  23732246.760    97179626.38145
  22929786.080   120496852.95007  22929790.360    93893671.99747
  23842599.500   125293968.93707  23842601.480    97631786.32745
  23323743.380   122567102.81507  23323745.620    95506837.86946
 15 02 22 00 30 30.0000000  0  7G16G18G21G22G27G29G31
  21583474.900   113421937.69008  21583476.220    88380741.65848
  22319714.140   117290920.22008  22319715.120    91395529.55046
  21287861.020   111868541.08208  21287861.740    87170331.92048
  23713991.060   124617886.33506  23713992.100    97104876.55545
  22916992.520   120429622.25207  22916996.780    93841284.47247
  23856564.180   125367352.31007  23856566.000    97688968.12946
  23341325.300   122659496.23907  23341327.520    95578832.68646
 15 02 22 00 31  0.0000000  0  7G16G18G21G22G27G29G31
  21570522.020   113353870.30408  21570523.420    88327702.14748
  22308588.460   117232453.89808  22308589.340    91349971.40246
  21295196.180   111907087.66008  21295196.920    87200368.21748
  23695745.180   124522003.29606  23695746.300    97030162.61045
  22904216.600   120362484.22607  22904220.780    93788969.15047
  23870537.840   125440784.99506  23870539.840    97746188.37946
  23358932.240   122752021.55407  23358934.380    95650930.28246
 15 02 22 00 31 30.0000000  0  7G16G18G21G22G27G29G31
  21557628.620   113286115.24208  21557630.040    88274906.00348
  22297525.920   117174320.08208  22297526.920    91304672.34547
  21302589.060   111945937.41508  21302589.780    87230640.75348
  23677507.320   124426163.14206  23677508.620    96955482.07646
  22891457.240   120295433.28107  22891461.360    93736721.68147
  23884519.640   125514261.13506  23884522.000    97803442.51046
  23376562.640   122844669.94207  23376564.660    95723123.78046
 15 02 22 00 32  0.0000000  0  7G16G18G21G22G27G29G31
  21544795.540   113218677.10708  21544796.960    88222356.81548
  22286527.280   117116522.63708  22286528.520    91259635.40247
  21310039.600   111985090.18008  21310040.300    87261149.40348
  23659278.580   124330371.11606  23659280.060    96880839.05345
  22878714.800   120228471.36507  22878718.900    93684543.59747
  23898509.880   125587782.51806  23898512.680    97860731.86946
  23394216.300   122937440.27607  23394218.200    95795412.31946
 15 02 22 00 32 30.0000000  0  7G16G18G21G22G27G29G31
  21532022.960   113151556.61408  21532024.300    88170055.13248
  22275592.760   117059062.59508  22275594.300    91214861.35746
  21317547.420   112024544.07208  21317548.140    87291892.69648
  23641059.180   124234628.13206  23641060.820    96806234.23146
  22865989.100   120161597.34707  22865993.160    93632433.99347
  23912508.520   125661347.89606  23912511.580    97918055.55246
  23411892.320   123030328.33807  23411894.160    95867792.56846
 15 02 22 00 33  0.0000000  0  7G16G18G21G22G27G29G31
  21519310.920   113084754.08308  21519312.160    88118001.21448
  22264722.540   117001940.65108  22264724.420    91170350.77646
  21325111.760   112064295.14708  21325112.540    87322867.56348
  23622849.220   124138934.58306  23622850.960    96731667.92546
  22853279.780   120094809.44607  22853283.820    93580391.48547
  23926515.380   125734955.25406  23926518.420    97975411.90845
  23429589.900   123123329.39407  23429591.720    95940260.86445
 15 02 22 00 33 30.0000000  0  7G16G18G21G22G27G29G31
  21506660.260   113018274.03808  21506661.420    88066198.59348
  22253917.560   116945161.29308  22253919.640    91126107.14946
  21332732.720   112104343.53308  21332733.500    87354074.09848
  23604649.740   124043295.68306  23604651.460    96657144.20646
  22840587.220   120028109.80107  22840591.260    93528417.76047
  23940530.960   125808606.69706  23940533.800    98032802.60446
  23447308.700   123216442.50507  23447310.700    96012816.47246
 15 02 22 00 34  0.0000000  0  7G16G18G21G22G27G29G31
  21494071.580   112952119.91008  21494072.740    88014649.93248
  22243178.540   116888727.55708  22243180.500    91082132.83446
  21340410.100   112144688.37908  21340410.900    87385511.64548
  23586461.400   123947715.12707  23586462.980    96582665.96345
  22827911.720   119961499.96607  22827915.780    93476514.02247
  23954555.360   125882303.44607  23954557.920    98090228.62645
  23465048.520   123309665.82007  23465050.680    96085457.95646
 15 02 22 00 34 30.0000000  0  7G16G18G21G22G27G29G31
  21481545.400   112886294.35008  21481546.600    87963357.29948
  22232505.880   116832641.95308  22232507.600    91038429.79546
  21348143.700   112185328.64008  21348144.500    87417179.38348
  23568284.700   123852196.20807  23568286.160    96508235.72445
  22815253.380   119894980.34807  22815257.440    93424680.57247
  23968588.340   125956045.45606  23968590.540    98147689.91446
  23482808.880   123402996.66907  23482811.120    96158183.24646
 15 02 22 00 35  0.0000000  0  7G16G18G21G22G27G29G31
  21469082.140   112820799.35908  21469083.340    87912322.24548
  22221899.900   116776906.37708  22221901.360    90994999.50046
  21355933.220   112226262.76008  21355934.020    87449076.10148
  23550120.080   123756741.17107  23550121.460    96433855.27546
  22802612.200   119828550.91107  22802616.260    93372917.40547
  23982629.920   126029833.23506  23982631.940    98205186.84646
  23500589.160   123496432.15107  23500591.460    96230990.04546
 15 02 22 00 35 30.0000000  0  7G16G18G21G22G27G29G31
  21456682.420   112755638.41909  21456683.660    87861547.49748
  22211361.160   116721524.28308  22211362.420    90951844.65346
  21363778.540   112267490.19508  21363779.360    87481201.37948
  23531968.180   123661353.44406  23531969.540    96359527.26646
  22789988.440   119762212.93308  22789992.500    93321225.50047
  23996680.200   126103667.64506  23996682.240    98262720.12745
  23518388.980   123589970.19807  23518391.240    96303876.78046
 15 02 22 00 36  0.0000000  0  7G16G18G21G22G27G29G31
  21444346.380   112690811.93409  21444347.540    87811033.35848
  22200889.620   116666495.65108  22200890.760    90908965.22647
  21371678.900   112309006.98808  21371679.740    87513552.12748
  23513829.260   123566034.39906  23513830.640    96285252.78246
  22777381.800   119695964.71907  22777385.880    93269603.53847
  24010738.780   126177546.78506  24010741.040    98320288.25246
  23536207.360   123683606.18607  23536209.620    96376839.81546
 15 02 22 00 36 30.0000000  0  7G16G18G21G22G27G29G31
  21432074.360   112626322.12508  21432075.480    87760781.57048
  22190485.740   116611823.31608  22190486.940    90866363.42947
  21379633.980   112350811.33108  21379634.840    87546126.94248
  23495703.900   123470786.45106  23495705.200    96211033.67345
  22764792.320   119629806.40508  22764796.380    93218051.63047
  24024805.760   126251470.53906  24024808.360    98377891.13645
  23554043.700   123777336.87407  23554046.000    96449876.65646
 15 02 22 00 37  0.0000000  0  7G16G18G21G22G27G29G31
  21419866.620   112562170.15809  21419867.720    87710793.02848
  22180149.840   116557508.24708  22180151.140    90824040.02747
  21387643.340   112392900.90908  21387644.200    87578924.01648
  23477592.540   123375611.45006  23477593.740    96136871.42446
  22752219.840   119563737.30608  22752223.880    93166569.22747
  24038881.180   126325438.10606  24038883.920    98435528.24045
  23571897.280   123871158.52007  23571899.600    96522984.36045
 15 02 22 00 37 30.0000000  0  7G16G18G21G22G27G29G31
  21407723.780   112498359.26309  21407724.880    87661070.26148
  22169882.480   116503553.16608  22169883.860    90781997.12547
  21395706.740   112435274.48108  21395707.600    87611942.37948
  23459495.780   123280512.15507  23459496.700    96062768.15846
  22739664.520   119497758.16808  22739668.480    93115156.92647
  24052964.980   126399449.86505  24052967.880    98493199.70446
  23589767.720   123965068.83106  23589770.080    96596161.15646
 15 02 22 00 38  0.0000000  0  7G16G18G21G22G27G29G31
  21395646.840   112434894.45209  21395647.940    87611617.16848
  22159684.620   116449962.71908  22159685.960    90740238.36647
  21403824.440   112477933.65008  21403825.360    87645183.28448
  23441414.720   123185494.87907  23441415.360    95988728.80445
  22727126.860   119431872.08908  22727130.800    93063817.14147
  24067057.780   126473509.07506  24067060.800    98550908.15846
  23607655.100   124059067.60807  23607657.420    96669406.88346
 15 02 22 00 38 30.0000000  0  7G16G18G21G22G27G29G31
  21383635.420   112371773.78509  21383636.480    87562432.23948
  22149555.840   116396735.12408  22149557.120    90698762.34047
  21411995.360   112520872.46808  21411996.320    87678642.10248
  23423348.960   123090557.88607  23423349.340    95914752.01846
  22714606.100   119366074.98308  22714610.040    93012546.67647
  24081158.880   126547611.05006  24081161.980    98608649.93945
  23625558.080   124153147.69806  23625560.300    96742715.98946
 15 02 22 00 39  0.0000000  0  7G16G18G21G22G27G29G31
  21371689.980   112309000.01709  21371691.000    87513517.61648
  22139496.560   116343873.04308  22139497.780    90657571.12947
  21420219.260   112564089.61708  21420220.260    87712317.80248
  23405299.000   122995704.23107  23405299.280    95840840.17546
  22702102.400   119300367.65608  22702106.360    92961346.17247
  24095268.380   126621756.49706  24095271.240    98666425.62845
  23643476.200   124247306.91406  23643478.320    96816086.73746
 15 02 22 00 39 30.0000000  0  7G16G18G21G22G27G29G31
  21359811.340   112246577.37109  21359812.320    87464876.59948
  22129507.600   116291380.64108  22129508.820    90616667.98747
  21428496.240   112607585.33608  21428497.200    87746210.56848
  23387265.640   122900938.55007  23387266.000    95766996.87646
  22689616.220   119234752.34007  22689620.200    92910217.36747
  24109386.660   126695948.22806  24109389.080    98724237.33645
  23661409.160   124341544.18007  23661411.180    96889518.29346
 15 02 22 00 40  0.0000000  0  7G16G18G21G22G27G29G31
  21347999.580   112184506.25109  21348000.540    87416509.48848
  22119588.920   116239258.05208  22119590.220    90576053.01147
  21436825.520   112651355.81108  21436826.440    87780317.43248
  23369249.120   122806261.91306  23369249.620    95693222.96146
  22677147.180   119169227.28407  22677151.220    92859158.88647
  24123513.360   126770183.55007  24123515.600    98782082.93945
  23679356.020   124435854.57307  23679357.980    96963006.82346
 15 02 22 00 40 30.0000000  0  7G16G18G21G22G27G29G31
  21336255.640   112122791.64709  21336256.660    87368420.18948
  22109741.500   116187510.14108  22109742.940    90535729.98647
  21445207.360   112695402.46208  21445208.220    87814639.49848
  23351250.540   122711679.56707  23351251.180    95619522.51546
  22664695.900   119103795.51407  22664699.940    92808173.11147
  24137648.960   126844465.19407  24137650.940    98839964.75045
  23697316.740   124530238.11007  23697318.700    97036552.35546
 15 02 22 00 41  0.0000000  0  7G16G18G21G22G27G29G31
  21324579.760   112061434.61009  21324580.820    87320609.51748
  22099965.520   116136137.50008  22099967.040    90495699.37147
  21453641.260   112739722.70908  21453642.080    87849174.75548
  23333270.100   122617192.57607  23333270.960    95545896.36046
  22652262.120   119038455.91307  22652266.140    92757259.15347
  24151793.220   126918792.43207  24151795.040    98897882.08445
  23715290.520   124624690.63306  23715292.520    97110151.65445
 15 02 22 00 41 30.0000000  0  7G16G18G21G22G27G29G31
  21312972.360   112000437.35909  21312973.440    87273079.18948
  22090261.480   116085142.39208  22090262.980    90455962.95247
  21462126.800   112784314.40908  21462127.620    87883921.53248
  23315308.560   122522804.44307  23315309.480    95472347.24246
  22639845.940   118973208.80707  22639849.960    92706417.27347
  24165946.040   126993164.90206  24165947.860    98955834.68146
  23733276.800   124719208.84706  23733278.820    97183802.13446
 15 02 22 00 42  0.0000000  0  7G16G18G21G22G27G29G31
  21301434.340   111939804.79409  21301435.460    87225833.04148
  22080630.120   116034529.00108  22080631.520    90416523.96947
  21470664.160   112829178.49408  21470665.020    87918880.55848
  23297366.860   122428520.27307  23297367.740    95398879.12946
  22627447.900   118908056.97708  22627451.900    92655649.63447
  24180107.640   127067585.32706  24180109.860    99013824.55945
  23751275.580   124813792.95306  23751277.720    97257503.94545
 15 02 22 00 42 30.0000000  0  7G16G18G21G22G27G29G31
  21289965.600   111879536.40009  21289966.760    87178870.65648
  22071071.320   115984297.00008  22071072.620    90377382.16847
  21479252.440   112874310.28608  21479253.340    87954048.18448
  23279444.900   122334339.61707  23279445.660    95325491.67046
  22615067.540   118842997.80108  22615071.480    92604954.19247
  24194277.680   127142051.02705  24194280.460    99071849.76746
  23769285.800   124908437.20406  23769287.960    97331252.62746
 15 02 22 00 43  0.0000000  0  7G16G18G21G22G27G29G31
  21278566.080   111819631.85209  21278567.300    87132191.79148
  22061585.060   115934446.24108  22061586.260    90338537.44747
  21487891.000   112919706.12308  21487891.880    87989421.55948
  23261542.620   122240262.69707  23261543.360    95252185.04146
  22602704.460   118778029.11707  22602708.320    92554329.26847
  24208456.060   127216559.48106  24208459.100    99129908.25445
  23787306.300   125003135.76206  23787308.540    97405043.62245
 15 02 22 00 43 30.0000000  0  7G16G18G21G22G27G29G31
  21267236.960   111760097.16108  21267238.220    87085801.12148
  22052172.260   115884981.58508  22052173.440    90299993.58447
  21496580.120   112965367.73608  21496581.000    88025002.03248
  23243661.220   122146296.06307  23243662.120    95178964.36346
  22590359.300   118713154.81608  22590363.160    92503777.89047
  24222643.300   127291114.30106  24222646.720    99188002.89046
  23805337.340   125097889.62506  23805339.680    97478877.71046
 15 02 22 00 44  0.0000000  0  7G16G18G21G22G27G29G31
  21255978.320   111700932.77409  21255979.620    87039699.00548
  22042832.960   115835903.39808  22042834.140    90261750.86447
  21505319.020   113011290.98908  21505319.900    88060786.38148
  23225800.880   122052440.54307  23225802.000    95105830.24746
  22578031.820   118648373.46108  22578035.720    92453298.93647
  24236839.160   127365714.04705  24236842.340    99246132.55245
  23823377.940   125192694.15906  23823380.520    97552751.29746
 15 02 22 00 44 30.0000000  0  7G16G18G21G22G27G29G31
  21244790.260   111642139.18509  21244791.600    86993885.82548
  22033567.260   115787212.22308  22033568.500    90223809.70547
  21514107.240   113057473.40508  21514108.120    88096772.67748
  23207961.900   121958697.26906  23207963.260    95032783.62146
  22565721.740   118583683.44908  22565725.640    92402891.15547
  24251043.520   127440356.90905  24251046.200    99304295.85446
  23841427.260   125287544.61406  23841430.180    97626660.66346
 15 02 22 00 45  0.0000000  0  7G16G18G21G22G27G29G31
  21233673.940   111583722.61809  21233675.320    86948366.42948
  22024376.340   115738914.03308  22024377.640    90186174.76247
  21522945.260   113103917.52908  21522946.160    88132962.90248
  23190145.720   121865073.02107  23190147.140    94959829.72946
  22553429.860   118519089.13108  22553433.760    92352557.94747
  24265256.840   127515046.84706  24265259.180    99362495.76245
  23859485.700   125382442.21506  23859488.640    97700606.74745
 15 02 22 00 45 30.0000000  0  7G16G18G21G22G27G29G31
  21222629.580   111525684.00709  21222630.940    86903141.54148
  22015260.460   115691009.70508  22015261.800    90148846.72847
  21531832.320   113150619.69708  21531833.280    88169354.19548
  23172352.620   121771569.19007  23172353.840    94886969.65846
  22541156.060   118454589.62208  22541159.920    92302298.60947
  24279478.760   127589782.82105  24279480.620    99420731.52745
  23877552.420   125477382.92006  23877555.280    97774586.43046
 15 02 22 00 46  0.0000000  0  7G16G18G21G22G27G29G31
  21211657.680   111468026.08109  21211659.020    86858213.29348
  22006219.960   115643501.25508  22006221.280    90111827.16747
  21540768.300   113197578.81508  21540769.280    88205945.70748
  23154583.120   121678188.99307  23154584.120    94814205.92746
  22528900.380   118390185.63608  22528904.220    92252113.70447
  24293709.500   127664565.13405  24293711.120    99479003.53746
  23895626.920   125572363.90806  23895629.540    97848597.47646
 15 02 22 00 46 30.0000000  0  7G16G18G21G22G27G29G31
  21200758.700   111410751.45408  21200760.040    86813583.72248
  21997255.260   115596391.15708  21997256.560    90075118.01047
  21549752.960   113244793.74008  21549753.960    88242736.55848
  23136837.800   121584935.53007  23136838.540    94741540.96046
  22516662.920   118325877.68408  22516666.740    92202003.63147
  24307949.100   127739394.30307  24307950.840    99537311.87244
  23913708.780   125667383.28906  23913711.140    97922638.45046
 15 02 22 00 47  0.0000000  0  7G16G18G21G22G27G29G31
  21189933.160   111353862.58708  21189934.460    86769254.73748
  21988366.700   115549681.32208  21988367.940    90038720.74747
  21558786.060   113292263.16308  21558787.100    88279725.71348
  23119117.060   121491811.58807  23119117.580    94668976.91346
  22504443.820   118261666.35007  22504447.680    92151968.85347
  24322197.460   127814270.75807  24322198.880    99595657.21945
  23931797.420   125762438.26006  23931799.480    97996707.16246
 15 02 22 00 47 30.0000000  0  7G16G18G21G22G27G29G31
  21179180.800   111297358.50908  21179182.060    86725225.59448
  21979554.060   115503370.75208  21979555.300    90002634.59647
  21567866.680   113339982.29608  21567867.760    88316909.44948
  23101420.860   121398817.09307  23101421.220    94596513.73146
  22492242.640   118197548.98208  22492246.500    92102007.29048
  24336453.980   127889191.12006  24336455.800    99654036.64445
  23949891.560   125857522.72906  23949893.560    98070798.85545
 15 02 22 00 48  0.0000000  0  7G16G18G21G22G27G29G31
  21168502.700   111241244.83908  21168503.960    86681500.66448
  21970818.300   115457464.19908  21970819.580    89966863.27947
  21576995.140   113387952.34908  21576996.180    88354288.70948
  23083750.260   121305957.73407  23083750.620    94524155.86746
  22480059.960   118133528.90508  22480063.860    92052121.53847
  24350719.620   127964158.91806  24350721.940    99712453.12844
  23967991.280   125952637.04506  23967993.400    98144913.79546
 15 02 22 00 48 30.0000000  0  7G16G18G21G22G27G29G31
  21157898.600   111185520.11708  21157899.860    86638078.80848
  21962159.140   115411960.64208  21962160.520    89931405.97847
  21586170.360   113436168.13708  21586171.380    88391859.44748
  23066105.140   121213232.86907  23066105.540    94451902.78946
  22467895.200   118069602.94108  22467899.140    92002309.13147
  24364993.660   128039170.87605  24364996.300    99770903.96144
  23986095.280   126047774.64406  23986097.700    98219046.87846
 15 02 22 00 49  0.0000000  0  7G16G18G21G22G27G29G31
  21147369.200   111130187.82808  21147370.460    86594962.74748
  21953577.240   115366862.97908  21953578.640    89896264.96247
  21595392.320   113484629.55408  21595393.280    88429621.59048
  23048486.300   121120646.36007  23048486.700    94379757.51846
  22455748.700   118005772.74708  22455752.660    91952571.34547
  24379276.760   128114227.88006  24379279.100    99829390.06844
  24004203.440   126142934.07906  24004206.160    98293196.99046
 15 02 22 00 49 30.0000000  0  7G16G18G21G22G27G29G31
  21136915.240   111075251.71109  21136916.480    86552155.38948
  21945073.340   115322175.01108  21945074.700    89861443.17947
  21604661.040   113533336.69608  21604661.940    88467575.20748
  23030894.660   121028202.67707  23030895.080    94307723.53946
  22443620.880   117942040.43108  22443624.780    91902909.82847
  24393568.740   128189332.32407  24393571.040    99887912.89245
  24022315.580   126238114.42506  24022318.560    98367363.37246
 15 02 22 00 50  0.0000000  0  7G16G18G21G22G27G29G31
  21126536.540   111020711.22709  21126537.800    86509656.31748
  21936647.020   115277894.45308  21936648.300    89826938.86347
  21613975.420   113582284.04108  21613976.280    88505715.99348
  23013330.220   120935901.53607  23013330.560    94235800.63246
  22431511.120   117878402.94008  22431514.960    91853322.19947
  24407869.080   128264480.54505  24407871.480    99946469.98746
  24040430.560   126333309.48406  24040433.820    98441541.25045
 15 02 22 00 50 30.0000000  0  7G16G18G21G22G27G29G31
  21116234.580   110966573.93509  21116235.800    86467471.41548
  21928299.860   115234029.46908  21928301.040    89792758.36847
  21623336.340   113631476.01808  21623337.220    88544047.40448
  22995794.460   120843750.86107  22995794.700    94163994.98446
  22419420.500   117814866.23208  22419424.280    91803813.09747
  24422178.840   128339678.27906  24422181.320   100005065.54444
  24058548.960   126428521.97506  24058552.260    98515732.69045
 15 02 22 00 51  0.0000000  0  7G16G18G21G22G27G29G31
  21106008.660   110912836.44409  21106009.860    86425598.05448
  21920031.060   115190576.45608  21920032.240    89758898.89347
  21632742.500   113680905.80108  21632743.380    88582564.12048
  22978286.980   120751748.41407  22978287.100    94092304.83646
  22407348.040   117751425.30708  22407351.760    91754378.63747
  24436497.100   128414920.20505  24436499.340   100063695.65145
  24076669.060   126523743.63506  24076672.440    98589931.26046
 15 02 22 00 51 30.0000000  0  7G16G18G21G22G27G29G31
  21095860.280   110859506.61609  21095861.520    86384042.35348
  21911841.920   115147542.37408  21911843.140    89725365.85947
  21642194.600   113730576.68808  21642195.440    88621268.70948
  22960809.200   120659902.13107  22960809.360    94020736.36146
  22395294.900   117688085.94508  22395298.600    91705023.31647
  24450824.620   128490212.14906  24450826.780   100122364.69244
  24094791.520   126618977.39306  24094794.940    98664139.27046
 15 02 22 00 52  0.0000000  0  7G16G18G21G22G27G29G31
  21085788.920   110806581.55609  21085790.220    86342802.05148
  21903731.900   115104924.18308  21903733.200    89692156.89647
  21651691.340   113780482.18908  21651692.120    88660156.11548
  22943360.680   120568209.66607  22943360.960    93949287.73846
  22383260.220   117624843.49208  22383263.900    91655743.50947
  24465160.400   128565548.79504  24465162.900   100181068.55547
  24112914.800   126714215.03406  24112918.180    98738350.27446
 15 02 22 00 52 30.0000000  0  7G16G18G21G22G27G29G31
  21075795.580   110754066.41809  21075796.920    86301881.17248
  21895701.960   115062726.83708  21895703.400    89659275.85347
  21661232.980   113830623.76908  21661233.740    88699227.47448
  22925942.620   120476677.30807  22925943.100    93877963.87247
  22371244.640   117561701.48508  22371248.360    91606541.97447
  24479505.360   128640932.93306  24479508.160   100239809.37545
  24131039.000   126809457.14406  24131042.200    98812564.78045
 15 02 22 00 53  0.0000000  0  7G16G18G21G22G27G29G31
  21065879.680   110701958.06909  21065881.020    86261277.27348
  21887751.320   115020946.13108  21887752.860    89626719.47947
  21670818.180   113880994.48008  21670818.980    88738477.37848
  22908554.360   120385301.96007  22908555.100    93806762.34947
  22359247.240   117498654.76407  22359250.980    91557414.67848
  24493858.560   128716360.32005  24493861.520   100298583.92745
  24149162.500   126904695.21106  24149165.560    98886776.12645
 15 02 22 00 53 30.0000000  0  7G16G18G21G22G27G29G31
  21056042.740   110650264.61709  21056044.100    86220996.66648
  21879881.560   114979590.45708  21879883.160    89594494.29147
  21680447.820   113931598.61608  21680448.640    88777909.17548
  22891197.700   120294092.44307  22891198.620    93735690.05647
  22347269.180   117435709.84208  22347272.960    91508366.69647
  24508221.240   128791836.49205  24508224.160   100357396.57245
  24167285.880   126999932.89606  24167288.780    98960987.19946
 15 02 22 00 54  0.0000000  0  7G16G18G21G22G27G29G31
  21046284.820   110598986.35609  21046286.160    86181039.58848
  21872092.620   114938659.34908  21872094.200    89562599.94147
  21690121.200   113982432.79508  21690122.100    88817520.22348
  22873872.860   120203049.92907  22873873.840    93664747.88647
  22335310.220   117372865.22008  22335314.020    91459396.87748
  24522592.800   128867359.73905  24522595.780   100416245.76745
  24185408.160   127095165.31906  24185410.940    99035194.13045
 15 02 22 00 54 30.0000000  0  7G16G18G21G22G27G29G31
  21036606.160   110548124.53609  21036607.480    86141407.00848
  21864384.700   114898153.79308  21864386.220    89531037.18747
  21699837.820   114033494.03008  21699838.760    88857308.19748
  22856580.080   120112175.74107  22856580.960    93593936.88546
  22323370.200   117310120.35108  22323374.060    91410504.78448
  24536973.320   128942929.10406  24536976.260   100475131.01745
  24203528.680   127190388.83706  24203531.420    99109394.13346
 15 02 22 00 55  0.0000000  0  8G16G18G19G21G22G27G29G31
  21027007.640   110497683.87909  21027008.920    86102102.60548
  21856758.480   114858077.78108  21856759.980    89499809.15247
  24532669.120   128920043.34305  24532669.240   100457183.11744
  21709597.780   114084783.15508  21709598.780    88897273.75148
  22839320.420   120021475.29507  22839321.020    93523261.27746
  22311449.700   117247478.01308  22311453.600    91361692.59147
  24551363.180   129018547.34306  24551366.060   100534054.25345
  24221647.320   127285602.93806  24221650.120    99183586.81045
 15 02 22 00 55 30.0000000  0  7G16G18G19G21G22G27G31
  21017482.620   110447629.44509  21017483.840    86063099.15948
  21849207.200   114818395.81508  21849208.700    89468888.15647
  24517340.120   128839489.28805  24517340.380   100394413.79144
  21719393.940   114136262.53408  21719395.000    88937387.55248
  22822087.320   119930914.80907  22822087.600    93452694.70146
  22299541.860   117184901.95208  22299545.800    91312932.04947
  24239756.700   127380768.36506  24239759.560    99257741.52445
 15 02 22 00 56  0.0000000  0  7G16G18G19G21G22G27G31
  21008045.600   110398037.67809  21008046.780    86024456.23348
  21841745.380   114779184.13608  21841746.900    89438333.61747
  24502027.740   128759023.21805  24502028.020   100331713.00045
  21729239.980   114188004.17808  21729241.120    88977705.71648
  22804895.340   119840570.78507  22804895.380    93382296.81046
  22287660.800   117122466.52608  22287664.740    91264281.08048
  24257870.360   127475956.32706  24257873.300    99331913.82345
 15 02 22 00 56 30.0000000  0  7G16G18G19G21G22G27G31
  20998688.560   110348866.12709  20998689.720    85986140.74548
  21834365.020   114740400.28708  21834366.540    89408112.45547
  24486723.700   128678600.72205  24486724.200   100269046.14945
  21739127.220   114239962.32108  21739128.420    89018192.58248
  22787736.640   119750402.04907  22787736.580    93312035.50046
  22275798.200   117060128.07208  22275802.140    91215705.67948
  24275979.400   127571119.79106  24275982.360    99406067.01345
 15 02 22 00 57  0.0000000  0  7G16G18G19G21G22G27G31
  20989413.000   110300122.66709  20989414.180    85948158.83948
  21827067.340   114702050.62308  21827068.840    89378229.61647
  24471429.040   128598227.14905  24471429.600   100206417.41145
  21749056.220   114292139.73708  21749057.440    89058850.30848
  22770612.660   119660416.25907  22770612.680    93241916.75446
  22263955.100   116997892.05308  22263959.020    91167210.10548
  24294084.260   127666261.19106  24294087.280    99480203.01046
 15 02 22 00 57 30.0000000  0  7G16G18G19G21G22G27G31
  20980219.120   110251808.37809  20980220.320    85910511.34348
  21819852.540   114664136.16708  21819854.020    89348685.90347
  24456143.640   128517901.91105  24456144.340   100143826.34445
  21759026.680   114344534.60008  21759027.860    89099677.48048
  22753523.900   119570615.36707  22753524.140    93171942.07847
  22252131.440   116935758.23808  22252135.320    91118794.16348
  24312184.300   127761376.79406  24312187.400    99554318.89645
 15 02 22 00 58  0.0000000  0  7G16G18G19G21G22G27G31
  20971107.400   110203925.78509  20971108.600    85873200.24448
  21812721.000   114626659.25108  21812722.440    89319483.13847
  24440867.620   128437626.04406  24440868.320   100081273.76345
  21769038.380   114397146.27308  21769039.600    89140673.58748
  22736471.180   119481002.97907  22736471.580    93102114.29847
  22240327.420   116873727.63608  22240331.240    91070458.65048
  24330279.100   127856464.79606  24330282.240    99628413.28745
 15 02 22 00 58 30.0000000  0  7G16G18G19G21G22G27G31
  20962078.420   110156478.15709  20962079.600    85836228.08048
  21805673.160   114589622.50708  21805674.640    89290623.35047
  24425601.160   128357400.35006  24425601.940   100018760.27644
  21779091.120   114449973.61608  21779092.320    89181837.75248
  22719455.100   119391582.43108  22719455.520    93032435.98447
  22228543.280   116811801.75408  22228547.100    91022204.74447
  24348368.380   127951523.50506  24348371.560    99702484.82346
 15 02 22 00 59  0.0000000  0  7G16G18G19G21G22G27G31
  20953132.540   110109467.12209  20953133.640    85799596.10948
  21798709.200   114553026.77108  21798710.720    89262107.20847
  24410344.240   128277224.75506  24410345.000    99956285.85045
  21789184.600   114503015.05608  21789185.760    89223168.74248
  22702476.120   119302356.39808  22702476.480    92962909.25046
  22216779.140   116749980.68108  22216782.900    90974032.49448
  24366451.520   128046549.74706  24366454.680    99776531.06245
 15 02 22 00 59 30.0000000  0  7G16G18G19G21G22G27G31
  20944269.380   110062890.91009  20944270.460    85763302.96348
  21791828.740   114516870.15708  21791830.360    89233933.23947
  24395096.360   128197095.71706  24395096.880    99893847.71445
  21799317.680   114556264.66408  21799318.820    89264661.94648
  22685533.920   119213323.73208  22685534.240    92893533.17947
  22205034.280   116688260.81508  22205038.000    90925939.12147
  24384527.180   128141536.76206  24384530.420    99850546.72446
 15 02 22 01 00  0.0000000  0  7G16G18G19G21G22G27G31
  20935490.160   110016755.80509  20935491.240    85727353.54148
  21785032.880   114481158.27808  21785034.600    89206105.81647
  24379858.140   128117017.63106  24379858.380    99831449.24544
  21809490.880   114609725.05408  21809491.980    89306319.38848
  22668629.700   119124491.46407  22668630.100    92824313.26747
  22193309.600   116626647.00408  22193313.280    90877928.37748
  24402595.760   128236486.28806  24402599.060    99924533.17145
 15 02 22 01 00 30.0000000  0  7G16G18G19G21G22G27G31
  20926795.160   109971063.48409  20926796.280    85691749.14548
  21778321.820   114445892.05908  21778323.580    89178625.65947
  24364629.480   128036990.17506  24364629.520    99769090.24144
  21819703.940   114663394.71808  21819704.960    89348139.90848
  22651764.020   119035861.99108  22651764.520    92755251.38547
  22181605.100   116565139.44408  22181608.780    90830000.42248
  24420656.660   128331395.24006  24420659.940    99998487.98945
 15 02 22 01 01  0.0000000  0  7G16G18G19G21G22G27G31
  20918184.180   109925812.82309  20918185.340    85656488.89849
  21771695.440   114411070.08908  21771697.080    89151491.67547
  24349409.920   127957010.53806  24349409.900    99706768.49145
  21829955.740   114717268.04108  21829956.700    89390119.12348
  22634936.740   118947434.52708  22634937.320    92686346.90847
  22169920.260   116503735.28408  22169923.960    90782153.04048
  24438708.660   128426257.53506  24438711.920   100072406.44245
 15 02 22 01 01 30.0000000  0  7G16G18G19G21G22G27G31
  20909658.380   109881009.74908  20909659.560    85621577.41848
  21765154.660   114376697.59008  21765156.100    89124707.92647
  24334200.120   127877082.64606  24334200.180    99644487.06444
  21840246.920   114771348.33108  21840247.820    89432259.60848
  22618149.200   118859215.94208  22618149.800    92617605.19947
  22158255.940   116442438.90108  22158259.640    90734389.63448
  24456751.980   128521074.48106  24456755.280   100146289.54346
 15 02 22 01 02  0.0000000  0  7G16G18G19G21G22G27G31
  20901218.040   109836655.58909  20901219.220    85587015.74348
  21758699.620   114342775.27508  21758700.860    89098274.97947
  24319000.020   127797205.88406  24319000.240    99582245.47646
  21850577.000   114825633.24708  21850577.880    89474559.54548
  22601401.820   118771208.26808  22601402.360    92549027.83247
  22146612.100   116381250.08008  22146615.780    90686710.04648
  24474785.940   128615842.73706  24474789.300   100220134.69445
 15 02 22 01 02 30.0000000  0  7G16G18G19G21G22G27G31
  20892863.700   109792753.08409  20892864.860    85552806.00748
  21752330.680   114309305.77008  21752331.780    89072194.86447
  24303809.800   127717381.58506  24303810.240    99520044.76345
  21860945.740   114880121.29908  21860946.600    89517017.76548
  22584695.200   118683414.86508  22584695.660    92480617.41747
  22134988.960   116320170.19308  22134992.640    90639115.33748
  24492810.180   128710560.34806  24492813.800   100293940.36645
 15 02 22 01 03  0.0000000  0  7G16G18G19G21G22G27G31
  20884595.380   109749302.73509  20884596.520    85518948.59648
  21746047.660   114276288.38508  21746048.780    89046467.05247
  24288629.260   127637607.93406  24288629.820    99457883.51546
  21871352.580   114934809.55208  21871353.380    89559631.99048
  22568029.560   118595836.87008  22568029.940    92412374.87047
  22123386.300   116259198.01308  22123389.980    90591604.55848
  24510823.820   128805223.08006  24510827.680   100367703.28245
 15 02 22 01 03 30.0000000  0  7G16G18G19G21G22G27G31
  20876413.720   109706307.88708  20876414.860    85485446.12348
  21739851.160   114243726.12508  21739852.360    89021093.86947
  24273458.660   127557886.96306  24273459.440    99395763.30445
  21881797.420   114989697.48608  21881798.200    89602401.80848
  22551405.800   118508478.57608  22551406.060    92344303.51346
  22111804.580   116198335.73708  22111808.240    90544179.41848
  24528826.820   128899830.06906  24528830.880   100441422.74445
 15 02 22 01 04  0.0000000  0  7G16G18G19G21G22G27G31
  20868318.580   109663767.72609  20868319.700    85452297.94649
  21733740.980   114211617.61908  21733742.340    88996074.26047
  24258297.560   127478215.61906  24258298.460    99333681.73846
  21892279.400   115044780.67008  21892280.180    89645323.77048
  22534823.800   118421339.58308  22534824.000    92276403.04847
  22100243.220   116137580.75108  22100246.920    90496837.87248
  24546818.080   128994375.16806  24546822.200   100515093.97745
 15 02 22 01 04 30.0000000  0  7G16G18G19G21G22G27G31
  20860310.200   109621683.57909  20860311.360    85419505.11449
  21727717.400   114179963.88208  21727718.880    88971409.02047
  24243146.000   127398593.95506  24243146.900    99271638.92346
  21902798.320   115100058.08908  21902799.100    89688397.08048
  22518284.040   118334422.31108  22518284.180    92208675.34747
  22088702.320   116076933.14308  22088706.020    90449580.00648
  24564797.080   129088855.66906  24564801.360   100588714.82345
 15 02 22 01 05  0.0000000  0  7G16G18G19G21G22G27G31
  20852389.320   109580059.22308  20852390.540    85387070.55549
  21721780.980   114148767.80808  21721782.520    88947100.40147
  24228004.340   127319023.80306  24228005.160    99209636.22445
  21913354.120   115155529.22408  21913354.880    89731621.34348
  22501787.400   118247731.36808  22501787.520    92141124.00147
  22077182.300   116016395.12208  22077186.020    90402407.53048
  24582763.720   129183270.34506  24582768.000   100662284.47545
 15 02 22 01 05 30.0000000  0  7G16G18G19G21G22G27G31
  20844556.260   109538896.17509  20844557.500    85354995.45949
  21715931.860   114118030.36408  21715933.420    88923149.16147
  24212872.440   127239504.87706  24212873.160    99147673.45145
  21923946.280   115211191.44008  21923947.000    89774994.50048
  22485334.100   118161268.59308  22485334.320    92073750.45947
  22065683.180   115955966.84108  22065686.900    90355320.57248
  24600717.440   129277616.57706  24600721.680   100735800.79445
 15 02 22 01 06  0.0000000  0  7G16G18G19G21G22G27G31
  20836811.600   109498197.57609  20836812.800    85323282.27148
  21710170.440   114087753.76608  21710172.000    88899557.01947
  24197750.580   127160038.27706  24197751.020    99085751.45445
  21934574.860   115267045.06208  21934575.580    89818516.80548
  22468924.900   118075038.07708  22468925.240    92006557.89147
  22054205.260   115895649.89008  22054208.940    90308320.36448
  24618657.840   129371892.32306  24618661.920   100809262.17545
 15 02 22 01 06 30.0000000  0  7G16G18G19G21G22G27G31
  20829155.800   109457965.83609  20829156.920    85291932.86149
  21704497.040   114057940.10608  21704498.680    88876325.61648
  24182638.800   127080625.16706  24182639.080    99023871.13945
  21945239.640   115323088.94908  21945240.380    89862187.36448
  22452560.460   117989042.90108  22452560.920    91939548.68947
  22042748.780   115835445.41408  22042752.400    90261407.79748
  24636584.560   129466095.61306  24636588.360   100882667.02145
 15 02 22 01 07  0.0000000  0  7G16G18G19G21G22G27G31
  20821589.100   109418202.47809  20821590.160    85260948.42849
  21698911.840   114028590.08308  21698913.580    88853455.48947
  24167537.020   127001264.94306  24167537.240    98962032.05945
  21955940.200   115379320.85808  21955940.940    89906004.43648
  22436241.200   117903285.25408  22436241.740    91872724.57647
  22031313.660   115775353.49508  22031317.260    90214582.93548
  24654497.020   129560223.64806  24654500.620   100956013.35745
 15 02 22 01 07 30.0000000  0  7G16G18G19G21G22G27G31
  20814111.400   109378906.94609  20814112.480    85230328.53849
  21693414.780   113999703.17508  21693416.580    88830946.22247
  24152445.040   126921956.25006  24152445.240    98900233.11845
  21966675.780   115435736.91108  21966676.560    89949964.99548
  22419967.340   117817766.16808  22419967.940    91806086.36147
  22019899.660   115715372.63808  22019903.280    90167844.62148
  24672394.140   129654271.73806  24672397.640   101029297.38545
 15 02 22 01 08  0.0000000  0  7G16G18G19G21G22G27G31
  20806723.440   109340082.93909  20806724.500    85200076.06948
  21688006.380   113971281.81408  21688008.160    88808799.72048
  24137363.140   126842700.36406  24137363.360    98838475.30445
  21977446.460   115492337.39808  21977447.300    89994069.26848
  22403739.660   117732489.26508  22403740.220    91739636.85847
  22008507.180   115655504.86708  22008510.820    90121194.42948
  24690275.660   129748238.32206  24690279.080   101102517.88545
 15 02 22 01 08 30.0000000  0  6G16G18G19G21G22G27
  20799424.100   109301724.37509  20799425.100    85170186.27949
  21682685.260   113943319.21608  21682687.020    88787010.70148
  24122289.840   126763489.85906  24122290.000    98776752.85546
  21988250.440   115549112.90108  21988251.320    90038309.91848
  22387557.240   117647449.79608  22387557.680    91673372.37747
  21997134.840   115595742.84308  21997138.520    90074626.63248
 15 02 22 01 09  0.0000000  0  6G16G18G19G21G22G27
  20792217.820   109263854.97909  20792218.780    85140677.65649
  21677455.880   113915838.61308  21677457.620    88765597.25548
  24107229.280   126684346.33706  24107229.460    98715082.61445
  21999091.580   115606083.60508  21999092.500    90082702.67048
  22371424.660   117562671.87708  22371424.860    91607311.70647
  21985786.920   115536109.05308  21985790.580    90028158.75648
 15 02 22 01 09 30.0000000  0  6G16G18G19G21G22G27
  20785101.200   109226457.07509  20785102.220    85111536.43049
  21672314.840   113888822.01308  21672316.540    88744545.37247
  24092177.880   126605250.99006  24092178.120    98653449.90345
  22009965.860   115663228.23208  22009966.760    90127230.95548
  22355338.720   117478138.99308  22355338.620    91541441.97147
  21974459.780   115476584.55408  21974463.440    89981776.03848
 15 02 22 01 10  0.0000000  0  6G16G18G19G21G22G27
  20778075.260   109189535.68908  20778076.360    85082766.52849
  21667262.780   113862273.13508  21667264.400    88723857.94548
  24077136.400   126526207.34806  24077136.660    98591857.48045
  22020873.700   115720548.94808  22020874.520    90171896.44848
  22339300.460   117393856.94708  22339300.120    91475767.69947
  21963154.060   115417172.96508  21963157.780    89935481.30548
 15 02 22 01 10 30.0000000  0  6G16G18G19G21G22G27
  20771140.960   109153095.79408  20771142.120    85054371.80849
  21662300.540   113836196.20108  21662302.080    88703538.26847
  24062105.320   126447218.59205  24062105.580    98530307.77746
  22031815.300   115778047.15208  22031816.060    90216700.24448
  22323310.960   117309831.78408  22323310.540    91410293.57447
  21951870.580   115357878.16408  21951874.340    89889277.58248
 15 02 22 01 11  0.0000000  0  6G16G18G19G21G22G27
  20764298.680   109117139.48308  20764299.880    85026353.90449
  21657428.420   113810593.02208  21657429.920    88683587.75347
  24047084.780   126368285.26906  24047085.080    98468801.28945
  22042790.420   115835721.64208  22042791.120    90261641.40348
  22307370.700   117226066.04008  22307370.440    91345021.59947
  21940609.520   115298701.04908  21940613.280    89843165.55148
 15 02 22 01 11 30.0000000  0  6G16G18G19G21G22G27
  20757548.080   109081664.96209  20757549.280    84998711.41949
  21652645.940   113785461.23008  21652647.440    88664004.55147
  24032074.280   126289404.55906  24032074.520    98407335.81545
  22053798.120   115893567.26208  22053798.740    90306715.91448
  22291479.540   117142558.72608  22291479.620    91279950.99147
  21929370.260   115239638.53608  21929374.020    89797142.82848
 15 02 22 01 12  0.0000000  0  6G16G18G19G21G22G27
  20750890.220   109046677.58209  20750891.380    84971448.52649
  21647954.120   113760805.66508  21647955.600    88644792.43147
  24017074.460   126210579.89106  24017074.640    98345914.01145
  22064838.720   115951585.93608  22064839.300    90351925.26848
  22275638.840   117059316.30308  22275639.240    91215086.79047
  21918153.620   115180694.82908  21918157.340    89751212.67948
 15 02 22 01 12 30.0000000  0  6G16G18G19G21G22G27
  20744324.800   109012175.95108  20744325.920    84944564.13449
  21643352.460   113736623.77608  21643353.860    88625949.41347
  24002084.720   126131807.93206  24002084.860    98284533.27546
  22075911.360   116009772.94108  22075911.880    90397265.79247
  22259848.540   116976338.03708  22259849.120    91150428.42347
  21906959.080   115121867.34008  21906962.740    89705373.08748
 15 02 22 01 13  0.0000000  0  6G16G18G19G21G22G27
  20737852.640   108978164.62909  20737853.820    84918061.80549
  21638841.700   113712919.58008  21638843.040    88607478.62147
  23987105.640   126053092.07705  23987105.800    98223196.24446
  22087016.240   116068129.64208  22087016.800    90442738.54047
  22244109.680   116893629.46208  22244110.220    91085980.21047
  21895787.360   115063159.60508  21895790.980    89659626.81948
 15 02 22 01 13 30.0000000  0  6G16G18G19G21G22G27
  20731474.140   108944645.49009  20731475.360    84891943.00049
  21634422.200   113689694.85608  21634423.500    88589381.44047
  23972137.320   125974433.16206  23972137.600    98161903.58846
  22098153.180   116126654.96708  22098153.820    90488342.68348
  22228422.800   116811193.78908  22228423.140    91021744.64947
  21884638.700   115004572.78808  21884642.260    89613974.76248
 15 02 22 01 14  0.0000000  0  6G16G18G19G21G22G27
  20725189.300   108911618.35109  20725190.500    84866207.56949
  21630093.640   113666948.13608  21630094.960    88571656.73948
  23957179.400   125895829.12906  23957179.780    98100653.73046
  22109321.480   116185344.89308  22109322.160    90534075.09048
  22212787.920   116729031.46708  22212788.000    90957722.08947
  21873512.720   114946105.15908  21873516.260    89568415.58548
 15 02 22 01 14 30.0000000  0  6G16G18G19G21G22G27
  20718998.580   108879085.72709  20718999.720    84840857.46649
  21625856.380   113644681.01108  21625857.680    88554305.73847
  23942232.120   125817280.61606  23942232.440    98039447.11946
  22120520.960   116244198.68408  22120521.660    90579935.18748
  22197205.540   116647145.30508  22197205.380    90893914.72147
  21862409.620   114887757.99808  21862413.220    89522950.27748
 15 02 22 01 15  0.0000000  0  6G16G18G19G21G22G27
  20712902.500   108847050.39009  20712903.600    84815894.86449
  21621710.780   113622895.93508  21621712.100    88537330.36747
  23927295.740   125738789.58605  23927296.140    97978285.29146
  22131751.680   116303216.35008  22131752.380    90625922.97547
  22181676.400   116565539.44108  22181676.140    90830325.76547
  21851329.800   114829533.25308  21851333.460    89477580.35448
 15 02 22 01 15 30.0000000  0  6G16G18G19G21G22G27
  20706901.040   108815512.18409  20706902.100    84791319.63749
  21617656.600   113601591.55908  21617658.020    88520729.55448
  23912370.020   125660354.39805  23912370.440    97917166.95746
  22143012.960   116362394.57608  22143013.680    90672035.87448
  22166200.700   116484214.79608  22166200.500    90766955.94247
  21840273.020   114771429.69508  21840276.780    89432304.87548
 15 02 22 01 16  0.0000000  0  6G16G18G19G21G22G27
  20700995.000   108784475.68708  20700996.040    84767135.35149
  21613694.680   113580771.87308  21613696.200    88504506.43148
  23897455.340   125581978.03706  23897455.900    97856094.49346
  22154304.980   116421734.61808  22154305.720    90718274.86447
  22150779.520   116403176.63608  22150779.500    90703809.36347
  21829240.040   114713450.84408  21829243.820    89387126.56248
 15 02 22 01 16 30.0000000  0  6G16G18G19G21G22G27
  20695183.780   108753937.65208  20695184.840    84743339.47949
  21609824.420   113560433.58508  21609825.980    88488658.41647
  23882551.140   125503656.47906  23882551.740    97795064.74645
  22165626.540   116481230.19308  22165627.340    90764635.04647
  22135412.580   116322423.33108  22135412.720    90640884.72247
  21818230.020   114655592.74908  21818233.760    89342042.33948
 15 02 22 01 17  0.0000000  0  6G16G18G19G21G22G27
  20689468.000   108723901.20108  20689469.080    84719934.44949
  21606046.200   113540578.55308  21606047.700    88473186.97548
  23867657.640   125425390.76605  23867658.140    97734078.51345
  22176977.560   116540880.57108  22176978.420    90811115.85647
  22120100.600   116241958.43308  22120100.840    90578184.82447
  21807243.360   114597857.39208  21807247.040    89297053.76948
 15 02 22 01 17 30.0000000  0  6G16G18G19G21G22G27
  20683848.200   108694369.27108  20683849.340    84696922.55349
  21602360.360   113521208.81508  21602361.800    88458093.68748
  23852775.180   125347182.76905  23852775.620    97673137.22946
  22188358.300   116600686.74208  22188359.140    90857718.06747
  22104844.200   116161785.53408  22104844.500    90515712.45147
  21796280.400   114540246.61408  21796284.040    89252162.26248
 15 02 22 01 18  0.0000000  0  6G16G18G19G21G22G27
  20678324.960   108665344.49108  20678326.120    84674305.84149
  21598767.240   113502326.41708  21598768.560    88443380.14448
  23837903.880   125269033.96205  23837904.280    97612242.05745
  22199768.460   116660647.54308  22199769.320    90904440.76747
  22089644.080   116081908.39808  22089644.460    90453470.55247
  21785341.480   114482762.19908  21785345.100    89207369.22348
 15 02 22 01 18 30.0000000  0  6G16G18G19G21G22G27
  20672898.160   108636826.46408  20672899.340    84652084.00049
  21595266.660   113483930.43208  21595267.880    88429045.62548
  23823043.520   125190942.34805  23823043.820    97551391.47345
  22211207.440   116720759.71008  22211208.300    90951281.41147
  22074500.440   116002327.86708  22074500.780    90391459.77947
  21774426.380   114425402.97508  21774429.960    89162673.73448
 15 02 22 01 19  0.0000000  0  6G16G18G19G21G22G27
  20667568.220   108608817.48208  20667569.420    84630258.81849
  21591858.820   113466022.18008  21591859.960    88415091.14948
  23808194.360   125112909.35205  23808194.580    97490586.55546
  22222675.080   116781022.23608  22222675.900    90998239.22547
  22059413.840   115923047.18108  22059414.080    90329682.64647
  21763535.340   114368170.31008  21763538.920    89118076.86448
 15 02 22 01 19 30.0000000  0  6G16G18G19G21G22G27
  20662335.680   108581320.45108  20662336.920    84608832.55849
  21588544.040   113448603.43508  21588545.200    88401518.10348
  23793356.680   125034936.75605  23793356.980    97429828.73646
  22234171.400   116841435.65108  22234172.180    91045314.60547
  22044384.920   115844070.12508  22044385.120    90268142.11247
  21752668.780   114311066.34308  21752672.380    89073580.27748
 15 02 22 01 20  0.0000000  0  6G16G18G19G21G22G27
  20657200.280   108554333.94508  20657201.580    84587804.10949
  21585322.040   113431672.56208  21585323.280    88388325.21347
  23778529.940   124957021.47005  23778530.260    97369115.53646
  22245695.580   116901995.27308  22245696.280    91092503.92347
  22029413.640   115765396.20608  22029413.820    90206837.78847
  21741826.300   114254088.80308  21741829.940    89029182.20448
 15 02 22 01 20 30.0000000  0  6G16G18G19G21G22G27
  20652163.080   108527863.30108  20652164.380    84567177.62749
  21582193.780   113415234.03608  21582195.100    88375515.97648
  23763714.860   124879167.71006  23763715.180    97308450.27445
  22257247.860   116962702.60408  22257248.500    91139808.33547
  22014501.320   115687031.98208  22014501.480    90145774.78347
  21731008.680   114197242.06508  21731012.400    88984886.06148
 15 02 22 01 21  0.0000000  0  6G16G18G19G21G22G27
  20647223.660   108501906.26308  20647224.900    84546951.35849
  21579158.700   113399284.96708  21579160.100    88363088.13848
  23748910.920   124801372.45606  23748911.260    97247830.66645
  22268827.460   117023553.42408  22268828.060    91187224.55647
  21999647.840   115608976.31308  21999647.940    90084952.21047
  21720215.480   114140523.40008  21720219.180    88940689.70748
 15 02 22 01 21 30.0000000  0  6G16G18G19G21G22G27
  20642382.300   108476464.56408  20642383.520    84527126.65349
  21576216.960   113383826.14708  21576218.440    88351042.31548
  23734118.240   124723636.08306  23734118.560    97187256.90346
  22280434.140   117084546.81608  22280434.740    91234751.87247
  21984853.700   115531231.85208  21984853.680    90024372.12947
  21709446.840   114083933.66808  21709450.480    88896593.82448
 15 02 22 01 22  0.0000000  0  6G16G18G19G21G22G27
  20637639.580   108451541.31508  20637640.760    84507705.93349
  21573368.880   113368859.33608  21573370.400    88339379.87748
  23719337.120   124645960.18205  23719337.360    97126730.23146
  22292067.840   117145682.10108  22292068.440    91282389.75947
  21970119.520   115453802.53808  21970119.500    89964037.62948
  21698703.120   114027474.85708  21698706.700    88852599.95248
 15 02 22 01 22 30.0000000  0  6G16G18G19G21G22G27
  20632996.120   108427139.74208  20632997.300    84488691.72249
  21570615.040   113354387.71208  21570616.560    88328103.29548
  23704567.780   124568346.92106  23704568.020    97066252.38046
  22303728.520   117206959.52008  22303729.180    91330138.39547
  21955446.140   115376692.66208  21955446.100    89903952.04248
  21687984.800   113971149.68208  21687988.340    88808710.21348
 15 02 22 01 23  0.0000000  0  6G16G18G19G21G22G27
  20628451.500   108403257.80008  20628452.720    84470082.41749
  21567954.940   113340408.54008  21567956.420    88317210.44448
  23689809.780   124490793.42006  23689810.060    97005821.12146
  22315415.480   117268375.11908  22315416.200    91377994.70447
  21940833.380   115299901.53808  21940833.260    89844114.82647
  21677291.420   113914955.60608  21677294.940    88764922.62848
 15 02 22 01 23 30.0000000  0  6G16G18G19G21G22G27
  20624006.480   108379899.18508  20624007.760    84451880.89949
  21565389.100   113326924.66308  21565390.520    88306703.53348
  23675063.660   124413302.57306  23675064.020    96945438.68846
  22327128.760   117329928.82608  22327129.500    91425958.63047
  21926282.000   115223433.69408  21926281.880    89784529.51347
  21666623.520   113858895.67108  21666627.080    88721239.56748
 15 02 22 01 24  0.0000000  0  6G16G18G19G21G22G27
  20619661.240   108357064.45308  20619662.460    84434087.60449
  21562917.420   113313935.72808  21562918.800    88296582.28748
  23660329.340   124335873.62706  23660329.780    96885104.46146
  22338868.020   117391618.96208  22338868.740    91474028.86147
  21911792.440   115147291.11708  21911792.360    89725197.65347
  21655981.160   113802969.80508  21655984.720    88677660.98048
 15 02 22 01 24 30.0000000  0  6G16G18G19G21G22G27
  20615415.960   108334754.99408  20615417.100    84416703.59949
  21560539.940   113301442.05008  21560541.360    88286846.95948
  23645606.900   124258506.97406  23645607.340    96824818.78446
  22350632.940   117453444.20708  22350633.700    91522204.37347
  21897365.100   115071475.67808  21897364.980    89666120.71447
  21645364.400   113747178.61408  21645367.980    88634187.33648
 15 02 22 01 25  0.0000000  0  6G16G18G19G21G22G27
  20611270.820   108312971.93908  20611271.900    84399729.78649
  21558256.740   113289444.06008  21558258.200    88277497.88748
  23630896.300   124181202.38606  23630896.800    96764581.46146
  22362423.080   117515402.18408  22362423.920    91570483.30647
  21883000.580   114995989.84908  21883000.380    89607300.61147
  21634773.380   113691522.46008  21634776.980    88590818.91048
 15 02 22 01 25 30.0000000  0  6G16G18G19G21G22G27
  20607226.080   108291716.61908  20607227.120    84383167.19249
  21556068.020   113277942.53008  21556069.520    88268535.65948
  23616197.640   124103960.42206  23616198.140    96704392.95446
  22374238.340   117577492.11008  22374239.200    91618865.06447
  21868699.300   114920836.28108  21868699.040    89548739.41147
  21624208.260   113636002.37208  21624211.860    88547556.51048
 15 02 22 01 26  0.0000000  0  6G16G18G19G21G22G27
  20603281.740   108270989.01108  20603282.780    84367015.80449
  21553973.580   113266936.25208  21553975.100    88259959.34548
  23601510.760   124026780.14406  23601511.160    96644252.50346
  22386078.200   117639711.21008  22386079.060    91667347.47147
  21854461.480   114846015.98008  21854461.180    89490437.90648
  21613668.880   113580617.78808  21613672.520    88504399.69548
 15 02 22 01 26 30.0000000  0  6G16G18G19G21G22G27
  20599438.420   108250792.16508  20599439.420    84351277.99849
  21551974.000   113256428.22008  21551975.480    88251771.27248
  23586836.060   123949663.90706  23586836.420    96584161.94746
  22397942.660   117702059.30708  22397943.500    91715930.40447
  21840287.940   114771533.42708  21840287.640    89432399.57648
  21603155.840   113525371.40008  21603159.500    88461350.57048
 15 02 22 01 27  0.0000000  0  6G16G18G19G21G22G27
  20595696.280   108231127.24208  20595697.320    84335954.67349
  21550069.260   113246418.48608  21550070.660    88243971.48648
  23572173.520   123872611.77606  23572173.860    96524121.32346
  22409831.480   117764535.37808  22409832.300    91764613.04947
  21826179.020   114697390.69608  21826178.780    89374626.03848
  21592669.200   113470263.69308  21592672.900    88418409.50348
 15 02 22 01 27 30.0000000  0  6G16G18G19G21G22G27
  20592055.700   108211996.00408  20592056.800    84321047.21749
  21548259.480   113236907.89708  21548260.860    88236560.64748
  23557523.380   123795624.95206  23557523.780    96464131.61346
  22421744.520   117827138.81008  22421745.320    91813394.93647
  21812135.280   114623590.65508  21812135.140    89317119.52448
  21582209.240   113415296.09008  21582212.960    88375577.60948
 15 02 22 01 28  0.0000000  0  6G16G18G19G21G22G27
  20588516.700   108193398.51808  20588517.840    84306555.66549
  21546544.540   113227895.74008  21546545.900    88229538.19348
  23542885.400   123718702.02906  23542885.800    96404191.68946
  22433681.180   117889866.46608  22433682.020    91862273.61847
  21798156.960   114550134.46808  21798156.960    89259880.94848
  21571775.860   113360468.04308  21571779.560    88332854.46248
 15 02 22 01 28 30.0000000  0  6G16G18G19G21G22G27
  20585079.560   108175336.21508  20585080.740    84292481.13749
  21544924.640   113219382.93408  21544925.960    88222904.84048
  23528259.840   123641844.16606  23528260.260    96344302.47246
  22445641.360   117952717.65408  22445642.220    91911248.56847
  21784244.520   114477024.70208  21784244.660    89202912.30948
  21561369.260   113305780.75408  21561372.900    88290240.99648
 15 02 22 01 29  0.0000000  0  6G16G18G19G21G22G27
  20581744.680   108157811.18408  20581745.860    84278825.26249
  21543399.820   113211370.05108  21543401.180    88216661.03948
  23513646.800   123565051.94707  23513647.120    96284464.39146
  22457624.840   118015691.35608  22457625.700    91960318.97747
  21770398.640   114404264.44708  21770398.820    89146216.01548
  21550989.640   113251235.41508  21550993.220    88247738.13448
 15 02 22 01 29 30.0000000  0  6G16G18G19G21G22G27
  20578512.400   108140825.09608  20578513.500    84265589.34249
  21541970.260   113203857.99608  21541971.700    88210807.49648
  23499046.480   123488326.47407  23499046.680    96224678.34246
  22469631.440   118078786.65908  22469632.320    92009484.13847
  21756619.880   114331856.55708  21756619.940    89089794.30248
  21540637.300   113196833.62408  21540640.880    88205347.13748
 15 02 22 01 30  0.0000000  0  6G16G18G19G21G22G27
  20575382.580   108124377.63908  20575383.620    84252773.12749
  21540635.960   113196846.35208  21540637.480    88205343.88448
  23484458.660   123411666.93907  23484458.780    96164943.65546
  22481660.600   118142000.75808  22481661.520    92058741.86947
  21742908.480   114259802.25908  21742908.280    89033648.11947
  21530312.160   113142574.92308  21530315.780    88163067.63848
 15 02 22 01 30 30.0000000  0  6G16G18G19G21G22G27
  20572355.260   108108468.89708  20572356.280    84240376.69849
  21539396.680   113190333.98408  21539398.240    88200269.31948
  23469883.280   123335072.81307  23469883.340    96105259.94746
  22493712.060   118205331.85208  22493713.000    92108090.76447
  21729264.640   114188102.82508  21729264.180    88977778.45548
  21520014.200   113088458.91508  21520017.840    88120899.32848
 15 02 22 01 31  0.0000000  0  6G16G18G19G21G22G27
  20569430.960   108093101.65408  20569432.000    84228402.21849
  21538252.820   113184323.15008  21538254.400    88195585.55148
  23455320.720   123258545.91307  23455320.740    96045628.60446
  22505785.880   118268780.14408  22505786.800    92157530.98547
  21715689.100   114116762.15608  21715688.420    88922188.34147
  21509743.880   113034488.25808  21509747.560    88078844.27948
 15 02 22 01 31 30.0000000  0  6G16G18G19G21G22G27
  20566610.000   108078277.44108  20566611.080    84216850.87749
  21537204.580   113178814.40208  21537206.100    88191293.02448
  23440771.120   123182087.27507  23440771.200    95986050.46246
  22517881.740   118332344.38808  22517882.700    92207061.55947
  21702182.260   114045782.92008  21702181.520    88866879.86448
  21499501.500   112980664.24808  21499505.180    88036903.50448
 15 02 22 01 32  0.0000000  0  6G16G18G19G21G22G27
  20563892.600   108063997.50808  20563893.740    84205723.64949
  21536251.880   113173807.94008  21536253.380    88187391.88748
  23426234.560   123105697.37607  23426234.700    95926525.90046
  22529999.440   118396023.20308  22530000.400    92256681.40047
  21688744.660   113975167.98108  21688744.000    88811855.24748
  21489287.240   112926987.90508  21489290.860    87995077.78648
 15 02 22 01 32 30.0000000  0  6G16G18G19G21G22G27
  20561278.860   108050262.12508  20561280.000    84195020.74749
  21535394.680   113169303.26108  21535396.140    88183881.74948
  23411711.000   123029375.82307  23411711.200    95867054.59546
  22542138.540   118459814.71708  22542139.600    92306389.05547
  21675376.460   113904917.97908  21675375.960    88757115.00248
  21479101.000   112873458.93708  21479104.600    87953366.90848
 15 02 22 01 33  0.0000000  0  6G16G18G19G21G22G27
  20558769.040   108037073.10208  20558770.200    84184743.58149
  21534633.260   113165301.89308  21534634.680    88180763.80448
  23397200.600   122953123.48807  23397200.780    95807637.19546
  22554299.060   118523718.66008  22554300.160    92356184.32747
  21662078.460   113835036.81908  21662078.080    88702662.16248
  21468943.200   112820079.29008  21468946.820    87911772.39248
 15 02 22 01 33 30.0000000  0  6G16G18G19G21G22G27
  20556363.060   108024429.79708  20556364.260    84174891.65349
  21533967.300   113161802.13908  21533968.680    88178036.73148
  23382703.160   122876939.42507  23382703.340    95748273.01346
  22566480.400   118587731.77108  22566481.480    92406064.65747
  21648850.760   113765524.96508  21648850.480    88648497.10048
  21458813.620   112766848.02508  21458817.240    87870293.49548
 15 02 22 01 34  0.0000000  0  6G16G18G19G21G22G27
  20554061.240   108012333.84008  20554062.480    84165466.22649
  21533396.880   113158804.43808  21533398.220    88175700.86348
  23368218.940   122800824.69307  23368219.100    95688962.85046
  22578682.240   118651852.50208  22578683.240    92456028.85747
  21635693.880   113696385.14408  21635693.680    88594621.93748
  21448712.520   112713766.58808  21448716.120    87828931.34748
 15 02 22 01 34 30.0000000  0  6G16G18G19G21G22G27
  20551863.960   108000787.05108  20551865.200    84156468.72349
  21532922.300   113156310.13308  21532923.580    88173757.25048
  23353748.280   122724781.06907  23353748.400    95629708.10346
  22590904.640   118716081.30108  22590905.620    92506077.26347
  21622608.380   113627620.60108  21622608.220    88541039.20348
  21438640.320   112660837.03008  21438643.940    87787687.54948
 15 02 22 01 35  0.0000000  0  6G16G18G19G21G22G27
  20549771.600   107989791.48308  20549772.800    84147900.74049
  21532543.660   113154320.32408  21532544.920    88172206.74848
  23339291.240   122648809.14207  23339291.320    95570509.20146
  22603147.640   118780418.37408  22603148.580    92556210.04647
  21609594.860   113559234.42008  21609594.720    88487751.29248
  21428597.320   112608061.00308  21428601.000    87746563.38548
 15 02 22 01 35 30.0000000  0  6G16G18G19G21G22G27
  20547783.980   107979346.29108  20547785.120    84139761.62549
  21532260.680   113152833.50408  21532261.980    88171048.18748
  23324847.720   122572908.22907  23324847.780    95511365.64246
  22615410.600   118844860.29108  22615411.460    92606424.51847
  21596653.460   113491227.31408  21596653.320    88434758.76048
  21418583.440   112555437.87208  21418587.180    87705558.36649
 15 02 22 01 36  0.0000000  0  6G16G18G19G21G22G27
  20545901.320   107969452.83208  20545902.460    84132052.43149
  21532073.440   113151849.81908  21532074.780    88170281.68348
  23310417.780   122497078.72907  23310417.880    95452277.74746
  22627693.200   118909405.60108  22627694.040    92656719.56447
  21583784.580   113423601.35308  21583784.500    88382063.22948
  21408598.880   112502968.55208  21408602.600    87664673.18848
 15 02 22 01 36 30.0000000  0  6G16G18G19G21G22G27
  20544123.560   107960110.61708  20544124.700    84124772.78049
  21531981.860   113151368.62608  21531983.200    88169906.72548
  23296001.420   122421320.09907  23296001.520    95393245.06146
  22639995.040   118974052.55607  22639996.000    92707093.80947
  21570988.560   113356357.98508  21570988.480    88329665.81548
  21398643.580   112450652.89308  21398647.220    87623907.74548
 15 02 22 01 37  0.0000000  0  6G16G18G19G21G22G27
  20542451.020   107951321.38908  20542452.200    84117924.02749
  21531986.020   113151390.51308  21531987.400    88169923.78648
  23281598.880   122345634.01707  23281598.940    95334268.89946
  22652315.860   119038799.43507  22652316.900    92757545.91447
  21558265.980   113289500.21608  21558265.840    88277568.86948
  21388717.840   112398492.63808  21388721.420    87583263.40348
 15 02 22 01 37 30.0000000  0  6G16G18G19G21G22G27
  20540883.980   107943086.64808  20540885.240    84111507.34649
  21532086.020   113151916.03508  21532087.440    88170333.28848
  23267210.280   122270021.20407  23267210.320    95275349.84846
  22664655.900   119103647.18007  22664657.020    92808076.60847
  21545617.400   113223031.15608  21545617.180    88225774.81048
  21378822.060   112346489.63208  21378825.540    87542741.58448
 15 02 22 01 38  0.0000000  0  6G16G18G19G21G22G27
  20539422.480   107935406.60608  20539423.820    84105522.89649
  21532281.720   113152944.56408  21532283.180    88171134.74548
  23252835.520   122194481.07007  23252835.560    95216487.43346
  22677014.520   119168592.41307  22677015.700    92858683.27147
  21533042.960   113156951.44208  21533042.640    88174284.13648
  21368956.120   112294643.70108  21368959.580    87502342.16448
 15 02 22 01 38 30.0000000  0  6G16G18G19G21G22G27
  20538067.100   107928284.05908  20538068.460    84099972.85349
  21532573.540   113154478.02808  21532575.000    88172329.65448
  23238475.100   122119016.25907  23238475.120    95157683.71347
  22689392.000   119233636.76707  22689393.260    92909367.17947
  21520543.440   113091265.66108  21520543.080    88123100.42348
  21359120.520   112242957.50308  21359124.020    87462067.21049
 15 02 22 01 39  0.0000000  0  6G16G18G19G21G22G27
  20536817.720   107921718.36608  20536819.040    84094856.72849
  21532961.280   113156515.40508  21532962.740    88173917.22348
  23224128.900   122043626.27507  23224128.900    95098938.28947
  22701787.680   119298776.42407  22701788.920    92960125.34547
  21508119.020   113025974.81408  21508118.660    88072224.45748
  21349315.320   112191430.96608  21349318.840    87421916.67048
 15 02 22 01 39 30.0000000  0  6G16G18G19G21G22G27
  20535674.660   107915711.30808  20535675.940    84090175.89249
  21533445.040   113159057.41808  21533446.500    88175898.01848
  23209797.180   121968312.50707  23209797.180    95040252.25747
  22714201.920   119364013.24307  22714203.080    93010959.22047
  21495770.280   112961081.86808  21495769.920    88021658.54448
  21339540.940   112140066.19408  21339544.400    87381892.18148
 15 02 22 01 40  0.0000000  0  6G16G18G19G21G22G27
  20534637.700   107910261.85008  20534638.940    84085929.55949
  21534024.480   113162102.44608  21534025.960    88178270.76148
  23195479.680   121893073.74707  23195479.720    94981624.68246
  22726633.860   119429342.85408  22726634.940    93061865.40447
  21483497.300   112896587.08608  21483496.920    87971402.89248
  21329797.180   112088862.37408  21329800.640    87341993.10048
 15 02 22 01 40 30.0000000  0  6G16G18G19G21G22G27
  20533707.240   107905372.08608  20533708.440    84082119.34949
  21534699.880   113165651.87308  21534701.380    88181036.55548
  23181176.760   121817911.75507  23181176.840    94923056.92347
  22739083.580   119494765.69108  22739084.560    93112844.23047
  21471300.820   112832494.41908  21471300.440    87921460.57748
  21320084.520   112037821.75208  21320087.940    87302221.19348
 15 02 22 01 41  0.0000000  0  6G16G18G19G21G22G27
  20532883.480   107901043.14308  20532884.680    84078746.14149
  21535471.180   113169705.18208  21535472.660    88184194.97348
  23166888.540   121742827.15407  23166888.700    94864549.45047
  22751550.800   119560280.64108  22751551.720    93163894.82647
  21459181.160   112768805.61708  21459180.840    87871832.96148
  21310403.100   111986945.28108  21310406.480    87262577.19449
 15 02 22 01 41 30.0000000  0  6G16G18G19G21G22G27
  20532165.960   107897272.78708  20532167.180    84075808.19449
  21536338.040   113174260.59308  21536339.460    88187744.64648
  23152614.720   121667818.41507  23152614.980    94806101.09146
  22764034.740   119625883.78408  22764035.620    93215014.15047
  21447138.380   112705520.82008  21447138.160    87822520.15148
  21300752.680   111936231.91108  21300756.040    87223060.28448
 15 02 22 01 42  0.0000000  0  6G16G18G19G21G22G27
  20531555.220   107894063.41808  20531556.460    84073307.38649
  21537300.620   113179318.96108  21537301.980    88191686.23248
  23138355.720   121592887.03707  23138355.940    94747713.03046
  22776535.440   119691575.42908  22776536.340    93266202.42747
  21435173.040   112642642.96008  21435172.920    87773524.43848
  21291133.660   111885683.59608  21291136.980    87183671.98948
 15 02 22 01 42 30.0000000  0  6G16G18G19G21G22G27
  20531051.680   107891417.15308  20531052.900    84071245.35549
  21538359.100   113184881.35608  21538360.420    88196020.57048
  23124111.800   121518034.86707  23124111.980    94689386.66147
  22789053.040   119757356.00608  22789053.960    93317460.01547
  21423285.800   112580175.42308  21423285.740    87724848.45248
  21281546.460   111835302.63308  21281549.800    87144414.09548
 15 02 22 01 43  0.0000000  0  6G16G18G19G21G22G27
  20530655.060   107889332.77808  20530656.280    84069621.15649
  21539513.160   113190946.00608  21539514.480    88200746.27748
  23109882.840   121443261.22407  23109883.000    94631121.48347
  22801586.960   119823222.61007  22801587.940    93368784.62947
  21411476.840   112518118.85908  21411476.760    87676492.70648
  21271991.040   111785088.65408  21271994.420    87105286.32848
 15 02 22 01 43 30.0000000  0  6G16G18G19G21G22G27
  20530365.260   107887809.77608  20530366.460    84068434.39649
  21540762.620   113197512.04708  21540763.940    88205862.67448
  23095668.720   121368565.41707  23095668.840    94572916.96646
  22814136.900   119889173.11607  22814137.880    93420174.63247
  21399746.300   112456474.36608  21399746.180    87628458.04648
  21262467.360   111735041.58208  21262470.820    87066288.61249
 15 02 22 01 44  0.0000000  0  6G16G18G19G21G22G27
  20530182.820   107886851.16808  20530184.040    84067687.42249
  21542107.860   113204581.37508  21542109.200    88211371.24848
  23081469.980   121293950.27507  23081470.080    94514775.29947
  22826703.000   119955208.35907  22826703.920    93471630.65747
  21388095.020   112395246.40808  21388094.860    87580747.97148
  21252976.080   111685164.89808  21252979.620    87027423.66549
 15 02 22 01 44 30.0000000  0  6G16G18G19G21G22G27
  20530108.080   107886458.33608  20530109.280    84067381.30949
  21543548.900   113212154.16008  21543550.260    88217272.12348
  23067286.760   121219416.90907  23067286.840    94456697.34347
  22839285.120   120021327.74907  22839286.040    93523152.25846
  21376523.440   112334437.40508  21376523.260    87533364.34948
  21243517.480   111635459.84808  21243521.040    86988692.46749
 15 02 22 01 45  0.0000000  0  6G16G18G19G21G22G27
  20530140.960   107886631.16108  20530142.180    84067515.97049
  21545085.620   113220229.75208  21545087.000    88223564.79248
  23053119.120   121144965.72307  23053119.220    94398683.43047
  22851882.940   120087529.97607  22851883.920    93574738.40547
  21365031.860   112274048.76808  21365031.620    87486308.29148
  21234091.700   111585927.16608  21234095.280    86950095.57248
 15 02 22 01 45 30.0000000  0  6G16G18G19G21G22G27
  20530281.140   107887367.93008  20530282.380    84068090.06749
  21546717.640   113228805.89308  21546718.980    88230247.51048
  23038966.720   121070594.62207  23038966.840    94340731.94347
  22864495.800   120153811.24507  22864496.820    93626386.13846
  21353620.280   112214080.48708  21353619.940    87439579.78148
  21224698.500   111536565.76108  21224702.120    86911632.13449
 15 02 22 01 46  0.0000000  0  6G16G18G19G21G22G27
  20530529.180   107888671.48108  20530530.440    84069105.81749
  21548445.260   113237884.56308  21548446.600    88237321.79748
  23024830.200   120996306.67907  23024830.320    94282845.26347
  22877124.020   120220173.09707  22877125.060    93678096.66047
  21342289.500   112154536.96708  21342289.100    87393182.24748
  21215338.500   111487378.91608  21215342.180    86873304.72649
 15 02 22 01 46 30.0000000  0  6G16G18G19G21G22G27
  20530885.040   107890541.42008  20530886.280    84070562.90449
  21550268.160   113247464.21708  21550269.540    88244786.46648
  23010709.480   120922101.83707  23010709.680    94225023.32747
  22889767.140   120286613.06207  22889768.180    93729868.04746
  21331039.700   112095418.88208  21331039.260    87347116.21848
  21206011.780   111438366.70008  21206015.440    86835113.38749
 15 02 22 01 47  0.0000000  0  6G16G18G19G21G22G27
  20531348.880   107892978.62708  20531350.080    84072462.01649
  21552186.540   113257545.45908  21552187.980    88252641.98348
  22996604.800   120847981.27507  22996605.060    94167267.07147
  22902425.100   120353130.95407  22902426.120    93781700.16546
  21319871.380   112036729.00908  21319870.940    87301383.86148
  21196718.640   111389530.78808  21196722.240    86797059.43249
 15 02 22 01 47 30.0000000  0  6G16G18G19G21G22G27
  20531920.460   107895982.10808  20531921.640    84074802.38149
  21554200.060   113268126.72208  21554201.600    88260887.13048
  22982515.980   120773943.91507  22982516.340    94109575.66347
  22915097.480   120419724.52407  22915098.460    93833591.24046
  21308784.640   111978467.92908  21308784.240    87255985.62948
  21187459.020   111340870.92308  21187462.560    86759142.65249
 15 02 22 01 48  0.0000000  0  6G16G18G19G21G22G27
  20532599.940   107899552.57608  20532601.080    84077584.55749
  21556308.660   113279207.45108  21556310.240    88269521.47248
  22968443.200   120699990.92307  22968443.600    94051949.97747
  22927784.060   120486392.61807  22927784.960    93885540.40246
  21297779.900   111920637.79508  21297779.540    87210923.19948
  21178233.100   111292388.26808  21178236.620    86721363.96649
 15 02 22 01 48 30.0000000  0  6G16G18G19G21G22G27
  20533387.660   107903692.06708  20533388.820    84080810.12949
  21558512.520   113290788.70808  21558514.080    88278545.83048
  22954386.800   120626124.13207  22954387.220    93994391.46547
  22940484.820   120553135.21007  22940485.580    93937547.60646
  21286857.720   111863241.58308  21286857.400    87166198.89148
  21169041.360   111244085.22508  21169044.840    86683725.23549
 15 02 22 01 49  0.0000000  0  6G16G18G19G21G22G27
  20534283.820   107908401.21808  20534285.000    84084479.58849
  21560811.620   113302870.52908  21560813.160    88287960.23848
  22940346.980   120552344.34607  22940347.360    93936900.74547
  22953199.640   120619951.93807  22953200.340    93989612.58146
  21276018.520   111806281.52308  21276018.240    87121814.44948
  21159884.100   111195963.43308  21159887.560    86646227.73149
 15 02 22 01 49 30.0000000  0  6G16G18G19G21G22G27
  20535287.980   107913677.96708  20535289.180    84088591.33149
  21563205.520   113315450.77608  21563207.060    88297763.03648
  22926323.500   120478650.41607  22926323.800    93879476.92346
  22965927.960   120686839.69507  22965928.680    94041732.89746
  21265262.420   111749758.05208  21265262.120    87077770.20248
  21150761.120   111148021.91808  21150764.620    86608870.70649
 15 02 22 01 50  0.0000000  0  7G04G16G18G19G21G22G27
  24560834.960   129068057.09706  24560839.260   100572530.68845
  20536400.340   107919523.52408  20536401.580    84093146.30649
  21565694.340   113328529.93108  21565695.920    88307954.59048
  22912316.680   120405044.03807  22912316.880    93822121.32647
  22978669.780   120753798.31907  22978670.520    94093908.44246
  21254589.960   111693673.88508  21254589.580    87034068.26848
  21141672.820   111100262.73108  21141676.380    86571655.75749
 15 02 22 01 50 30.0000000  0  7G04G16G18G19G21G22G27
  24542583.600   128972145.43506  24542587.900   100497794.40245
  20537628.160   107925976.01408  20537629.460    84098174.21649
  21568284.980   113342144.19708  21568286.580    88318563.11848
  22898333.600   120331562.58307  22898333.800    93764863.06047
  22991431.840   120820863.11607  22991432.600    94146166.72146
  21244008.420   111638067.57508  21244008.020    86990738.68848
  21132626.480   111052723.92508  21132630.060    86534612.52849
 15 02 22 01 51  0.0000000  0  7G04G16G18G19G21G22G27
  24524350.420   128876328.89106  24524354.580   100423132.25444
  20538955.560   107932951.73208  20538956.900    84103609.83149
  21570961.500   113356209.38808  21570963.000    88329523.01248
  22884358.520   120258123.15207  22884358.700    93707637.55647
  23004198.100   120887950.37807  23004198.960    94198442.50346
  21233502.220   111582856.99808  21233501.740    86947717.47448
  21123606.420   111005323.08509  21123609.960    86497676.81049
 15 02 22 01 51 30.0000000  0  7G04G16G18G19G21G22G27
  24506145.880   128780662.92506  24506149.880   100348587.41145
  20540393.060   107940505.94208  20540394.440    84109496.22449
  21573734.320   113370780.50608  21573735.740    88340877.14047
  22870402.100   120184781.66807  22870402.200    93650488.35547
  23016978.800   120955113.72807  23016979.720    94250777.57546
  21223082.300   111528099.83108  21223081.800    86905049.56748
  21114623.240   110958116.33409  21114626.820    86460892.32949
 15 02 22 01 52  0.0000000  0  7G04G16G18G19G21G22G27
  24487968.620   128685139.97506  24487972.440   100274154.01545
  20541939.040   107948630.05108  20541940.380    84115826.69349
  21576601.680   113385848.40608  21576603.020    88352618.36748
  22856462.800   120111530.24107  22856462.880    93593409.33647
  23029772.120   121022343.20907  23029773.080    94303164.18846
  21212747.340   111473789.02908  21212746.840    86862729.47648
  21105675.600   110911096.17609  21105679.140    86424253.24549
 15 02 22 01 52 30.0000000  0  7G04G16G18G19G21G22G27
  24469818.840   128589761.45206  24469822.540   100199833.16445
  20543593.640   107957324.94108  20543594.920    84122601.92149
  21579563.500   113401412.93808  21579564.820    88364746.57848
  22842540.840   120038369.95007  22842540.920    93536401.32747
  23042577.920   121089638.32407  23042578.900    94355601.93446
  21202497.700   111419926.64108  21202497.220    86820758.79948
  21096763.760   110864264.22309  21096767.300    86387760.81549
 15 02 22 01 53  0.0000000  0  7G04G16G18G19G21G22G27
  24451696.720   128494528.84806  24451700.440   100125626.01345
  20545357.000   107966591.14808  20545358.180    84129822.33849
  21582619.800   113417474.06808  21582621.200    88377261.75548
  22828636.500   119965302.19207  22828636.580    93479465.43047
  23055396.200   121156999.23707  23055397.200    94408090.95446
  21192333.820   111366515.15208  21192333.400    86779139.46948
  21087888.100   110817622.30909  21087891.600    86351416.47349
 15 02 22 01 53 30.0000000  0  7G04G16G18G19G21G22G27
  24433602.260   128399441.69306  24433605.960   100051532.17144
  20547228.940   107976428.05608  20547230.060    84137487.45549
  21585770.340   113434030.25208  21585771.800    88390162.68548
  22814749.620   119892326.39007  22814749.740    93422601.18347
  23068226.380   121224422.95307  23068227.460    94460628.91546
  21182255.820   111313555.36208  21182255.500    86737872.11048
  21079048.580   110771170.32609  21079052.080    86315220.12749
 15 02 22 01 54  0.0000000  0  7G04G16G18G19G21G22G27
  24415535.780   128304502.12506  24415539.480    99977553.35945
  20549209.700   107986837.02308  20549210.800    84145598.32649
  21589015.160   113451081.73308  21589016.680    88403449.56048
  22800880.560   119819444.31807  22800880.720    93365809.97347
  23081068.640   121291910.23307  23081069.900    94513216.39646
  21172264.240   111261049.81408  21172264.000    86696958.70948
  21070245.640   110724910.48309  21070249.140    86279173.50249
 15 02 22 01 54 30.0000000  0  7G04G16G18G19G21G22G27
  24397497.080   128209709.07306  24397500.820    99903688.69744
  20551299.020   107997816.40508  20551300.120    84154153.68549
  21592353.860   113468626.50808  21592355.400    88417120.82148
  22787029.160   119746654.86207  22787029.300    93309090.93647
  23093922.500   121359458.19407  23093923.840    94565851.15846
  21162359.200   111208998.76608  21162358.960    86656399.46148
  21061479.160   110678842.23009  21061482.660    86243276.16249
 15 02 22 01 55  0.0000000  0  7G04G16G18G19G21G22G27
  24379486.780   128115065.75906  24379490.560    99829940.67344
  20553497.260   108009368.16608  20553498.380    84163155.05149
  21595786.720   113486666.11708  21595788.240    88431177.66548
  22773196.060   119673961.26007  22773196.120    93252446.57947
  23106788.160   121427067.85907  23106789.500    94618533.99846
  21152541.400   111157405.84008  21152541.140    86616197.19148
  21052749.820   110632968.99209  21052753.300    86207530.79049
 15 02 22 01 55 30.0000000  0  7G04G16G18G19G21G22G27
  24361504.540   128020569.98906  24361508.420    99756307.69044
  20555803.880   108021489.47808  20555805.020    84172600.22149
  21599313.040   113505196.73608  21599314.480    88445617.11548
  22759380.680   119601360.89008  22759380.740    93195874.87747
  23119664.920   121494735.41607  23119666.220    94671261.95446
  21142810.680   111106269.91708  21142810.280    86576351.03248
  21044057.220   110587288.90209  21044060.680    86171935.91749
 15 02 22 01 56  0.0000000  0  7G04G16G18G19G21G22G27
  24343550.880   127926223.91006  24343554.800    99682791.29545
  20558219.220   108034181.86608  20558220.360    84182490.38349
  21602932.980   113524219.43608  21602934.320    88460440.00448
  22745583.520   119528856.16708  22745583.540    93139377.72547
  23132552.760   121562461.20407  23132553.940    94724035.27946
  21133167.520   111055594.10208  21133167.020    86536863.39648
  21035401.780   110541804.54709  21035405.300    86136493.57149
 15 02 22 01 56 30.0000000  0  7G04G16G18G19G21G22G27
  24325625.840   127832027.74806  24325629.820    99609391.74244
  20560743.140   108047445.01808  20560744.280    84192825.30349
  21606646.280   113543732.93508  21606647.540    88475645.33448
  22731804.660   119456447.64308  22731804.660    93082955.51347
  23145451.480   121630243.71807  23145452.540    94776852.82346
  21123612.180   111005379.95508  21123611.600    86497735.49948
  21026783.760   110496516.77209  21026787.320    86101204.40649
 15 02 22 01 57  0.0000000  0  7G04G16G18G19G21G22G27
  24307729.700   127737982.45906  24307733.560    99536109.74845
  20563375.660   108061278.88608  20563376.780    84203604.93049
  21610452.760   113563736.40908  21610453.980    88491232.46548
  22718044.120   119384135.51808  22718044.100    93026608.43347
  23158360.780   121698081.88807  23158361.720    94829713.72046
  21114144.740   110955628.35908  21114144.220    86458968.03648
  21018203.360   110451426.53409  21018206.900    86066069.16349
 15 02 22 01 57 30.0000000  0  7G04G16G18G19G21G22G27
  24289862.720   127644090.18306  24289866.500    99462946.98745
  20566116.960   108075684.48108  20566118.080    84214830.06649
  21614352.600   113584230.47208  21614353.760    88507201.87148
  22704302.280   119311921.80008  22704302.280    92970338.03047
  23171280.780   121765975.99307  23171281.600    94882618.20946
  21104765.880   110906342.62608  21104765.460    86420563.57548
  21009661.000   110406536.22409  21009664.560    86031089.70949
 15 02 22 01 58  0.0000000  0  7G04G16G18G19G21G22G27
  24272024.720   127550350.02006  24272028.380    99389902.74945
  20568966.780   108090660.37008  20568967.900    84226499.58449
  21618345.340   113605212.95608  21618346.520    88523551.87148
  22690579.040   119239805.89508  22690579.060    92914143.84147
  23184210.940   121833923.84607  23184211.640    94935564.58846
  21095475.680   110857522.92908  21095475.380    86382522.26548
  21001156.660   110361845.74409  21001160.240    85996265.97149
 15 02 22 01 58 30.0000000  0  7G04G16G18G19G21G22G27
  24254216.120   127456764.64906  24254219.760    99316979.10945
  20571925.380   108106208.04908  20571926.500    84238614.64949
  21622431.180   113626684.52708  21622432.380    88540282.96748
  22676874.820   119167790.15308  22676874.900    92858027.70947
  23197151.380   121901925.99907  23197152.020    94988553.26846
  21086274.740   110809172.17008  21086274.480    86344846.35748
  20992690.860   110317357.68609  20992694.420    85961599.96249
 15 02 22 01 59  0.0000000  0  7G04G16G18G19G21G22G27
  24236436.840   127363333.86806  24236440.580    99244175.95245
  20574992.560   108122326.64408  20574993.740    84251174.58449
  21626609.880   113648643.85908  21626611.100    88557394.14348
  22663189.700   119095874.63508  22663189.840    92801989.66647
  23210101.740   121969980.67907  23210102.400    95041582.88346
  21077163.280   110761291.31908  21077162.980    86307536.61748
  20984263.700   110273072.60409  20984267.220    85927092.11449
 15 02 22 01 59 30.0000000  0  7G04G16G18G19G21G22G27
  24218687.140   127270058.62806  24218690.960    99171493.99444
  20578168.420   108139016.30008  20578169.660    84264179.50349
  21630881.220   113671089.88108  21630882.500    88574884.55448
  22649523.860   119024060.30607  22649524.040    92746030.47147
  23223061.860   122038086.84207  23223062.580    95094652.61646
  21068141.660   110713882.43308  21068141.300    86270594.64348
  20975875.380   110228991.78409  20975878.920    85892743.43349
 15 02 22 02 00  0.0000000  0  7G04G16G18G19G21G22G27
  24200967.160   127176939.94806  24200971.000    99098934.03444
  20581452.960   108156276.88408  20581454.260    84277629.29749
  21635245.220   113694022.61208  21635246.520    88592754.22248
  22635877.440   118952347.96407  22635877.580    92690150.74247
  23236031.680   122106244.13507  23236032.540    95147762.18146
  21059210.140   110666946.69008  21059209.720    86234021.35548
  20967526.160   110185116.64509  20967529.740    85858555.01749
 15 02 22 02 00 30.0000000  0  7G04G16G18G19G21G22G27
  24183277.320   127083980.00806  24183281.280    99026497.76544
  20584846.540   108174110.20408  20584847.840    84291525.38049
  21639701.920   113717442.35508  21639703.200    88611003.37948
  22622250.820   118880739.82107  22622250.940    92634352.21347
  23249011.300   122174452.63507  23249012.240    95200911.67446
  21050369.180   110620487.05808  21050368.760    86197819.06148
  20959216.580   110141449.82009  20959220.200    85824528.93049
 15 02 22 02 01  0.0000000  0  7G04G16G18G19G21G22G27
  24165617.440   126991177.78906  24165621.500    98954184.37545
  20588348.680   108192513.74308  20588349.960    84305865.79049
  21644250.820   113741346.54708  21644252.040    88629630.03348
  22608643.860   118809234.99507  22608643.960    92578634.18847
  23262000.160   122242710.09907  23262001.220    95254099.28746
  21041618.780   110574503.44308  21041618.400    86161987.68248
  20950946.560   110097990.67109  20950950.220    85790664.66049
 15 02 22 02 01 30.0000000  0  7G04G16G18G19G21G22G27
  24147987.440   126898532.50406  24147991.560    98881993.29744
  20591958.900   108211485.32008  20591960.140    84320648.83149
  21648891.360   113765732.56808  21648892.540    88648632.13147
  22595056.440   118737832.95707  22595056.540    92522996.25047
  23274997.840   122311013.85907  23274998.920    95307322.98946
  21032958.960   110528995.70308  21032958.560    86126527.11448
  20942716.040   110054739.01009  20942719.720    85756962.07549
 15 02 22 02 02  0.0000000  0  7G04G16G18G19G21G22G27
  24130387.960   126806047.06006  24130392.080    98809926.74644
  20595677.720   108231027.80908  20595678.940    84335876.73649
  21653623.800   113790601.83708  21653625.000    88668010.78447
  22581489.060   118666536.39007  22581489.180    92467440.50547
  23288004.660   122379365.28607  23288005.720    95360583.82646
  21024390.400   110483967.38508  21024389.960    86091440.12748
  20934525.660   110011698.09609  20934529.320    85723423.70949
 15 02 22 02 02 30.0000000  0  7G04G16G18G19G21G22G27
  24112818.720   126713720.05706  24112822.660    98737983.64745
  20599504.660   108251138.39608  20599505.860    84351547.31149
  21658447.600   113815951.47108  21658448.860    88687763.75448
  22567941.600   118595344.16007  22567941.740    92411966.05647
  23301020.020   122447761.14107  23301020.980    95413879.29045
  21015913.020   110439418.20508  21015912.540    86056726.49348
  20926375.240   109968867.15009  20926378.860    85690048.95049
 15 02 22 02 03  0.0000000  0  7G04G16G18G19G21G22G27
  24095280.080   126621553.52706  24095283.800    98666165.62544
  20603439.860   108271818.08308  20603441.080    84367661.34449
  21663362.860   113841781.79408  21663364.120    88707891.28248
  22554414.340   118524257.98707  22554414.480    92356574.24747
  23314044.000   122516201.93207  23314044.840    95467209.75445
  21007527.240   110395350.41308  21007526.720    86022387.96448
  20918265.200   109926248.58909  20918268.840    85656839.69249
 15 02 22 02 03 30.0000000  0  7G04G16G18G19G21G22G27
  24077772.140   126529548.45006  24077775.720    98594473.40844
  20607483.360   108293066.77408  20607484.560    84384218.75849
  21668369.500   113868092.16708  21668370.760    88728392.87647
  22540907.540   118453279.32407  22540907.680    92301266.21447
  23327076.400   122584686.64807  23327077.060    95520574.45545
  20999233.400   110351765.81608  20999232.860    85988425.95748
  20910195.840   109883843.86609  20910199.480    85623797.05749
 15 02 22 02 04  0.0000000  0  7G04G16G18G19G21G22G27
  24060294.860   126437704.44206  24060298.300    98522906.70644
  20611634.740   108314882.32108  20611635.920    84401217.87549
  21673467.120   113894880.24108  21673468.280    88749266.71448
  22527421.080   118382407.52407  22527421.280    92246041.45047
  23340116.720   122653213.61607  23340117.320    95573972.07645
  20991031.460   110308664.46708  20991030.920    85954840.50048
  20902167.140   109841652.95509  20902170.780    85590921.02449
 15 02 22 02 04 30.0000000  0  7G04G16G18G19G21G22G27
  24042848.900   126346025.44306  24042852.340    98451468.58345
  20615894.760   108337268.87108  20615895.920    84418661.93449
  21678656.140   113922148.60408  21678657.240    88770514.79747
  22513955.760   118311646.81908  22513956.000    92190903.24847
  23353165.500   122721785.27807  23353166.020    95627404.52846
  20982922.380   110266051.40108  20982921.860    85921635.52448
  20894180.040   109799680.60509  20894183.640    85558215.29749
 15 02 22 02 05  0.0000000  0  7G04G16G18G19G21G22G27
  24025434.180   126254510.67706  24025437.740    98380158.41244
  20620263.000   108360223.95908  20620264.120    84436549.00649
  21683936.020   113949894.38508  21683937.080    88792134.89247
  22500511.500   118240996.70608  22500511.760    92135851.23447
  23366222.280   122790399.29407  23366222.760    95680869.98846
  20974906.180   110223926.53208  20974905.700    85888810.96548
  20886234.460   109757926.39309  20886238.040    85525679.54949
 15 02 22 02 05 30.0000000  0  7G04G16G18G19G21G22G27
  24008050.620   126163159.74406  24008054.300    98308975.91445
  20624739.120   108383745.88408  20624740.180    84454877.77249
  21689306.360   113978115.73808  21689307.440    88814125.56847
  22487088.220   118170456.81708  22487088.480    92080885.09847
  23379286.640   122859053.41007  23379287.180    95734366.69046
  20966982.860   110182289.58308  20966982.440    85856366.60748
  20878330.460   109716390.50309  20878334.020    85493313.92149
 15 02 22 02 06  0.0000000  0  7G04G16G18G19G21G22G27
  23990698.640   126071975.06706  23990702.520    98237922.95845
  20629323.360   108407836.15208  20629324.420    84473649.40149
  21694767.320   114006813.42408  21694768.460    88836487.40547
  22473686.380   118100029.69608  22473686.660    92026006.83847
  23392358.880   122927748.86107  23392359.560    95787895.61446
  20959153.080   110141143.82408  20959152.660    85824304.98748
  20870468.600   109675076.05809  20870472.140    85461120.85749
 15 02 22 02 06 30.0000000  0  7G04G16G18G19G21G22G27
  23973377.940   125980954.96806  23973382.020    98166998.22244
  20634015.080   108432491.16508  20634016.160    84492861.08749
  21700318.200   114035983.55608  21700319.420    88859217.38447
  22460305.720   118029713.70908  22460305.980    91971215.17847
  23405438.340   122996481.93407  23405439.100    95841453.84746
  20951416.540   110100487.85908  20951416.060    85792625.02348
  20862648.580   109633981.57309  20862652.120    85429099.17849
 15 02 22 02 07  0.0000000  0  7G04G16G18G19G21G22G27
  23956089.120   125890102.55206  23956093.360    98096204.16645
  20638814.840   108457714.11608  20638815.960    84512515.32949
  21705959.320   114065627.98908  21705960.620    88882316.94647
  22446946.860   117959512.37808  22446947.080    91916512.85747
  23418525.300   123065254.52007  23418526.120    95895042.86945
  20943774.000   110060325.71908  20943773.440    85761329.86148
  20854871.180   109593111.00009  20854874.720    85397251.98249
 15 02 22 02 07 30.0000000  0  7G04G16G18G19G21G22G27
  23938831.860   125799415.61906  23938836.200    98025539.03845
  20643721.940   108483501.32708  20643723.160    84532609.25149
  21711689.960   114095742.93908  21711691.360    88905783.14547
  22433609.440   117889423.69508  22433609.600    91861898.30447
  23431619.100   123134063.00306  23431619.940    95948659.86746
  20936225.040   110020655.49608  20936224.460    85730418.00948
  20847136.060   109552462.74109  20847139.640    85365578.02349
 15 02 22 02 08  0.0000000  0  7G04G16G18G19G21G22G27
  23921606.620   125708895.89906  23921610.820    97955004.23244
  20648736.400   108509852.87608  20648737.740    84553142.92149
  21717509.960   114126327.50308  21717511.380    88929615.27948
  22420293.740   117819449.20108  22420293.840    91807372.74347
  23444719.720   123202907.29706  23444720.680    96002304.75545
  20928770.120   109981479.79208  20928769.600    85699891.49948
  20839443.660   109512038.97409  20839447.240    85334078.99049
 15 02 22 02 08 30.0000000  0  7G04G16G18G19G21G22G27
  23904413.440   125618543.90906  23904417.340    97884600.12146
  20653857.980   108536767.20708  20653859.360    84574115.11949
  21723419.300   114157381.37608  21723420.660    88953813.10047
  22406999.960   117749589.88608  22406999.980    91752936.92248
  23457826.980   123271786.31106  23457827.960    96055976.71445
  20921409.460   109942799.60208  20921409.020    85669751.10148
  20831794.240   109471840.80109  20831797.780    85302755.73849
 15 02 22 02 09  0.0000000  0  7G04G16G18G19G21G22G27
  23887252.580   125528361.70106  23887256.180    97814328.28745
  20659087.200   108564246.90708  20659088.580    84595527.86449
  21729417.920   114188904.30808  21729419.180    88978376.43447
  22393728.500   117679848.10908  22393728.520    91698592.68847
  23470940.960   123340700.84106  23470941.960    96109676.34146
  20914143.480   109904616.99208  20914143.080    85639998.42948
  20824188.240   109431870.94309  20824191.780    85271610.39749
 15 02 22 02 09 30.0000000  0  7G04G16G18G19G21G22G27
  23870124.200   125438350.37207  23870127.540    97744189.63245
  20664423.880   108592291.31508  20664425.260    84617380.64249
  21735505.660   114220895.53708  21735506.860    89003304.67047
  22380479.660   117610225.19808  22380479.720    91644341.08947
  23484061.620   123409650.71906  23484062.620    96163403.50145
  20906972.660   109866934.31308  20906972.260    85610635.31248
  20816626.020   109392131.21409  20816629.540    85240644.37849
 15 02 22 02 10  0.0000000  0  7G04G16G18G19G21G22G27
  23853028.080   125348508.87706  23853031.280    97674183.30945
  20669867.540   108620897.91008  20669868.900    84639671.48749
  21741682.040   114253352.49108  21741683.220    89028595.81347
  22367253.280   117540720.35908  22367253.400    91590181.49147
  23497188.520   123478633.31407  23497189.620    96217156.16245
  20899896.900   109829750.87508  20899896.460    85581661.21948
  20809107.500   109352621.05109  20809111.000    85209857.24049
 15 02 22 02 10 30.0000000  0  7G04G16G18G19G21G22G27
  23835964.720   125258839.90006  23835967.780    97604311.43445
  20675418.380   108650067.60608  20675419.700    84662401.10849
  21747947.180   114286276.00308  21747948.360    89054250.50847
  22354049.900   117471336.23708  22354050.020    91536115.94747
  23510321.920   123547649.66606  23510323.060    96270935.13346
  20892916.680   109793069.49808  20892916.220    85553078.33848
  20801633.280   109313343.73409  20801636.780    85179251.53849
 15 02 22 02 11  0.0000000  0  7G04G16G18G19G21G22G27
  23818934.120   125169343.84206  23818937.140    97534574.27544
  20681076.280   108679799.90808  20681077.560    84685569.12949
  21754300.780   114319664.57508  21754302.000    89080267.58247
  22340869.680   117402073.88608  22340869.800    91482145.30347
  23523461.560   123616698.88706  23523462.720    96324739.70346
  20886032.180   109756891.08208  20886031.700    85524887.37548
  20794203.580   109274300.45709  20794207.120    85148828.21049
 15 02 22 02 11 30.0000000  0  7G04G16G18G19G21G22G27
  23801936.300   125080020.67306  23801939.420    97464971.84445
  20686840.880   108710092.92008  20686842.120    84709174.06949
  21760742.480   114353516.11008  21760743.780    89106645.40347
  22327712.720   117332933.39308  22327712.780    91428269.60647
  23536607.160   123685779.40507  23536608.320    96378568.65045
  20879243.500   109721216.15508  20879243.000    85497088.74548
  20786818.500   109235491.60509  20786822.060    85118587.54849
 15 02 22 02 12  0.0000000  0  7G04G16G18G19G21G22G27
  23784971.460   124990871.60206  23784974.760    97395505.07545
  20692712.180   108740946.72008  20692713.380    84733215.97949
  21767272.180   114387829.91508  21767273.540    89133383.43347
  22314579.220   117263916.12408  22314579.220    91374489.93147
  23549758.680   123754890.96207  23549759.900    96432421.80745
  20872550.860   109686046.14208  20872550.360    85469683.54848
  20779478.420   109196919.20609  20779482.000    85088531.13749
 15 02 22 02 12 30.0000000  0  7G04G16G18G19G21G22G27
  23768039.600   124901895.67006  23768043.240    97326173.20845
  20698689.820   108772359.17308  20698691.000    84757693.20549
  21773889.380   114422603.61508  21773890.840    89160479.82947
  22301469.060   117195021.49008  22301469.000    91320805.81648
  23562915.700   123824031.31407  23562916.840    96486297.38545
  20865954.220   109651380.78008  20865953.740    85442671.58648
  20772183.260   109158582.84009  20772186.840    85058658.65049
 15 02 22 02 13  0.0000000  0  7G04G16G18G19G21G22G27
  23751140.880   124813093.04306  23751144.740    97256976.38345
  20704773.560   108804329.14808  20704774.700    84782604.86449
  21780593.720   114457835.32708  21780595.240    89187933.11347
  22288382.300   117126250.15708  22288382.260    91267217.77547
  23576078.000   123893199.34706  23576079.080    96540194.53345
  20859453.780   109617220.76308  20859453.280    85416053.40148
  20764933.200   109120483.51409  20764936.780    85028970.85849
 15 02 22 02 13 30.0000000  0  7G04G16G18G19G21G22G27
  23734275.340   124724464.05306  23734279.240    97187914.86945
  20710963.100   108836855.12208  20710964.180    84807949.76849
  21787384.940   114493523.48208  21787386.460    89215742.06747
  22275319.040   117057602.35208  22275319.040    91213725.99548
  23589245.340   123962393.99907  23589246.340    96594112.44045
  20853049.540   109583566.27108  20853049.020    85389829.12948
  20757728.380   109082622.08009  20757731.960    84999468.44349
 15 02 22 02 14  0.0000000  0  7G04G16G18G19G21G22G27
  23717443.440   124636011.56406  23717447.180    97118990.89145
  20717258.880   108869939.51908  20717259.920    84833729.80449
  21794263.240   114529668.93208  21794264.740    89243907.35548
  22262280.040   116989081.81308  22262280.020    91160333.38048
  23602418.000   124031616.83706  23602419.000    96648052.30345
  20846742.140   109550420.77808  20846741.640    85364001.48349
  20750569.540   109045002.29009  20750573.120    84970154.32149
 15 02 22 02 14 30.0000000  0  7G04G16G18G19G21G22G27
  23700645.140   124547735.66506  23700648.800    97050204.51945
  20723660.520   108903580.13908  20723661.520    84859943.26549
  21801228.200   114566269.78108  21801229.600    89272427.49947
  22249265.200   116920688.58008  22249265.180    91107039.96248
  23615595.700   124100866.27306  23615596.720    96702012.87445
  20840531.680   109517784.82208  20840531.240    85338570.88049
  20743456.800   109007624.67509  20743460.400    84941028.90749
 15 02 22 02 15  0.0000000  0  7G04G16G18G19G21G22G27
  23683880.700   124459637.57306  23683884.260    96981556.69845
  20730167.900   108937776.80708  20730168.940    84886590.01149
  21808279.720   114603325.59008  21808281.040    89301302.15847
  22236274.940   116852424.63408  22236274.960    91053847.28748
  23628778.460   124170142.15706  23628779.500    96755994.08745
  20834418.480   109485660.08308  20834418.140    85313538.62948
  20736390.560   108970491.33609  20736394.180    84912093.84049
 15 02 22 02 15 30.0000000  0  7G04G16G18G19G21G22G27
  23667149.860   124371716.11906  23667153.380    96913046.50245
  20736780.600   108972527.03208  20736781.740    84913668.09649
  21815417.160   114640832.99408  21815418.380    89330528.71047
  22223309.120   116784288.77208  22223309.120    91000754.42948
  23641965.840   124239442.38306  23641966.980    96809994.24845
  20828402.380   109454045.56408  20828402.120    85288903.94649
  20729370.760   108933601.80209  20729374.300    84883348.74649
 15 02 22 02 16  0.0000000  0  7G04G16G18G19G21G22G27
  23650453.100   124283974.07106  23650456.580    96844676.11945
  20743498.840   109007831.83908  20743500.080    84941178.32649
  21822640.780   114678793.08608  21822641.900    89360108.00547
  22210368.320   116716284.30908  22210368.280    90947763.94548
  23655158.180   124308768.29806  23655159.280    96864014.44045
  20822484.020   109422944.41408  20822483.800    85264669.29349
  20722398.000   108896959.55109  20722401.500    84854796.34349
 15 02 22 02 16 30.0000000  0  7G04G16G18G19G21G22G27
  23633790.500   124196412.45506  23633794.120    96776446.30245
  20750322.580   109043691.08508  20750323.920    84969120.58749
  21829950.260   114717205.03908  21829951.420    89390039.40247
  22197452.820   116648412.90108  22197452.780    90894877.14848
  23668355.400   124378119.55306  23668356.460    96918054.36646
  20816663.620   109392357.85608  20816663.400    85240835.62149
  20715472.640   108860566.47009  20715476.120    84826438.10049
 15 02 22 02 17  0.0000000  0  7G04G16G18G19G21G22G27
  23617161.880   124109029.61306  23617165.660    96708355.82345
  20757251.120   109080101.05808  20757252.560    84997491.98249
  21837345.020   114756064.95908  21837346.240    89420319.86447
  22184562.340   116580673.27308  22184562.360    90842093.04348
  23681556.900   124447493.29206  23681557.960    96972111.82746
  20810940.880   109362284.35508  20810940.600    85217401.72849
  20708594.460   108824421.35909  20708597.960    84798273.08449
 15 02 22 02 17 30.0000000  0  7G04G16G18G19G21G22G27
  23600567.400   124021825.78306  23600571.200    96640404.82845
  20764284.280   109117060.79408  20764285.780    85026291.76749
  21844824.720   114795371.25308  21844826.020    89450948.14947
  22171697.020   116513065.70008  22171697.080    90789411.82548
  23694762.340   124516888.15806  23694763.400    97026185.73046
  20805315.880   109332724.63808  20805315.540    85194368.19349
  20701763.660   108788525.35409  20701767.200    84770302.17249
 15 02 22 02 18  0.0000000  0  7G04G16G18G19G21G22G27
  23584007.500   123934803.22906  23584011.220    96572595.06845
  20771422.240   109154571.24308  20771423.780    85055520.67949
  21852389.380   114835123.95208  21852390.700    89481924.28247
  22158857.400   116445593.03108  22158857.460    90736835.72648
  23707971.960   124586305.19006  23707973.000    97080276.92846
  20799789.100   109303681.31908  20799788.760    85171737.04349
  20694980.840   108752881.47409  20694984.380    84742527.72649
 15 02 22 02 18 30.0000000  0  7G04G16G18G19G21G22G27
  23567481.900   123847960.37306  23567485.520    96504925.35145
  20778664.260   109192628.28308  20778665.760    85085175.50649
  21860038.360   114875319.79408  21860039.680    89513245.72247
  22146043.200   116378254.06608  22146043.280    90684363.82148
  23721185.260   124655741.75006  23721186.380    97134383.33346
  20794360.300   109275152.80608  20794359.920    85149507.04149
  20688245.860   108717488.84609  20688249.380    84714949.05149
 15 02 22 02 19  0.0000000  0  7G04G16G18G19G21G22G27
  23550991.120   123761300.01906  23550994.500    96437397.84645
  20786010.780   109231234.27808  20786012.220    85115258.08749
  21867771.860   114915959.75308  21867773.160    89544913.22447
  22133255.100   116311052.20208  22133255.140    90631998.74548
  23734402.640   124725199.50106  23734403.820    97188506.24545
  20789030.040   109247142.26108  20789029.640    85127680.65149
  20681559.360   108682351.08609  20681562.860    84687568.97449
 15 02 22 02 19 30.0000000  0  7G04G16G18G19G21G22G27
  23534535.180   123674822.80606  23534538.340    96370013.05745
  20793461.540   109270387.83908  20793462.880    85145767.34949
  21875589.500   114957042.17208  21875590.820    89576925.50347
  22120493.340   116243988.67908  22120493.380    90579741.46348
  23747623.840   124794677.60206  23747625.120    97242645.00645
  20783798.520   109219650.50108  20783798.080    85106258.51049
  20674921.640   108647469.60809  20674925.080    84660388.60049
 15 02 22 02 20  0.0000000  0  7G04G16G18G19G21G22G27
  23518113.880   123588527.85406  23518116.980    96302770.28246
  20801015.900   109310086.05308  20801017.220    85176701.00849
  21883490.860   114998564.24608  21883492.160    89609280.36247
  22107757.800   116177063.02008  22107757.800    90527591.61248
  23760848.620   124864174.01406  23760849.800    97296798.05745
  20778665.580   109192676.67108  20778665.120    85085239.94649
  20668332.660   108612844.36309  20668336.100    84633407.89149
 15 02 22 02 20 30.0000000  0  7G04G16G18G19G21G22G27
  23501727.440   123502416.32506  23501730.660    96235670.43945
  20808673.740   109350328.31908  20808675.100    85208058.60949
  21891475.780   115040525.04008  21891477.020    89641977.08647
  22095048.840   116110276.74508  22095048.780    90475550.37248
  23774076.900   124933688.82406  23774077.900    97350965.43545
  20773631.500   109166222.40009  20773631.020    85064626.23449
  20661792.800   108578477.24609  20661796.260    84606628.31749
 15 02 22 02 21  0.0000000  0  7G04G16G18G19G21G22G27
  23485375.940   123416488.60506  23485379.260    96168713.79446
  20816434.880   109391113.40808  20816436.240    85239839.18449
  21899543.880   115082922.99208  21899545.100    89675014.44747
  22082366.480   116043630.56508  22082366.400    90423618.28748
  23787308.620   125003221.56406  23787309.460    97405146.78345
  20768696.300   109140287.66209  20768695.760    85044417.35449
  20655302.280   108544369.39609  20655305.760    84580050.77449
 15 02 22 02 21 30.0000000  0  7G04G16G18G19G21G22G27
  23469059.940   123330747.70906  23469063.420    96101902.75845
  20824299.780   109432443.69508  20824301.140    85272044.59649
  21907695.420   115125759.16108  21907696.640    89708393.27847
  22069711.440   115977128.22008  22069711.380    90371798.29448
  23800543.920   125072773.36706  23800544.640    97459342.97945
  20763860.660   109114876.30508  20763860.120    85024616.30249
  20648861.880   108510524.66409  20648865.320    84553678.25349
 15 02 22 02 22  0.0000000  0  7G04G16G18G19G21G22G27
  23452779.160   123245191.98706  23452782.780    96035235.98845
  20832267.660   109474315.12608  20832269.020    85304671.67849
  21915929.620   115169029.85608  21915930.800    89742110.69947
  22057083.660   115910768.85608  22057083.620    90320089.71048
  23813782.380   125142342.12206  23813783.080    97513552.40245
  20759124.320   109089986.75208  20759123.760    85005221.85349
  20642471.440   108476942.37309  20642474.840    84527510.23049
 15 02 22 02 22 30.0000000  0  7G04G16G18G19G21G22G27
  23436533.640   123159821.49806  23436537.300    95968713.53545
  20840338.160   109516725.73508  20840339.480    85337718.89149
  21924246.020   115212732.87808  21924247.280    89776165.00847
  22044483.080   115844552.77108  22044483.160    90268492.77548
  23827023.620   125211926.18306  23827024.500    97567773.72245
  20754487.160   109065618.46108  20754486.620    84986233.58349
  20636131.040   108443623.13509  20636134.400    84501547.18849
 15 02 22 02 23  0.0000000  0  7G04G16G18G19G21G22G27
  23420323.760   123074638.46606  23420327.420    95902337.18445
  20848511.340   109559676.09608  20848512.660    85371186.69549
  21932644.760   115256868.57008  21932646.040    89810556.45247
  22031910.420   115778483.19108  22031910.560    90217009.99948
  23840267.920   125281526.26606  23840268.980    97622007.53144
  20749949.660   109041773.91108  20749949.120    84967653.42549
  20629841.300   108410570.26309  20629844.660    84475791.69749
 15 02 22 02 23 30.0000000  0  7G04G16G18G19G21G22G27
  23404149.080   122989640.54006  23404152.660    95836105.07045
  20856786.460   109603162.06908  20856787.720    85405071.86049
  21941125.060   115301432.65908  21941126.260    89845281.72047
  22019365.240   115712557.74108  22019365.340    90165639.52948
  23853514.880   125351139.61906  23853515.980    97676251.70145
  20745511.540   109018451.52208  20745511.020    84949480.14149
  20623601.860   108377782.06609  20623605.260    84450242.44849
 15 02 22 02 24  0.0000000  0  7G04G16G18G19G21G22G27
  23388009.920   122904828.87106  23388013.340    95770018.10145
  20865163.440   109647183.41008  20865164.700    85439374.19149
  21949686.680   115346423.80808  21949687.700    89880339.75847
  22006847.820   115646778.30508  22006847.860    90114382.84448
  23866764.480   125420766.49206  23866765.560    97730506.40445
  20741172.960   108995652.21509  20741172.440    84931714.45749
  20617413.160   108345260.50309  20617416.640    84424900.97349
 15 02 22 02 24 30.0000000  0  7G04G16G18G19G21G22G27
  23371906.720   122820206.26006  23371910.000    95704078.43645
  20873642.480   109691740.91308  20873643.700    85474094.31148
  21958329.780   115391843.29508  21958330.660    89915731.57447
  21994358.900   115581148.33008  21994358.820    90063242.61248
  23880016.940   125490408.25606  23880017.980    97784772.70545
  20736934.540   108973378.85509  20736933.940    84914358.59849
  20611275.940   108313009.51509  20611279.500    84399770.33349
 15 02 22 02 25  0.0000000  0  7G04G16G18G19G21G22G27
  23355839.460   122735772.25407  23355842.620    95638285.77045
  20882223.060   109736832.12108  20882224.260    85509230.30549
  21967053.760   115437688.16908  21967054.580    89951454.84747
  21981898.440   115515667.80008  21981898.220    90012218.83148
  23893271.780   125560062.61106  23893272.820    97839048.81145
  20732796.020   108951630.51509  20732795.320    84897411.84849
  20605190.220   108281029.13009  20605193.860    84374850.55449
 15 02 22 02 25 30.0000000  0  7G04G16G18G19G21G22G27
  23339808.260   122651527.64007  23339811.360    95572640.65345
  20890905.080   109782456.30408  20890906.280    85544781.60749
  21975858.440   115483957.42708  21975859.300    89987508.81447
  21969466.780   115450338.71008  21969466.480    89961313.05748
  23906529.200   125629730.26606  23906530.300    97893335.27245
  20728757.680   108930408.43209  20728756.880    84880875.16249
  20599156.400   108249321.37809  20599160.100    84350143.21749
 15 02 22 02 26  0.0000000  0  7G04G16G18G19G21G22G27
  23323812.940   122567471.57407  23323815.980    95507142.46345
  20899687.980   109828610.72708  20899689.200    85580746.07749
  21984743.300   115530647.88108  21984744.200    90023890.99247
  21957063.800   115385160.28708  21957063.420    89910524.68348
  23919788.640   125699408.71306  23919789.680    97947630.15745
  20724819.280   108909711.70909  20724818.400    84864747.85549
  20593174.480   108217886.08509  20593178.180    84325648.18149
 15 02 22 02 26 30.0000000  0  7G04G16G18G19G21G22G27
  23307853.940   122483606.37907  23307857.000    95441793.00845
  20908571.720   109875295.22908  20908573.000    85617123.60349
  21993708.260   115577759.49408  21993709.280    90060601.33847
  21944689.960   115320135.50308  21944689.620    89859856.03748
  23933050.500   125769100.01806  23933051.460    98001935.02744
  20720981.140   108889542.25709  20720980.300    84849031.40449
  20587244.980   108186726.25409  20587248.660    84301367.79849
 15 02 22 02 27  0.0000000  0  7G04G16G18G19G21G22G27
  23291931.200   122399932.22606  23291934.420    95376592.40546
  20917556.160   109922508.85108  20917557.500    85653913.42648
  22002753.160   115625291.15608  22002754.300    90097638.99547
  21932345.500   115255265.14608  21932345.200    89809307.71148
  23946314.400   125838802.33306  23946315.320    98056248.51545
  20717243.400   108869900.64509  20717242.640    84833726.25849
  20581368.140   108155843.14209  20581371.760    84277303.03749
 15 02 22 02 27 30.0000000  0  7G04G16G18G19G21G22G27
  23276045.000   122316450.38306  23276048.460    95311541.64745
  20926641.160   109970250.91108  20926642.560    85691115.02248
  22011877.720   115673241.17408  22011878.920    90135002.64147
  21920030.800   115190551.31608  21920030.600    89758881.36148
  23959580.400   125908515.93306  23959581.380    98110570.79345
  20713606.340   108850788.11009  20713605.660    84818833.38149
  20575544.380   108125238.88709  20575547.940    84253455.56849
 15 02 22 02 28  0.0000000  0  7G04G16G18G19G21G22G27
  23260195.200   122233159.99706  23260198.860    95246640.08746
  20935826.220   110018518.62808  20935827.660    85728726.21948
  22021081.420   115721606.99408  22021082.660    90172690.29147
  21907745.840   115125993.72508  21907745.700    89708576.75848
  23972848.280   125978239.65406  23972849.320    98164900.93445
  20710069.800   108832203.65909  20710069.180    84804351.99949
  20569773.640   108094913.37009  20569777.180    84229825.29549
 15 02 22 02 28 30.0000000  0  7G04G16G18G19G21G22G27
  23244381.580   122150059.31706  23244385.340    95181886.33346
  20945110.500   110067307.93008  20945111.980    85766743.84548
  22030363.520   115770384.45108  22030364.680    90210698.71147
  21895490.460   115061591.53408  21895490.320    89658393.24048
  23986117.600   126047970.94306  23986118.760    98219236.99945
  20706633.420   108814145.48109  20706632.840    84790280.70049
  20564055.840   108064866.13909  20564059.380    84206411.87249
 15 02 22 02 29  0.0000000  0  7G04G16G18G19G21G22G27
  23228604.600   122067150.93507  23228608.380    95117282.44046
  20954494.260   110116619.83208  20954495.720    85805168.69148
  22039724.140   115819574.53708  22039725.220    90249028.64847
  21883265.320   114997348.18108  21883265.160    89608333.49148
  23999388.460   126117710.15606  23999389.660    98273579.24345
  20703297.660   108796615.94109  20703297.040    84776621.32249
  20558391.600   108035100.44909  20558395.160    84183217.82849
 15 02 22 02 29 30.0000000  0  7G04G16G18G19G21G22G27
  23212864.380   121984435.59707  23212868.080    95052828.96645
  20963977.160   110166452.58508  20963978.580    85843999.39548
  22049162.980   115869175.72108  22049163.980    90287678.92147
  21871070.620   114933264.66308  21871070.500    89558398.28948
  24012661.040   126187457.86106  24012662.260    98327928.09245
  20700062.580   108779615.61809  20700061.920    84763374.32549
  20552781.240   108005617.85509  20552784.820    84160244.37849
 15 02 22 02 30  0.0000000  0  7G04G16G18G19G21G22G27
  23197160.960   121901913.55007  23197164.540    94988526.09945
  20973558.960   110216805.10708  20973560.380    85883235.11548
  22058679.620   115919186.10908  22058680.580    90326648.05547
  21858906.540   114869342.09408  21858906.440    89508588.50948
  24025935.140   126257213.60906  24025936.520    98382283.20045
  20696928.260   108763144.77109  20696927.580    84750539.90949
  20547225.020   107976419.65909  20547228.620    84137492.54549
 15 02 22 02 30 30.0000000  0  7G04G16G18G19G21G22G27
  23181494.520   121819585.43407  23181497.840    94924374.35945
  20983239.380   110267676.12408  20983240.820    85922874.85748
  22068273.740   115969603.84208  22068274.760    90365934.60447
  21846773.420   114805581.90508  21846773.240    89458905.25348
  24039210.620   126326976.14706  24039211.900    98436643.61545
  20693894.780   108747203.73909  20693894.100    84738118.33449
  20541723.160   107947507.46809  20541726.840    84114963.56749
 15 02 22 02 31  0.0000000  0  7G04G16G18G19G21G22G27
  23165865.000   121737451.29007  23165868.080    94860373.77445
  20993018.020   110319063.32108  20993019.460    85962916.81548
  22077944.980   116020426.74008  22077946.040    90405536.86147
  21834671.280   114741984.65708  21834671.020    89409348.95548
  24052487.160   126396744.53606  24052488.280    98491008.57945
  20690962.020   108731792.20408  20690961.380    84726109.35449
  20536275.880   107918881.92909  20536279.600    84092657.95749
 15 02 22 02 31 30.0000000  0  7G04G16G18G19G21G22G27
  23150272.800   121655513.47607  23150275.700    94796526.16445
  21002894.980   110370967.12508  21002896.400    86003361.32548
  22087693.440   116071655.32208  22087694.580    90445455.23847
  21822600.760   114678553.63508  21822600.520    89359922.19848
  24065765.180   126466521.10706  24065766.140    98545379.91345
  20688130.460   108716912.62108  20688129.900    84714514.88249
  20530883.900   107890546.68509  20530887.580    84070578.54849
 15 02 22 02 32  0.0000000  0  7G04G16G18G19G21G22G27
  23134717.760   121573771.14707  23134720.660    94732830.87645
  21012869.640   110423384.20408  21012871.000    86044205.79448
  22097518.560   116123286.46608  22097519.740    90485687.30447
  21810561.840   114615288.53108  21810561.600    89310624.72848
  24079044.380   126536303.86906  24079045.340    98599756.07645
  20685400.000   108702564.03909  20685399.480    84703334.17649
  20525547.160   107862501.74109  20525550.780    84048725.34349
 15 02 22 02 32 30.0000000  0  7G04G16G18G19G21G22G27
  23119199.800   121492224.20807  23119202.820    94669287.85045
  21022941.680   110476313.09208  21022943.000    86085449.06948
  22107419.840   116175317.75408  22107421.040    90526231.16447
  21798554.620   114552190.16508  21798554.380    89261457.18048
  24092324.560   126606091.80406  24092325.620    98654136.25745
  20682770.440   108688745.74709  20682769.980    84692566.68249
  20520265.740   107834747.77009  20520269.380    84027098.87249
 15 02 22 02 33  0.0000000  0  7G04G16G18G19G21G22G27
  23103719.380   121410874.95307  23103722.620    94605898.83445
  21033111.160   110529753.93608  21033112.440    86127091.27348
  22117397.340   116227749.70308  22117398.520    90567087.22947
  21786579.780   114489261.84508  21786579.500    89212422.13248
  24105605.860   126675885.75306  24105607.040    98708521.12444
  20680242.280   108675460.03409  20680241.840    84682214.18549
  20515040.360   107807288.29509  20515044.000    84005701.88049
 15 02 22 02 33 30.0000000  0  7G04G16G18G19G21G22G27
  23088275.960   121329719.98007  23088279.400    94542661.22146
  21043376.960   110583701.06608  21043378.260    86169127.98848
  22127449.900   116280576.35908  22127451.060    90608250.85847
  21774636.720   114426500.72308  21774636.440    89163517.37448
  24118887.860   126745682.89006  24118889.180    98762908.50945
  20677814.820   108662703.39609  20677814.360    84672273.95249
  20509870.460   107780120.64409  20509874.140    83984532.28049
 15 02 22 02 34  0.0000000  0  7G04G16G18G19G21G22G27
  23072870.340   121248763.27007  23072873.860    94479578.10445
  21053739.440   110638156.05108  21053740.760    86211560.42948
  22137577.920   116333799.86608  22137579.120    90649723.71647
  21762726.400   114363911.55808  21762726.140    89114746.60048
  24132170.700   126815484.40705  24132172.100    98817299.28745
  20675488.700   108650479.41908  20675488.220    84662748.78549
  20504757.100   107753249.79809  20504760.760    83963593.96149
 15 02 22 02 34 30.0000000  0  7G04G16G18G19G21G22G27
  23057502.140   121168002.80307  23057505.640    94416647.88046
  21064197.880   110693115.37708  21064199.240    86254385.87248
  22147780.560   116387415.48708  22147781.800    90691502.12247
  21750848.480   114301492.92508  21750848.300    89066108.72048
  24145453.980   126885288.14906  24145455.520    98871691.80245
  20673263.460   108638785.61709  20673262.920    84653636.73849
  20499700.040   107726674.60009  20499703.680    83942886.01049
 15 02 22 02 35  0.0000000  0  7G04G16G18G19G21G22G27
  23042171.680   121087440.42607  23042175.100    94353872.03345
  21074752.180   110748578.55308  21074753.580    86297603.92148
  22158057.840   116441422.90808  22158059.040    90733585.83747
  21739003.560   114239247.74708  21739003.480    89017605.99948
  24158737.840   126955094.96106  24158739.460    98926086.71346
  20671139.380   108627623.51009  20671138.800    84644939.00249
  20494699.800   107700398.00909  20494703.380    83922410.74449
 15 02 22 02 35 30.0000000  0  7G04G16G18G19G21G22G27
  23026878.880   121007075.98407  23026882.220    94291250.40745
  21085401.820   110804543.05408  21085403.300    86341212.60948
  22168409.360   116495820.27908  22168410.500    90775973.40147
  21727191.900   114177177.06308  21727191.820    88969239.23848
  24172022.240   127024904.38406  24172023.940    98980483.66046
  20669116.400   108616992.80408  20669115.800    84636655.34449
  20489756.560   107674420.79809  20489760.060    83902168.76349
 15 02 22 02 36  0.0000000  0  7G04G16G18G19G21G22G27
  23011624.180   120926911.94107  23011627.460    94228784.96945
  21096147.020   110861009.57408  21096148.540    86385212.48448
  22178834.980   116550607.32608  22178836.120    90818664.61547
  21715413.980   114115283.66508  21715413.860    88921010.62248
  24185307.200   127094717.34806  24185308.860    99034883.35344
  20667194.880   108606895.49508  20667194.300    84628787.31749
  20484870.900   107648746.39209  20484874.380    83882162.73149
 15 02 22 02 36 30.0000000  0  8G04G16G18G19G21G22G27G32
  22996408.400   120846952.43807  22996411.580    94166478.88345
  21106988.080   110917979.85008  21106989.620    86429604.89348
  22189335.260   116605786.70208  22189336.340    90861661.53347
  21703670.740   114053572.64308  21703670.580    88872924.12448
  24198593.560   127164537.72305  24198595.160    99089288.81945
  20665375.580   108597335.37208  20665375.060    84621337.87649
  20480043.840   107623379.93109  20480047.340    83862396.65749
  24502802.740   128763096.02205  24502810.000   100334894.52145
 15 02 22 02 37  0.0000000  0  8G04G16G18G19G21G22G27G32
  22981230.120   120767190.23607  22981233.280    94104326.54446
  21117923.220   110975444.53208  21117924.800    86474382.55548
  22199908.340   116661348.53808  22199909.360    90904956.47547
  21691961.000   113992037.68308  21691960.840    88824974.81348
  24211879.600   127234357.00705  24211881.220    99143693.46044
  20663657.120   108588305.08209  20663656.660    84614301.29749
  20475274.160   107598315.20409  20475277.700    83842865.70549
  24480101.820   128643803.27005  24480108.160   100241939.31645
 15 02 22 02 37 30.0000000  0  9G04G11G16G18G19G21G22G27G32
  22966086.300   120687609.46107  22966089.440    94042315.59545
  24628490.660   129423590.72105  24628492.820   100849552.98644
  21128949.000   111033385.26308  21128950.540    86519531.16648
  22210550.700   116717274.62808  22210551.640    90948535.25046
  21680281.940   113930663.92408  21680281.840    88777151.11748
  24225162.320   127304158.67905  24225163.900    99198084.35045
  20662036.420   108579788.27008  20662035.980    84607664.83049
  20470559.060   107573537.29409  20470562.620    83823558.24149
  24457405.480   128524534.63305  24457411.420   100149002.91444
 15 02 22 02 38  0.0000000  0  9G04G11G16G18G19G21G22G27G32
  22950983.960   120608246.70907  22950987.040    93980474.50345
  24611285.100   129333175.20505  24611287.080   100779099.32145
  21140072.020   111091836.70009  21140073.480    86565077.72648
  22221268.920   116773599.32308  22221269.820    90992424.63447
  21668640.660   113869488.61108  21668640.620    88729482.05048
  24238448.620   127373979.27705  24238450.200    99252490.01744
  20660520.260   108571820.69309  20660519.820    84601456.33749
  20465905.640   107549083.60609  20465909.220    83804503.41949
  24434721.200   128405328.77206  24434726.840   100056115.38944
 15 02 22 02 38 30.0000000  0  9G04G11G16G18G19G21G22G27G32
  22935918.980   120529080.34307  22935922.140    93918786.47246
  24594089.740   129242813.60905  24594091.920   100708687.72944
  21151287.700   111150775.02609  21151289.080    86611003.68448
  22232058.460   116830298.62008  22232059.300    91036605.90347
  21657033.160   113808491.01608  21657033.180    88681951.47548
  24251734.160   127443795.25305  24251735.720    99306892.05244
  20659104.460   108564380.31909  20659103.960    84595658.65549
  20461310.060   107524933.63109  20461313.620    83785685.25949
  24412045.300   128286166.26906  24412050.680    99963261.63345
 15 02 22 02 39  0.0000000  0  9G04G11G16G18G19G21G22G27G32
  22920892.780   120450117.44207  22920896.040    93857256.95145
  24576906.140   129152513.93905  24576908.580   100638324.34944
  21162596.960   111210205.42008  21162598.320    86657313.06948
  22242920.240   116887377.49908  22242921.100    91081082.95546
  21645461.100   113747679.50108  21645461.080    88634565.89148
  24265020.180   127513613.26205  24265021.560    99361295.65344
  20657790.320   108557474.38509  20657789.800    84590277.41249
  20456773.820   107501095.48109  20456777.360    83767110.07649
  24389379.460   128167056.52606  24389384.620    99870449.02245
 15 02 22 02 39 30.0000000  0  9G04G11G16G18G19G21G22G27G32
  22905904.640   120371354.14307  22905907.960    93795882.97046
  24559733.400   129062270.32605  24559736.680   100568025.23044
  21173998.480   111270120.85408  21173999.840    86704000.40648
  22253853.120   116944830.07908  22253854.040    91125851.20047
  21633923.860   113687050.84008  21633923.760    88587322.78948
  24278305.800   127583428.76606  24278307.080    99415697.33745
  20656576.980   108551098.21209  20656576.440    84585308.97649
  20452296.340   107477566.31209  20452299.900    83748775.66049
  24366723.360   128047998.00806  24366728.440    99777676.27745
 15 02 22 02 40  0.0000000  0  8G04G16G18G19G21G22G27G32
  22890955.500   120292795.50607  22890958.760    93734668.48345
  21185492.980   111330525.07508  21185494.360    86751068.61648
  22264857.660   117002659.12208  22264858.640    91170912.79846
  21622422.500   113626610.83808  21622422.380    88540226.69648
  24291591.700   127653246.33606  24291592.820    99470100.62344
  20655465.340   108545256.61409  20655464.840    84580757.09049
  20447878.800   107454352.12509  20447882.380    83730686.68549
  24344078.440   127928997.93006  24344083.400    99684949.06345
 15 02 22 02 40 30.0000000  0  9G04G11G16G18G19G21G22G27G32
  22876044.280   120214436.19507  22876047.460    93673609.30446
  24525423.600   128881964.39905  24525426.100   100427524.79345
  21197078.940   111391409.93108  21197080.360    86798511.34948
  22275932.340   117060856.81908  22275933.360    91216261.65347
  21610956.220   113566355.13808  21610956.100    88493274.21248
  24304876.680   127723059.28305  24304877.800    99524500.28745
  20654454.220   108539943.38208  20654453.720    84576616.92149
  20443520.340   107431448.41309  20443523.940    83712839.63949
  24321444.020   127810052.94006  24321448.900    99592264.77444
 15 02 22 02 41  0.0000000  0  9G04G11G16G18G19G21G22G27G32
  22861171.900   120136280.72007  22861174.920    93612708.96346
  24508285.980   128791905.12805  24508288.160   100357348.77344
  21208756.840   111452777.77808  21208758.240    86846330.43648
  22287077.720   117119425.88708  22287078.720    91261899.89147
  21599526.160   113506289.87008  21599526.040    88446470.12348
  24318161.620   127792871.97705  24318162.660    99578899.77445
  20653544.500   108535162.91809  20653543.980    84572891.89749
  20439222.140   107408861.10609  20439225.720    83695239.14249
  24298821.480   127691170.34006  24298826.300    99499629.10545
 15 02 22 02 41 30.0000000  0  9G04G11G16G18G19G21G22G27G32
  22846338.180   120058328.94007  22846341.140    93551967.32646
  24491160.120   128701907.53505  24491162.100   100287220.81542
  21220526.220   111514626.28508  21220527.660    86894524.06648
  22298293.200   117178363.45608  22298294.140    91307825.27247
  21588132.320   113446414.92608  21588132.200    88399814.33948
  24331446.220   127862683.15805  24331447.200    99633298.06844
  20652735.980   108530914.23008  20652735.440    84569581.24149
  20434984.240   107386590.69409  20434987.780    83677885.57449
  24276211.100   127572351.90206  24276215.840    99407043.41844
 15 02 22 02 42  0.0000000  0  9G04G11G16G18G19G21G22G27G32
  22831543.060   119980580.17507  22831546.040    93491383.91046
  24474045.880   128611971.38105  24474047.880   100217140.71041
  21232386.420   111576952.09108  21232387.920    86943089.61648
  22309578.240   117237666.81508  22309579.140    91354035.68646
  21576774.800   113386730.86008  21576774.720    88353307.28648
  24344730.380   127932491.66905  24344731.480    99687694.29345
  20652028.420   108527196.18508  20652027.880    84566684.06949
  20430806.680   107364637.62309  20430810.240    83660779.28549
  24253613.220   127453599.21006  24253617.840    99314508.95345
 15 02 22 02 42 30.0000000  0  9G04G11G16G18G19G21G22G27G32
  22816786.820   119903035.97007  22816789.860    93430959.86746
  24456943.560   128522097.84405  24456945.420   100147109.43943
  21244337.420   111639755.13308  21244339.000    86992027.04148
  22320932.760   117297335.32008  22320933.620    91400530.62946
  21565454.100   113327240.44008  21565454.100    88306951.12748
  24358014.160   128002298.34705  24358015.260    99742089.09044
  20651422.020   108524009.63609  20651421.460    84564201.05649
  20426690.020   107343004.53709  20426693.620    83643922.33549
  24231028.600   127334916.29906  24231033.060    99222028.86145
 15 02 22 02 43  0.0000000  0  9G04G11G16G18G19G21G22G27G32
  22802069.420   119825695.88707  22802072.500    93370694.89945
  24439853.200   128432287.12805  24439855.000   100077127.07544
  21256378.600   111703031.96608  21256380.240    87041333.65848
  22332356.240   117357365.96308  22332357.040    91447307.75946
  21554170.420   113267944.22008  21554170.400    88260746.28848
  24371297.340   128072102.04705  24371298.400    99796481.56345
  20650916.540   108521353.33709  20650915.980    84562131.21849
  20422634.360   107321691.93109  20422637.960    83627315.11649
  24208457.520   127216304.93806  24208461.940    99129604.53044
 15 02 22 02 43 30.0000000  0  8G04G16G18G19G21G22G27G32
  22787391.260   119748562.08507  22787394.380    93310590.66745
  21268509.880   111766782.22508  21268511.520    87091009.16948
  22343848.600   117417758.61708  22343849.380    91494366.96847
  21542924.260   113208845.14308  21542924.200    88214695.06748
  24384580.220   128141904.01605  24384581.280    99850872.67745
  20650512.420   108519229.51709  20650511.820    84560476.30449
  20418640.240   107300702.86209  20418643.860    83610959.99549
  24185900.720   127097769.35006  24185905.060    99037239.25345
 15 02 22 02 44  0.0000000  0  9G04G11G16G18G19G21G22G27G32
  22772751.680   119671630.80707  22772754.780    93250644.25145
  24405708.080   128252863.50405  24405709.760    99937307.30344
  21280730.140   111830999.97308  21280731.780    87141048.96448
  22355408.720   117478507.46308  22355409.540    91541703.73346
  21531715.040   113149940.44108  21531714.980    88168795.31448
  24397862.080   128211699.79105  24397863.000    99905259.00845
  20650208.680   108517633.25809  20650208.060    84559232.47249
  20414707.220   107280034.64709  20414710.840    83594854.89049
  24163358.020   126979308.19606  24163362.700    98944931.93744
 15 02 22 02 44 30.0000000  0  9G04G11G16G18G19G21G22G27G32
  22758151.580   119594906.80807  22758154.620    93190859.34646
  24388653.980   128163244.00805  24388655.880    99867473.93444
  21293039.900   111895688.08008  21293041.500    87191455.26948
  22367037.080   117539615.04608  22367037.940    91589320.03446
  21520543.940   113091236.02508  21520543.900    88123051.62148
  24411143.580   128281493.95906  24411144.360    99959644.05544
  20650006.200   108516569.10009  20650005.580    84558403.27049
  20410836.380   107259693.23509  20410840.020    83579004.43849
  24140831.080   126860928.68706  24140835.700    98852688.26646
 15 02 22 02 45  0.0000000  0  9G04G11G16G18G19G21G22G27G32
  22743590.360   119518387.11507  22743593.320    93131233.64746
  24371611.600   128073682.61205  24371613.160    99797686.77744
  21305438.060   111960840.54808  21305439.580    87242223.41448
  22378732.740   117601076.10508  22378733.600    91637211.77646
  21509410.520   113032729.82908  21509410.520    88077462.38748
  24424424.000   128351282.63505  24424424.720   100014024.82944
  20649904.280   108516033.28309  20649903.640    84557985.75949
  20407027.340   107239676.55009  20407031.000    83563407.02149
  24118319.340   126742630.01906  24118323.900    98760507.56845
 15 02 22 02 45 30.0000000  0  9G04G11G16G18G19G21G22G27G32
  22729068.460   119442073.78908  22729071.340    93071768.74946
  24354582.300   127984191.29205  24354584.080    99727953.27644
  21317924.660   112026457.85108  21317926.140    87293353.76748
  22390495.500   117662889.84108  22390496.400    91685378.32646
  21498315.420   112974424.79208  21498315.420    88032029.90648
  24437703.600   128421066.95205  24437704.200   100068402.20744
  20649903.160   108516027.24509  20649902.520    84557981.06249
  20403280.640   107219987.61909  20403284.340    83548064.99949
  24095824.020   126624416.69606  24095828.500    98668393.39244
 15 02 22 02 46  0.0000000  0  9G04G11G16G18G19G21G22G27G32
  22714585.720   119365966.26108  22714588.540    93012464.20446
  24337565.220   127894764.62105  24337566.800    99658270.16943
  21330499.120   112092536.99208  21330500.580    87344843.99548
  22402325.060   117725054.68008  22402325.980    91733818.46346
  21487258.820   112916321.92808  21487258.780    87986754.95148
  24450982.080   128490846.14605  24450982.580   100122775.61043
  20650002.580   108516549.54609  20650001.920    84558388.06049
  20399596.500   107200627.20409  20399600.180    83532978.96149
  24073345.200   126506290.49606  24073349.400    98576347.10245
 15 02 22 02 46 30.0000000  0  9G04G11G16G18G19G21G22G27G32
  22700142.240   119290065.36208  22700145.120    92953320.68746
  24320560.460   127805403.36905  24320562.260    99588638.04244
  21343160.980   112159075.58608  21343162.480    87396692.23848
  22414220.900   117787567.97508  22414221.860    91782530.12346
  21476240.960   112858422.57208  21476240.860    87941638.57448
  24464259.640   128560620.06005  24464259.900   100177144.87645
  20650202.580   108517600.36909  20650201.900    84559206.89449
  20395975.140   107181596.70609  20395978.820    83518150.00149
  24050883.680   126388254.30106  24050887.680    98484370.93945
 15 02 22 02 47  0.0000000  0  9G04G11G16G18G19G21G22G27G32
  22685738.200   119214371.50207  22685741.100    92894338.48146
  24303568.220   127716108.24805  24303570.100    99519057.45345
  21355909.840   112226071.47708  21355911.400    87448896.81748
  22426182.820   117850428.54108  22426183.820    91831512.38946
  21465262.200   112800728.60208  21465262.020    87896682.24448
  24477536.260   128630388.93005  24477536.380   100231510.20344
  20650503.080   108519179.40209  20650502.380    84560437.31749
  20392416.900   107162897.92809  20392420.580    83503579.52749
  24028439.840   126270311.21206  24028443.760    98392467.33245
 15 02 22 02 47 30.0000000  0  9G04G11G16G18G19G21G22G27G32
  22671373.560   119138885.21408  22671376.560    92835518.02246
  24286588.640   127626879.95005  24286590.800    99449528.90644
  21368745.500   112293523.64008  21368747.120    87501456.93548
  22438210.420   117913634.28208  22438211.440    91880763.62746
  21454322.780   112743241.28308  21454322.520    87851886.94348
  24490811.960   128700152.46405  24490811.940   100285871.40644
  20650904.020   108521286.49309  20650903.360    84562079.21849
  20388922.020   107144532.19409  20388925.700    83489268.56749
  24006014.100   126152463.71806  24006018.020    98300638.21444
 15 02 22 02 48  0.0000000  0  9G04G11G16G18G19G21G22G27G32
  22657048.800   119063608.36607  22657051.860    92776860.76446
  24269621.940   127537720.09105  24269624.280    99380053.72845
  21381667.840   112361431.01408  21381669.460    87554371.75748
  22450303.540   117977184.32408  22450304.620    91930283.14546
  21443423.160   112685963.53008  21443422.920    87807254.93748
  24504086.880   128769911.85605  24504086.680   100340229.34744
  20651405.700   108523922.92809  20651405.040    84564133.59049
  20385491.060   107126502.48309  20385494.740    83475219.44049
  23983607.320   126034716.15106  23983611.280    98208886.95145
 15 02 22 02 48 30.0000000  0  9G04G11G16G18G19G21G22G27G32
  22642763.400   118988538.58608  22642766.500    92718364.86146
  24252667.800   127448626.47005  24252670.220    99310630.13545
  21394675.920   112429788.83308  21394677.540    87607637.58048
  22462461.440   118041074.85908  22462462.560    91980067.98346
  21432563.280   112628894.51008  21432563.080    87762785.58148
  24517360.420   128839664.31705  24517360.340   100394581.88444
  20652007.440   108527085.31409  20652006.800    84566597.79749
  20382123.860   107108807.61209  20382127.520    83461431.23249
  23961219.580   125917068.75006  23961223.560    98117213.73245
 15 02 22 02 49  0.0000000  0  9G04G11G16G18G19G21G22G27G32
  22628517.500   118913676.11607  22628520.580    92660030.50546
  24235726.520   127359599.91005  24235728.900    99241258.80444
  21407769.160   112498594.17708  21407770.760    87661252.12548
  22474683.800   118105303.73408  22474684.920    92030116.46946
  21421743.320   112572035.23108  21421743.120    87718479.66048
  24530632.500   128909409.32405  24530632.480   100448928.63644
  20652709.180   108530773.34809  20652708.580    84569471.59949
  20378820.560   107091448.65809  20378824.220    83447904.77149
  23938851.400   125799523.97206  23938855.400    98025620.48844
 15 02 22 02 49 30.0000000  0  9G04G11G16G18G19G21G22G27G32
  22614311.280   118839022.07807  22614314.300    92601858.56046
  24218798.180   127270640.90906  24218800.480    99171940.14344
  21420947.500   112567846.61608  21420949.080    87715215.05448
  22486970.300   118169869.61408  22486971.420    92080427.55146
  21410963.700   112515387.89808  21410963.460    87674338.87948
  24543903.200   128979147.57505  24543903.340   100503270.09044
  20653510.920   108534986.88009  20653510.380    84572754.87749
  20375581.580   107074427.76109  20375585.220    83434641.73349
  23916503.440   125682085.17006  23916507.440    97934109.82744
 15 02 22 02 50  0.0000000  0  9G04G11G16G18G19G21G22G27G32
  22600144.700   118764576.34008  22600147.620    92543848.92946
  24201882.960   127181750.12705  24201885.000    99102674.60644
  21434210.420   112637543.57608  21434212.000    87769524.35748
  22499320.440   118234769.98008  22499321.560    92130999.26146
  21400224.640   112458953.55008  21400224.380    87630364.07048
  24557172.440   129048878.21705  24557172.800   100557605.62445
  20654412.580   108539725.49309  20654412.120    84576447.30949
  20372407.160   107057745.90609  20372410.720    83421642.88449
  23894176.160   125564754.66606  23894180.140    97842683.55545
 15 02 22 02 50 30.0000000  0  9G04G11G16G18G19G21G22G27G32
  22586018.120   118690340.89207  22586021.020    92486003.15646
  24184981.020   127092929.53005  24184982.960    99033463.77644
  21447557.780   112707684.31008  21447559.360    87824179.46148
  22511734.180   118300004.78708  22511735.380    92181831.58447
  21389526.660   112402735.21408  21389526.440    87586557.58148
  24570440.440   129118602.84805  24570441.120   100611936.48944
  20655414.460   108544990.42309  20655413.980    84580549.85849
  20369297.840   107041406.20409  20369301.360    83408910.64749
  23871870.440   125447536.85706  23871874.300    97751345.08844
 15 02 22 02 51  0.0000000  0  9G04G11G16G18G19G21G22G27G32
  22571931.300   118616314.52607  22571934.240    92428320.30246
  24168092.160   127004177.93505  24168094.060    98964306.71844
  21460988.840   112778264.87008  21460990.400    87879177.29048
  22524210.840   118365570.06208  22524212.100    92232921.41146
  21378869.820   112346733.03208  21378869.600    87542919.52748
  24583706.840   129188319.68205  24583707.760   100666261.28741
  20656516.060   108550779.33109  20656515.540    84585060.70649
  20366253.540   107025408.32509  20366257.060    83396444.76549
  23849586.340   125330432.87906  23849590.260    97660095.33645
 15 02 22 02 51 30.0000000  0  9G04G11G16G18G19G21G22G27G32
  22557884.300   118542497.30307  22557887.240    92370800.42346
  24151216.560   126915495.60705  24151218.140    98895203.61144
  21474503.060   112849282.42908  21474504.580    87934515.63548
  22536750.040   118431464.01908  22536751.360    92284267.35746
  21368254.280   112290948.26808  21368254.100    87499450.88848
  24596971.740   129258028.18505  24596972.700   100720579.56643
  20657717.200   108557091.28509  20657716.620    84589979.11849
  20363274.500   107009753.48509  20363278.040    83384246.18949
  23827324.380   125213445.25606  23827328.200    97568936.23545
 15 02 22 02 52  0.0000000  0  9G04G11G16G18G19G21G22G27G32
  22543877.460   118468890.96207  22543880.400    92313444.85746
  24134354.400   126826884.38105  24134355.860    98826155.96044
  21488100.440   112920737.05908  21488101.920    87990194.55148
  22549351.660   118497685.94508  22549353.000    92335868.86046
  21357680.580   112235383.35508  21357680.380    87456153.55748
  24610235.420   129327729.80605  24610236.640   100774892.50942
  20659018.040   108563927.23509  20659017.420    84595305.84449
  20360361.280   106994444.35609  20360364.840    83372316.99749
  23805085.340   125096577.96306  23805088.940    97477870.91845
 15 02 22 02 52 30.0000000  0  9G04G11G16G18G19G21G22G27G32
  22529910.660   118395494.96908  22529913.620    92256253.20146
  24117505.720   126738344.13605  24117507.220    98757163.58044
  21501780.320   112992625.17708  21501781.760    88046211.25448
  22562015.080   118564232.80008  22562016.420    92387723.56746
  21347148.900   112180039.21608  21347148.700    87413028.25848
  24623497.480   129397423.51605  24623498.960   100829199.26943
  20660418.380   108571285.99309  20660417.720    84601039.94949
  20357513.960   106979481.48609  20357517.500    83360657.62449
  23782869.540   124979832.89606  23782873.040    97386900.84245
 15 02 22 02 53  0.0000000  0  9G04G11G16G18G19G21G22G27G32
  22515984.220   118322310.80208  22515987.180    92199226.60046
  24100670.660   126649876.11805  24100672.280    98688227.48744
  21515542.440   113064945.46608  21515543.840    88102564.71048
  22574740.240   118631104.09008  22574741.600    92439831.06646
  21336659.780   112124918.50008  21336659.600    87370077.05748
  24636758.200   129467110.18405  24636760.120   100883500.55745
  20661918.280   108579167.97109  20661917.620    84607181.76149
  20354733.000   106964867.35309  20354736.540    83349269.99049
  23760677.700   124863213.89806  23760681.000    97296028.98044
 15 02 22 02 53 30.0000000  0  9G04G11G16G18G19G21G22G27G32
  22502097.680   118249336.44208  22502100.680    92142363.47446
  24083848.960   126561478.38905  24083850.880    98619346.15644
  21529386.000   113137693.88108  21529387.380    88159251.77448
  22587526.260   118698295.26808  22587527.640    92492187.83246
  21326212.960   112070020.29208  21326212.840    87327299.24548
  24650017.200   129536787.32204  24650019.220   100937794.41644
  20663517.180   108587570.07609  20663516.480    84613728.86649
  20352018.200   106950600.88009  20352021.740    83338153.25849
  23738509.880   124746721.41206  23738513.140    97205255.72745
 15 02 22 02 54  0.0000000  0  9G04G11G16G18G19G21G22G27G32
  22488251.340   118176573.34208  22488254.340    92085664.98046
  24067041.080   126473153.01205  24067043.240    98550521.20345
  21543310.760   113210869.04608  21543312.180    88216271.37148
  22600373.020   118765805.56608  22600374.420    92544793.26146
  21315809.020   112015347.26108  21315808.900    87284696.89348
  24663274.680   129606455.80204  24663276.700   100992081.56644
  20665215.200   108596493.07909  20665214.480    84620681.86149
  20349370.020   106936684.73209  20349373.580    83327309.50849
  23716366.840   124630359.20306  23716370.060    97114583.99345
 15 02 22 02 54 30.0000000  0  9G04G11G16G18G19G21G22G27G32
  22474445.020   118104020.45208  22474447.980    92029130.27446
  24050246.820   126384899.25205  24050249.140    98481752.07645
  21557315.920   113284466.82708  21557317.440    88273620.27948
  22613279.900   118833631.83808  22613281.300    92597644.89946
  21305447.960   111960899.56508  21305447.760    87242270.12348
  24676530.820   129676047.32805  24676533.100   101046278.93943
  20667011.920   108605934.71409  20667011.180    84628038.98849
  20346788.520   106923118.95209  20346792.080    83316738.76949
  23694248.840   124514128.85406  23694252.200    97024015.00044
 15 02 22 02 55  0.0000000  0  9G04G11G16G18G19G21G22G27G32
  22460679.060   118031679.68908  22460682.020    91972760.85646
  24033466.580   126296718.81906  24033469.040    98413040.08744
  21571401.540   113358487.36208  21571403.140    88331298.60748
  22626246.860   118901773.33408  22626248.160    92650742.17946
  21295130.380   111906680.44708  21295130.200    87200021.46548
  24689785.020   129745697.02705  24689786.420   101100551.41344
  20668907.500   108615896.16509  20668906.780    84635801.16649
  20344274.240   106909906.31909  20344277.800    83306443.21249
  23672156.640   124398034.55306  23672160.220    96933552.01146
 15 02 22 02 55 30.0000000  0 10G04G11G14G16G18G19G21G22G27G32
  22446954.080   117959554.43208  22446957.040    91916559.37846
  24016700.980   126208615.08906  24016703.400    98344387.87544
  24677374.020   129680474.29904  24677376.560   101049736.33644
  21585567.740   113432930.90408  21585569.300    88389306.55048
  22639274.020   118970231.34308  22639275.240    92704086.08846
  21284857.040   111852694.03908  21284856.940    87157954.14148
  24703037.840   129815340.95605  24703039.160   101154819.39841
  20670902.400   108626379.65809  20670901.680    84643970.12449
  20341827.980   106897051.19909  20341831.540    83296426.23649
  23650091.340   124282081.96206  23650095.100    96843199.44245
 15 02 22 02 56  0.0000000  0 10G04G11G14G16G18G19G21G22G27G32
  22433268.860   117887638.33308  22433271.780    91860520.87246
  23999948.880   126120582.30306  23999951.300    98275790.92644
  24662729.940   129603516.34305  24662732.220   100989769.12244
  21599812.740   113507788.42408  21599814.220    88447637.07148
  22652359.660   119038996.97208  22652360.880    92757669.69746
  21274627.020   111798935.12608  21274626.980    87116064.08748
  24716288.420   129884972.42705  24716289.680   101209077.67944
  20672995.240   108637377.68809  20672994.500    84652540.02549
  20339448.720   106884548.20309  20339452.300    83286683.63949
  23628052.220   124166267.10206  23628056.280    96752954.20445
 15 02 22 02 56 30.0000000  0 10G04G11G14G16G18G19G21G22G27G32
  22419623.840   117815933.67708  22419626.720    91804647.14246
  23983210.860   126032622.87106  23983213.100    98207251.13344
  24648088.440   129526574.48605  24648090.920   100929814.48045
  21614136.520   113583059.77408  21614137.880    88506290.05648
  22665503.940   119108070.42708  22665505.120    92811493.17546
  21264441.140   111745407.86508  21264441.080    87074354.54448
  24729537.040   129954593.50505  24729537.840   101263327.84944
  20675186.280   108648891.78109  20675185.540    84661512.05849
  20337137.120   106872400.88909  20337140.740    83277218.20449
  23606040.240   124050594.89806  23606044.620    96662820.11146
 15 02 22 02 57  0.0000000  0 10G04G11G14G16G18G19G21G22G27G32
  22406019.600   117744443.37008  22406022.480    91748940.42646
  23966487.400   125944739.91206  23966489.560    98138770.96744
  24633450.980   129449654.13305  24633453.440   100869876.55044
  21628539.060   113658745.34608  21628540.340    88565265.81248
  22678706.920   119177452.06408  22678708.000    92865556.79246
  21254300.140   111692116.35608  21254300.000    87032828.69548
  24742783.900   130024206.45005  24742784.300   101317571.68442
  20677475.960   108660924.16809  20677475.180    84670887.94749
  20334893.940   106860613.10409  20334897.600    83268032.92149
  23584056.460   123935070.64506  23584061.020    96572801.30445
 15 02 22 02 57 30.0000000  0 10G04G11G14G16G18G19G21G22G27G32
  22392456.040   117673166.53108  22392458.880    91693400.06546
  23949778.300   125856932.67006  23949780.440    98070349.76244
  24618817.720   129372756.99405  24618820.400   100809956.72244
  21643019.720   113734841.79108  21643021.000    88624561.72348
  22691967.900   119247138.97908  22691969.020    92919858.28046
  21244203.980   111639060.55608  21244203.820    86991486.52148
  24756028.860   130093809.86505  24756029.280   101371808.10144
  20679863.780   108673472.17309  20679862.960    84680665.62049
  20332719.180   106849184.91209  20332722.880    83259127.83949
  23562101.260   123819695.72606  23562105.780    96482898.86244
 15 02 22 02 58  0.0000000  0 10G04G11G14G16G18G19G21G22G27G32
  22378933.200   117602103.51108  22378936.040    91638026.30446
  23933083.600   125769201.78206  23933085.740    98001988.06344
  24604189.360   129295885.81505  24604192.440   100750057.14744
  21657578.020   113811346.31808  21657579.360    88684175.62848
  22705286.660   119317129.36208  22705287.760    92974396.24746
  21234152.960   111586242.15508  21234152.840    86950329.33648
  24769271.980   130163403.73704  24769272.400   101426037.06744
  20682349.640   108686535.42409  20682348.780    84690844.78549
  20330613.180   106838117.71809  20330616.860    83250504.05749
  23540175.120   123704473.10906  23540179.400    96393115.07944
 15 02 22 02 58 30.0000000  0 10G04G11G14G16G18G19G21G22G27G32
  22365451.000   117531254.12008  22365453.880    91582819.00846
  23916403.440   125681547.27806  23916405.480    97933685.90444
  24589566.580   129219043.65205  24589569.920   100690180.19244
  21672213.360   113888255.76208  21672214.740    88744105.05048
  22718662.640   119387420.49008  22718663.700    93029168.55946
  21224147.300   111533662.07008  21224147.160    86909357.85148
  24782513.040   130232987.56104  24782513.880   101480258.22341
  20684933.340   108700112.81909  20684932.480    84701424.58249
  20328576.060   106827412.34409  20328579.700    83242162.20949
  23518278.460   123589404.88506  23518282.460    96303451.61545
 15 02 22 02 59  0.0000000  0 10G04G11G14G16G18G19G21G22G27G32
  22352009.000   117460616.24307  22352012.000    91527776.52547
  23899737.540   125593967.39005  23899739.400    97865441.86645
  24574950.760   129142228.75205  24574952.100   100630319.96645
  21686924.980   113965566.07308  21686926.400    88804346.83948
  22732095.000   119458007.87708  22732095.960    93084171.71946
  21214186.860   111481319.70208  21214186.720    86868571.59548
  24795751.820   130302558.88905  24795752.960   101534469.62743
  20687614.180   108714200.59209  20687613.300    84712402.07149
  20326607.600   106817067.80709  20326611.200    83234101.53549
  23496411.180   123474491.46606  23496414.980    96213908.77245
 15 02 22 02 59 30.0000000  0 10G04G11G14G16G18G19G21G22G27G32
  22338607.700   117390192.37007  22338610.820    91472900.80046
  23883086.220   125506464.63105  23883088.060    97797257.92845
  24560340.140   129065450.19805  24560341.800   100570492.57344
  21701712.880   114043277.13808  21701714.320    88864900.90548
  22745583.680   119528891.58908  22745584.660    93139405.78146
  21204272.280   111429218.36908  21204272.180    86827973.15948
  24808988.760   130372119.86404  24808989.920   101588672.98643
  20690392.460   108728800.58609  20690391.620    84723778.69849
  20324708.420   106807087.42809  20324712.000    83226324.62049
  23474574.260   123359737.71406  23474577.940    96124490.34945
 15 02 22 03 00  0.0000000  0 10G04G11G14G16G18G19G21G22G27G32
  22325247.280   117319983.34807  22325250.500    91418192.50146
  23866449.760   125419040.37605  23866451.720    97729135.12444
  24545736.960   128988709.65905  24545738.560   100510694.76744
  21716576.560   114121386.46608  21716578.060    88925765.29448
  22759128.500   119600070.50808  22759129.520    93194869.87446
  21194404.120   111377360.87808  21194404.040    86787564.73549
  24822223.920   130441671.09404  24822225.200   101642868.74444
  20693268.160   108743912.77009  20693267.400    84735554.43249
  20322878.920   106797473.22709  20322882.480    83218833.03549
  23452768.420   123245147.05406  23452771.960    96035199.00845
 15 02 22 03 00 30.0000000  0 10G04G11G14G16G18G19G21G22G27G32
  22311927.600   117249988.10207  22311930.800    91363650.76946
  23849828.020   125331693.71205  23849829.980    97661072.85445
  24531141.440   128912008.69604  24531142.740   100450927.77943
  21731515.360   114199890.51908  21731516.900    88986937.27548
  22772728.940   119671541.35808  22772729.980    93250561.44146
  21184582.320   111325746.96808  21184582.220    86747346.11248
  24835457.060   130511210.92405  24835458.600   101697055.59744
  20696240.820   108759534.58509  20696240.120    84747727.28349
  20321119.040   106788225.11409  20321122.640    83211626.71949
  23430993.840   123130720.72506  23430997.280    95946035.69445
 15 02 22 03 01  0.0000000  0 10G04G11G14G16G18G19G21G22G27G32
  22298649.120   117180209.30308  22298652.200    91309277.69346
  23833221.620   125244427.44505  23833223.760    97593073.20445
  24516554.180   128835352.28705  24516555.800   100391195.61144
  21746529.280   114278789.29808  21746530.860    89048416.82948
  22786384.960   119743303.89908  22786386.000    93306480.31546
  21174807.640   111274380.51208  21174807.480    86707320.30448
  24848688.320   130580741.28105  24848690.040   101751235.07144
  20699310.700   108775667.11009  20699310.040    84760298.09049
  20319429.500   106779346.59509  20319433.100    83204708.39549
  23409251.500   123016463.80206  23409254.860    95857004.40945
 15 02 22 03 01 30.0000000  0 10G04G11G14G16G18G19G21G22G27G32
  22285411.140   117110643.00908  22285414.100    91255070.21246
  23816629.900   125157237.80705  23816632.080    97525133.26344
  24501975.260   128758739.34805  24501976.440   100331497.18244
  21761617.060   114358076.08308  21761618.660    89110198.72348
  22800095.440   119815352.29608  22800096.380    93362621.92246
  21165079.540   111223259.03608  21165079.360    86667485.39848
  24861917.020   130650258.16105  24861918.680   101805404.06344
  20702476.900   108792305.79009  20702476.300    84773263.29949
  20317809.740   106770834.81709  20317813.340    83198075.84949
  23387541.040   122902374.84307  23387544.400    95768103.99545
 15 02 22 03 02  0.0000000  0 10G04G11G14G16G18G19G21G22G27G32
  22272214.640   117041294.54008  22272217.420    91201032.47246
  23800053.900   125070130.57805  23800056.100    97457257.52144
  24487405.940   128682178.01905  24487407.260   100271839.03842
  21776779.220   114437753.67208  21776780.800    89172285.14847
  22813860.880   119887689.75108  22813861.780    93418988.77446
  21155399.300   111172389.10208  21155399.100    86627846.49748
  24875144.260   130719766.82005  24875145.760   101859566.65245
  20705740.220   108809454.87809  20705739.640    84786626.23149
  20316261.000   106762696.22809  20316264.600    83191734.09949
  23365864.020   122788461.71206  23365867.400    95679340.57445
 15 02 22 03 02 30.0000000  0 10G04G11G14G16G18G19G21G22G27G32
  22259058.820   116972159.83408  22259061.460    91147161.31246
  23783492.920   124983101.79605  23783495.120    97389442.92544
  24472845.980   128605667.03405  24472847.840   100212220.11943
  21792014.300   114517814.44508  21792015.900    89234670.15147
  22827680.040   119960309.64808  22827680.920    93475575.70746
  21145766.420   111121768.03908  21145766.200    86588401.51748
  24888368.980   130789271.72905  24888371.080   101913723.29044
  20709099.620   108827108.79209  20709099.060    84800382.52749
  20314782.640   106754927.60909  20314786.260    83185680.63049
  23344220.180   122674722.62607  23344223.440    95590712.78745
 15 02 22 03 03  0.0000000  0 10G04G11G14G16G18G19G21G22G27G32
  22245944.280   116903242.10708  22245946.780    91093459.20946
  23766947.560   124896155.05606  23766949.800    97321692.25744
  24458296.640   128529211.78005  24458298.860   100152644.60144
  21807322.640   114598260.16208  21807324.240    89297355.11148
  22841553.060   120033212.84708  22841553.920    93532383.39546
  21136181.760   111071400.28708  21136181.520    86549153.91848
  24901592.120   130858757.74705  24901593.420   101967868.18343
  20712555.440   108845269.23509  20712554.860    84814533.52849
  20313375.500   106747533.22209  20313379.120    83179918.77049
  23322610.520   122561163.35107  23322613.740    95502225.09945
 15 02 22 03 03 30.0000000  0 10G04G11G14G16G18G19G21G22G27G32
  22232870.880   116834540.60308  22232873.260    91039925.60246
  23750417.780   124809289.72206  23750419.980    97254005.02344
  24443758.220   128452814.52405  24443761.120   100093114.25744
  21822703.460   114679086.69808  21822705.020    89360336.81248
  22855479.360   120106396.16308  22855480.280    93589409.35646
  21126645.380   111021286.19308  21126645.120    86510103.98348
  24914812.980   130928220.60604  24914814.880   102021993.44844
  20716107.440   108863934.78509  20716106.780    84829078.11749
  20312039.620   106740513.12309  20312043.220    83174448.56749
  23301035.380   122447785.45406  23301038.560    95413878.73945
 15 02 22 03 04  0.0000000  0 10G04G11G14G16G18G19G21G22G27G32
  22219838.440   116766054.76508  22219840.820    90986560.03746
  23733903.480   124722505.63806  23733905.620    97186381.12944
  24429231.440   128376477.40905  24429234.780   100033630.83444
  21838156.120   114760290.60408  21838157.600    89423612.56647
  22869458.460   120179856.97708  22869459.420    93646651.55246
  21117157.440   110971426.74208  21117157.180    86471252.47349
  24928031.360   130997683.73005  24928032.680   102076120.57043
  20719755.200   108883103.47509  20719754.440    84844014.77149
  20310775.120   106733867.95209  20310778.700    83169270.51649
  23279495.020   122334590.95206  23279498.300    95325675.27046
 15 02 22 03 04 30.0000000  0 10G04G11G14G16G18G19G21G22G27G32
  22206847.120   116697785.37008  22206849.580    90933363.13046
  23717404.800   124635803.87506  23717406.760    97118821.36345
  24414716.940   128300203.90005  24414720.640    99974196.95645
  21853680.120   114841869.53808  21853681.560    89487180.55347
  22883490.040   120253593.56408  22883491.000    93704108.63346
  21107718.400   110921824.17908  21107718.140    86432601.13349
  24941247.520   131067135.37705  24941248.140   102130238.74942
  20723498.560   108902774.65709  20723497.700    84859342.97149
  20309582.260   106727599.31709  20309585.820    83164385.86549
  23257990.160   122221582.90406  23257993.620    95237617.11246
 15 02 22 03 05  0.0000000  0 10G04G11G14G16G18G19G21G22G27G32
  22193896.780   116629731.21608  22193899.260    90880333.93646
  23700921.640   124549183.69306  23700923.440    97051325.17945
  24400215.180   128223995.74905  24400218.660    99914813.98344
  21869274.880   114923820.48208  21869276.300    89551038.41448
  22897573.540   120327602.90608  22897574.440    93761778.26246
  21098328.260   110872478.46608  21098327.980    86394149.93448
  24954460.980   131136574.33005  24954462.040   102184346.96743
  20727337.040   108922945.90409  20727336.140    84875060.83549
  20308461.100   106721707.22209  20308464.600    83159794.62649
  23236521.040   122108762.87307  23236524.680    95149705.45145
 15 02 22 03 05 30.0000000  0 10G04G11G14G16G18G19G21G22G27G32
  22180987.680   116561893.75308  22180990.220    90827473.59147
  23684454.260   124462646.89306  23684456.060    96983893.93545
  24385726.740   128147857.11405  24385730.140    99855485.22344
  21884939.960   115006141.08308  21884941.420    89615184.32347
  22911708.700   120401883.91507  22911709.620    93819659.56446
  21088987.480   110823392.32008  21088987.200    86355900.98749
  24967672.380   131206001.62005  24967673.780   102238446.18544
  20731270.660   108943617.56009  20731269.800    84891168.62449
  20307412.020   106716194.02509  20307415.500    83155498.63149
  23215088.440   121996134.57207  23215092.200    95061943.16846
 15 02 22 03 06  0.0000000  0 10G04G11G14G16G18G19G21G22G27G32
  22168119.880   116494273.19108  22168122.440    90774782.26146
  23668002.700   124376193.47206  23668004.440    96916527.66945
  24371252.020   128071790.60505  24371255.100    99796212.64544
  21900675.020   115088829.50708  21900676.560    89679616.84347
  22925895.080   120476434.25207  22925896.080    93877750.74046
  21079696.340   110774567.29608  21079696.100    86317855.52249
  24980881.640   131275417.15704  24980883.200   102292536.23045
  20735299.220   108964788.21708  20735298.460    84907665.24449
  20306435.220   106711060.76709  20306438.700    83151498.68549
  23193692.940   121883700.59507  23193696.720    94974332.33145
 15 02 22 03 06 30.0000000  0 10G04G11G14G16G18G19G21G22G27G32
  22155293.360   116426869.44708  22155295.960    90722259.88147
  23651567.020   124289823.93506  23651568.820    96849226.77245
  24356791.500   127995799.05805  24356794.420    99736998.52744
  21916479.580   115171882.93608  21916481.160    89744333.78848
  22940132.300   120551251.63707  22940133.400    93936050.00346
  21070455.160   110726004.76808  21070454.940    86280014.59749
  24994088.700   131344820.51804  24994089.960   102346616.71843
  20739422.480   108986456.62508  20739421.860    84924549.72249
  20305530.880   106706308.40409  20305534.340    83147795.55049
  23172334.940   121771463.44207  23172338.720    94886874.86145
 15 02 22 03 07  0.0000000  0  9G04G11G14G16G18G19G22G27G32
  22142506.700   116359674.99808  22142509.320    90669900.58347
  23635145.980   124203531.39406  23635147.780    96781985.86044
  24342344.240   127919877.62405  24342347.040    99677838.98444
  21932351.580   115255290.54408  21932353.160    89809326.71747
  22954418.580   120626326.61107  22954419.760    93994549.98145
  21061262.800   110677698.57908  21061262.580    86242373.41949
  20743638.740   109008613.63408  20743638.240    84941814.92949
  20304697.820   106701930.50809  20304701.260    83144384.20249
  23151013.480   121659418.21207  23151017.200    94799566.93245
 15 02 22 03 07 30.0000000  0  9G04G11G14G16G18G19G22G27G32
  22129764.700   116292715.13908  22129767.280    90617724.09047
  23618744.420   124117340.97705  23618746.160    96714824.53344
  24327915.580   127844054.33305  24327918.100    99618755.96244
  21948295.340   115339075.25808  21948296.920    89874613.49347
  22968758.240   120701681.80407  22968759.400    94053268.30546
  21052124.220   110629675.16208  21052124.020    86204952.58549
  20747952.740   109031284.08008  20747952.340    84959480.21449
  20303940.920   106697953.06309  20303944.380    83141284.89949
  23129733.820   121547592.30507  23129737.340    94712429.91145
 15 02 22 03 08  0.0000000  0  9G04G11G14G16G18G19G22G27G32
  22117062.540   116225964.52508  22117065.060    90565710.64747
  23602357.620   124031228.01705  23602359.200    96647723.54144
  24313501.320   127768306.74605  24313503.480    99559731.89344
  21964305.280   115423207.86308  21964306.820    89940171.35347
  22983145.960   120777289.63107  22983147.120    94112183.50046
  21043034.920   110581910.55708  21043034.720    86167733.41749
  20752359.280   109054440.53009  20752358.860    84977524.21049
  20303255.580   106694351.80609  20303259.080    83138478.72849
  23108491.520   121435962.95007  23108494.800    94625446.03345
 15 02 22 03 08 30.0000000  0  9G04G11G14G16G18G19G22G27G32
  22104401.860   116159432.06108  22104404.340    90513867.18247
  23585987.240   123945201.64606  23585988.700    96580690.05945
  24299103.660   127692646.43005  24299105.500    99500775.83144
  21980382.780   115507695.78608  21980384.300    90006006.07347
  22997583.000   120853156.83807  22997584.140    94171300.80545
  21033996.800   110534414.95508  21033996.580    86130723.85549
  20756859.760   109078090.43709  20756859.260    84995952.71649
  20302643.720   106691136.55709  20302647.220    83135973.33749
  23087288.700   121324541.53107  23087291.820    94538624.19345
 15 02 22 03 09  0.0000000  0  9G04G11G14G16G18G19G22G27G32
  22091782.820   116093118.43708  22091785.300    90462194.24547
  23569633.460   123859262.69106  23569634.900    96513724.67844
  24284723.220   127617076.77105  24284724.680    99441890.41944
  21996527.400   115592536.62308  21996528.900    90072115.80447
  23012069.060   120929281.65507  23012070.160    94230618.84846
  21025010.300   110487190.61608  21025010.080    86093925.67249
  20761454.060   109102233.48009  20761453.480    85014765.48649
  20302105.640   106688308.96209  20302109.160    83133770.01249
  23066126.000   121213331.20707  23066129.060    94451966.82845
 15 02 22 03 09 30.0000000  0 10G01G04G11G14G16G18G19G22G27G32
  24568040.700   129105924.51504                                
  22079205.380   116027023.82508  22079207.940    90410691.97547
  23553296.520   123773412.16906  23553298.080    96446828.19444
  24270360.380   127541600.80905  24270362.000    99383078.01245
  22012738.600   115677727.23208  22012740.060    90138498.08347
  23026603.740   121005662.15307  23026604.860    94290136.12146
  21016075.740   110440239.23408  21016075.520    86057340.19049
  20766141.980   109126868.43509  20766141.260    85033961.56449
  20301641.540   106685870.23409  20301645.080    83131869.70549
  23045003.960   121102334.78407  23045007.000    94365476.16845
 15 02 22 03 10  0.0000000  0 10G01G04G11G14G16G18G19G22G27G32
  24552765.360   129025650.50604  24552771.700   100539499.20144
  22066670.540   115961153.04608  22066673.160    90359364.10546
  23536977.400   123687654.98806  23536978.960    96380004.46844
  24256016.740   127466226.04305  24256018.660    99324344.49344
  22029016.760   115763269.66408  22029018.240    90205154.50247
  23041187.520   121082300.75007  23041188.640    94349854.50646
  21007194.240   110393566.70708  21007194.020    86020971.98949
  20770924.060   109151998.41109  20770923.240    85053543.37049
  20301252.500   106683825.89909  20301256.040    83130276.71949
  23023923.900   120991559.14307  23023926.980    94279157.53046
 15 02 22 03 10 30.0000000  0 10G01G04G11G14G16G18G19G22G27G32
  24537509.000   128945477.26004  24537515.400   100477026.59743
  22054175.600   115895491.92708  22054178.240    90308199.61347
  23520673.400   123601977.32906  23520675.000    96313242.70745
  24241690.180   127390941.09905  24241692.280    99265680.87244
  22045358.700   115849146.93908  22045360.200    90272071.84747
  23055817.340   121159181.16407  23055818.500    94409761.31946
  20998363.400   110347160.27208  20998363.180    85984811.14149
  20775797.440   109177608.06209  20775796.540    85073498.94949
  20300936.000   106682162.85609  20300939.560    83128980.83949
  23002883.720   120880992.88707  23002886.860    94193002.05145
 15 02 22 03 11  0.0000000  0 10G01G04G11G14G16G18G19G22G27G32
  24522273.800   128865415.46204  24522280.200   100414640.77743
  22041722.660   115830051.42208  22041725.260    90257207.03247
  23504386.720   123516390.46306  23504388.360    96246551.67745
  24227383.520   127315759.74005  24227385.640    99207098.00945
  22061765.940   115935367.30708  22061767.480    90339256.53547
  23070494.840   121236311.97607  23070496.040    94469863.25445
  20989585.560   110301032.32508  20989585.320    85948867.29049
  20780763.800   109203706.45009  20780762.900    85093835.36349
  20300694.320   106680892.86909  20300697.920    83127991.23949
  22981885.900   120770649.27607  22981889.220    94107020.05346
 15 02 22 03 11 30.0000000  0 10G01G04G11G14G16G18G19G22G27G32
  24507059.240   128785462.19204  24507065.420   100352339.55144
  22029311.120   115764828.42808  22029313.680    90206383.94747
  23488116.820   123430891.50606  23488118.500    96179929.16945
  24213096.580   127240681.57406  24213099.040    99148595.58544
  22078237.340   116021924.90308  22078238.900    90406704.00147
  23085219.000   121313687.64907  23085220.180    94530155.97246
  20980860.380   110255181.13408  20980860.120    85913139.09649
  20785822.380   109230289.38609  20785821.480    85114549.34149
  20300527.040   106680013.82809  20300530.620    83127306.27249
  22960930.400   120660527.75907  22960933.920    94021211.12445
 15 02 22 03 12  0.0000000  0 10G01G04G11G14G16G18G19G22G27G32
  24491865.680   128705619.59204  24491871.820   100290124.52944
  22016941.380   115699825.14508  22016943.900    90155732.06147
  23471864.260   123345483.60306  23471865.960    96113377.58944
  24198830.380   127165711.73706  24198833.040    99090177.54544
  22094772.740   116108818.80408  22094774.320    90474413.52147
  23099989.780   121391308.21707  23099990.960    94590639.53246
  20972188.540   110209610.25208  20972188.240    85877629.32249
  20790973.320   109257357.60609  20790972.440    85135641.46649
  20300434.740   106679528.92709  20300438.360    83126928.42749
  22940018.100   120550632.94407  22940021.720    93935578.83945
 15 02 22 03 12 30.0000000  0 10G01G04G11G14G16G18G19G22G27G32
  24476692.920   128625886.56804  24476699.040   100227994.91644
  22004613.260   115635040.57108  22004615.800    90105250.60546
  23455628.800   123260165.63006  23455630.560    96046896.11545
  24184585.320   127090852.19106  24184587.960    99031845.46845
  22111371.440   116196045.34108  22111373.020    90542382.23547
  23114806.460   121469170.28607  23114807.640    94651311.27146
  20963570.040   110164319.99108  20963569.780    85842338.21649
  20796216.100   109284908.44509  20796215.200    85157109.65749
  20300417.420   106679437.92309  20300421.040    83126857.51149
  22919149.300   120440966.27107  22919152.880    93850124.34046
 15 02 22 03 13  0.0000000  0 10G01G04G11G14G16G18G19G22G27G32
  24461541.460   128546265.99704  24461547.680   100165952.94145
  21992327.300   115570477.66308  21992329.860    90054941.86847
  23439411.120   123174940.94906  23439412.920    95980487.30845
  24170362.180   127016108.25806  24170364.780    98973603.48944
  22128033.360   116283604.34708  22128034.960    90610610.01647
  23129669.200   121547274.86107  23129670.460    94712171.97146
  20955005.860   110119315.04508  20955005.620    85807269.42849
  20801550.980   109312943.52109  20801550.100    85178955.17749
  20300475.820   106679744.73309  20300479.400    83127096.58149
  22898325.000   120331533.22607  22898328.460    93764851.87546
 15 02 22 03 13 30.0000000  0 10G01G04G11G14G16G18G19G22G27G32
  24446410.720   128466754.13304  24446416.880   100103995.70644
  21980082.780   115506132.74408  21980085.400    90004802.99446
  23423210.520   123089806.22506  23423212.460    95914148.59046
  24156160.840   126941479.01406  24156163.340    98915450.83746
  22144757.320   116371489.35308  22144758.900    90679091.81847
  23144576.980   121625615.80807  23144578.220    94773216.86345
  20946495.500   110074592.90908  20946495.260    85772421.01549
  20806976.980   109341457.59609  20806976.160    85201173.94049
  20300609.360   106680446.45109  20300612.920    83127643.37349
  22877544.900   120222332.42707  22877548.180    93679760.36846
 15 02 22 03 14  0.0000000  0 10G01G04G11G14G16G18G19G22G27G32
  24431300.980   128387352.32904  24431307.040   100042124.17244
  21967879.920   115442007.05408  21967882.700    89954834.94947
  23407027.360   123004763.32106  23407029.400    95847881.42745
  24141982.140   126866968.89305  24141984.680    98857391.03044
  22161543.040   116459698.76008  22161544.540    90747826.40647
  23159529.680   121704192.35707  23159530.780    94834445.34645
  20938039.520   110030156.38708  20938039.240    85737795.15849
  20812494.040   109370450.27808  20812493.300    85223765.64349
  20300818.480   106681545.44009  20300822.000    83128499.72149
  22856809.720   120113367.78007  22856812.820    93594852.89346
 15 02 22 03 14 30.0000000  0 10G01G04G11G14G16G18G19G22G27G32
  24416212.660   128308062.43004  24416218.380    99980339.87044
  21955719.180   115378102.70408  21955722.140    89905039.36647
  23390862.080   122919814.57106  23390864.180    95781687.62344
  24127826.840   126792582.28405  24127829.320    98799427.47145
  22178390.320   116548231.64808  22178391.740    90816813.04647
  23174527.160   121783003.99707  23174528.100    94895857.01446
  20929638.480   109986008.67708  20929638.220    85703394.34849
  20818102.300   109399922.24808  20818101.640    85246730.81749
  20301103.700   106683044.39409  20301107.220    83129667.73749
  22836120.220   120004643.48707  22836123.200    93510132.70445
 15 02 22 03 15  0.0000000  0 10G01G04G11G14G16G18G19G22G27G32
  24401145.320   128228883.14204  24401150.820    99918641.71242
  21943600.340   115314418.34508  21943603.440    89855415.20347
  23374714.580   122834959.16506  23374716.740    95715566.53145
  24113695.360   126718321.10805  24113697.800    98741561.65444
  22195298.360   116637083.88508  22195299.780    90886048.52747
  23189568.660   121862047.29507  23189569.580    94957449.17846
  20921292.440   109942150.01108  20921292.220    85669218.76949
  20823801.240   109429870.58508  20823800.620    85270067.18549
  20301465.000   106684942.98609  20301468.520    83131147.15549
  22815476.620   119896160.90207  22815479.500    93425600.86545
 15 02 22 03 15 30.0000000  0 10G01G04G11G14G16G18G19G22G27G32
  24386099.080   128149814.91404  24386104.400    99857030.16344
  21931523.520   115250954.48808  21931526.720    89805962.84447
  23358585.100   122750198.19606  23358587.220    95649519.03745
  24099588.380   126644188.67006  24099590.800    98683796.14245
  22212266.780   116726253.36308  22212268.200    90955531.21847
  23204653.900   121941320.34607  23204654.780    95019220.38446
  20913001.740   109898582.29908  20913001.600    85635269.91049
  20829590.700   109460294.43408  20829590.080    85293774.08349
  20301902.600   106687242.64709  20301906.160    83132939.09749
  22794879.520   119787923.10207  22794882.460    93341259.76146
 15 02 22 03 16  0.0000000  0 10G01G04G11G14G16G18G19G22G27G32
  24371074.040   128070858.07004  24371079.360    99795505.32041
  21919488.820   115187711.67608  21919492.000    89756682.74147
  23342473.640   122665532.08606  23342475.740    95583545.44345
  24085506.440   126570188.14306  24085508.840    98626133.41944
  22229294.900   116815736.81908  22229296.400    91025258.56847
  23219782.480   122020821.55207  23219783.400    95081169.37246
  20904766.780   109855307.31608  20904766.640    85601549.15549
  20835470.380   109491192.27209  20835469.740    85317850.32649
  20302416.760   106689944.45809  20302420.320    83135044.40449
  22774329.440   119679932.64607  22774332.480    93257111.39446
 15 02 22 03 16 30.0000000  0 10G01G04G11G14G16G18G19G22G27G32
  24356070.260   127992013.44304  24356075.820    99734067.98044
  21907496.360   115124690.52408  21907499.480    89707575.36247
  23326380.500   122580962.33306  23326382.540    95517646.94445
  24071450.180   126496323.08906  24071452.700    98568576.26445
  22246382.500   116905533.06308  22246384.120    91095229.65347
  23234954.160   122100549.48407  23234955.140    95143295.02545
  20896588.060   109812327.73608  20896587.920    85568058.57549
  20841440.180   109522563.52508  20841439.520    85342295.46049
  20303007.780   106693050.25709  20303011.360    83137464.50649
  22753827.100   119572193.04707  22753830.220    93173158.50346
 15 02 22 03 17  0.0000000  0 10G01G04G11G14G16G18G19G22G27G32
  24341087.580   127913279.05705  24341093.540    99672716.55145
  21895545.780   115061889.25008  21895548.760    89658639.32147
  23310305.420   122496487.49606  23310307.320    95451822.42845
  24057419.880   126422594.36806  24057422.520    98511125.32645
  22263528.660   116995637.06808  22263530.380    91165440.55147
  23250168.100   122180499.80907  23250169.100    95205593.97245
  20888465.340   109769642.26808  20888465.180    85534797.17849
  20847499.380   109554404.61809  20847498.680    85367106.70649
  20303675.440   106696558.84509  20303679.060    83140198.47249
  22733372.640   119464704.58607  22733375.800    93089401.30245
 15 02 22 03 17 30.0000000  0 10G01G04G11G14G16G18G19G22G27G32
  24326126.080   127834656.09604  24326132.600    99611451.90644
  21883637.300   114999309.07208  21883640.100    89609875.56447
  23294248.700   122412109.27806  23294250.600    95386073.20945
  24043416.260   126349006.14406  24043419.060    98453783.87545
  22280733.060   117086046.91308  22280734.820    91235889.76547
  23265424.180   122260671.62607  23265425.200    95268065.50545
  20880399.220   109727254.22708  20880399.000    85501767.54049
  20853647.980   109586715.49809  20853647.220    85392284.01949
  20304420.140   106700472.43809  20304423.780    83143248.02549
  22712966.780   119357471.20007  22712969.960    93005842.86046
 15 02 22 03 18  0.0000000  0 10G01G04G11G14G16G18G19G22G27G32
  24311185.740   127756143.07904  24311192.280    99550272.93145
  21871770.620   114936948.63008  21871773.240    89561283.03747
  23278210.220   122327826.67506  23278211.940    95320398.50544
  24029439.700   126275559.53206  24029442.540    98396552.76144
  22297994.960   117176758.48408  22297996.660    91306574.08847
  23280721.720   122341061.24607  23280722.720    95330706.76546
  20872389.580   109685163.48508  20872389.380    85468969.56049
  20859885.320   109619492.87808  20859884.520    85417824.83849
  20305241.760   106704790.32209  20305245.440    83146612.61249
  22692609.640   119250493.79407  22692612.780    92922483.88346
 15 02 22 03 18 30.0000000  0 10G01G04G11G14G16G18G19G22G27G32
  24296266.420   127677741.39904  24296273.020    99489180.71845
  21859945.980   114874809.33008  21859948.460    89512862.82647
  23262190.280   122243641.08307  23262191.880    95254799.40145
  24015491.160   126202259.24706  24015493.960    98339435.68045
  22315313.980   117267770.04608  22315315.600    91377492.15647
  23296060.720   122421668.01907  23296061.620    95393517.23246
  20864437.020   109643372.77608  20864436.840    85436405.37849
  20866211.380   109652736.46308  20866210.540    85443728.93149
  20306140.780   106709514.78809  20306144.480    83150294.00849
  22672301.980   119143776.19707  22672305.120    92839327.34246
 15 02 22 03 19  0.0000000  0 10G01G04G11G14G16G18G19G22G27G32
  24281368.200   127599450.81404  24281374.980    99428175.11645
  21848163.260   114812890.69508  21848165.700    89464614.55347
  23246189.000   122159553.75007  23246190.540    95189276.83945
  24001571.040   126129107.60006  24001573.620    98282434.43444
  22332689.400   117359078.08708  22332691.000    91448641.25047
  23311440.600   122502489.53207  23311441.460    95456495.02646
  20856541.820   109601883.39808  20856541.660    85404076.00149
  20872625.740   109686444.44208  20872624.940    85469994.89449
  20307117.280   106714646.40909  20307120.980    83154292.67449
  22652044.180   119037320.58107  22652047.280    92756374.96646
 15 02 22 03 19 30.0000000  0 10G01G04G11G14G16G18G19G22G27G32
  24266491.120   127521271.95604  24266497.940    99367256.54446
  21836422.740   114751193.95408  21836425.140    89416539.18147
  23230206.440   122075564.85707  23230207.900    95123830.99744
  23987680.000   126056108.23706  23987682.340    98225551.84044
  22350120.840   117450680.93308  22350122.480    91520020.07647
  23326860.980   122583523.82907  23326861.760    95519638.63445
  20848704.400   109560697.43108  20848704.220    85371983.04549
  20879128.260   109720615.80908  20879127.540    85496621.93048
  20308171.560   106720186.80109  20308175.280    83158609.86049
  22631836.840   118931130.13807  22631839.900    92673629.21146
 15 02 22 03 20  0.0000000  0 10G01G04G11G14G16G18G19G22G27G32
  24251635.440   127443205.28604  24251642.360    99306425.38844
  21824724.460   114689719.30908  21824726.900    89368636.87646
  23214243.020   121991676.33407  23214244.400    95058463.36444
  23973818.540   125983264.54006  23973820.700    98168790.52045
  22367607.840   117542576.13308  22367609.640    91591626.70947
  23342321.480   122664769.37907  23342322.300    95582946.84845
  20840925.100   109519816.74708  20840924.860    85340127.96549
  20885718.820   109755249.70408  20885718.140    85523609.38848
  20309303.860   106726137.08209  20309307.600    83163246.44549
  22611680.480   118825207.81907  22611683.500    92591092.38546
 15 02 22 03 20 30.0000000  0 10G01G04G11G14G16G18G19G22G27G32
  24236801.360   127365251.97104  24236808.060    99245682.55244
  21813068.680   114628468.05008  21813071.180    89320908.62947
  23198298.900   121907889.42607  23198300.220    94993174.92045
  23959987.280   125910580.59206  23959989.360    98112153.70444
  22385150.180   117634761.92308  22385152.120    91663459.78047
  23357821.960   122746225.23207  23357822.840    95646418.92545
  20833204.420   109479244.20308  20833204.120    85308513.00349
  20892397.260   109790345.48208  20892396.620    85550956.75048
  20310514.580   106732499.42709  20310518.320    83168204.11149
  22591575.780   118719557.29207  22591578.860    92508767.33346
 15 02 22 03 21  0.0000000  0 10G01G04G11G14G16G18G19G22G27G32
  24221988.560   127287410.53404  24221995.240    99185026.92644
  21801455.160   114567438.72508  21801457.700    89273353.31047
  23182373.880   121824202.77607  23182375.160    94927964.58245
  23946186.520   125838057.68106  23946188.780    98055642.34545
  22402746.980   117727233.63908  22402748.920    91735515.64047
  23373361.740   122827887.67407  23373362.700    95710052.00545
  20825542.340   109438979.75008  20825542.040    85277138.11049
  20899163.000   109825900.00108  20899162.400    85578661.57248
  20311803.600   106739273.09709  20311807.300    83173482.29349
  22571522.940   118614179.52107  22571526.060    92426654.81546
 15 02 22 03 21 30.0000000  0 10G01G04G11G14G16G18G19G22G27G32
  24207197.020   127209680.16204  24207203.440    99124457.84944
  21789883.780   114506630.79608  21789886.360    89225970.52547
  23166467.960   121740616.72106  23166469.280    94862832.63445
  23932416.680   125765697.94006  23932419.240    97999258.14144
  22420397.680   117819988.31208  22420399.560    91807791.99047
  23388940.400   122909754.18207  23388941.360    95773844.08345
  20817938.960   109399024.16508  20817938.740    85246003.89649
  20906015.580   109861910.99008  20906015.060    85606722.08548
  20313170.880   106746458.17109  20313174.560    83179081.04949
  22551522.280   118509076.13107  22551525.420    92344756.10946
 15 02 22 03 22  0.0000000  0 10G01G04G11G14G16G18G19G22G27G32
  24192426.920   127132062.93304  24192432.820    99063976.93945
  21778354.880   114446046.03608  21778357.500    89178761.63647
  23150581.540   121657133.50906  23150582.960    94797780.81545
  23918678.720   125693506.39105  23918681.680    97943005.00644
  22438101.960   117913024.58008  22438103.740    91880287.76347
  23404557.900   122991824.34107  23404558.740    95837794.85045
  20810395.060   109359380.95808  20810394.860    85215113.09149
  20912955.120   109898378.69508  20912954.620    85635138.48148
  20314617.000   106754057.51709  20314620.700    83185002.61249
  22531574.780   118404251.74507  22531577.940    92263074.80846
 15 02 22 03 22 30.0000000  0 10G01G04G11G14G16G18G19G22G27G32
  24177678.000   127054556.94304  24177683.820    99003582.72541
  21766868.180   114385682.90708  21766870.800    89131725.44247
  23134714.500   121573752.18906  23134716.040    94732808.39145
  23904972.920   125621483.76205  23904976.200    97886883.50044
  22455858.940   118006337.83708  22455860.600    91952999.35947
  23420213.340   123074094.14107  23420214.200    95901901.18845
  20802910.580   109320049.71408  20802910.340    85184465.37249
  20919980.920   109935299.39508  20919980.420    85663907.85949
  20316141.720   106762070.03509  20316145.460    83191246.13049
  22511680.600   118299706.87907  22511683.720    92181611.31946
 15 02 22 03 23  0.0000000  0 10G01G04G11G14G16G18G19G22G27G32
  24162950.520   126977163.89204  24162956.340    98943276.48045
  21755423.960   114325542.98408  21755426.540    89084863.19047
  23118867.200   121490474.59406  23118868.840    94667916.77945
  23891300.340   125549634.82305  23891303.660    97830897.34245
  22473668.300   118099926.52908  22473669.880    92025925.59247
  23435906.560   123156562.98207  23435907.600    95966162.60645
  20795486.100   109281033.66608  20795485.900    85154063.26349
  20927093.060   109972673.46208  20927092.500    85693030.51348
  20317745.540   106770498.21309  20317749.300    83197813.54049
  22491840.480   118195445.64608  22491843.480    92100368.84546
 15 02 22 03 23 30.0000000  0 10G01G04G11G14G16G18G19G22G27G32
  24148244.180   126899882.04204  24148250.000    98883056.85244
  21744021.900   114265624.71208  21744024.420    89038173.64447
  23103039.440   121407299.39007  23103041.120    94603104.94645
  23877661.260   125477960.91906  23877664.440    97775047.56545
  22491529.120   118193786.53408  22491530.780    92099063.23647
  23451637.000   123239227.42507  23451638.220    96030576.44945
  20788121.540   109242332.42708  20788121.360    85123906.45749
  20934290.760   110010497.30508  20934290.200    85722503.64349
  20319428.300   106779341.07909  20319432.040    83204704.08949
  22472054.540   118091468.72108  22472057.320    92019347.90746
 15 02 22 03 24  0.0000000  0 10G01G04G11G14G16G18G19G22G27G32
  24133558.900   126822711.01104  24133564.860    98822923.65145
  21732661.960   114205927.81908  21732664.460    88991656.60947
  23087231.380   121324227.52907  23087233.040    94538373.66345
  23864056.160   125406464.44006  23864058.920    97719336.06444
  22509440.820   118287914.02008  22509442.680    92172409.31447
  23467404.140   123322084.46807  23467405.540    96095140.37345
  20780817.040   109203947.14608  20780816.900    85093995.85349
  20941573.640   110048768.91908  20941573.080    85752325.68449
  20321190.040   106788599.11209  20321193.780    83211918.13249
  22452323.040   117987778.34208  22452325.680    91938550.24446
 15 02 22 03 24 30.0000000  0 10G01G04G11G14G16G18G19G22G27G32
  24118895.000   126745652.10604  24118901.020    98762877.75144
  21721344.360   114146453.64208  21721346.860    88945313.11347
  23071443.280   121241260.53007  23071444.840    94473724.06745
  23850485.700   125335149.70706  23850488.140    97663766.18345
  22527403.380   118382307.92608  22527405.320    92245962.98747
  23483207.880   123405133.63207  23483209.340    96159854.00746
  20773573.220   109165880.89608  20773573.120    85064333.84949
  20948941.540   110087487.72808  20948941.060    85782496.18948
  20323031.180   106798274.33609  20323034.900    83219457.26249
  22432646.660   117884378.09908  22432649.240    91857978.65946
 15 02 22 03 25  0.0000000  0 10G01G04G11G14G16G18G19G22G27G32
  24104252.740   126668706.33404  24104258.720    98702920.03644
  21710069.380   114087203.19108  21710071.840    88899143.95347
  23055675.420   121158399.91707  23055676.940    94409157.38645
  23836950.440   125264020.47706  23836952.600    97608340.83245
  22545416.400   118476966.26708  22545418.320    92319722.71947
  23499047.880   123488373.54407  23499049.420    96224716.26645
  20766390.580   109128135.96808  20766390.460    85034922.21649
  20956394.460   110126653.20608  20956394.040    85813014.74749
  20324952.080   106808368.56309  20324955.720    83227322.88949
  22413026.060   117781271.51007  22413028.620    91777635.89146
 15 02 22 03 25 30.0000000  0 10G01G04G11G14G16G18G19G22G27G32
  24089632.000   126591873.34904  24089637.940    98643050.21144
  21698836.880   114028176.23608  21698839.340    88853148.93647
  23039927.860   121075645.83607  23039929.280    94344673.70945
  23823450.840   125193079.22406  23823452.940    97553061.97645
  22563479.060   118571885.11708  22563480.880    92393685.43847
  23514923.760   123571801.78807  23514925.160    96289725.28745
  20759269.380   109090713.68108  20759269.220    85005762.00149
  20963931.940   110166262.82508  20963931.520    85843879.39049
  20326952.800   106818882.16309  20326956.380    83235515.30249
  22393461.620   117678460.71407  22393464.300    91697523.60346
 15 02 22 03 26  0.0000000  0 10G01G04G11G14G16G18G19G22G27G32
  24075032.880   126515153.21805  24075038.700    98583268.30145
  21687646.960   113969373.00708  21687649.420    88807328.24847
  23024200.720   120992999.21207  23024202.120    94280273.77445
  23809987.480   125122328.93206  23809989.780    97497931.90546
  22581590.760   118667061.76008  22581592.500    92467849.03247
  23530835.000   123655416.07307  23530836.420    96354879.27445
  20752209.880   109053615.46908  20752209.640    84976854.30749
  20971553.740   110206315.60708  20971553.300    85875089.35249
  20329033.480   106829815.95509  20329037.040    83244035.13949
  22373953.840   117575948.11207  22373956.740    91617643.67646
 15 02 22 03 26 30.0000000  0 10G01G04G11G14G16G18G19G22G27G32
  24060455.000   126438545.25605  24060460.640    98523573.84345
  21676499.460   113910792.72208  21676501.920    88761681.29147
  23008494.080   120910459.83907  23008495.380    94215957.40145
  23796560.780   125051771.94306  23796563.380    97442952.46245
  22599750.860   118762493.51408  22599752.620    92542211.41547
  23546781.280   123739214.11206  23546782.660    96420176.44145
  20745212.200   109016842.24108  20745211.900    84948199.84249
  20979259.420   110246808.91408  20979258.880    85906642.58648
  20331194.120   106841169.97209  20331197.680    83252882.42449
  22354503.240   117473735.45708  22354506.240    91537997.47846
 15 02 22 03 27  0.0000000  0 10G01G04G11G14G16G18G19G22G27G32
  24045898.740   126362051.76404  24045904.360    98463968.52244
  21665394.880   113852437.93108  21665397.340    88716210.03647
  22992808.360   120828030.73207  22992809.640    94151726.96345
  23783171.840   124981413.50306  23783174.760    97388127.71046
  22617959.160   118858179.51007  22617961.060    92616771.91347
  23562762.520   123823195.93206  23562763.860    96485616.81645
  20738277.020   108980397.70108  20738276.740    84919801.50549
  20987049.040   110287743.24909  20987048.340    85938539.47948
  20333435.300   106852947.28109  20333438.860    83262059.54449
  22335110.760   117371827.51008  22335113.780    91458588.71746
 15 02 22 03 27 30.0000000  0 10G01G04G11G14G16G18G19G22G27G32
  24031363.560   126285669.48205  24031369.200    98404449.93743
  21654332.580   113794305.14208  21654335.020    88670911.77447
  22977143.020   120745708.75707  22977144.300    94087580.01745
  23769820.520   124911252.99106  23769823.800    97333457.20345
  22636214.560   118954113.33207  22636216.620    92691525.52547
  23578777.760   123907356.38906  23578779.060    96551196.38945
  20731404.020   108944280.11308  20731403.820    84891657.93649
  20994921.620   110329113.57409  20994920.820    85970776.10148
  20335756.540   106865145.31709  20335760.080    83271564.50749
  22315776.220   117270223.46508  22315779.220    91379416.75646
 15 02 22 03 28  0.0000000  0  9G04G11G14G16G18G19G22G27G32
  21643312.380   113736393.52408  21643314.780    88625785.86347
  22961498.000   120663493.82207  22961499.320    94023516.48245
  23756507.400   124841292.28106  23756510.760    97278942.38145
  22654516.260   119050290.55507  22654518.440    92766468.79747
  23594826.320   123991691.98306  23594827.600    96616912.43645
  20724593.320   108908489.93708  20724593.180    84863769.49149
  21002876.540   110370916.97108  21002875.700    86003350.18348
  20338157.700   106877763.57409  20338161.260    83281396.91749
  22296499.760   117168924.42908  22296502.680    91300482.46946
 15 02 22 03 28 30.0000000  0 10G01G04G11G14G16G18G19G22G27G32
  24002357.420   126133238.68105  24002363.760    98285666.62344
  21632335.960   113678711.85308  21632338.280    88580839.11947
  22945875.180   120581395.27707  22945876.420    93959543.61945
  23743234.580   124771543.01706  23743237.880    97224592.32444
  22672865.520   119146716.61208  22672867.640    92841605.96546
  23610909.340   124076209.05806  23610910.720    96682769.88745
  20717846.880   108873037.23908  20717846.740    84836144.01749
  21010915.200   110413160.44608  21010914.340    86036267.18548
  20340640.620   106890811.50909  20340644.220    83291564.13849
  22277283.440   117067941.68408  22277286.340    91221794.63646
 15 02 22 03 29  0.0000000  0  9G04G11G14G16G18G19G22G27G32
  21621400.440   113621245.14708  21621402.680    88536059.88847
  22930271.700   120499398.57607  22930272.880    93895650.10245
  23729999.740   124701993.15106  23730002.820    97170397.64144
  22691259.140   119243374.88608  22691261.140    92916924.07747
  23627023.660   124160890.63106  23627025.080    96748755.50345
  20711162.160   108837908.61008  20711161.980    84808771.06349
  21019034.240   110455826.85908  21019033.500    86069513.74348
  20343202.580   106904274.76809  20343206.220    83302054.98749
  22258124.840   116967262.50908  22258127.760    91143343.35746
 15 02 22 03 29 30.0000000  0 10G01G04G11G14G16G18G19G22G27G32
  23973437.500   125981264.75005  23973443.660    98167242.13144
  21610509.420   113564012.40408  21610511.620    88491462.95747
  22914691.280   120417523.16107  22914692.460    93831851.09745
  23716807.000   124632664.17006  23716809.800    97116375.05445
  22709699.940   119340280.74908  22709701.780    92992435.11647
  23643172.600   124245753.94106  23643174.100    96814882.76044
  20704543.040   108803124.76008  20704542.820    84781666.76849
  21027237.160   110498933.81508  21027236.500    86103103.58548
  20345847.320   106918173.05509  20345850.960    83312884.81649
  22239028.000   116866908.25008  22239030.960    91065145.24846
 15 02 22 03 30  0.0000000  0  9G04G11G14G16G18G19G22G27G32
  21599660.060   113506998.81908  21599662.280    88447036.80347
  22899131.240   120335755.12707  22899132.440    93768135.76345
  23703653.980   124563544.31806  23703656.620    97062515.45445
  22728184.400   119437416.38308  22728186.160    93068125.19746
  23659352.900   124330781.77007  23659354.400    96881138.20145
  20697986.860   108768671.87208  20697986.600    84754820.36349
  21035520.700   110542464.27208  21035520.100    86137023.42648
  20348572.120   106932491.98909  20348575.760    83324042.42349
  22219990.580   116766866.35308  22219993.540    90987190.55446
 15 02 22 03 30 30.0000000  0 10G01G04G11G14G16G18G19G22G27G32
  23944603.440   125829734.95605  23944608.480    98049165.70344
  21588853.720   113450211.61508  21588856.000    88402787.04147
  22883593.180   120254102.38007  22883594.440    93704510.27345
  23690542.620   124494643.57706  23690545.200    97008826.59445
  22746713.200   119534785.72408  22746715.020    93143997.39347
  23675565.480   124415979.10106  23675567.000    96947525.73245
  20691495.300   108734558.66308  20691495.060    84728238.64549
  21043885.880   110586423.56608  21043885.300    86171277.42548
  20351378.480   106947239.56509  20351382.140    83335534.03549
  22201014.460   116667146.52708  22201017.380    90909486.81546
 15 02 22 03 31  0.0000000  0 10G01G04G11G14G16G18G19G22G27G32
  23930219.080   125754147.42705  23930223.900    97990261.71545
  21578089.680   113393646.85208  21578092.020    88358710.60847
  22868076.340   120172561.40807  22868077.720    93640971.86345
  23677472.680   124425960.77606  23677475.160    96955307.54645
  22765285.080   119632382.07907  22765287.040    93220046.49546
  23691809.200   124501339.91906  23691810.660    97014040.65145
  20685067.980   108700782.75008  20685067.720    84701919.75449
  21052331.560   110630805.93008  21052330.980    86205861.08748
  20354265.720   106962412.25309  20354269.380    83347356.90649
  22182099.400   116567747.00808  22182102.180    90832032.68046
 15 02 22 03 31 30.0000000  0 10G01G04G11G14G16G18G19G22G27G32
  23915855.460   125678670.89005  23915861.400    97931451.85745
  21567369.160   113337310.59408  21567371.520    88314812.23947
  22852582.020   120091138.64607  22852583.460    93577525.56545
  23664445.940   124357505.19206  23664448.400    96901965.56345
  22783900.720   119730208.87907  22783902.860    93296275.15446
  23708084.680   124586868.01006  23708086.180    97080685.90845
  20678706.300   108667351.68509  20678706.000    84675869.58049
  21060858.560   110675615.64308  21060857.960    86240777.75148
  20357235.180   106978016.80809  20357238.780    83359516.30049
  22163246.880   116468676.18708  22163249.600    90754834.67046
 15 02 22 03 32  0.0000000  0 10G01G04G11G14G16G18G19G22G27G32
  23901513.960   125603305.43605  23901519.940    97872725.57246
  21556691.100   113281197.33308  21556693.480    88271087.62247
  22837109.280   120009829.18507  22837110.700    93514167.56646
  23651461.800   124289273.55406  23651464.240    96848798.08445
  22802558.600   119828257.02907  22802560.760    93372676.28946
  23724390.500   124672555.68806  23724391.960    97147455.50745
  20672409.420   108634261.15009  20672409.100    84650084.74549
  21069465.420   110720845.06908  21069464.800    86276021.46348
  20360285.840   106994048.03209  20360289.420    83372008.15849
  22144456.180   116369930.65208  22144458.960    90677890.12247
 15 02 22 03 32 30.0000000  0 10G01G04G11G14G16G18G19G22G27G32
  23887193.700   125528051.87805  23887199.660    97814086.50444
  21546055.680   113225307.72608  21546058.020    88227537.29647
  22821658.460   119928634.34907  22821659.860    93450898.89646
  23638520.960   124221269.39606  23638523.500    96795807.85145
  22821258.280   119926524.17407  22821260.280    93449248.07246
  23740726.420   124758401.70806  23740727.900    97214348.49545
  20666177.740   108601513.39008  20666177.420    84624567.01249
  21078151.920   110766492.88708  21078151.240    86311591.19848
  20363417.960   107010507.16309  20363421.480    83384833.45149
  22125727.920   116271513.33808  22125730.820    90601201.34347
 15 02 22 03 33  0.0000000  0 10G01G04G11G14G16G18G19G22G27G32
  23872895.060   125452911.85705  23872900.920    97755535.86146
  21535463.160   113169643.49008  21535465.480    88184162.58347
  22806229.900   119847556.45407  22806231.340    93387721.33145
  23625624.420   124153497.79406  23625626.940    96742998.83445
  22839999.600   120025009.33008  22840001.360    93525989.72946
  23757092.460   124844405.78406  23757093.880    97281364.66144
  20660011.860   108569111.49809  20660011.540    84599318.78549
  21086918.080   110812559.18808  21086917.340    86347487.02348
  20366631.960   107027396.67609  20366635.440    83397994.10349
  22107062.900   116173428.54008  22107065.900    90524771.64647
 15 02 22 03 33 30.0000000  0 10G01G04G11G14G16G18G19G22G27G32
  23858617.820   125377884.62505  23858623.680    97697073.12845
  21524913.440   113114204.10308  21524915.740    88140963.07747
  22790823.560   119766595.48607  22790825.020    93324634.87945
  23612772.460   124085960.44306  23612775.040    96690372.32745
  22858781.700   120123708.64108  22858783.260    93602898.25746
  23773488.020   124930564.97006  23773489.360    97348501.67545
  20653911.960   108537056.33109  20653911.660    84574340.73649
  21095763.380   110859041.45308  21095762.600    86383706.97648
  20369927.760   107044716.27409  20369931.240    83411489.89449
  22088461.440   116075677.70008  22088464.520    90448602.18747
 15 02 22 03 34  0.0000000  0 10G01G04G11G14G16G18G19G22G27G32
  23844362.240   125302971.31705  23844368.200    97638699.13045
  21514406.700   113058990.59408  21514409.000    88097939.57847
  22775439.820   119685753.20207  22775441.260    93261640.91645
  23599965.800   124018661.32206  23599968.480    96637931.47345
  22877603.980   120222619.85208  22877605.520    93679971.90946
  23789912.940   125016878.19506  23789914.180    97415758.71245
  20647878.520   108505350.44308  20647878.240    84549634.85949
  21104687.580   110905938.45908  21104686.800    86420250.10248
  20373305.720   107062467.70309  20373309.240    83425322.16949
  22069924.260   115978264.33508  22069927.380    90372695.68946
 15 02 22 03 34 30.0000000  0 10G01G04G11G14G16G18G19G22G27G32
  23830128.160   125228170.75905  23830134.160    97580413.01345
  21503942.720   113004001.91308  21503945.040    88055091.26947
  22760078.720   119605029.57507  22760080.000    93198739.40345
  23587204.840   123951602.15106  23587207.560    96585677.61545
  22896465.860   120321739.93607  22896467.520    93757208.31846
  23806366.500   125103342.35706  23806367.740    97483133.39245
  20641911.600   108473994.09509  20641911.320    84525201.34049
  21113690.180   110953247.45208  21113689.420    86457114.26048
  20376765.740   107080650.34109  20376769.280    83439490.45949
  22051451.580   115881189.54908  22051454.620    90297053.02647
 15 02 22 03 35  0.0000000  0 10G01G04G11G14G16G18G19G22G27G32
  23815915.740   125153483.90605  23815921.640    97522215.50945
  21493521.740   112949239.19408  21493524.060    88012419.03547
  22744740.400   119524425.76007  22744741.600    93135931.24445
  23574490.360   123884787.01506  23574493.000    96533613.88745
  22915366.820   120421066.48607  22915368.840    93834605.62846
  23822848.600   125189956.49006  23822849.880    97550624.92244
  20636011.740   108442989.98009  20636011.440    84501042.29749
  21122770.960   111000967.46208  21122770.240    86494298.68848
  20380308.120   107099265.75209  20380311.680    83453995.97449
  22033043.980   115784456.61108  22033046.860    90221676.74346
 15 02 22 03 35 30.0000000  0 10G01G04G11G14G16G18G19G22G27G32
  23801724.780   125078909.80805  23801730.520    97464105.84944
  21483143.560   112894701.49008  21483145.920    87969922.14147
  22729424.820   119443941.77607  22729425.980    93073216.46346
  23561822.740   123818217.69506  23561825.240    96481741.69545
  22934306.280   120520595.76807  22934308.660    93912160.90246
  23839358.680   125276717.48106  23839359.960    97618230.87745
  20630178.960   108412338.28509  20630178.660    84477157.86249
  21131929.440   111049095.60708  21131928.760    86531801.14448
  20383932.760   107118313.44009  20383936.320    83468838.32449
  22014701.700   115688066.88508  22014704.380    90146567.89947
 15 02 22 03 36  0.0000000  0 10G01G04G11G14G16G18G19G22G27G32
  23787555.380   125004449.62405  23787561.060    97406084.96444
  21472808.440   112840390.17608  21472810.840    87927601.64047
  22714132.360   119363579.47707  22714133.520    93010596.51246
  23549202.700   123751898.06206  23549204.940    96430064.06645
  22953284.080   120620325.67107  22953286.620    93989872.49246
  23855896.580   125363624.75506  23855897.900    97685950.82944
  20624413.760   108382041.98909  20624413.440    84453550.36049
  21141165.540   111097631.31708  21141164.840    86569621.18448
  20387640.060   107137795.16509  20387643.580    83484018.88549
  21996425.320   115592023.83108  21996427.900    90071729.18647
 15 02 22 03 36 30.0000000  0 10G01G04G11G14G16G18G19G22G27G32
  23773407.540   124930102.47505  23773413.080    97348152.17244
  21462516.240   112786304.35508  21462518.660    87885456.86547
  22698862.960   119283338.63007  22698864.120    92948071.18745
  23536630.520   123685830.10606  23536632.580    96378582.55645
  22972299.520   120720252.14607  22972301.920    94067737.25946
  23872461.720   125450675.30906  23872463.160    97753782.40845
  20618716.260   108352101.64009  20618715.920    84430220.22249
  21150478.580   111146571.57308  21150477.900    86607756.45348
  20391429.880   107157710.58809  20391433.400    83499537.39349
  21978215.120   115496328.94108  21978217.720    89997161.77046
 15 02 22 03 37  0.0000000  0 10G01G04G11G14G16G18G19G22G27G32
  23759281.280   124855868.59305  23759286.700    97290307.64244
  21452267.040   112732444.41608  21452269.460    87843488.09047
  22683616.800   119203220.12007  22683618.000    92885641.19445
  23524106.680   123620016.85606  23524108.760    96327299.53945
  22991352.160   120820373.03707  22991354.240    94145753.52446
  23889053.780   125537867.03006  23889055.220    97821724.01244
  20613086.860   108322518.92209  20613086.500    84407168.75849
  21159868.300   111195914.81908  21159867.640    86646205.73748
  20395302.320   107178060.38209  20395305.860    83515394.36549
  21960071.620   115400984.61008  21960074.280    89922867.50947
 15 02 22 03 37 30.0000000  0 10G01G04G11G14G16G18G19G22G27G32
  23745176.660   124781748.07605  23745181.900    97232551.44644
  21442060.820   112678810.53408  21442063.260    87801695.47148
  22668394.080   119123225.01907  22668395.340    92823307.35545
  23511631.920   123554461.61806  23511634.140    96276217.57646
  23010441.340   120920685.64907  23010443.000    94223919.16946
  23905672.280   125625198.30006  23905673.840    97889774.34345
  20607525.800   108293295.36308  20607525.420    84384397.15749
  21169334.380   111245659.36008  21169333.740    86684967.72248
  20399257.500   107198845.21709  20399261.060    83531590.33949
  21941995.300   115305993.27808  21941998.060    89848848.31347
 15 02 22 03 38  0.0000000  0 10G01G04G11G14G16G18G19G22G27G32
  23731093.580   124707740.93005  23731098.660    97174883.59445
  21431897.640   112625402.77508  21431900.100    87760079.05447
  22653194.980   119043353.90907  22653196.320    92761070.14345
  23499206.700   123489166.98806  23499209.020    96225338.64645
  23029566.340   121021186.63107  23029567.720    94302231.59446
  23922316.980   125712667.05406  23922318.580    97957931.80845
  20602033.340   108264432.34809  20602032.940    84361906.50149
  21178876.380   111295803.05808  21178875.800    86724040.73548
  20403295.500   107220065.53809  20403299.140    83548125.64749
  21923986.640   115211357.21008  21923989.480    89775105.94147
 15 02 22 03 38 30.0000000  0 10G01G04G11G14G16G18G19G22G27G32
  23717032.220   124633847.67705  23717037.260    97117304.47544
  21421777.640   112572221.74008  21421780.060    87718639.29947
  22638019.720   118963607.97007  22638021.140    92698930.47145
  23486831.700   123424136.43406  23486834.100    96174665.49744
  23048726.520   121121873.43707  23048727.860    94380688.82746
  23938987.500   125800271.78506  23938989.140    98026195.20245
  20596609.920   108235932.14409  20596609.520    84339698.55649
  21188494.100   111346344.58908  21188493.560    86763423.75048
  20407416.560   107241722.37009  20407420.280    83565001.09649
  21906046.180   115117079.32208  21906049.040    89701642.68047
 15 02 22 03 39  0.0000000  0 10G01G04G11G14G16G18G19G22G27G32
  23702992.420   124560068.16205  23702997.580    97059813.98845
  21411700.780   112519267.54908  21411703.200    87677376.31147
  22622868.480   118883987.85807  22622869.940    92636888.83145
  23474507.500   123359372.70206  23474509.900    96124200.27345
  23067921.260   121222742.84907  23067922.800    94459288.35346
  23955683.640   125888010.60606  23955685.340    98094563.12945
  20591255.740   108207795.89908  20591255.360    84317774.21349
  21198187.120   111397281.84208  21198186.580    86803115.11648
  20411620.780   107263816.00809  20411624.520    83582216.91249
  21888174.220   115023161.53808  21888177.120    89628460.01847
 15 02 22 03 39 30.0000000  0 10G01G04G11G14G16G18G19G22G27G32
  23688974.000   124486401.44305  23688979.400    97002411.39146
  21401666.840   112466539.01508  21401669.260    87636289.16247
  22607741.280   118804493.37407  22607742.720    92574945.09545
  23462234.520   123294877.60906  23462236.840    96073944.37845
  23087150.000   121323791.49307  23087151.840    94538027.54146
  23972404.760   125975880.49306  23972406.520    98163033.16045
  20585970.940   108180024.07709  20585970.560    84296133.84049
  21207954.900   111448611.95108  21207954.340    86843112.61048
  20415908.080   107286345.89009  20415911.780    83599772.66049
  21870370.980   114929605.22008  21870373.920    89555559.01347
 15 02 22 03 40  0.0000000  0 10G01G04G11G14G16G18G19G22G27G32
  23674977.180   124412848.47205  23674982.800    96945097.40845
  21391676.100   112414037.45808  21391678.520    87595378.87348
  22592638.360   118725126.39707  22592639.680    92513100.71445
  23450013.380   123230654.82506  23450015.700    96023900.65845
  23106412.520   121425017.65707  23106414.620    94616905.05946
  23989150.600   126063880.24006  23989152.320    98231604.36745
  20580755.960   108152619.13509  20580755.580    84274779.34649
  21217797.240   111500333.74708  21217796.620    86883415.31248
  20420278.720   107309313.46409  20420282.360    83617669.46549
  21852637.060   114836413.48208  21852640.060    89482942.10247
 15 02 22 03 40 30.0000000  0 10G01G04G11G14G16G18G19G22G27G32
  23661001.960   124339409.29905  23661007.820    96887872.12345
  21381728.540   112361762.84808  21381730.980    87554645.42747
  22577559.900   118645887.87707  22577561.080    92451356.42946
  23437844.500   123166706.98206  23437846.840    95974071.18645
  23125708.340   121526418.14607  23125710.560    94695918.41346
  24005920.920   126152008.40606  24005922.420    98300275.67644
  20575611.140   108125582.73709  20575610.680    84253712.02949
  21227713.780   111552445.40108  21227713.120    86924021.80248
  20424732.740   107332719.19509  20424736.340    83635907.69449
  21834973.000   114743588.64308  21834976.000    89410611.08747
 15 02 22 03 41  0.0000000  0 10G01G04G11G14G16G18G19G22G27G32
  23647048.280   124266082.72005  23647054.260    96830734.55046
  21371823.980   112309714.09708  21371826.420    87514087.97348
  22562505.720   118566777.04908  22562506.760    92389711.64146
  23425728.300   123103036.37306  23425730.740    95924457.74345
  23145036.600   121627988.50707  23145038.720    94775064.13646
  24022714.960   126240261.05406  24022716.200    98369043.94644
  20570536.440   108098915.01109  20570535.980    84232931.98749
  21237703.880   111604943.81208  21237703.240    86964929.65748
  20429269.980   107356562.30509  20429273.540    83654486.73349
  21817379.040   114651131.76708  21817381.980    89338566.79347
 15 02 22 03 41 30.0000000  0 10G01G04G11G14G16G18G19G22G27G32
  23633116.340   124192870.15205  23633122.380    96773685.82846
  21361962.760   112257892.95508  21361965.180    87473707.87647
  22547476.200   118487796.03408  22547477.120    92328168.01345
  23413665.660   123039646.61106  23413668.040    95875063.14446
  23164397.020   121729727.50707  23164398.920    94854341.24046
  24039532.600   126328638.08606  24039533.660    98437909.16244
  20565532.460   108072618.99009  20565532.020    84212441.58349
  21247767.420   111657828.20908  21247766.780    87006138.28048
  20433890.760   107380844.54209  20433894.300    83673407.94849
  21799855.780   114559046.39908  21799858.700    89266811.98547
 15 02 22 03 42  0.0000000  0 10G01G04G11G14G16G18G19G22G27G32
  23619205.900   124119770.53005  23619211.920    96716725.11746
  21352144.620   112206298.27308  21352147.020    87433504.24047
  22532471.360   118408944.92008  22532472.280    92266725.62145
  23401656.860   122976539.86806  23401659.180    95825889.07545
  23183788.680   121831631.08907  23183790.460    94933746.60346
  24056373.300   126417136.43306  24056374.220    98506868.89944
  20560599.200   108046694.74609  20560598.800    84192240.88049
  21257903.860   111711095.76508  21257903.260    87047645.46748
  20438594.940   107405565.33509  20438598.500    83692670.90449
  21782403.500   114467333.78808  21782406.360    89195347.63947
 15 02 22 03 42 30.0000000  0 10G01G04G11G14G16G18G19G22G27G32
  23605317.260   124046784.60905  23605323.180    96659853.02246
  21342369.780   112154931.10308  21342372.180    87393477.89247
  22517491.420   118330224.98508  22517492.360    92205385.42946
  23389702.600   122913719.67407  23389704.880    95776938.28846
  23203211.180   121933696.92607  23203212.860    95013278.39545
  24073236.800   126505754.78106  24073237.620    98575922.16144
  20555737.140   108021144.54609  20555736.760    84172331.63549
  21268113.020   111764745.39508  21268112.460    87089450.37948
  20443382.800   107430725.74309  20443386.380    83712276.41149
  21765022.680   114375996.73908  21765025.520    89124175.92747
 15 02 22 03 43  0.0000000  0 10G01G04G11G14G16G18G19G22G27G32
  23591450.320   123973912.63805  23591456.060    96603069.70045
  21332638.220   112103791.53108  21332640.620    87353628.88747
  22502536.640   118251637.38508  22502537.680    92144148.37546
  23377803.380   122851188.72207  23377805.620    95728212.88546
  23222664.040   122035922.43807  23222665.580    95092934.61946
  24090122.880   126594491.68106  24090123.700    98645067.78944
  20550946.640   107995970.35109  20550946.280    84152715.38549
  21278394.560   111818775.30408  21278394.000    87131551.60948
  20448254.420   107456326.38609  20448258.060    83732224.96049
  21747713.740   114285037.66908  21747716.620    89053298.75547
 15 02 22 03 43 30.0000000  0 10G01G04G11G14G16G18G19G22G27G32
  23577605.020   123901154.60406  23577610.620    96546375.17445
  21322950.000   112052879.67208  21322952.400    87313957.32447
  22487607.160   118173182.93307  22487608.300    92083015.05446
  23365959.740   122788950.03606  23365961.900    95679715.22345
  23242146.620   122138304.50707  23242148.200    95172712.82845
  24107031.160   126683345.16606  24107031.900    98714304.28944
  20546227.920   107971173.28109  20546227.540    84133392.99549
  21288748.020   111873183.18008  21288747.500    87173947.35948
  20453209.860   107482367.55209  20453213.540    83752516.77349
  21730477.120   114194458.80108  21730480.040    88982717.83747
 15 02 22 03 44  0.0000000  0 10G01G04G11G14G16G18G19G22G27G32
  23563781.120   123828509.17705  23563786.460    96489768.39345
  21313304.900   112002194.35608  21313307.280    87274462.28647
  22472702.940   118094861.03307  22472704.140    92021985.02846
  23354172.040   122727005.01106  23354174.080    95631446.39046
  23261658.320   122240839.46107  23261660.000    95252610.17946
  24123961.000   126772311.81006  24123961.880    98783628.92745
  20541580.980   107946753.38909  20541580.580    84114364.50849
  21299172.740   111927965.80608  21299172.300    87216635.11548
  20458248.920   107508848.26409  20458252.660    83773151.08649
  21713313.020   114104260.79708  21713315.880    88912433.70247
 15 02 22 03 44 30.0000000  0 10G01G04G11G14G16G18G19G22G27G32
  23549978.920   123755978.69405  23549984.300    96433251.16644
  21303703.340   111951738.02008  21303705.740    87235145.67348
  22457824.480   118016674.72607  22457825.720    91961060.66645
  23342441.160   122665358.66806  23342443.080    95583410.29745
  23281199.000   122343526.40107  23281200.760    95332625.95646
  24140912.460   126861391.91606  24140913.320    98853041.98244
  20537006.580   107922714.62609  20537006.160    84095633.00849
  21309668.880   111983123.62708  21309668.500    87259615.23848
  20463372.200   107535771.11109  20463375.940    83794129.92649
  21696222.240   114014448.18708  21696225.020    88842449.87947
 15 02 22 03 45  0.0000000  0 10G01G04G11G14G16G18G19G22G27G32
  23536198.300   123683561.45505  23536203.660    96376822.21045
  21294145.040   111901508.99108  21294147.480    87196006.18047
  22442971.660   117938623.28107  22442973.020    91900241.37946
  23330767.200   122604012.06407  23330769.080    95535607.77145
  23300767.740   122446360.60307  23300769.600    95412756.47846
  24157884.860   126950582.21706  24157885.700    98922540.91445
  20532504.620   107899056.78409  20532504.240    84077198.32949
  21320235.740   112038652.86208  21320235.380    87302884.77348
  20468579.360   107563134.83509  20468583.100    83815452.30249
  21679204.940   113925021.60608  21679207.620    88772766.86147
 15 02 22 03 45 30.0000000  0 10G01G04G11G14G16G18G19G22G27G32
  23522439.360   123611258.41505  23522444.800    96320482.21546
  21284630.200   111851508.41908  21284632.640    87157044.70847
  22428144.820   117860708.40207  22428146.340    91839528.51545
  23319151.060   122542968.95707  23319152.900    95488041.72845
  23320364.140   122549340.27307  23320366.120    95493000.35446
  24174877.980   127039881.44206  24174878.700    98992124.72944
  20528075.580   107875782.09309  20528075.220    84059062.20649
  21330873.120   112094552.42708  21330872.700    87346442.87148
  20473870.700   107590940.54209  20473874.380    83837119.08049
  21662261.640   113835983.92908  21662264.200    88703386.88047
 15 02 22 03 46  0.0000000  0 10G01G04G11G14G16G18G19G22G27G32
  23508702.260   123539070.07105  23508707.900    96264231.59345
  21275159.020   111801736.99808  21275161.440    87118261.79948
  22413344.260   117782931.45507  22413345.840    91778923.12446
  23307593.300   122482232.67406  23307595.100    95440714.78146
  23339987.740   122652462.94707  23339989.860    95573355.66646
  24191891.460   127129288.16206  24191892.180    99061792.29944
  20523719.860   107852892.37809  20523719.460    84041226.06649
  21341580.680   112150820.85608  21341580.180    87390288.40248
  20479246.360   107619189.07209  20479249.920    83859130.91849
  21645392.840   113747337.84208  21645395.320    88634312.04447
 15 02 22 03 46 30.0000000  0 10G01G04G11G14G16G18G19G22G27G32
  23494986.660   123466994.46206  23494992.420    96208068.82145
  21265731.080   111752192.61208  21265733.440    87079655.79648
  22398569.760   117705291.31407  22398571.380    91718424.32846
  23296094.040   122421804.03506  23296095.880    95393627.54545
  23359637.600   122755723.48007  23359639.780    95653818.40946
  24208924.660   127218798.70505  24208925.600    99131540.76045
  20519437.300   107830387.15209  20519436.860    84023689.52749
  21352357.640   112207453.93908  21352357.060    87434418.07848
  20484705.880   107647878.68509  20484709.400    83881486.45749
  21628598.520   113659083.32908  21628601.000    88565542.32047
 15 02 22 03 47  0.0000000  0 10G01G04G11G14G16G18G19G22G27G32
  23481292.720   123395032.23206  23481298.500    96151994.40446
  21256346.500   111702876.22808  21256348.840    87041227.45747
  22383821.620   117627789.58107  22383823.260    91658033.37546
  23284653.880   122361686.29806  23284655.840    95346782.57345
  23379313.340   122859119.69507  23379315.520    95734386.86646
  24225977.220   127308368.65606  24225979.020    99201345.03945
  20515228.340   107808268.71109  20515227.860    84006454.37549
  21363203.760   112264450.34308  21363203.100    87478830.86248
  20490249.500   107677010.29209  20490252.980    83904186.40849
  21611879.260   113571223.26608  21611881.800    88497079.95047
 15 02 22 03 47 30.0000000  0 10G01G04G11G14G16G18G19G22G27G32
  23467620.120   123323182.52306  23467626.000    96096007.63445
  21247005.160   111653787.01508  21247007.460    87002976.13947
  22369099.820   117550426.01307  22369101.480    91597750.09346
  23273273.140   122301881.26706  23273275.340    95300181.25846
  23399014.220   122962648.10307  23399016.340    95815058.32046
  24243049.220   127398081.59906  24243050.740    99271251.23545
  20511093.020   107786537.55709  20511092.560    83989521.01549
  21374118.500   112321807.45308  21374117.800    87523524.71448
  20495877.060   107706583.34109  20495880.560    83927230.33849
  21595235.260   113483758.82908  21595237.920    88428925.86347
 15 02 22 03 48  0.0000000  0 10G01G04G11G14G16G18G19G22G27G32
  23453969.340   123251446.95906  23453975.200    96040109.82046
  21237707.360   111604926.83608  21237709.660    86964903.28648
  22354404.800   117473203.03807  22354406.400    91537576.37146
  23261952.860   122242393.37506  23261955.220    95253827.07946
  23418739.940   123066307.12507  23418741.920    95895831.55946
  24260140.140   127487894.08606  24260141.580    99341234.97544
  20507031.860   107765196.23309  20507031.460    83972891.41849
  21385101.740   112379524.59508  21385101.000    87568499.11648
  20501588.920   107736599.57309  20501592.460    83950619.60649
  21578667.240   113396693.65608  21578670.040    88361082.89247
 15 02 22 03 48 30.0000000  0 10G01G04G11G14G16G18G19G22G27G32
  23440340.200   123179825.23706  23440346.060    95984300.70946
  21228453.020   111556295.35008  21228455.380    86927008.64348
  22339736.680   117396121.40807  22339738.220    91477512.79246
  23250693.460   122183225.11207  23250695.940    95207721.94445
  23438489.840   123170093.14807  23438491.620    95976703.75246
  24277249.580   127577803.93106  24277250.740    99411294.59444
  20503045.140   107744246.03809  20503044.760    83956566.58949
  21396153.060   112437599.68108  21396152.320    87613752.42648
  20507385.100   107767058.87209  20507388.700    83974354.12149
  21562175.600   113310029.47408  21562178.460    88293552.37347
 15 02 22 03 49  0.0000000  0 10G01G04G11G14G16G18G19G22G27G32
  23426732.600   123108316.75906  23426738.440    95928579.84147
  21219242.120   111507892.05208  21219244.540    86889291.80148
  22325095.540   117319181.38007  22325097.020    91417559.53846
  23239495.340   122124378.64507  23239498.020    95161867.57845
  23458263.360   123274003.37107  23458264.920    96057672.72445
  24294377.000   127667808.30206  24294378.000    99481427.85844
  20499132.980   107723687.64609  20499132.640    83940547.06649
  21407271.940   112496029.75608  21407271.200    87659282.35548
  20513265.500   107797960.87509  20513269.160    83998433.59749
  21545760.600   113223767.77308  21545763.440    88226335.48547
 15 02 22 03 49 30.0000000  0 10G01G04G11G14G16G18G19G22G27G32
  23413146.880   123036923.04006  23413152.600    95872948.38445
  21210075.000   111459718.57908  21210077.440    86851754.04248
  22310481.720   117242385.10907  22310483.160    91357718.30446
  23228359.260   122065857.82307  23228361.920    95116266.95045
  23478060.200   123378036.38107  23478061.620    96138737.36845
  24311522.200   127757907.12606  24311523.200    99551634.71944
  20495295.920   107703523.95609  20495295.640    83924835.10049
  21418458.360   112554814.52708  21418457.600    87705088.67448
  20519230.500   107829307.21409  20519234.180    84022859.31149
  21529422.860   113137912.05408  21529425.660    88159434.95447
 15 02 22 03 50  0.0000000  0 10G01G04G11G14G16G18G19G22G27G32
  23399582.820   122965643.51506  23399588.420    95817405.91445
  21200951.540   111411774.59408  21200953.980    86814395.11448
  22295895.380   117165733.13008  22295896.780    91297989.50646
  23217285.660   122007665.26907  23217288.260    95070922.11846
  23497879.620   123482188.60607  23497881.060    96219894.92045
  24328684.900   127848098.19106  24328686.000    99621913.47944
  20491534.140   107683755.88209  20491533.880    83909431.40849
  21429711.700   112613951.07808  21429710.920    87751169.10548
  20525279.980   107861097.53009  20525283.680    84047630.98049
  21513162.620   113052463.83208  21513165.380    88092851.94847
 15 02 22 03 50 30.0000000  0 10G01G04G11G14G16G18G19G22G27G32
  23386040.440   122894477.99906  23386045.980    95761952.28946
  21191871.700   111364059.91008  21191874.160    86777214.85048
  22281336.620   117089226.15708  22281338.000    91238373.69146
  23206274.860   121949803.06107  23206277.360    95025834.70445
  23517721.140   123586456.94407  23517722.620    96301142.94245
  24345864.800   127938379.38706  24345865.820    99692262.46843
  20487847.940   107664384.69909  20487847.680    83894336.98649
  21441031.520   112673437.27608  21441030.760    87797521.98548
  20531413.960   107893331.80209  20531417.680    84072748.59149
  21496980.200   112967424.84608  21496982.940    88026587.82847
 15 02 22 03 51  0.0000000  0 10G01G04G11G14G16G18G19G22G27G32
  23372519.660   122823426.44306  23372525.280    95706587.46546
  21182835.500   111316574.56108  21182837.960    86740213.29848
  22266805.640   117012865.13708  22266807.020    91178871.62646
  23195327.380   121892273.73907  23195329.700    94981006.69245
  23537584.180   123690838.13607  23537585.860    96382478.92644
  24363061.340   128028748.69005  24363062.400    99762680.10844
  20484237.480   107645411.54609  20484237.220    83879552.71149
  21452417.400   112733271.06708  21452416.740    87844145.71448
  20537632.420   107926010.05109  20537636.180    84098212.16149
  21480875.980   112882797.02708  21480878.760    87960644.10247
 15 02 22 03 51 30.0000000  0 10G01G04G11G14G16G18G19G22G27G32
  23359020.440   122752488.09106  23359026.100    95651310.85045
  21173842.840   111269317.77908  21173845.260    86703389.84648
  22252302.380   116936649.90908  22252303.740    91119483.15346
  23184443.700   121835079.50107  23184445.820    94936439.77046
  23557468.060   123795328.52607  23557469.860    96463899.99746
  24380274.160   128119203.29005  24380275.200    99833164.21044
  20480702.880   107626836.98009  20480702.580    83865079.02549
  21463868.920   112793449.63208  21463868.340    87891038.10448
  20543935.280   107959131.61709  20543939.020    84124021.16649
  21464850.220   112798581.51508  21464853.060    87895021.64147
 15 02 22 03 52  0.0000000  0 10G01G04G11G14G16G18G19G22G27G32
  23345542.960   122681664.00506  23345548.600    95596123.29945
  21164894.000   111222291.00808  21164896.360    86666745.62748
  22237827.240   116860582.39608  22237828.520    91060209.77646
  23173624.540   121778224.11407  23173626.440    94892136.88745
  23577372.440   123899926.49107  23577374.460    96545404.87445
  24397503.100   128209742.58505  24397504.240    99903714.32444
  20477244.580   107608663.32509  20477244.220    83850917.73749
  21475385.860   112853971.68308  21475385.300    87938198.14048
  20550322.720   107992697.69409  20550326.420    84150176.54449
  21448903.520   112714781.35908  21448906.400    87829722.84347
 15 02 22 03 52 30.0000000  0 10G01G04G11G14G16G18G19G22G27G32
  23332087.060   122610953.09906  23332092.700    95541023.93745
  21155988.660   111175493.07808  21155991.000    86630279.72048
  22223380.180   116784662.55708  22223381.420    91001051.47946
  23162870.080   121721708.74607  23162871.840    94848098.95645
  23597296.500   124004627.96807  23597298.600    96626990.41645
  24414747.640   128300363.75305  24414748.880    99974328.18345
  20473862.620   107590890.82409  20473862.220    83837069.03749
  21486967.680   112914834.37208  21486967.100    87985623.61448
  20556794.540   108026707.24809  20556798.240    84176677.48549
  21433036.060   112631397.43108  21433038.940    87764748.37048
 15 02 22 03 53  0.0000000  0 10G01G04G11G14G16G18G19G22G27G32
  23318652.940   122540356.67406  23318658.640    95486013.78946
  21147127.140   111128925.53908  21147129.500    86593993.34548
  22208961.560   116708892.46608  22208962.820    90942009.85546
  23152181.140   121665537.47207  23152182.780    94804329.14545
  23617239.980   124109431.18707  23617242.100    96708655.23745
  24432007.600   128391065.94705  24432009.000   100045005.23744
  20470557.520   107573522.48009  20470557.140    83823535.26349
  21498614.140   112976036.64608  21498613.540    88033313.69348
  20563351.020   108061161.69109  20563354.700    84203525.09749
  21417248.440   112548432.91208  21417251.260    87700100.70747
 15 02 22 03 53 30.0000000  0 10G01G04G11G14G16G18G19G22G27G32
  23305240.400   122469873.16406  23305246.080    95431091.61046
  21138309.180   111082586.92308  21138311.540    86557885.34848
  22194571.320   116633271.52508  22194572.640    90883084.45746
  23141557.840   121609711.55407  23141559.600    94760828.45046
  23637202.040   124214331.85307  23637204.100    96790395.97545
  24449282.480   128481846.04305  24449283.900   100115742.95843
  20467329.220   107556557.50709  20467328.800    83810315.80349
  21510324.500   113037574.90308  21510323.880    88081265.58048
  20569991.820   108096059.51709  20569995.500    84230718.20049
  21401540.680   112465888.23908  21401543.480    87635780.20147
 15 02 22 03 54  0.0000000  0 10G01G04G11G14G16G18G19G22G27G32
  23291849.580   122399503.78506  23291855.240    95376258.36746
  21129535.040   111036478.62408  21129537.380    86521956.81848
  22180209.880   116557801.86108  22180211.200    90824276.94346
  23131000.820   121554234.53607  23131002.920    94717599.61746
  23657182.320   124319328.51007  23657184.300    96872211.51946
  24466572.140   128572703.56505  24466573.500   100186541.00544
  20464178.120   107539998.44609  20464177.720    83797412.63949
  21522098.700   113099448.65008  21522098.060    88129478.88748
  20576717.240   108131401.90609  20576720.940    84258257.71449
  21385913.420   112383766.46708  21385916.180    87571789.23147
 15 02 22 03 54 30.0000000  0 10G01G04G11G14G16G18G19G22G27G32
  23278480.560   122329248.93006  23278486.140    95321514.35746
  21120804.800   110990601.03708  21120807.120    86486208.06048
  22165877.480   116482484.58008  22165878.780    90765588.16546
  23120510.820   121499109.49007  23120513.160    94674645.05046
  23677180.320   124424418.54607  23677182.200    96954099.82645
  24483876.180   128663636.79605  24483877.600   100257398.05544
  20461104.620   107523847.19709  20461104.260    83784827.25049
  21533936.280   113161655.63608  21533935.680    88177951.86048
  20583527.340   108167189.33109  20583531.060    84286144.01049
  21370367.040   112302069.83408  21370369.780    87508129.53947
 15 02 22 03 55  0.0000000  0 10G01G04G11G14G16G18G19G22G27G32
  23265133.020   122259106.87606  23265138.560    95266858.24646
  21112118.160   110944952.54908  21112120.480    86450637.82148
  22151573.940   116407318.97608  22151575.240    90707017.57946
  23110088.000   121444337.33507  23110090.480    94631965.46345
  23697195.020   124529596.78306  23697196.920    97036056.86545
  24501194.100   128754642.23405  24501195.440   100328311.38845
  20458108.640   107508103.22409  20458108.260    83772559.22349
  21545836.600   113224192.30108  21545835.980    88226681.72648
  20590421.820   108203420.02609  20590425.520    84314375.71249
  21354901.580   112220798.52408  21354904.340    87444801.26448
 15 02 22 03 55 30.0000000  0 10G01G04G11G14G16G18G19G22G27G32
  23251807.400   122189080.26506  23251812.880    95212292.06646
  21103475.660   110899535.98908  21103477.940    86415248.30448
  22137300.000   116332308.88608  22137301.280    90648568.18946
  23099733.280   121389923.36807  23099735.760    94589564.99045
  23717226.520   124634863.56806  23717228.540    97118082.90945
  24518525.920   128845720.51706  24518527.160   100399281.47044
  20455190.920   107492770.33609  20455190.500    83760611.51849
  21557799.720   113287059.01008  21557799.120    88275668.77248
  20597401.180   108240096.64709  20597404.860    84342954.89249
  21339517.880   112139956.97408  21339520.680    87381807.86448
 15 02 22 03 56  0.0000000  0 10G01G04G11G14G16G18G19G22G27G32
  23238503.220   122119166.28506  23238508.600    95157813.68346
  21094876.740   110854348.44408  21094879.020    86380037.24448
  22123055.260   116257452.25908  22123056.520    90590238.37646
  23089446.720   121335867.18307  23089449.100    94547443.31245
  23737273.800   124740213.34206  23737276.040    97200173.61345
  24535870.820   128936867.60405  24535872.020   100470305.17744
  20452351.100   107477847.12309  20452350.680    83748983.04349
  21569824.740   113350251.06908  21569824.140    88324909.33548
  20604464.840   108277216.37309  20604468.520    84371879.34349
  21324215.820   112059544.27108  21324218.620    87319148.63248
 15 02 22 03 56 30.0000000  0 10G01G04G11G14G16G18G19G22G27G32
  23225220.900   122049367.30106  23225226.160    95103424.88346
  21086321.940   110809392.65608  21086324.220    86345006.77848
  22108840.320   116182752.16108  22108841.560    90532030.53046
  23079229.200   121282173.72407  23079231.380    94505604.28246
  23757336.760   124845645.33407  23757339.140    97282328.38844
  24553228.760   129028083.81605  24553229.960   100541382.73044
  20449589.920   107463337.16309  20449589.520    83737676.58349
  21581911.700   113413768.72208  21581911.120    88374403.60648
  20611613.240   108314781.47909  20611616.900    84401150.84949
  21308996.120   111979564.49708  21308998.980    87256826.75148
 15 02 22 03 57  0.0000000  0 10G01G04G11G14G16G18G19G22G27G32
  23211960.300   121979682.64606  23211965.480    95049125.17646
  21077811.140   110764667.94008  21077813.380    86310156.36548
  22094655.220   116108208.97808  22094656.460    90473944.95046
  23069081.040   121228844.68107  23069083.060    94464049.20846
  23777414.660   124951155.69207  23777417.100    97364544.20845
  24570599.320   129119366.71405  24570600.460   100612512.24943
  20446907.480   107449240.96409  20446907.100    83726692.53449
  21594060.080   113477609.04208  21594059.520    88424149.30848
  20618846.280   108352791.24509  20618849.900    84430768.84249
  21293859.120   111900018.97508  21293861.980    87194843.24348
 15 02 22 03 57 30.0000000  0 10G01G04G11G14G16G18G19G22G27G32
  23198721.360   121910111.59706  23198726.400    94994913.98746
  21069344.180   110720173.81708  21069346.420    86275485.62648
  22080500.120   116033823.40708  22080501.300    90415982.18346
  23059002.580   121175882.00307  23059004.520    94422779.61346
  23797506.940   125056740.94206  23797509.220    97446818.41644
  24587982.000   129210713.80105  24587983.120   100683691.79944
  20444303.860   107435559.00109  20444303.500    83716031.26449
  21606269.380   113541769.27608  21606268.800    88474144.29248
  20626163.820   108391244.92809  20626167.360    84460732.74249
  21278804.980   111820908.67008  21278807.780    87133198.87048
 15 02 22 03 58  0.0000000  0 10G01G04G11G14G16G18G19G22G27G32
  23185504.200   121840654.83406  23185509.080    94940791.84845
  21060921.160   110675910.77108  21060923.440    86240994.94748
  22066375.220   115959596.51508  22066376.320    90358143.06946
  23048994.460   121123288.96707  23048996.380    94381798.03346
  23817613.140   125162399.21606  23817615.200    97529149.50245
  24605376.660   129302123.64705  24605377.720   100754920.24943
  20441779.400   107422293.02209  20441779.080    83705694.13949
  21618539.260   113606247.78608  21618538.660    88524387.28848
  20633565.920   108430143.03709  20633569.420    84491042.94549
  21263834.100   111742236.02008  21263836.860    87071895.52348
 15 02 22 03 58 30.0000000  0 10G01G04G11G14G16G18G19G22G27G32
  23172308.620   121771311.89006  23172313.420    94886758.41446
  21052542.160   110631878.76908  21052544.400    86206684.30248
  22052280.640   115885528.92308  22052281.680    90300428.08146
  23039057.160   121071067.64307  23039059.040    94341106.10746
  23837732.540   125268126.85606  23837734.340    97611534.66245
  24622782.900   129393594.24505  24622783.940   100826196.02743
  20439334.300   107409443.86109  20439333.960    83695681.80449
  21630869.240   113671042.10808  21630868.600    88574876.36648
  20641052.460   108469485.02509  20641055.980    84521699.02949
  21248946.720   111664002.22908  21248949.420    87010934.14848
 15 02 22 03 59  0.0000000  0 10G01G04G11G14G16G18G19G22G27G32
  23159134.840   121702083.41106  23159139.580    94832814.15546
  21044207.220   110588078.48408  21044209.440    86172554.22048
  22038216.580   115811621.83908  22038217.640    90242838.16446
  23029191.200   121019221.15107  23029193.040    94300706.26146
  23857864.660   125373921.61606  23857866.320    97693972.09745
  24640200.420   129485124.56105  24640201.520   100897518.34344
  20436968.920   107397013.62109  20436968.580    83685995.90349
  21643259.040   113736150.81208  21643258.360    88625610.42448
  20648623.580   108509271.38209  20648627.080    84552701.37949
  21234143.300   111586209.69808  21234145.940    86950316.60748
 15 02 22 03 59 30.0000000  0 10G01G04G11G14G16G18G19G22G27G32
  23145982.920   121632969.70206  23145987.640    94778959.34046
  21035916.480   110544510.35408  21035918.680    86138605.03448
  22024183.380   115737877.14308  22024184.460    90185374.77946
  23019397.060   120967751.92507  23019398.860    94260600.37946
  23878009.040   125479780.78806  23878010.600    97776459.73845
  24657628.960   129576713.08505  24657630.040   100968886.08543
  20434683.520   107385003.62409  20434683.140    83676637.46349
  21655708.300   113801572.01808  21655707.640    88676587.98348
  20656279.260   108549502.29409  20656282.760    84584050.13649
  21219424.240   111508860.52308  21219426.860    86890044.54047
 15 02 22 04 00  0.0000000  0 10G01G04G11G14G16G18G19G22G27G32
  23132852.680   121563969.93306  23132857.400    94725193.31046
  21027669.780   110501173.64008  21027671.920    86104836.16448
  22010181.080   115664294.81208  22010182.180    90128037.91846
  23009675.060   120916661.74807  23009676.760    94220789.87345
  23898164.940   125585700.94906  23898166.560    97858994.90445
  24675068.140   129668357.17705  24675069.460   101040297.00943
  20432478.180   107373414.34409  20432477.740    83667606.86049
  21668216.400   113867302.70608  21668215.800    88727806.70048
  20664019.340   108590176.82109  20664022.880    84615744.56649
  21204789.760   111431955.65108  21204792.320    86830118.68448
 15 02 22 04 00 30.0000000  0 10G01G04G11G14G16G18G19G22G27G32
  23119744.200   121495084.49507  23119748.980    94671516.35646
  21019467.240   110458068.83908  21019469.300    86071248.01348
  21996209.900   115590876.15008  21996211.080    90070828.58346
  23000025.640   120865953.54807  23000027.300    94181277.01346
  23918332.040   125691679.68306  23918333.820    97941575.69245
  24692517.640   129760055.32105  24692518.940   101111750.13043
  20430353.120   107362246.95309  20430352.640    83658904.99849
  21680783.100   113933341.29108  21680782.540    88779265.33648
  20671843.900   108631295.09009  20671847.440    84647784.76849
  21190240.200   111355497.01408  21190242.720    86770540.54548
 15 02 22 04 01  0.0000000  0 10G01G04G11G14G16G18G19G22G27G32
  23106657.400   121426312.78107  23106662.200    94617928.04646
  21011308.740   110415195.46608  21011310.760    86037840.20348
  21982269.920   115517621.31308  21982271.160    90013746.90846
  22990449.120   120815629.26107  22990450.760    94142063.29546
  23938509.620   125797713.45806  23938511.700    98024199.39345
  24709977.060   129851805.44405  24709978.460   101183243.71744
  20428308.560   107351502.52809  20428308.060    83650532.72249
  21693407.820   113999684.81108  21693407.300    88830961.57948
  20679752.800   108672856.37509  20679756.280    84680170.17649
  21175775.820   111279485.75508  21175778.260    86711311.00648
 15 02 22 04 01 30.0000000  0 10G01G04G11G14G16G18G19G22G27G32
  23093592.320   121357655.24107  23093597.180    94564428.68346
  21003194.360   110372554.09608  21003196.380    86004613.16748
  21968361.320   115444531.43908  21968362.640    89956793.77646
  22980946.040   120765691.50507  22980947.760    94103150.76246
  23958697.200   125903799.62506  23958699.480    98106863.92345
  24727446.220   129943606.37905  24727447.700   101254776.89045
  20426344.660   107341182.25609  20426344.180    83642490.94949
  21706090.300   114066331.76908  21706089.800    88882894.27248
  20687746.060   108714860.91409  20687749.460    84712900.97749
  21161396.880   111203923.95008  21161399.300    86652431.69348
 15 02 22 04 02  0.0000000  0 10G01G04G11G14G16G18G19G22G27G32
  23080549.040   121289112.06607  23080553.960    94511018.44746
  20995124.160   110330145.02708  20995126.240    85971567.14348
  21954484.480   115371608.21608  21954485.840    89899970.50146
  22971517.020   120716143.02107  22971518.800    94064541.58245
  23978894.300   126009935.78706  23978896.680    98189567.38645
  24744924.800   130035456.43005  24744926.320   101326348.38044
  20424461.700   107331287.56009  20424461.320    83634780.79849
  21718830.180   114133280.22208  21718829.660    88935061.89248
  20695823.580   108757308.63309  20695826.980    84745977.11749
  21147103.800   111128813.46208  21147106.240    86593904.05348
 15 02 22 04 02 30.0000000  0 10G01G04G11G14G16G18G19G22G27G32
  23067527.220   121220682.01407  23067532.240    94457696.34746
  20987097.980   110287967.20808  20987100.100    85938701.31948
  21940639.340   115298851.43808  21940640.660    89843276.92046
  22962162.380   120666984.75707  22962164.120    94026236.43646
  23999100.080   126116117.70406  23999102.520    98272306.52645
  24762412.240   130127352.57505  24762413.600   101397955.77044
  20422659.700   107321818.27309  20422659.360    83627402.13749
  21731626.800   114200526.65908  21731626.220    88987461.71748
  20703985.100   108800198.02009  20703988.560    84779397.40849
  21132896.620   111054154.66108  21132899.100    86535728.37848
 15 02 22 04 03  0.0000000  0 10G01G04G11G14G16G18G19G22G27G32
  23054527.320   121152367.18307  23054532.440    94404464.03646
  20979116.200   110246022.83708  20979118.420    85906017.40348
  21926826.500   115226264.03708  21926827.700    89786715.32447
  22952883.020   120618221.47007  22952884.700    93988239.09046
  24019314.280   126222344.65406  24019316.880    98355080.76945
  24779908.540   130219294.99305  24779909.720   101469599.20543
  20420939.300   107312777.60909  20420938.980    83620357.46649
  21744480.060   114268070.73108  21744479.440    89040093.45948
  20712231.000   108843530.95609  20712234.580    84813163.32649
  21118776.080   110979951.21108  21118778.640    86477907.52448
 15 02 22 04 03 30.0000000  0 10G01G04G11G14G16G18G19G22G27G32
  23041549.240   121084167.02507  23041554.420    94351321.07747
  20971178.760   110204311.30508  20971181.000    85873514.92648
  21913045.940   115153846.43508  21913047.040    89730286.04647
  22943679.160   120569854.75207  22943680.880    93950550.76445
  24039536.400   126328613.14306  24039539.140    98437887.35946
  24797413.220   130311281.73505  24797414.200   101541277.19044
  20419300.580   107304166.04609  20419300.260    83613647.15749
  21757389.500   114335910.16208  21757388.840    89092955.34748
  20720561.140   108887306.62909  20720564.840    84847274.23149
  21104742.420   110906204.09808  21104745.000    86420442.26448
 15 02 22 04 04  0.0000000  0 10G01G04G11G14G16G18G19G22G27G32
  23028593.160   121016082.81007  23028598.480    94298268.45546
  20963285.860   110162834.04308  20963288.140    85841194.98548
  21899298.080   115081600.80908  21899299.080    89673990.76446
  22934551.600   120521888.36207  22934553.300    93913174.36546
  24059766.100   126434921.57506  24059768.880    98520725.06644
  24814925.960   130403312.05205  24814926.920   101612989.13344
  20417744.000   107295986.03709  20417743.660    83607273.12849
  21770354.960   114404043.87808  21770354.240    89146046.55048
  20728975.740   108931525.98409  20728979.520    84881730.86549
  21090796.120   110832916.25708  21090798.780    86363334.86948
 15 02 22 04 04 30.0000000  0 10G01G04G11G14G16G18G19G22G27G32
  23015658.640   120948111.72707  23015664.020    94245304.00446
  20955437.080   110121588.57908  20955439.360    85809055.67648
  21885582.560   115009525.32808  21885583.520    89617828.07446
  22925500.040   120474321.72807  22925501.840    93876109.47446
  24080002.380   126541264.04106  24080005.060    98603589.29044
  24832446.200   130495381.55105  24832447.160   101684731.56744
  20416269.200   107288235.77109  20416268.840    83601233.96049
  21783375.460   114472466.96208  21783374.760    89199363.23748
  20737474.200   108976185.90309  20737478.060    84916530.79649
  21076937.020   110760086.38408  21076939.720    86306584.34048
 15 02 22 04 05  0.0000000  0 10G01G04G11G14G16G18G19G22G27G32
  23002745.900   120880255.49307  23002751.400    94192429.01847
  20947632.740   110080576.61908  20947635.020    85777098.30748
  21871899.960   114937622.89808  21871900.940    89561800.22246
  22916525.180   120427158.77507  22916527.180    93839359.13546
  24100245.280   126647639.92706  24100247.540    98686479.57245
  24849973.840   130587490.38605  24849974.660   101756504.63244
  20414876.680   107280918.00609  20414876.300    83595531.80549
  21796450.920   114541179.03608  21796450.260    89252905.10948
  20746056.800   109021287.74909  20746060.680    84951675.08249
  21063165.700   110687717.75608  21063168.460    86250193.21348
 15 02 22 04 05 30.0000000  0 11G01G03G04G11G14G16G18G19G22G27G32
  22989855.500   120812516.35707  22989861.020    94139645.29647
  24632800.400   129446237.08106  24632806.040   100867225.83245
  20939873.240   110039800.41008  20939875.580    85745324.65248
  21858250.880   114865896.66908  21858251.880    89505909.66546
  22907627.920   120380404.19107  22907630.140    93802927.01646
  24120494.540   126754048.54406  24120496.300    98769395.33944
  24867508.960   130679638.90705  24867510.000   101828308.71541
  20413567.100   107274036.13709  20413566.700    83590169.31549
  21809581.400   114610180.19608  21809580.740    89306672.24648
  20754723.920   109066833.51709  20754727.780    84987165.28349
  21049482.900   110615814.17508  21049485.700    86194164.47148
 15 02 22 04 06  0.0000000  0 11G01G03G04G11G14G16G18G19G22G27G32
  22976986.180   120744887.75707  22976991.680    94086947.70946
  24612875.400   129341531.20806  24612881.020   100785636.98045
  20932157.460   109999253.74108  20932159.780    85713729.85648
  21844634.260   114794340.95308  21844635.280    89450151.97246
  22898807.500   120334053.76207  22898809.920    93766809.79846
  24140748.220   126860480.23006  24140749.480    98852329.09445
  24885050.100   130771818.81105  24885051.260   101900137.22044
  20412339.340   107267584.52009  20412338.960    83585142.08049
  21822765.160   114679461.48508  21822764.520    89360657.66048
  20763474.200   109112816.23109  20763478.000    85022995.95849
  21035887.620   110544370.46008  21035890.420    86138494.05248
 15 02 22 04 06 30.0000000  0 10G01G03G04G11G14G16G19G22G27G32
  22964136.060   120677359.76607  22964141.460    94034328.51846
  24592971.640   129236937.14206  24592977.240   100704135.23145
  20924483.500   109958926.75408  20924485.800    85682306.24648
  21831048.440   114722947.02408  21831049.440    89394520.36647
  22890062.500   120288099.55107  22890065.020    93731001.33746
  24161003.720   126966922.27206  24161004.660    98935270.90744
  20411191.840   107261554.51909  20411191.480    83580443.38049
  21835999.980   114749011.05708  21835999.360    89414852.12648
  20772305.660   109159225.58309  20772309.360    85059159.08149
  21022378.240   110473378.26808  21022381.060    86083175.47948
 15 02 22 04 07  0.0000000  0 10G01G03G04G11G14G16G19G22G27G32
  22951313.400   120609975.56007  22951318.580    93981821.36146
  24573097.560   129132499.61606  24573103.180   100622755.44545
  20916859.600   109918862.75808  20916861.860    85651087.55448
  21817501.780   114651758.82208  21817502.740    89339049.05647
  22881401.740   120242587.16307  22881404.160    93695537.16346
  24181268.660   127073415.05606  24181269.580    99018252.24444
  20410133.020   107255990.24809  20410132.660    83576107.58349
  21849293.640   114818869.80908  21849293.020    89469287.51148
  20781226.440   109206104.36209  20781230.100    85095687.99449
  21008963.260   110402882.17208  21008966.100    86028243.46748
 15 02 22 04 07 30.0000000  0 10G01G03G04G11G14G16G19G22G27G32
  22938510.020   120542692.63807  22938515.000    93929393.12746
  24553245.460   129028177.80805  24553251.280   100541465.81845
  20909277.600   109879019.09508  20909279.860    85620040.55648
  21803986.380   114580734.94208  21803987.320    89283705.78347
  22872817.560   120197476.33007  22872819.780    93660385.87946
  24201534.420   127179913.36806  24201535.480    99101237.90145
  20409154.840   107250849.87309  20409154.520    83572102.09149
  21862637.680   114888993.09208  21862637.060    89523929.03048
  20790228.380   109253409.65209  20790232.020    85132549.24949
  20995634.900   110332841.09408  20995637.720    85973666.01948
 15 02 22 04 08  0.0000000  0 10G01G03G04G11G14G16G19G22G27G32
  22925728.420   120475524.41607  22925733.260    93877054.28546
  24533418.160   128923986.67705  24533424.320   100460278.02646
  20901740.140   109839409.68808  20901742.440    85589176.09148
  21790505.000   114509889.60108  21790505.920    89228501.63046
  22864312.860   120152782.64807  22864314.860    93625559.66046
  24221803.060   127286427.70306  24221804.560    99184236.04145
  20408260.160   107246148.01909  20408259.780    83568438.31149
  21876034.220   114959392.15608  21876033.560    89578785.44048
  20799313.900   109301154.34509  20799317.540    85169752.89849
  20982395.940   110263269.77608  20982398.700    85919454.61648
 15 02 22 04 08 30.0000000  0 10G01G03G04G11G14G16G19G22G27G32
  22912968.860   120408472.46507  22912973.600    93824806.03446
  24513616.400   128819929.46505  24513622.880   100379194.58945
  20894247.540   109800035.97208  20894249.900    85558495.28848
  21777058.180   114439226.04308  21777059.140    89173439.12747
  22855888.220   120108509.96507  22855890.020    93591061.49846
  24242074.560   127392956.67606  24242076.540    99267245.59645
  20407449.380   107241887.03909  20407448.960    83565118.06749
  21889483.100   115030066.33708  21889482.460    89633856.22848
  20808483.280   109349339.68409  20808486.940    85207299.90449
  20969246.980   110194171.36008  20969249.680    85865611.70448
 15 02 22 04 09  0.0000000  0 10G01G03G04G11G14G16G19G22G27G32
  22900231.040   120341535.00907  22900235.800    93772646.99746
  24493840.300   128716006.03106  24493846.860   100298215.38445
  20886799.520   109760896.33609  20886801.880    85527996.88748
  21763645.700   114368743.15108  21763646.700    89118517.41747
  22847543.600   120064658.50107  22847545.320    93556891.53746
  24262348.020   127499495.41005  24262350.400    99350262.78945
  20406722.340   107238066.08409  20406721.840    83562140.69849
  21902983.540   115101011.67308  21902982.900    89689138.30848
  20817736.060   109397963.37309  20817739.760    85245188.48249
  20956187.940   110125545.36008  20956190.560    85812136.92148
 15 02 22 04 09 30.0000000  0 10G01G03G04G11G14G16G19G22G27G32
  22887515.180   120274713.01307  22887519.920    93720577.92446
  24474090.400   128612218.99606  24474096.860   100217342.46045
  20879396.280   109721992.02109  20879398.620    85497681.84848
  21750267.920   114298442.82108  21750269.020    89063737.95347
  22839279.620   120021231.51107  22839281.420    93523052.33646
  24282623.300   127606042.67806  24282625.840    99433286.58544
  20406079.440   107234687.42509  20406078.900    83559507.97449
  21916535.340   115172227.17008  21916534.760    89744630.90148
  20827072.380   109447025.94009  20827076.060    85283419.04749
  20943219.240   110057394.24508  20943221.820    85759032.16948
 15 02 22 04 10  0.0000000  0 10G01G03G04G11G14G16G19G22G27G32
  22874821.260   120208006.68807  22874826.140    93668598.98246
  24454366.880   128508570.04806  24454373.020   100136577.12846
  20872037.840   109683323.02209  20872040.140    85467550.17248
  21736925.140   114228326.27208  21736926.260    89009101.69847
  22831096.720   119978231.29807  22831098.700    93489545.67446
  24302899.640   127712595.40606  24302902.280    99516314.68344
  20405520.800   107231751.86009  20405520.260    83557220.52149
  21930138.140   115243710.71308  21930137.640    89800332.35548
  20836492.180   109496527.02909  20836495.800    85321991.30949
  20930341.120   109989719.34108  20930343.680    85706298.49248
 15 02 22 04 10 30.0000000  0 10G01G03G04G11G14G16G19G22G27G32
  22862149.120   120141414.84707  22862154.180    93616709.24447
  24434669.640   128405059.63106  24434675.580   100055919.76045
  20864723.980   109644888.47009  20864726.260    85437601.18848
  21723617.280   114158393.41708  21723618.440    88954608.57447
  22822995.240   119935658.85207  22822997.380    93456372.33846
  24323176.260   127819149.72206  24323178.980    99599343.97545
  20405046.400   107229259.14409  20405045.900    83555278.14349
  21943791.240   115315458.78408  21943790.800    89856239.93548
  20845995.060   109546464.97709  20845998.680    85360903.98249
  20917553.660   109922521.00108  20917556.220    85653936.16748
 15 02 22 04 11  0.0000000  0 10G01G03G04G11G14G16G19G22G27G32
  22849498.780   120074937.60807  22849504.040    93564908.81847
  24414999.020   128301689.47006  24415004.820    99975371.67545
  20857454.800   109606688.72109  20857457.060    85407835.15648
  21710344.640   114088645.56908  21710345.840    88900259.61347
  22814975.740   119893516.39007  22814977.860    93423534.05946
  24343452.760   127925703.08006  24343455.560    99682372.55645
  20404656.520   107227210.53709  20404656.060    83553681.82149
  21957494.380   115387469.41008  21957493.960    89912352.10948
  20855580.940   109596839.34709  20855584.640    85400156.72249
  20904857.120   109855800.52708  20904859.700    85601946.20248
 15 02 22 04 11 30.0000000  0 10G01G03G04G11G14G16G19G22G27G32
  22836870.140   120008574.17507  22836875.560    93513197.07646
  24395355.200   128198460.31306  24395360.940    99894933.44946
  20850230.120   109568722.90009  20850232.400    85378251.41148
  21697107.200   114019082.70008  21697108.440    88846054.78747
  22807038.460   119851805.25007  22807040.500    93391031.89546
  24363728.400   128032251.45506  24363731.040    99765397.20645
  20404351.220   107225605.96209  20404350.700    83552431.50349
  21971246.980   115459739.76908  21971246.540    89968666.67048
  20865249.580   109647648.76709  20865253.340    85439748.46349
  20892251.600   109789558.36708  20892254.180    85550328.95248
 15 02 22 04 12  0.0000000  0 10G01G03G04G11G14G16G19G22G27G32
  22824263.520   119942326.03707  22824269.000    93461575.16947
  24375738.760   128095375.28006  24375744.520    99814607.53145
  20843050.260   109530992.53109  20843052.540    85348851.13448
  21683905.440   113949707.16608  21683906.700    88791995.94747
  22799184.060   119810528.96907  22799185.880    93358868.59046
  24384002.920   128138793.92506  24384005.500    99848417.29044
  20404130.900   107224447.82309  20404130.300    83551529.05349
  21985048.880   115532269.06408  21985048.400    90025183.00448
  20875001.220   109698894.19609  20875005.040    85479679.96449
  20879737.660   109723797.32008  20879740.220    85499086.59348
 15 02 22 04 12 30.0000000  0 10G01G03G04G11G14G16G19G22G27G32
  22811678.860   119876193.05507  22811684.300    93410042.98847
  24356149.980   127992435.75406  24356155.680    99734394.99546
  20835915.320   109493498.00309  20835917.520    85319634.62548
  21670739.600   113880520.39208  21670740.880    88738084.18647
  22791412.800   119769689.46707  22791414.340    93327045.62146
  24404275.780   128245327.46506  24404278.300    99931430.41145
  20403995.620   107223736.76909  20403995.000    83550974.98349
  21998899.660   115605054.98908  21998899.100    90081899.30748
  20884835.780   109750574.93209  20884839.560    85519950.66149
  20867315.480   109658518.51108  20867318.080    85448220.00648
 15 02 22 04 13  0.0000000  0 10G01G03G04G11G14G16G19G22G27G32
  22799116.520   119810177.24707  22799121.860    93358602.11747
  24336589.560   127889645.47606  24336595.200    99654298.74646
  20828825.640   109456241.37509  20828827.800    85290603.49248
  21657610.260   113811525.30508  21657611.520    88684321.79747
  22783725.360   119729290.92907  22783726.760    93295566.26646
  24424546.800   128351851.59506  24424549.220   100014436.17444
  20403945.940   107223475.67009  20403945.340    83550771.52349
  22012799.260   115678097.58108  22012798.640    90138815.61448
  20894753.520   109802692.51909  20894757.240    85560561.75749
  20854985.780   109593725.37408  20854988.340    85397731.87048
 15 02 22 04 13 30.0000000  0 10G01G03G04G11G14G16G19G22G27G32
  22786576.500   119744278.54507  22786581.680    93307252.50046
  24317057.720   127787005.56006  24317063.340    99574319.66146
  20821781.160   109419222.33309  20821783.300    85261757.49848
  21644517.540   113742722.62008  21644518.780    88630709.33647
  22776121.780   119689334.70607  22776123.300    93264431.55746
  24444815.260   128458362.84006  24444817.600   100097431.90644
  20403981.860   107223664.85709  20403981.360    83550918.93749
  22026747.200   115751394.17208  22026746.480    90195929.84148
  20904754.180   109855245.88209  20904757.800    85601512.42049
  20842748.640   109529418.55608  20842751.180    85347622.67448
 15 02 22 04 14  0.0000000  0 10G01G03G04G11G14G16G19G22G27G32
  22774058.500   119678495.59607  22774063.560    93255993.07146
  24297554.620   127684516.40906  24297560.320    99494458.08145
  20814781.680   109382439.80709  20814783.820    85233095.79948
  21631461.400   113674111.88908  21631462.580    88577246.44147
  22768602.420   119649822.01807  22768604.300    93233642.44846
  24465080.500   128564857.21906  24465082.780   100180414.50244
  20404103.540   107224304.66009  20404103.140    83551417.48349
  22040742.860   115824941.59908  22040742.080    90253239.52647
  20914837.380   109908233.23709  20914840.940    85642801.25649
  20830604.040   109465598.13908  20830606.560    85297892.49648
 15 02 22 04 14 30.0000000  0 10G01G03G04G11G14G16G19G22G27G32
  22761562.380   119612827.64607  22761567.300    93204823.25846
  24278080.380   127582178.77906  24278086.100    99414714.54746
  20807827.040   109345893.00809  20807829.140    85204617.78348
  21618441.860   113605693.51908  21618443.020    88523933.44247
  22761167.680   119610754.16907  22761169.940    93203199.97646
  24485341.780   128671330.91706  24485344.040   100263381.01444
  20404310.920   107225394.68009  20404310.580    83552266.85049
  22054785.600   115898736.66908  22054784.840    90310742.17548
  20925002.860   109961653.18709  20925006.400    85684427.17749
  20818552.040   109402264.58608  20818554.580    85248541.69148
 15 02 22 04 15  0.0000000  0 10G01G03G04G11G14G16G19G22G27G32
  22749088.320   119547275.83907  22749093.160    93153743.95547
  24258635.500   127479995.33406  24258641.180    99335091.17546
  20800917.560   109309583.55409  20800919.640    85176324.70748
  21605459.400   113537469.97108  21605460.520    88470772.25047
  22753818.240   119572133.95207  22753820.820    93173106.31046
  24505598.820   128777782.57006  24505601.100   100346330.28844
  20404604.300   107226936.68909  20404604.020    83553468.41749
  22068875.240   115972778.27708  22068874.520    90368436.92647
  20935250.720   110015506.14409  20935254.280    85726390.51049
  20806593.100   109339420.12908  20806595.660    85199571.99948
 15 02 22 04 15 30.0000000  0 10G01G03G04G11G14G16G19G22G27G32
  22736635.800   119481837.55707  22736640.620    93102753.10646
  24239219.700   127377964.97106  24239225.360    99255587.05245
  20794052.680   109273508.64709  20794054.760    85148214.39748
  21592513.680   113469439.48808  21592514.780    88417761.50247
  22746554.220   119533960.84307  22746556.800    93143361.05446
  24525850.560   128884206.74405  24525852.900   100429258.22444
  20404983.360   107228928.91009  20404983.140    83555020.79749
  22083010.900   116047061.81408  22083010.220    90426320.20347
  20945580.320   110069788.81409  20945583.940    85768688.68749
  20794726.960   109277063.25808  20794729.480    85150982.24848
 15 02 22 04 16  0.0000000  0 10G01G03G04G11G14G16G19G22G27G32
  22724205.580   119416516.62007  22724210.380    93051853.68546
  24219833.980   127276092.95606  24219839.660    99176206.31446
  20787233.180   109237672.31409  20787235.320    85120289.99148
  21579605.640   113401607.16208  21579606.720    88364905.15647
  22739376.460   119496240.24107  22739378.820    93113968.39746
  24546097.260   128990604.67206  24546099.720   100512165.61544
  20405448.980   107231375.69909  20405448.720    83556927.38449
  22097192.880   116121588.88708  22097192.280    90484393.24347
  20955992.280   110124504.26909  20955995.960    85811324.09949
  20782954.540   109215198.75508  20782957.000    85102776.16248
 15 02 22 04 16 30.0000000  0 10G01G03G04G11G14G16G19G22G27G32
  22711797.420   119351311.58307  22711802.200    93001044.58046
  24200478.360   127174379.49806  24200484.120    99096949.13745
  20780458.880   109202073.23209  20780461.060    85092550.45548
  21566735.180   113333972.39808  21566736.180    88312202.76047
  22732285.020   119458972.99007  22732287.040    93084929.00546
  24566338.300   129096972.32806  24566340.580   100595049.50144
  20406001.140   107234276.99609  20406000.780    83559188.13149
  22111420.480   116196355.80808  22111419.960    90542653.17347
  20966486.200   110179650.44109  20966489.960    85854295.13249
  20771275.780   109153826.46008  20771278.220    85054953.60848
