     2.11           OBSERVATION DATA    G                   RINEX VERSION / TYPE
SPIDER V4,0,0,3554                      2015 03 24 01:40    PGM / RUN BY / DATE 
OJGS                                                        MARKER NAME         
OJGS                                                        MARKER NUMBER       
                                                            OBSERVER / AGENCY   
496552              LEICA GRX1200+GNSS  8.20/4.007          REC # / TYPE / VERS 
10401003            LEIAR25         NONE                    ANT # / TYPE        
  5198100.9450    88691.2920  3684205.7148                  APPROX POSITION XYZ 
        0.1200        0.0000        0.0000                  ANTENNA: DELTA H/E/N
     1     1                                                WAVELENGTH FACT L1/2
     4    C1    L1    P2    L2                              # / TYPES OF OBSERV 
    30.000                                                  INTERVAL            
  2015    02    22    07    05    0.0000000     GPS         TIME OF FIRST OBS   
  2015    02    22    23    59   30.0000000     GPS         TIME OF LAST OBS    
    16                                                      LEAP SECONDS        
    30                                                      # OF SATELLITES     
   G 1   323   323   323   323                              PRN / # OF OBS      
   G 2   925   924   924   924                              PRN / # OF OBS      
   G 3   459   459   459   459                              PRN / # OF OBS      
   G 4   184   184   184   184                              PRN / # OF OBS      
   G 5   674   674   674   674                              PRN / # OF OBS      
   G 6   730   730   730   730                              PRN / # OF OBS      
   G 7   645   645   645   645                              PRN / # OF OBS      
   G 9   739   739   739   739                              PRN / # OF OBS      
   G10   784   784   784   784                              PRN / # OF OBS      
   G11   225   225   225   225                              PRN / # OF OBS      
   G12   811   811   811   811                              PRN / # OF OBS      
   G13   821   821   821   821                              PRN / # OF OBS      
   G14   520   520   519   519                              PRN / # OF OBS      
   G15   733   732   732   732                              PRN / # OF OBS      
   G16   156   156   156   156                              PRN / # OF OBS      
   G17   781   781   781   781                              PRN / # OF OBS      
   G18   471   471   470   470                              PRN / # OF OBS      
   G19     5     5     5     5                              PRN / # OF OBS      
   G20   811   811   811   811                              PRN / # OF OBS      
   G21   333   328   324   323                              PRN / # OF OBS      
   G22   168   168   167   167                              PRN / # OF OBS      
   G23   555   555   555   555                              PRN / # OF OBS      
   G24   841   841   841   841                              PRN / # OF OBS      
   G25   807   806   806   806                              PRN / # OF OBS      
   G27   109   109   109   109                              PRN / # OF OBS      
   G28   573   573   573   573                              PRN / # OF OBS      
   G29   649   649   649   649                              PRN / # OF OBS      
   G30   691   691   690   690                              PRN / # OF OBS      
   G31   594   594   594   594                              PRN / # OF OBS      
   G32   192   192   192   192                              PRN / # OF OBS      
BIT 2 OF LLI FLAGS DATA COLLECTED UNDER A/S CONDITION       COMMENT             
SNR is mapped to RINEX snr flag value [2-9]                 COMMENT             
Lx:     = 25dBHz -> 1; 26-27dBHz -> 2; 28-31dBHz -> 3       COMMENT             
       32-35dBHz -> 4; 36-38dBHz -> 5; 39-41dBHz -> 6       COMMENT             
       42-44dBHz -> 7; 45-48dBHz -> 8; >=49dBHz -> 9        COMMENT             
                                                            END OF HEADER       
 15 02 22 07 05  0.0000000  0 10G01G03G04G09G11G17G19G23G31G32
  20556126.300   108023172.24609  20556127.180    84173903.89949
  20455943.780   107496709.47109  20455944.220    83763671.54248
  21887501.340   115019594.48609  21887500.460    89625655.23248
  23794487.740   125040876.52608  23794488.800    97434454.47046
  21064482.500   110694602.40409  21064480.200    86255524.54648
  22495453.820   118214406.92009  22495451.800    92115114.79448
  25066948.960   131727703.39108  25066948.920   102644964.96946
  21709994.840   114086792.37309  21709991.240    88898784.37348
  24393351.500   128187927.70008  24393352.140    99886697.81846
  22131824.620   116303522.33208  22131823.380    90626114.51947
 15 02 22 07 05 30.0000000  0 10G01G03G04G09G11G17G19G23G31G32
  20559052.620   108038549.87809  20559053.440    84185886.51649
  20456752.240   107500957.89709  20456752.680    83766982.05148
  21900164.920   115086141.86909  21900164.040    89677510.37148
  23773582.340   124931017.93308  23773583.480    97348850.44246
  21076709.020   110758853.59209  21076706.820    86305590.42348
  22483052.660   118149238.55809  22483050.700    92064334.29948
  25087981.420   131838229.55108  25087981.380   102731089.12746
  21695706.020   114011704.17509  21695702.440    88840274.16348
  24388966.780   128164886.40108  24388967.440    99868743.58046
  22146340.660   116379804.43209  22146339.320    90685555.12347
 15 02 22 07 06  0.0000000  0 10G01G03G04G09G11G17G19G23G31G32
  20562042.660   108054262.42009  20562043.480    84198130.09149
  20457612.200   107505476.85909  20457612.580    83770503.35949
  21912879.400   115152956.88609  21912878.540    89729574.03748
  23752701.600   124821289.15108  23752702.780    97263347.55247
  21089009.700   110823494.26709  21089007.600    86355959.80148
  22470734.760   118084507.88009  22470732.920    92013894.85348
  25109014.960   131948760.72208  25109014.820   102817217.18946
  21681485.920   113936977.07209  21681482.320    88782045.31648
  24384667.800   128142294.74808  24384668.320    99851139.69746
  22160875.320   116456184.09809  22160873.840    90745071.75747
 15 02 22 07 06 30.0000000  0 10G01G03G04G09G11G17G19G23G31G32
  20565097.800   108070317.09009  20565098.620    84210640.25449
  20458524.740   107510271.92409  20458525.040    83774239.81048
  21925646.000   115220045.81709  21925645.160    89781851.13648
  23731847.300   124711699.19108  23731848.480    97177952.83546
  21101385.680   110888530.22109  21101383.580    86406637.17848
  22458501.980   118020224.41509  22458500.220    91963803.88548
  25130050.200   132059301.24707  25130050.120   102903352.51246
  21667336.240   113862619.59409  21667332.540    88724104.47648
  24380455.920   128120160.58408  24380456.320    99833892.28146
  22175429.460   116532666.38808  22175427.840    90804668.35547
 15 02 22 07 07  0.0000000  0 10G01G03G04G09G11G17G19G23G31G32
  20568217.400   108086710.63509  20568218.220    84223414.47649
  20459488.880   107515338.20409  20459489.140    83778187.60048
  21938463.900   115287404.28909  21938463.080    89834338.26748
  23711019.080   124602246.41108  23711020.340    97092665.02246
  21113835.940   110953956.37409  21113833.840    86457618.60448
  22446353.900   117956385.77709  22446352.080    91914059.51648
  25151086.120   132169844.94107  25151086.040   102989490.32046
  21653256.480   113788629.61209  21653252.700    88666450.00248
  24376330.780   128098481.98608  24376330.940    99816999.87645
  22190002.060   116609245.78909  22190000.500    90864340.61447
 15 02 22 07 07 30.0000000  0  9G01G03G04G09G11G17G23G31G32
  20571402.420   108103447.72109  20571403.220    84236456.36549
  20460505.220   107520678.69909  20460505.420    83782349.03949
  21951333.820   115355035.80209  21951333.000    89887038.13348
  23690218.200   124492937.22008  23690219.460    97007489.07846
  21126361.020   111019775.58909  21126358.880    86508906.30148
  22434291.540   117892997.98409  22434289.620    91864666.45448
  21639247.840   113715013.38809  21639244.020    88609086.74248
  24372293.480   128077264.70708  24372293.480    99800466.89446
  22204593.680   116685924.86809  22204592.160    90924090.53947
 15 02 22 07 08  0.0000000  0  9G01G03G04G09G11G17G23G31G32
  20574651.460   108120521.36509  20574652.260    84249760.52249
  20461572.060   107526284.77709  20461572.240    83786717.43348
  21964254.200   115422932.32109  21964253.300    89939944.50748
  23669443.620   124383766.27308  23669444.960    96922420.86946
  21138959.260   111085979.35609  21138957.040    86560493.65448
  22422314.080   117830056.25309  22422312.160    91815620.96748
  21625309.100   113641764.77309  21625305.340    88552009.94248
  24368342.760   128056502.69708  24368342.540    99784288.69946
  22219202.440   116762694.55109  22219200.960    90983911.06347
 15 02 22 07 08 30.0000000  0  9G01G03G04G09G11G17G23G31G32
  20577966.200   108137940.15009  20577966.980    84263333.61749
  20462690.740   107532163.39009  20462690.980    83791298.19449
  21977226.460   115491101.44809  21977225.460    89993063.30747
  23648697.360   124274743.94808  23648698.660    96837468.47047
  21151631.880   111152574.28709  21151629.640    86612385.81148
  22410423.400   117767570.52909  22410421.520    91766930.81248
  21611442.120   113568893.35709  21611438.400    88495227.06048
  24364480.480   128036205.48508  24364480.280    99768472.69346
  22233829.680   116839561.19009  22233828.360    91043807.13947
 15 02 22 07 09  0.0000000  0  9G01G03G04G09G11G17G23G31G32
  20581346.200   108155701.80709  20581346.940    84277173.87449
  20463860.540   107538310.59409  20463860.840    83796088.23749
  21990249.880   115559539.59009  21990248.840    90046391.71647
  23627979.200   124165869.59308  23627980.580    96752631.37347
  21164378.200   111219556.51409  21164375.980    86664579.74148
  22398619.260   117705539.42609  22398617.400    91718594.90048
  21597646.740   113496398.03509  21597643.000    88438737.23248
  24360706.360   128016371.86508  24360706.020    99753017.92446
  22248474.520   116916520.23309  22248473.260    91103775.21347
 15 02 22 07 09 30.0000000  0  9G01G03G04G09G11G17G23G31G32
  20584790.860   108173803.19709  20584791.580    84291278.85549
  20465080.580   107544721.69009  20465080.920    83801083.90649
  22003323.680   115628242.76809  22003322.620    90099926.62947
  23607289.000   124057141.90308  23607290.380    96667908.55347
  21177197.340   111286921.14409  21177195.100    86717071.64348
  22386901.460   117643961.88209  22386899.480    91670612.38848
  21583922.620   113424277.13009  21583918.840    88382539.14748
  24357020.040   127996999.50008  24357019.600    99737922.57746
  22263136.040   116993566.61309  22263134.680    91163811.32047
 15 02 22 07 10  0.0000000  0  9G01G03G04G09G11G17G23G31G32
  20588301.320   108192250.36109  20588302.020    84305653.27449
  20466351.640   107551401.05309  20466351.980    83806288.62148
  22016448.820   115697215.67809  22016447.760    90153671.73147
  23586628.140   123948568.45808  23586629.520    96583305.92646
  21190090.060   111354672.27009  21190087.800    86769864.72048
  22375271.360   117582845.33309  22375269.420    91622989.12248
  21570271.060   113352537.67409  21570267.240    88326638.29948
  24353422.840   127978095.67108  24353422.360    99723192.32146
  22277814.900   117070704.13009  22277813.560    91223918.45247
 15 02 22 07 10 30.0000000  0 10G01G03G04G09G11G17G20G23G31G32
  20591877.440   108211042.83309  20591878.140    84320296.75749
  20467673.360   107558346.64109  20467673.700    83811700.77849
  22029625.060   115766457.06909  22029624.060    90207626.02547
  23565996.860   123840150.65708  23565998.200    96498824.57847
  21203055.960   111422807.93809  21203053.600    86822957.43648
  22363729.120   117522190.77309  22363727.220    91575725.82248
  24544435.400   128981878.34908  24544434.120   100505355.69744
  21556692.280   113281180.40709  21556688.360    88271035.25048
  24349914.780   127959660.32908  24349914.240    99708827.13346
  22292510.540   117147930.33409  22292509.300    91284094.68447
 15 02 22 07 11  0.0000000  0 10G01G03G04G09G11G17G20G23G31G32
  20595517.940   108230173.76609  20595518.680    84335203.98149
  20469044.120   107565549.99209  20469044.560    83817313.78549
  22042850.820   115835958.77809  22042849.900    90261783.16847
  23545394.200   123731883.31608  23545395.580    96414460.46847
  21216093.280   111491319.28809  21216090.900    86876342.89148
  22352273.760   117461992.80209  22352271.840    91528818.31448
  24528553.360   128898415.44307  24528551.640   100440319.61045
  21543185.120   113210199.55709  21543181.140    88215725.52448
  24346494.740   127941687.73408  24346494.280    99694822.54946
  22307221.500   117225236.42009  22307220.280    91344333.17647
 15 02 22 07 11 30.0000000  0 10G01G03G04G09G11G17G20G23G31G32
  20599224.960   108249654.55309  20599225.780    84350383.81549
  20470465.800   107573020.90009  20470466.280    83823135.28648
  22056128.080   115905731.07209  22056127.200    90316151.16047
  23524822.720   123623779.64608  23524824.140    96330223.89447
  21229203.940   111560216.27209  21229201.580    86930028.83448
  22340907.820   117402264.35809  22340905.780    91482276.66348
  24512691.300   128815057.68708  24512689.100   100375365.47244
  21529751.940   113139607.55709  21529747.940    88160718.78848
  24343165.200   127924190.55508  24343164.840    99681188.41046
  22321949.260   117302631.61809  22321948.240    91404641.07147
 15 02 22 07 12  0.0000000  0 10G01G03G04G09G11G17G20G23G31G32
  20602998.280   108269483.78309  20602999.180    84365835.16849
  20471937.820   107580756.36209  20471938.280    83829162.91848
  22069456.300   115975771.37709  22069455.500    90370727.97547
  23504282.420   123515839.86708  23504283.800    96246115.03747
  21242387.380   111629495.54609  21242385.040    86984012.66948
  22329631.260   117343005.35909  22329629.180    91436100.81248
  24496848.680   128731803.28707  24496846.380   100310491.86745
  21516392.740   113069404.32409  21516388.780    88106014.99548
  24339925.920   127907168.10808  24339925.580    99667924.17646
  22336693.420   117380112.41508  22336692.480    91465015.69047
 15 02 22 07 12 30.0000000  0 10G01G03G04G09G11G17G20G23G31G32
  20606838.040   108289662.07609  20606839.040    84381558.49449
  20473459.980   107588755.39809  20473460.420    83835395.93048
  22082835.540   116046079.61609  22082834.820    90425513.56247
  23483773.780   123408066.35708  23483775.140    96162135.71647
  21255643.400   111699156.02509  21255641.040    87038293.53648
  22318444.360   117284217.68509  22318442.340    91390292.23048
  24481025.520   128648652.14608  24481023.500   100245698.70445
  21503107.860   112999591.76909  21503103.920    88051615.61248
  24336777.180   127890621.61208  24336776.880    99655030.81046
  22351453.580   117457677.49809  22351452.700    91525455.95747
 15 02 22 07 13  0.0000000  0 10G01G03G04G09G11G17G20G23G31G32
  20610744.100   108310188.81209  20610745.240    84397553.35249
  20475031.940   107597015.86709  20475032.320    83841832.66348
  22096265.400   116116653.66009  22096264.740    90480506.27447
  23463296.980   123300460.31208  23463298.240    96078286.89347
  21268971.420   111769194.93009  21268969.000    87092869.28248
  22307347.360   117225902.51109  22307345.360    91344851.82948
  24465221.920   128565603.45808  24465220.040   100180985.42244
  21489897.320   112930170.10209  21489893.480    87997520.82748
  24333719.040   127874551.43808  24333718.880    99642508.60146
  22366229.300   117535324.21008  22366228.360    91585959.86447
 15 02 22 07 13 30.0000000  0 10G01G03G04G09G11G17G20G23G31G32
  20614716.180   108331062.41709  20614717.400    84413818.48649
  20476653.080   107605534.62109  20476653.380    83848470.65948
  22109745.420   116187491.26509  22109744.800    90535704.35547
  23442852.040   123193021.87108  23442853.360    95994568.66647
  21282370.920   111839609.33709  21282368.440    87147737.63048
  22296340.200   117168059.82109  22296338.220    91299779.59548
  24449437.600   128482655.45008  24449435.680   100116350.53744
  21476761.140   112861139.02109  21476757.340    87943730.38848
  24330751.420   127858957.08008  24330751.460    99630357.18247
  22381019.840   117613049.04308  22381018.940    91646524.62847
 15 02 22 07 14  0.0000000  0 10G01G03G04G09G11G17G20G23G31G32
  20618754.380   108352283.43309  20618755.680    84430354.32649
  20478323.120   107614310.62509  20478323.400    83855309.10648
  22123275.420   116258591.44509  22123274.800    90591107.04647
  23422439.480   123085753.32808  23422440.840    95910982.82147
  21295841.580   111910397.95109  21295839.140    87202897.56148
  22285423.320   117110691.57609  22285421.420    91255077.06948
  24433672.460   128399808.05607  24433670.500   100051794.04845
  21463699.580   112792499.92109  21463695.760    87890245.38948
  24327874.600   127843839.78108  24327874.880    99618577.48446
  22395824.980   117690850.54308  22395824.100    91707149.13447
 15 02 22 07 14 30.0000000  0 10G01G03G04G09G11G17G20G23G31G32
  20622859.260   108373854.86209  20622860.660    84447163.21449
  20480042.400   107623345.30809  20480042.660    83862349.11248
  22136855.800   116329956.39609  22136855.200    90646716.04147
  23402060.200   122978659.42608  23402061.540    95827533.06047
  21309383.600   111981561.73409  21309381.200    87258349.82648
  22274597.480   117053801.64009  22274595.580    91210747.23648
  24417926.840   128317063.87507  24417925.000    99987317.98145
  21450713.400   112724257.17309  21450709.600    87837069.23148
  24325089.360   127829203.16908  24325089.660    99607172.33547
  22410644.880   117768729.79808  22410644.040    91767834.22547
 15 02 22 07 15  0.0000000  0 10G01G03G04G09G11G17G20G23G31G32
  20627031.440   108395779.81109  20627032.900    84464247.56549
  20481811.200   107632640.30209  20481811.420    83869591.96948
  22150486.900   116401588.13109  22150486.360    90702532.92047
  23381715.120   122871745.07308  23381716.380    95744223.19547
  21322997.240   112053102.14409  21322994.940    87314095.57447
  22263863.680   116997395.08709  22263861.760    91166794.07248
  24402201.320   128234425.86508  24402199.520    99922924.64745
  21437803.400   112656414.88909  21437799.660    87784205.12348
  24322396.320   127815051.38808  24322396.680    99596144.97746
  22425479.860   117846687.96008  22425479.200    91828580.80447
 15 02 22 07 15 30.0000000  0 10G01G03G04G09G11G17G20G23G31G32
  20631269.800   108418052.38509  20631271.260    84481602.80749
  20483628.120   107642188.10209  20483628.320    83877031.81748
  22164167.420   116473479.57309  22164166.900    90758552.17047
  23361403.420   122765006.11108  23361404.640    95661050.00047
  21336681.140   112125011.63709  21336678.900    87370128.91848
  22253221.080   116941467.34209  22253219.000    91123214.00348
  24386494.900   128151887.34808  24386492.940    99858608.84445
  21424968.660   112588968.30109  21424964.960    87731649.35148
  24319794.600   127801379.27508  24319795.040    99585491.39347
  22440328.320   117924717.13908  22440327.760    91889382.72647
 15 02 22 07 16  0.0000000  0 10G01G03G04G09G11G17G20G23G31G32
  20635575.220   108440677.32809  20635576.640    84499232.61249
  20485493.760   107651992.02209  20485493.980    83884671.21948
  22177898.120   116545634.44909  22177897.560    90814776.67347
  23341126.300   122658449.09208  23341127.560    95578018.57347
  21350435.780   112197293.00809  21350433.640    87426452.02147
  22242670.700   116886024.26709  22242668.640    91080011.58548
  24370808.220   128069453.12508  24370806.380    99794374.28045
  21412210.320   112521923.14709  21412206.600    87679406.37648
  24317285.220   127788192.52108  24317285.620    99575215.98146
  22455190.840   118002820.17908  22455190.160    91950242.20247
 15 02 22 07 16 30.0000000  0 10G01G03G04G09G11G17G20G23G31G32
  20639947.800   108463655.43809  20639949.260    84517137.61549
  20487408.000   107662051.25309  20487408.220    83892509.58148
  22191678.820   116618052.19109  22191678.360    90871206.03147
  23320884.300   122552076.58008  23320885.580    95495130.91647
  21364261.080   112269945.33409  21364258.960    87483064.20347
  22232213.080   116831068.67409  22232211.100    91037189.05848
  24355141.360   127987123.18108  24355139.700    99730221.00145
  21399528.720   112455281.23609  21399525.020    87627477.62048
  24314868.460   127775492.39808  24314868.920    99565319.78546
  22470067.180   118080996.06808  22470066.580    92011158.43847
 15 02 22 07 17  0.0000000  0 10G01G03G04G09G11G17G20G23G31G32
  20644387.620   108486986.95509  20644389.100    84535317.99949
  20489370.560   107672364.60709  20489370.860    83900545.94648
  22205509.440   116690732.32709  22205508.940    90927839.83847
  23300677.780   122445890.63208  23300679.040    95412388.62147
  21378156.720   112342967.09509  21378154.580    87539964.23947
  22221848.460   116776601.78509  22221846.460    90994747.31448
  24339494.560   127904898.01408  24339493.080    99666149.34845
  21386924.180   112389044.15509  21386920.520    87575864.31848
  24312544.420   127763280.09208  24312544.960    99555803.70146
  22484957.100   118159243.16008  22484956.520    92072130.16547
 15 02 22 07 17 30.0000000  0 10G01G03G04G09G11G17G20G23G31G32
  20648894.340   108510669.73709  20648895.800    84553772.08649
  20491380.780   107682928.39309  20491381.100    83908777.44948
  22219389.300   116763671.43109  22219388.820    90984675.43247
  23280506.720   122339890.81308  23280507.960    95329791.36147
  21392121.820   112416354.31409  21392119.740    87597149.04247
  22211576.700   116722622.74609  22211574.580    90952685.70748
  24323867.160   127822774.66107  24323865.640    99602157.02944
  21374396.480   112323210.62809  21374392.800    87524565.46048
  24310313.040   127751554.29808  24310313.680    99546666.72547
  22499859.900   118237557.51108  22499859.240    92133154.30047
 15 02 22 07 18  0.0000000  0 10G01G03G04G09G11G17G20G23G31G32
  20653468.980   108534709.31909  20653470.400    84572504.20649
  20493439.440   107693746.68209  20493439.840    83917207.27048
  22233319.280   116836874.00109  22233318.840    91041716.33247
  23260372.480   122234084.53108  23260373.660    95247344.91247
  21406157.160   112490110.41809  21406155.080    87654621.29747
  22201399.180   116669138.96009  22201396.900    90911010.01748
  24308259.920   127740757.92707  24308258.300    99538247.81845
  21361946.840   112257787.43609  21361943.160    87473586.35848
  24308175.320   127740320.99508  24308176.100    99537913.51246
  22514776.160   118315942.74208  22514775.560    92194233.66847
 15 02 22 07 18 30.0000000  0 10G01G03G04G09G11G17G20G23G31G32
  20658110.660   108559101.00309  20658112.020    84591510.69849
  20495545.380   107704813.34009  20495545.820    83925830.62248
  22247298.340   116910334.44709  22247297.920    91098958.16847
  23240274.540   122128468.85908  23240275.640    95165046.98247
  21420261.580   112564229.43809  21420259.540    87712376.33647
  22191315.220   116616146.75409  22191312.840    90869717.37548
  24292672.060   127658843.85608  24292670.660    99474418.63244
  21349574.520   112192770.53209  21349570.860    87422923.84348
  24306130.620   127729576.26808  24306131.520    99529541.00846
  22529704.720   118394392.36608  22529703.980    92255363.20246
 15 02 22 07 19  0.0000000  0 10G01G03G04G09G11G17G20G23G31G32
  20662819.920   108583847.95009  20662821.240    84610794.00149
  20497698.860   107716130.00609  20497699.360    83934648.76548
  22261326.900   116984054.69409  22261326.560    91156402.43047
  23220213.800   122023048.79108  23220214.840    95082901.45847
  21434435.260   112638712.32209  21434433.260    87770414.89348
  22181325.640   116563650.86809  22181323.220    90828811.46348
  24277104.320   127577035.02208  24277103.180    99410671.41145
  21337280.360   112128164.34109  21337276.740    87372581.34848
  24304179.720   127719324.26108  24304180.540    99521552.43746
  22544645.840   118472907.74808  22544644.960    92316543.96047
 15 02 22 07 19 30.0000000  0 10G01G03G04G09G11G17G20G23G31G32
  20667596.400   108608948.38009  20667597.720    84630352.76749
  20499899.340   107727693.49109  20499899.880    83943659.25448
  22275404.360   117058031.68009  22275403.920    91214046.77247
  23200190.200   121917824.27008  23200191.320    95000908.32947
  21448677.500   112713555.41209  21448675.480    87828734.14647
  22171430.300   116511650.31409  22171427.840    90788291.53848
  24261556.280   127495328.71908  24261554.820    99347004.10745
  21325064.300   112063968.49409  21325060.700    87322558.61848
  24302322.220   127709563.55308  24302323.140    99513946.72947
  22559598.760   118551485.26408  22559597.780    92377773.17047
 15 02 22 07 20  0.0000000  0 10G01G03G04G09G11G17G20G23G31G32
  20672441.200   108634407.87609  20672442.520    84650191.30749
  20502147.540   107739507.88809  20502148.160    83952865.24548
  22289531.580   117132270.16509  22289531.140    91271894.88347
  23180205.240   121812802.78108  23180206.400    94919073.39447
  21462989.020   112788762.49509  21462986.980    87887337.01448
  22161630.680   116460152.62909  22161628.240    90748163.44848
  24246028.700   127413730.39908  24246026.920    99283420.93345
  21312927.540   112000189.25309  21312923.920    87272860.50948
  24300559.460   127700300.69907  24300560.460    99506728.94046
  22574564.260   118630128.78708  22574563.420    92439053.78047
 15 02 22 07 20 30.0000000  0 10G01G03G04G09G11G17G20G23G31G32
  20677353.440   108660221.86409  20677354.720    84670306.08049
  20504442.380   107751567.23309  20504443.020    83962262.11448
  22303707.480   117206764.48209  22303707.080    91329942.32047
  23160258.440   121707981.55809  23160259.640    94837394.51647
  21477368.620   112864327.37409  21477366.480    87946218.68747
  22151926.120   116409154.33109  22151923.600    90708424.48848
  24230520.780   127332235.41108  24230519.020    99219918.30445
  21300869.440   111936823.07909  21300865.720    87223484.27548
  24298890.660   127691531.60807  24298891.660    99499895.90246
  22589541.140   118708832.02408  22589540.120    92500380.93346
 15 02 22 07 21  0.0000000  0 10G01G03G04G09G11G17G20G23G31G32
  20682333.920   108686394.17909  20682335.140    84690700.06549
  20506784.300   107763873.91909  20506784.920    83971851.71748
  22317932.460   117281517.22209  22317932.100    91388191.12947
  23140350.840   121603366.26709  23140352.000    94755876.11247
  21491816.700   112940252.14509  21491814.520    88005380.79347
  22142317.600   116358660.64209  22142315.000    90669078.72948
  24215033.160   127250846.97508  24215031.560    99156498.70844
  21288890.900   111873875.01609  21288887.100    87174433.83948
  24297316.600   127683260.54507  24297317.740    99493450.93446
  22604529.740   118787597.04509  22604528.540    92561756.22646
 15 02 22 07 21 30.0000000  0 10G01G03G04G09G11G17G20G23G31G32
  20687382.760   108712925.61809  20687383.920    84711373.88149
  20509173.200   107776427.35509  20509173.740    83981633.58148
  22332206.620   117356528.27609  22332206.240    91446641.22747
  23120482.900   121498959.45608  23120484.080    94674520.15147
  21506333.120   113016535.68009  21506330.880    88064822.44748
  22132805.500   116308673.89109  22132802.860    90630127.98748
  24199565.880   127169565.97208  24199564.280    99093162.83444
  21276992.220   111811346.61809  21276988.380    87125710.42048
  24295837.720   127675489.43307  24295838.900    99487395.53446
  22619529.820   118866422.95008  22619528.680    92623178.94247
 15 02 22 07 22  0.0000000  0 10G01G03G04G09G11G17G20G23G31G32
  20692499.500   108739813.74009  20692500.620    84732325.64049
  20511608.340   107789223.67109  20511608.740    83991604.71448
  22346529.280   117431794.07109  22346528.900    91505289.82447
  23100654.540   121394760.60809  23100655.640    94593326.25447
  21520917.000   113093173.54309  21520914.700    88124540.20748
  22123389.560   116259192.76109  22123386.980    90591571.23248
  24184118.440   127088389.35608  24184116.600    99029908.26244
  21265173.160   111749236.69409  21265169.300    87077313.07948
  24294453.620   127668216.19607  24294454.860    99481728.09946
  22634540.740   118945305.58608  22634539.700    92684645.87847
 15 02 22 07 22 30.0000000  0 10G01G03G04G09G11G17G20G23G31G32
  20697684.560   108767061.09409  20697685.660    84753557.30949
  20514089.920   107802264.03909  20514090.200    84001766.02348
  22360900.760   117507316.18209  22360900.400    91564138.14547
  23080866.560   121290774.07108  23080867.700    94512297.78047
  21535568.400   113170166.62609  21535566.060    88184534.75048
  22114070.420   116210220.33609  22114067.860    90553410.87348
  24168691.400   127007319.34508  24168689.440    98966736.79444
  21253434.360   111687548.78209  21253430.520    87029244.58048
  24293164.860   127661443.94207  24293166.180    99476451.03346
  22649562.640   119024245.92408  22649561.700    92746157.77147
 15 02 22 07 23  0.0000000  0 10G01G03G04G09G11G17G20G23G31G32
  20702937.380   108794664.40009  20702938.460    84775066.34849
  20516617.040   107815543.78409  20516617.260    84012113.84848
  22375320.160   117583090.03109  22375319.880    91623182.61947
  23061118.700   121186998.37909  23061119.800    94431433.60847
  21550286.320   113247509.63409  21550284.020    88244801.96148
  22104847.900   116161755.53509  22104845.340    90515646.06448
  24153283.920   126926352.17108  24153282.100    98903645.42645
  21241775.440   111626280.58109  21241771.580    86981503.13148
  24291971.040   127655169.88208  24291972.260    99471562.18146
  22664594.440   119103238.87108  22664593.620    92807710.64946
 15 02 22 07 23 30.0000000  0 10G01G03G04G09G11G17G20G23G31G32
  20708259.040   108822629.82009  20708260.140    84796857.54849
  20519190.580   107829067.68409  20519190.800    84022651.93948
  22389788.520   117659120.99309  22389788.200    91682427.45347
  23041412.500   121083441.51509  23041413.540    94350739.95247
  21565071.700   113325207.15909  21565069.420    88305345.42047
  22095723.540   116113806.21109  22095720.920    90478282.92148
  24137897.120   126845494.31708  24137895.440    98840639.28645
  21230197.740   111565439.09409  21230193.900    86934094.19048
  24290873.380   127649400.90408  24290874.340    99467066.90746
  22679637.220   119182288.97209  22679636.300    92869308.07547
 15 02 22 07 24  0.0000000  0 10G01G03G04G09G11G17G20G23G31G32
  20713649.060   108850954.22509  20713650.080    84818928.47449
  20521809.680   107842831.29209  20521810.000    84033376.81248
  22404304.940   117735404.61709  22404304.580    91741869.16847
  23021747.720   120980102.28309  23021748.720    94270215.87947
  21579923.620   113403254.31609  21579921.360    88366161.31247
  22086696.820   116066369.90209  22086694.080    90441319.52748
  24122530.360   126764741.95508  24122528.700    98777715.33344
  21218700.840   111505022.23709  21218697.000    86887016.12448
  24289871.300   127644134.48608  24289872.100    99462963.23346
  22694690.040   119261391.56809  22694689.040    92930946.40446
 15 02 22 07 24 30.0000000  0 10G01G03G04G09G11G17G20G23G31G32
  20719107.960   108879640.66709  20719108.940    84841281.51149
  20524474.700   107856836.30609  20524475.140    84044289.79948
  22418869.800   117811942.84809  22418869.320    91801509.27047
  23002125.280   120876985.49709  23002126.260    94189865.13147
  21594842.240   113481651.64109  21594840.000    88427250.06748
  22077768.500   116019451.06109  22077765.800    90404759.35648
  24107184.300   126684098.06008  24107182.840    98714875.87945
  21207285.500   111445034.18109  21207281.700    86840272.19348
  24288965.540   127639374.18308  24288966.200    99459253.92946
  22709753.120   119340548.04908  22709752.160    92992626.71346
 15 02 22 07 25  0.0000000  0 10G01G03G04G09G11G17G20G23G31G32
  20724634.820   108908684.30209  20724635.840    84863912.87649
  20527184.460   107871076.51609  20527185.000    84055386.05948
  22433481.980   117888730.01209  22433481.480    91861343.35247
  22982544.580   120774088.22109  22982545.640    94109685.43747
  21609826.340   113560392.99509  21609824.080    88488606.89748
  22068937.880   115973046.15509  22068935.280    90368599.65748
  24091857.780   126603557.06408  24091856.660    98652116.61844
  21195951.020   111385471.01909  21195947.240    86793859.34748
  24288155.300   127635115.57108  24288155.740    99455935.55646
  22724825.160   119419752.08309  22724824.360    93054344.06446
 15 02 22 07 25 30.0000000  0 10G01G03G04G09G11G17G20G23G31G32
  20730231.020   108938092.54009  20730232.120    84886828.34349
  20529940.160   107885558.01209  20529940.780    84066670.33948
  22448142.700   117965772.42609  22448142.240    91921376.32547
  22963007.400   120671419.68409  22963008.440    94029683.97647
  21624876.960   113639483.93609  21624874.660    88550236.13448
  22060206.620   115927163.57109  22060204.080    90332846.95948
  24076552.420   126523126.59108  24076551.320    98589443.46945
  21184698.960   111326341.13609  21184695.180    86747784.12248
  24287442.040   127631366.77008  24287442.300    99453014.44646
  22739907.360   119499009.30308  22739906.600    93116102.87646
 15 02 22 07 26  0.0000000  0 10G01G03G04G09G11G17G20G23G31G32
  20735895.960   108967862.18709  20735897.160    84910025.42549
  20532740.960   107900276.30509  20532741.620    84078139.13948
  22462851.180   118043065.90309  22462850.820    91981604.93847
  22943513.480   120568978.59809  22943514.500    93949859.75947
  21639993.100   113718919.50609  21639990.820    88612133.91147
  22051574.500   115881801.78909  22051572.080    90297500.08548
  24061267.440   126442803.32208  24061266.240    98526853.86945
  21173528.900   111267642.22209  21173525.100    86702044.71448
  24286825.260   127628124.99108  24286825.440    99450488.38846
  22754998.700   119578315.19508  22754998.100    93177899.59946
 15 02 22 07 26 30.0000000  0 10G01G03G04G09G11G17G20G23G31G32
  20741629.700   108997993.49309  20741630.960    84933504.32049
  20535586.640   107915230.32509  20535587.260    84089791.61948
  22477607.280   118120609.37209  22477607.020    92042028.34646
  22924063.220   120466767.05209  22924064.300    93870214.38647
  21655174.620   113798698.71709  21655172.340    88674299.45247
  22043041.700   115836962.07209  22043039.360    90262560.00748
  24046002.900   126362586.96808  24046001.680    98464347.54844
  21162441.040   111209375.39509  21162437.260    86656641.99048
  24286305.100   127625390.99408  24286305.140    99448358.01546
  22770099.100   119657668.30608  22770098.680    93239733.13146
 15 02 22 07 27  0.0000000  0 10G01G03G04G09G11G17G20G23G31G32
  20747432.160   109028486.03109  20747433.480    84957264.69049
  20538476.860   107930418.33709  20538477.480    84101626.42548
  22492410.720   118198401.65909  22492410.600    92102645.63947
  22904656.960   120364786.48109  22904658.060    93790749.01247
  21670420.860   113878818.12809  21670418.640    88736730.09548
  22034608.400   115792645.17009  22034606.200    90228027.31948
  24030758.600   126282477.04508  24030757.260    98401924.16644
  21151435.540   111151541.36709  21151431.800    86611576.52048
  24285881.540   127623165.08708  24285881.560    99446623.56846
  22785208.140   119737066.80008  22785207.700    93301602.02347
 15 02 22 07 27 30.0000000  0 10G01G03G04G09G11G17G20G23G31G32
  20753303.860   109059342.23309  20753305.240    84981308.43949
  20541411.780   107945841.52209  20541412.460    84113644.48048
  22507261.700   118276443.85109  22507261.560    92163457.66647
  22885295.520   120263041.24309  22885296.640    93711466.99847
  21685732.060   113959278.89809  21685729.920    88799426.73548
  22026275.340   115748854.67109  22026273.220    90193904.82148
  24015535.100   126202475.49908  24015533.600    98339585.24045
  21140513.040   111094143.37409  21140509.260    86566850.81148
  24285555.140   127621449.63308  24285555.100    99445286.84946
  22800326.020   119816511.61208  22800325.640    93363507.00446
 15 02 22 07 28  0.0000000  0 10G01G03G04G09G11G17G20G23G31G32
  20759244.960   109090563.33909  20759246.440    85005636.52549
  20544391.360   107961499.85409  20544392.140    84125845.76448
  22522160.260   118354736.17609  22522160.100    92224464.60046
  22865979.420   120161534.38709  22865980.540    93632370.73647
  21701108.100   114040080.58409  21701106.080    88862389.01847
  22018043.040   115705593.30609  22018040.900    90160194.63448
  24000332.300   126122583.62608  24000330.600    98277331.77944
  21129673.960   111037183.72609  21129670.200    86522466.67048
  24285326.360   127620246.97608  24285326.060    99444349.72646
  22815452.680   119896002.49408  22815452.320    93425447.89646
 15 02 22 07 28 30.0000000  0 10G01G03G04G09G11G17G20G23G31G32
  20765254.520   109122144.26109  20765256.140    85030244.98249
  20547414.520   107977386.91909  20547415.360    84138225.28148
  22537105.340   118433272.83109  22537105.120    92285661.93047
  22846708.100   120060262.76409  22846709.220    93553457.78047
  21716547.620   114121215.89809  21716545.700    88925611.26748
  22009910.700   115662857.12909  22009908.520    90126893.67648
  23985149.300   126042795.93108  23985147.640    98215159.47945
  21118917.480   110980658.14509  21118913.780    86478420.76248
  24285194.180   127619551.94508  24285193.720    99443808.13146
  22830586.940   119975532.85308  22830586.540    93487419.55347
 15 02 22 07 29  0.0000000  0 10G01G03G04G09G11G17G20G23G31G32
  20771334.200   109154093.38109  20771335.980    85055140.34949
  20550482.580   107993509.92209  20550483.460    84150788.64048
  22552098.160   118512060.79509  22552098.040    92347055.06546
  22827483.480   119959236.57809  22827484.600    93474736.06447
  21732051.900   114202691.59209  21732050.060    88989098.74948
  22001880.080   115620655.56309  22001877.880    90094009.29848
  23969987.580   125963120.69408  23969985.840    98153074.81644
  21108245.380   110924576.02309  21108241.760    86434720.40548
  24285160.300   127619373.34008  24285159.700    99443668.94845
  22845730.020   120055109.56108  22845729.460    93549427.31846
 15 02 22 07 29 30.0000000  0 10G01G03G04G09G11G17G20G23G31G32
  20777483.420   109186407.63809  20777485.280    85080320.23849
  20553594.720   108009864.57509  20553595.700    84163532.50948
  22567138.120   118591096.09709  22567137.980    92408640.95147
  22808305.360   119858454.77209  22808306.440    93396204.76847
  21747620.000   114284502.60409  21747618.280    89052847.52247
  21993950.820   115578986.83909  21993948.640    90061540.13848
  23954846.600   125883554.66708  23954844.760    98091075.25344
  21097657.300   110868935.32109  21097653.660    86391364.01048
  24285224.180   127619708.80508  24285223.480    99443930.31545
  22860881.000   120134728.34808  22860880.420    93611467.87246
 15 02 22 07 30  0.0000000  0 10G01G03G04G09G11G17G20G23G31G32
  20783701.760   109219085.10609  20783703.620    85105783.14349
  20556750.340   108026447.74409  20556751.420    84176454.42548
  22582224.640   118670375.85909  22582224.540    92470417.30946
  22789173.760   119757917.22509  22789174.780    93317863.80447
  21763251.260   114366645.33309  21763249.560    89116854.77047
  21986122.840   115537850.21709  21986120.700    90029485.58648
  23939725.920   125804095.72508  23939724.280    98029159.12845
  21087153.000   110813734.79709  21087149.280    86348350.60548
  24285385.580   127620556.55008  24285384.720    99444590.86745
  22876039.280   120214385.72908  22876038.780    93673538.50346
 15 02 22 07 30 30.0000000  0 10G01G03G04G09G11G17G20G23G31G32
  20789989.920   109252129.32309  20789991.700    85131531.84149
  20559949.920   108043261.70809  20559951.020    84189556.18948
  22597358.120   118749902.24909  22597358.100    92532385.85446
  22770089.640   119657629.39809  22770090.660    93239717.43747
  21778945.960   114449121.42209  21778944.280    89181121.78547
  21978396.960   115497250.14409  21978394.880    89997849.13948
  23924626.300   125724747.36608  23924625.140    97967329.18345
  21076733.340   110758979.06109  21076729.580    86305683.79848
  24285645.140   127621920.44208  24285644.060    99445653.60945
  22891205.340   120294083.92209  22891204.900    93735640.93046
 15 02 22 07 31  0.0000000  0 10G01G03G04G09G11G17G20G23G31G32
  20796347.180   109285536.70309  20796348.920    85157563.52249
  20563192.600   108060301.73109  20563193.620    84202834.09448
  22612537.660   118829670.93709  22612537.680    92594543.20347
  22751052.720   119557589.59809  22751053.760    93161764.33647
  21794703.100   114531925.46009  21794701.360    89245644.35047
  21970772.780   115457184.43209  21970770.700    89966629.08148
  23909547.020   125645505.44608  23909546.000    97905582.16945
  21066397.860   110704665.35109  21066394.000    86263361.42248
  24286002.380   127623797.65908  24286001.280    99447116.34945
  22906378.320   120373817.93208  22906377.740    93797771.28246
 15 02 22 07 31 30.0000000  0 10G01G03G04G09G11G17G20G23G31G32
  20802774.520   109319312.20409  20802776.240    85183882.04949
  20566479.000   108077571.57709  20566479.960    84216291.08648
  22627764.020   118909685.77308  22627764.020    92656892.34847
  22732064.300   119457804.75609  22732065.420    93084009.91047
  21810523.280   114615060.70209  21810521.540    89310424.98247
  21963251.460   115417659.24509  21963249.400    89935830.20548
  23894489.060   125566375.08008  23894488.160    97843922.09745
  21056147.640   110650799.60509  21056143.700    86221388.11248
  24286458.260   127626193.35308  24286457.240    99448983.08745
  22921558.760   120453591.37508  22921558.120    93859932.35347
 15 02 22 07 32  0.0000000  0 10G01G03G04G09G11G17G20G23G31G32
  20809271.080   109353451.33109  20809272.780    85210483.93049
  20569808.060   108095065.61409  20569809.040    84229922.76248
  22643036.100   118989941.12609  22643036.180    92719428.92346
  22713123.860   119358272.21909  22713125.080    93006452.09547
  21826405.240   114698520.52409  21826403.500    89375458.54647
  21955832.220   115378670.74209  21955830.220    89905449.54148
  23879451.540   125487351.49608  23879450.420    97782345.20445
  21045981.940   110597378.11609  21045978.000    86179760.97948
  24287012.000   127629103.31108  24287010.980    99451250.55845
  22936745.600   120533398.46408  22936744.900    93922119.62746
 15 02 22 07 32 30.0000000  0 10G01G03G04G09G11G17G20G23G31G32
  20815838.300   109387961.62509  20815839.940    85237375.03149
  20573181.000   108112790.17809  20573181.940    84243734.08348
  22658355.280   119070443.86109  22658355.460    92782158.25746
  22694233.240   119259001.49109  22694234.540    92929098.28747
  21842350.080   114782310.81109  21842348.360    89440749.61248
  21948516.860   115340228.00509  21948514.860    89875494.14648
  23864435.840   125408442.31008  23864434.420    97720857.47945
  21035902.340   110544409.26009  21035898.460    86138486.55048
  24287665.140   127632535.36708  24287664.100    99453924.88345
  22951940.080   120613245.40908  22951939.340    93984337.97346
 15 02 22 07 33  0.0000000  0 10G01G03G04G09G11G17G20G23G31G32
  20822474.580   109422834.78609  20822476.160    85264548.88449
  20576596.000   108130735.91209  20576596.920    84257717.73848
  22673719.720   119151184.40109  22673719.900    92845072.87647
  22675391.220   119159986.17609  22675392.600    92851943.50047
  21858355.820   114866421.28709  21858354.100    89506290.16347
  21941304.060   115302323.96809  21941301.980    89845958.50048
  23849440.160   125329638.71508  23849438.620    97659452.02745
  21025907.420   110491885.80609  21025903.660    86097559.18148
  24288416.120   127636481.78008  24288415.040    99456999.99245
  22967140.200   120693122.72808  22967139.360    94046579.98146
 15 02 22 07 33 30.0000000  0 10G01G03G04G09G11G17G20G23G31G32
  20829180.960   109458076.58309  20829182.520    85292009.99249
  20580053.920   108148907.39109  20580054.860    84271877.29748
  22689130.300   119232167.37209  22689130.500    92908176.41247
  22656599.220   119061233.90909  22656600.700    92774993.70447
  21874423.300   114950856.35409  21874421.640    89572083.65447
  21934195.020   115264965.33509  21934192.880    89816847.86048
  23834465.660   125250946.60508  23834464.060    97598133.47245
  21015998.500   110439814.36109  21015994.820    86056984.03848
  24289266.000   127640948.30508  24289265.100    99460480.36445
  22982346.980   120773034.70808  22982346.180    94108849.00246
 15 02 22 07 34  0.0000000  0 10G01G03G04G09G11G17G20G23G31G32
  20835957.140   109493685.45009  20835958.700    85319757.12849
  20583554.340   108167301.96209  20583555.280    84286210.70548
  22704586.560   119313390.28609  22704586.740    92971466.91447
  22637857.400   118962745.11209  22637858.900    92698249.20747
  21890551.860   115035612.29909  21890550.240    89638127.17147
  21927189.620   115228151.34709  21927187.420    89788161.61748
  23819511.940   125172364.17908  23819510.280    97536900.38444
  21006175.440   110388194.02709  21006171.780    86016760.40548
  24290214.640   127645933.83108  24290213.840    99464365.21244
  22997559.840   120852978.69208  22997559.340    94171142.93747
 15 02 22 07 34 30.0000000  0 10G01G03G04G09G11G17G20G23G31G32
  20842803.020   109529660.59809  20842804.560    85347789.67849
  20587096.860   108185917.76709  20587097.820    84300716.50548
  22720088.220   119394851.52309  22720088.400    93034943.12346
  22619165.960   118864520.91109  22619167.380    92621710.89547
  21906741.020   115120686.54109  21906739.440    89704418.72147
  21920287.900   115191882.61009  21920285.740    89759900.25448
  23804578.960   125093890.48508  23804577.200    97475752.03245
  20996438.280   110337024.98009  20996434.560    85976888.42848
  24291261.900   127651437.84808  24291261.280    99468654.04145
  23012778.480   120932952.56308  23012777.920    94233460.18146
 15 02 22 07 35  0.0000000  0 10G01G03G04G09G11G17G20G23G31G32
  20849719.920   109566008.91309  20849721.380    85376113.01449
  20590682.560   108204760.55109  20590683.500    84315399.16548
  22735636.320   119476556.85909  22735636.500    93098609.53746
  22600526.540   118766570.12409  22600527.940    92545385.62947
  21922991.740   115206084.13409  21922990.140    89770962.23447
  21913491.380   115156166.95609  21913489.280    89732069.86448
  23789667.700   125015532.22808  23789666.240    97414693.66045
  20986788.500   110286314.96209  20986784.680    85937374.14148
  24292409.120   127657467.37807  24292408.820    99473352.38345
  23028003.760   121012962.07308  23028003.200    94295805.18246
 15 02 22 07 35 30.0000000  0 10G01G03G04G09G11G17G20G23G31G32
  20856706.460   109602722.99309  20856707.820    85404721.35149
  20594309.840   108223821.89909  20594310.720    84330252.13748
  22751229.220   119558497.87609  22751229.540    93162459.60046
  22581938.120   118668887.28609  22581939.580    92469269.16347
  21939302.260   115291795.82209  21939300.520    89837750.49547
  21906798.940   115120998.00709  21906796.820    89704665.46548
  23774777.020   124937282.23508  23774775.800    97353719.64444
  20977224.800   110236057.51309  20977220.960    85898212.50448
  24293654.860   127664015.37007  24293654.980    99478454.68245
  23043234.220   121092998.61208  23043233.820    94358171.23046
 15 02 22 07 36  0.0000000  0 10G01G03G04G09G11G17G20G23G31G32
  20863762.980   109639804.68009  20863764.240    85433616.14149
  20597978.880   108243102.55609  20597979.760    84345275.99948
  22766867.080   119640675.25809  22766867.340    93226493.83846
  22563401.400   118571476.17009  22563402.860    92393364.42247
  21955672.580   115377821.97209  21955670.780    89904783.78948
  21900211.140   115086379.00309  21900209.080    89677689.61048
  23759907.380   124859142.21008  23759906.120    97292831.32944
  20967747.640   110186255.11409  20967743.880    85859405.44848
  24294999.620   127671083.87907  24295000.160    99483962.58045
  23058470.000   121173062.76608  23058469.700    94420558.80147
 15 02 22 07 36 30.0000000  0 10G01G03G04G09G11G17G20G23G31G32
  20870889.840   109677256.24909  20870891.080    85462799.15149
  20601689.920   108262603.75609  20601690.760    84360471.71248
  22782550.180   119723090.43709  22782550.360    93290713.37046
  22544917.160   118474340.94609  22544918.640    92317674.65647
  21972102.740   115464162.66409  21972100.960    89972062.17747
  21893728.620   115052312.97309  21893726.600    89651144.63148
  23745059.160   124781114.14008  23745057.820    97232030.24444
  20958357.680   110136910.98209  20958353.960    85820955.48248
  24296443.980   127678675.44307  24296445.020    99489878.01746
  23073711.320   121253155.73708  23073710.780    94482968.84046
 15 02 22 07 37  0.0000000  0 10G01G03G04G09G11G17G20G23G31G32
  20878086.120   109715072.72709  20878087.320    85492266.50649
  20605441.800   108282319.53509  20605442.620    84375834.63348
  22798277.420   119805737.41209  22798277.540    93355113.51846
  22526484.860   118377478.66409  22526486.320    92242197.56947
  21988591.440   115550811.09209  21988589.740    90039580.36547
  21887350.540   115018795.93109  21887348.640    89625027.43948
  23730231.340   124703192.93608  23730230.160    97171312.43145
  20949054.160   110088021.00909  20949050.520    85782859.41148
  24297987.220   127686785.19507  24297988.360    99496197.30846
  23088956.880   121333271.50308  23088956.560    94545396.62046
 15 02 22 07 37 30.0000000  0 10G01G03G04G09G11G17G20G23G31G32
  20885353.280   109753261.81009  20885354.440    85522024.20749
  20609235.780   108302256.52809  20609236.500    84391369.92948
  22814050.100   119888622.74009  22814050.280    93419699.40846
  22508106.300   118280898.91009  22508107.760    92166940.63247
  22005139.860   115637773.25509  22005138.140    90107343.01847
  21881078.580   114985836.61909  21881076.800    89599344.84448
  23715425.340   124625386.37708  23715424.180    97110683.96545
  20939838.700   110039593.51909  20939835.060    85745123.70948
  24299630.620   127695421.28807  24299631.760    99502926.66446
  23104207.960   121413416.47208  23104207.920    94607847.16246
 15 02 22 07 38  0.0000000  0 10G01G03G04G09G11G17G20G23G31G32
  20892690.200   109791817.38609  20892691.360    85552067.47749
  20613070.520   108322407.65209  20613071.120    84407072.08748
  22829866.820   119971739.65509  22829867.040    93484465.74146
  22489780.760   118184597.55509  22489782.240    92091900.62647
  22021746.520   115725041.41209  22021744.780    90175344.10547
  21874911.800   114953429.87109  21874910.100    89574092.81448
  23700639.980   124547688.14408  23700638.800    97050139.89445
  20930710.300   109991623.39809  20930706.640    85707744.40448
  24301373.200   127704577.51807  24301374.340    99510061.36046
  23119463.240   121493583.54708  23119463.160    94670314.92446
 15 02 22 07 38 30.0000000  0 10G01G03G04G09G11G17G20G23G31G32
  20900097.540   109830742.81509  20900098.700    85582398.94449
  20616946.420   108342775.29509  20616946.940    84422942.95948
  22845728.000   120055090.29809  22845728.060    93549414.20446
  22471509.240   118088579.95109  22471510.680    92017081.73247
  22038411.700   115812617.16609  22038409.980    90243584.87948
  21868851.000   114921579.99709  21868849.300    89549274.70848
  23685875.920   124470101.67608  23685874.620    96989682.90444
  20921669.720   109944114.70609  20921666.080    85670724.64448
  24303215.420   127714257.54008  24303216.400    99517604.18546
  23134723.300   121573774.95408  23134722.940    94732801.66546
 15 02 22 07 39  0.0000000  0 11G01G03G04G06G09G11G17G20G23G31G32
  20907575.420   109870038.99809  20907576.560    85613019.31649
  20620863.460   108363359.35809  20620863.960    84438982.46748
  22861633.600   120138674.41509  22861633.560    93614544.61146
  24654059.360   129557954.89708  24654060.020   100954256.06645
  22453292.220   117992848.87009  22453293.600    91942486.09747
  22055135.140   115900499.19209  22055133.500    90312064.29647
  21862896.560   114890289.04909  21862894.860    89524892.13748
  23671133.080   124392627.62908  23671131.840    96929313.51745
  20912717.340   109897069.35309  20912713.700    85634065.92748
  24305157.620   127724462.29308  24305158.320    99525555.93146
  23149988.000   121653990.46908  23149987.480    94795307.16946
 15 02 22 07 39 30.0000000  0 11G01G03G04G06G09G11G17G20G23G31G32
  20915123.900   109909706.26809  20915125.060    85643928.82849
  20624821.540   108384159.19009  20624822.060    84455190.10848
  22877583.600   120222491.64209  22877583.580    93679856.64146
  24635694.420   129461446.43008  24635695.640   100879054.54146
  22435130.200   117897406.68209  22435131.540    91868115.56347
  22071916.600   115988686.06009  22071915.000    90380781.24847
  21857048.680   114859558.28209  21857046.980    89500946.05248
  23656411.680   124315266.64408  23656410.600    96869032.20345
  20903853.320   109850488.23509  20903849.620    85597768.94448
  24307199.760   127735192.30908  24307200.220    99533916.93446
  23165257.040   121734229.55608  23165256.660    94857831.03346
 15 02 22 07 40  0.0000000  0 11G01G03G04G06G09G11G17G20G23G31G32
  20922742.720   109949743.25109  20922743.940    85675126.44249
  20628820.260   108405172.53509  20628820.780    84471564.12048
  22893577.520   120306539.52609  22893577.580    93745348.41146
  24617324.380   129364911.39507  24617326.140   100803832.45647
  22417023.260   117802253.95509  22417024.620    91793970.59947
  22088755.500   116077174.89309  22088754.000    90449733.50347
  21851307.220   114829386.83509  21851305.520    89477435.81548
  23641711.380   124238017.29408  23641710.520    96808837.85145
  20895077.560   109804370.80109  20895073.720    85561833.27748
  24309341.640   127746446.33208  24309341.840    99542686.29146
  23180530.020   121814489.77608  23180529.780    94920371.37646
 15 02 22 07 40 30.0000000  0 11G01G03G04G06G09G11G17G20G23G31G32
  20930431.980   109990150.66409  20930433.280    85706612.69449
  20632859.540   108426399.12609  20632860.060    84488104.30848
  22909615.240   120390817.93209  22909615.260    93811019.81146
  24598949.580   129268351.76007  24598951.760   100728591.10446
  22398971.920   117707393.35709  22398973.320    91720053.26248
  22105651.680   116165964.55109  22105650.240    90518920.16748
  21845672.600   114799777.09809  21845670.960    89454363.27248
  23627032.520   124160880.23908  23627031.880    96748731.00645
  20886390.320   109758718.56809  20886386.320    85526260.11548
  24311583.280   127758225.16108  24311583.280    99551864.57246
  23195807.000   121894770.77108  23195806.880    94982927.91447
 15 02 22 07 41  0.0000000  0 11G01G03G04G06G09G11G17G20G23G31G32
  20938191.580   110030927.89209  20938193.020    85738387.10749
  20636939.140   108447837.48509  20636939.600    84504809.49848
  22925696.480   120475325.20309  22925696.540    93876869.54046
  24580570.080   129171767.97307  24580571.800   100653330.99643
  22380976.420   117612826.25109  22380977.820    91646364.62047
  22122604.640   116255052.62609  22122603.220    90588339.36348
  21840144.880   114770729.17809  21840143.280    89431728.49648
  23612375.080   124083854.79808  23612374.720    96688711.10845
  20877791.640   109713531.67209  20877787.480    85491049.54248
  24313924.660   127770528.41008  24313924.440    99561451.52446
  23211087.620   121975070.97408  23211087.620    95045499.40046
 15 02 22 07 41 30.0000000  0 11G01G03G04G06G09G11G17G20G23G31G32
  20946021.140   110072072.50009  20946022.640    85770447.79949
  20641058.380   108469484.25509  20641058.820    84521677.09848
  22941820.620   120560057.85008  22941820.820    93942894.88946
  24562185.900   129075158.99907  24562186.580   100578051.11245
  22363036.660   117518552.21809  22363038.040    91572904.35947
  22139613.640   116344435.03009  22139612.180    90657987.90948
  21834723.720   114742241.10209  21834722.060    89409529.97148
  23597738.560   124006938.46808  23597737.980    96628776.21345
  20869281.120   109668808.24309  20869276.840    85456200.12148
  24316365.320   127783353.69208  24316365.020    99571445.21746
  23226371.340   122055386.99408  23226371.420    95108083.22246
 15 02 22 07 42  0.0000000  0 11G01G03G04G06G09G11G17G20G23G31G32
  20953921.420   110113588.68609  20953922.980    85802798.01849
  20645217.940   108491342.73809  20645218.300    84538709.66548
  22957988.240   120645019.20809  22957988.560    94009098.45546
  24543798.080   128978530.11908  24543799.160   100502755.84246
  22345153.800   117424577.35109  22345155.120    91499677.21547
  22156679.000   116434113.83709  22156677.520    90727867.42547
  21829410.180   114714318.50309  21829408.480    89387772.07148
  23583123.700   123930135.61208  23583122.760    96568929.73845
  20860859.760   109624553.60609  20860855.480    85421715.98248
  24318906.080   127796705.12608  24318905.820    99581848.91246
  23241658.740   122135722.09308  23241658.760    95170681.92646
 15 02 22 07 42 30.0000000  0 11G01G03G04G06G09G11G17G20G23G31G32
  20961891.920   110155473.95109  20961893.600    85835435.83849
  20649417.140   108513409.56009  20649417.480    84555904.57148
  22974198.780   120730205.82709  22974199.040    94075477.55446
  24525406.380   128881880.14308  24525407.920   100427444.13546
  22327327.800   117330901.20509  22327329.040    91426682.84447
  22173799.980   116524085.04909  22173798.520    90797974.79447
  21824203.940   114686959.43809  21824202.180    89366453.28848
  23568530.000   123853443.74308  23568528.940    96509169.73745
  20852527.220   109580765.83909  20852523.000    85387595.64448
  24321546.420   127810580.45608  24321546.140    99592660.85146
  23256949.060   122216072.85708  23256949.040    95233292.80346
 15 02 22 07 43  0.0000000  0 11G01G03G04G06G09G11G17G20G23G31G32
  20969933.260   110197731.32309  20969935.020    85868363.60549
  20653656.380   108535686.94009  20653656.720    84573263.53748
  22990452.580   120815619.73909  22990452.880    94142033.74146
  24507011.660   128785213.37908  24507013.220   100352119.26846
  22309559.600   117237528.76009  22309560.840    91353925.11348
  22190976.840   116614349.90809  22190975.440    90868310.97048
  21819105.700   114660167.79309  21819103.880    89345576.64948
  23553957.880   123776865.93108  23553956.720    96449498.62145
  20844284.240   109537448.79409  20844280.040    85353842.09948
  24324286.960   127824982.55608  24324286.680    99603883.23645
  23272242.860   122296441.36208  23272242.700    95295917.52646
 15 02 22 07 43 30.0000000  0 11G01G03G04G06G09G11G17G20G23G31G32
  20978045.420   110240360.91209  20978047.180    85901581.40949
  20657935.560   108558174.13309  20657935.900    84590786.00548
  23006749.480   120901260.06109  23006749.700    94208766.36946
  24488613.640   128688531.11606  24488615.420   100276782.40046
  22291849.600   117144462.09009  22291850.840    91281405.66647
  22208209.200   116704906.48709  22208207.880    90938874.46647
  21814115.720   114633944.81909  21814113.840    89325143.11848
  23539407.420   123700402.49808  23539406.360    96389916.65845
  20836130.940   109494603.13909  20836126.760    85320455.87448
  24327127.820   127839911.83107  24327127.360    99615516.43944
  23287539.760   122376826.90708  23287539.700    95358555.52746
 15 02 22 07 44  0.0000000  0 11G01G03G04G06G09G11G17G20G23G31G32
  20986228.600   110283363.62909  20986230.380    85935089.96549
  20662254.680   108580871.20109  20662255.020    84608471.99948
  23023089.480   120987126.84909  23023089.660    94275675.45746
  24470212.920   128591835.63608  24470215.160   100201435.25146
  22274198.300   117051704.09209  22274199.580    91209126.74048
  22225496.940   116795754.24009  22225495.740    91009664.84947
  21809234.280   114608292.18709  21809232.400    89305154.01948
  23524878.820   123624054.25808  23524877.840    96330424.45545
  20828067.640   109452230.54809  20828063.440    85287438.26948
  24330069.040   127855369.19407  24330068.580    99627561.08345
  23302839.840   122457229.44308  23302839.880    95421206.77046
 15 02 22 07 44 30.0000000  0 11G01G03G04G06G09G11G17G20G23G31G32
  20994481.560   110326733.00009  20994483.380    85968884.23349
  20666612.340   108603770.92509  20666612.700    84626315.91748
  23039471.120   121073212.59709  23039471.260    94342755.16546
  24451808.900   128495121.86607  24451811.320   100126073.82846
  22256604.900   116959250.34809  22256606.140    91137084.89348
  22242838.560   116886884.86809  22242837.400    91080675.65747
  21804460.300   114583204.16509  21804458.400    89285604.86448
  23510370.840   123547814.67108  23510370.160    96271016.94245
  20820093.300   109410325.39209  20820089.100    85254784.89648
  24333109.520   127871348.20207  24333109.320    99640012.24744
  23318141.840   122537641.78108  23318142.000    95483865.65646
 15 02 22 07 45  0.0000000  0 11G01G03G04G06G09G11G17G20G23G31G32
  21002805.780   110370476.88309  21002807.660    86002970.33249
  20671009.900   108626880.25309  20671010.280    84644323.16048
  23055895.740   121159524.26009  23055896.000    94410010.91946
  24433402.940   128398398.86008  24433405.200   100050705.17945
  22239071.240   116867110.57209  22239072.520    91065287.70748
  22260235.140   116978304.22409  22260233.980    91151911.45947
  21799795.400   114558689.49509  21799793.540    89266502.49348
  23495885.120   123471691.75708  23495884.640    96211700.37545
  20812209.580   109368896.20909  20812205.380    85222502.42648
  24336250.520   127887856.42807  24336250.920    99652875.73245
  23333447.160   122618070.72408  23333447.280    95546537.49246
 15 02 22 07 45 30.0000000  0 11G01G03G04G06G09G11G17G20G23G31G32
  21011200.000   110414588.46209  21011201.920    86037342.94349
  20675445.880   108650191.64009  20675446.300    84662487.85048
  23072361.840   121246053.98208  23072362.220    94477436.58446
  24414994.620   128301661.35008  24414996.620    99975325.23646
  22221596.440   116775279.96709  22221597.740    90993731.41648
  22277685.080   117070004.08809  22277683.980    91223365.82947
  21795238.360   114534741.84409  21795236.540    89247841.95148
  23481420.440   123395679.01108  23481419.820    96152469.62745
  20804415.240   109327936.88309  20804411.180    85190586.06248
  24339491.240   127904887.08108  24339491.860    99666146.35145
  23348754.140   122698508.93208  23348754.260    95609216.52946
 15 02 22 07 46  0.0000000  0 11G01G03G04G06G09G11G17G20G23G31G32
  21019664.780   110459071.00009  21019666.680    86072004.61349
  20679920.860   108673707.69809  20679921.260    84680812.02148
  23088869.860   121332804.23308  23088870.360    94545034.07846
  24396584.500   128204914.07708  24396586.160    99899937.65045
  22204181.480   116683763.91609  22204182.800    90922420.24547
  22295188.600   117161985.56809  22295187.500    91295039.64447
  21790790.100   114511365.97009  21790788.340    89229626.94948
  23466977.460   123319779.84008  23466976.680    96093327.42445
  20796711.040   109287451.19909  20796707.140    85159038.78248
  24342832.140   127922443.59207  24342832.920    99679826.68645
  23364063.300   122778958.77408  23364063.320    95671904.64346
 15 02 22 07 46 30.0000000  0 11G01G03G04G06G09G11G17G20G23G31G32
  21028199.860   110503923.12509  21028201.740    86106954.27249
  20684434.340   108697426.17509  20684434.740    84699293.91548
  23105419.460   121419772.74208  23105420.060    94612801.64746
  24378172.340   128108156.81608  24378173.240    99824542.26145
  22186826.500   116592562.91709  22186827.780    90851354.54448
  22312745.140   117254245.63509  22312744.020    91366930.52747
  21786450.440   114488560.89709  21786448.760    89211856.71848
  23452555.820   123243992.61708  23452554.700    96034272.44644
  20789096.940   109247438.79209  20789093.120    85127860.28148
  24346273.000   127940524.52208  24346273.620    99693915.65445
  23379374.280   122859418.08608  23379374.260    95734600.13146
 15 02 22 07 47  0.0000000  0 11G01G03G04G06G09G11G17G20G23G31G32
  21036805.860   110549147.91509  21036807.720    86142194.32549
  20688986.760   108721349.49809  20688987.320    84717935.42748
  23122010.980   121506961.59508  23122011.700    94680740.90546
  24359758.980   128011394.23007  24359760.400    99749142.80447
  22169532.480   116501682.08709  22169533.700    90780538.32447
  22330355.000   117346785.96309  22330353.880    91439039.80047
  21782220.080   114466330.34409  21782218.540    89194534.16848
  23438156.080   123168321.00508  23438154.740    95975307.59245
  20781573.560   109207903.14509  20781569.680    85097053.28748
  24349814.180   127959132.69708  24349814.820    99708415.47345
  23394687.440   122939889.19808  23394687.540    95797304.79746
 15 02 22 07 47 30.0000000  0 11G01G03G04G06G09G11G17G20G23G31G32
  21045482.820   110594745.36109  21045484.580    86177724.76249
  20693578.040   108745476.91309  20693578.800    84736735.97848
  23138644.320   121594370.01609  23138645.060    94748851.24646
  24341344.860   127914627.69407  24341346.980    99673740.32746
  22152299.740   116411123.40309  22152301.000    90709973.13548
  22348017.860   117439604.77709  22348016.780    91511366.07747
  21778099.220   114444675.21809  21778097.720    89177660.00148
  23423778.220   123092764.83008  23423776.820    95916432.68344
  20774141.040   109168844.99609  20774137.040    85066618.37848
  24353455.820   127978268.17608  24353456.400    99723326.17946
  23410002.760   123020371.40708  23410002.900    95860018.11646
 15 02 22 07 48  0.0000000  0 11G01G03G04G06G09G11G17G20G23G31G32
  21054230.240   110640713.15109  21054231.960    86213543.78249
  20698207.600   108769805.43909  20698208.420    84755693.23848
  23155318.800   121681994.53508  23155319.600    94817129.98946
  24322929.680   127817856.38107  24322932.080    99598334.08746
  22135128.260   116320886.60909  22135129.540    90639658.76848
  22365732.920   117532697.78009  22365731.860    91583906.00847
  21774087.560   114423594.03409  21774086.160    89161233.05948
  23409421.860   123017321.89608  23409420.540    95857646.01445
  20766799.140   109130262.81009  20766795.000    85036554.34948
  24357197.360   127997928.56108  24357197.760    99738645.92346
  23425319.660   123100861.65808  23425319.740    95922737.72746
 15 02 22 07 48 30.0000000  0 11G01G03G04G06G09G11G17G20G23G31G32
  21063047.720   110687048.90609  21063049.420    86249649.53649
  20702874.840   108794332.00609  20702875.680    84774804.82848
  23172033.780   121769832.01108  23172034.580    94885574.67046
  24304513.740   127721079.54808  24304516.120    99522923.46147
  22118017.940   116230971.27809  22118019.200    90569594.88248
  22383499.400   117626061.02609  22383498.340    91656656.51647
  21770184.840   114403085.29109  21770183.540    89145252.17948
  23395086.720   122941990.03308  23395085.280    95798945.88745
  20759547.480   109092154.92909  20759543.340    85006859.91348
  24361038.260   128018111.58608  24361038.620    99754372.90446
  23440637.440   123181356.85108  23440637.580    95985461.15646
 15 02 22 07 49  0.0000000  0 11G01G03G04G06G09G11G17G20G23G31G32
  21071936.160   110733757.67409  21071937.860    86286045.95249
  20707580.560   108819060.96809  20707581.420    84794074.12248
  23188790.060   121857886.61008  23188790.780    94954188.54046
  24286098.080   127624303.59308  24286100.640    99447513.62346
  22100970.120   116141384.46409  22100971.380    90499786.98948
  22401317.900   117719697.58409  22401316.840    91729619.99247
  21766392.120   114383154.30509  21766390.840    89129721.50648
  23380773.680   122866773.96908  23380772.140    95740335.98845
  20752387.120   109054526.94409  20752383.080    84977539.41848
  24364979.500   128038822.02008  24364979.720    99770510.84546
  23455956.920   123261861.39908  23455957.120    96048191.87646
 15 02 22 07 49 30.0000000  0 11G01G03G04G06G09G11G17G20G23G31G32
  21080894.860   110780835.79709  21080896.580    86322730.16749
  20712323.940   108843988.04209  20712324.860    84813497.77748
  23205586.740   121946153.78808  23205587.420    95022968.04346
  24267682.180   127527526.52108  24267684.240    99372102.81545
  22083984.500   116052124.54109  22083985.700    90430233.79948
  22419187.420   117813602.37209  22419186.420    91802792.47247
  21762708.860   114363798.34409  21762707.520    89114638.89448
  23366482.200   122791671.05708  23366480.500    95681814.24945
  20745317.480   109017375.70609  20745313.600    84948590.39748
  24369020.220   128060055.95008  24369020.420    99787056.73246
  23471277.340   123342370.99308  23471277.620    96110926.52546
 15 02 22 07 50  0.0000000  0 11G01G03G04G06G09G11G17G20G23G31G32
  21089924.700   110828288.02609  21089926.420    86359705.90648
  20717105.860   108869117.32509  20717106.880    84833079.01448
  23222424.620   122034637.41108  23222425.380    95091916.21046
  24249267.200   127430754.55408  24249268.740    99296695.95146
  22067062.360   115963198.23709  22067063.520    90360940.58748
  22437108.580   117907778.54309  22437107.620    91876176.43047
  21759136.100   114345022.80909  21759134.620    89100008.57048
  23352213.040   122716686.06008  23352211.240    95623384.37145
  20738339.660   108980706.88109  20738335.880    84920017.30548
  24373161.420   128081818.11608  24373161.720    99804014.22346
  23486599.600   123422889.83708  23486599.900    96173668.40346
 15 02 22 07 50 30.0000000  0 11G01G03G04G06G09G11G17G20G23G31G32
  21099025.000   110876110.45209  21099026.700    86396970.10148
  20721925.460   108894444.32009  20721926.540    84852814.30548
  23239302.840   122123332.70108  23239303.780    95161029.30446
  24230852.560   127333985.36907  24230854.700    99221291.40447
  22050203.380   115874603.71509  22050204.540    90291905.89248
  22455080.240   118002220.15209  22455079.320    91949767.21947
  21755673.200   114326824.61809  21755671.620    89085828.11948
  23337965.480   122641815.24208  23337963.880    95565043.45945
  20731452.960   108944516.94409  20731449.160    84891817.36448
  24377402.300   128104104.68507  24377402.780    99821380.33746
  23501922.780   123503413.37408  23501923.220    96236413.91346
 15 02 22 07 51  0.0000000  0 11G01G03G04G06G09G11G17G20G23G31G32
  21108195.720   110924303.18109  21108197.480    86434522.85648
  20726782.580   108919968.54209  20726783.660    84872703.28648
  23256221.260   122212238.69708  23256222.280    95230306.57846
  24212438.580   127237220.72808  24212441.260    99145890.39946
  22033407.920   115786343.04309  22033409.080    90223131.35148
  22473102.180   118096925.83609  22473101.300    92023563.78147
  21752320.320   114309204.44009  21752318.620    89072098.06748
  23323739.780   122567058.83308  23323738.040    95506791.66945
  20724657.500   108908806.87909  20724653.680    84863991.35148
  24381742.860   128126915.47507  24381743.400    99839154.91345
  23517246.760   123583941.09308  23517247.320    96299162.68146
 15 02 22 07 51 30.0000000  0 11G01G03G04G06G09G11G17G20G23G31G32
  21117436.700   110972865.13009  21117438.560    86472363.29748
  20731676.920   108945688.28909  20731677.980    84892744.61748
  23273179.420   122301353.50108  23273180.440    95299746.56946
  24194025.760   127140461.21007  24194028.520    99070493.27247
  22016676.200   115698417.18509  22016677.280    90154617.71148
  22491173.820   118191892.60609  22491172.960    92097563.77647
  21749077.400   114292162.22009  21749075.640    89058818.37648
  23309535.700   122492415.72908  23309533.860    95448628.16445
  20717953.200   108873576.07809  20717949.340    84836538.78548
  24386183.040   128150249.25107  24386183.720    99857337.05245
  23532571.220   123664471.26908  23532572.000    96361913.36346
 15 02 22 07 52  0.0000000  0 11G01G03G04G06G09G11G17G20G23G31G32
  21126748.520   111021799.25009  21126750.460    86510493.75348
  20736608.900   108971605.97109  20736610.040    84912940.19148
  23290177.660   122390679.10408  23290178.680    95369350.81446
  24175614.780   127043711.33008  24175618.120    98995103.81647
  22000009.160   115610831.11209  22000010.160    90086368.83648
  22509295.400   118287121.80809  22509294.580    92171768.27047
  21745945.020   114275701.11409  21745943.200    89045991.51748
  23295353.760   122417889.39908  23295352.040    95390555.65645
  20711340.840   108838828.31209  20711337.080    84809462.61248
  24390723.280   128174108.71507  24390724.040    99875928.79745
  23547896.680   123745006.48208  23547897.440    96424667.97546
 15 02 22 07 52 30.0000000  0 11G01G03G04G06G09G11G17G20G23G31G32
  21136130.240   111071100.52709  21136132.220    86548910.30049
  20741577.480   108997715.99609  20741578.740    84933285.64048
  23307214.920   122480210.04208  23307215.980    95439115.05746
  24157205.380   126946967.86208  24157208.240    98919719.16246
  21983406.180   115523581.80009  21983407.180    90018382.37148
  22527465.620   118382606.63209  22527464.860    92246171.95047
  21742922.380   114259816.79709  21742920.500    89033614.08448
  23281193.260   122343475.23808  23281191.680    95332570.52045
  20704819.620   108804559.16109  20704815.980    84782759.37648
  24395362.420   128198488.49007  24395363.240    99894925.95545
  23563221.980   123825540.98908  23563222.640    96487422.03146
 15 02 22 07 53  0.0000000  0 11G01G03G04G06G09G11G17G20G23G31G32
  21145583.000   111120775.28909  21145585.080    86587617.87248
  20746583.740   109024024.14609  20746585.120    84953785.47348
  23324292.180   122569951.40708  23324293.400    95509043.26046
  24138798.360   126850238.54508  24138801.220    98844345.67947
  21966868.920   115436677.59709  21966869.840    89950664.82948
  22545685.360   118478351.83909  22545684.660    92320778.52047
  21740010.780   114244516.15709  21740008.880    89021691.47748
  23267055.340   122269179.54408  23267053.840    95274677.70245
  20698390.840   108770775.37609  20698387.240    84756434.34548
  24400101.940   128223394.73607  24400102.500    99914333.40544
  23578548.340   123906080.75008  23578548.840    96550180.18646
 15 02 22 07 53 30.0000000  0 11G01G03G04G06G09G11G17G20G23G31G32
  21155105.480   111170816.33009  21155107.640    86626610.85648
  20751626.240   109050522.76509  20751627.660    84974433.72048
  23341408.060   122659895.36208  23341409.280    95579129.34046
  24120393.320   126753518.23508  24120396.120    98768979.14046
  21950396.280   115350113.34709  21950397.100    89883212.17948
  22563952.940   118574348.37309  22563952.300    92395580.93247
  21737208.880   114229792.55109  21737207.060    89010218.51148
  23252938.760   122194995.39108  23252937.260    95216871.81145
  20692053.140   108737470.13309  20692049.440    84730482.20648
  24404940.340   128248820.40307  24404940.720    99934145.61144
  23593874.220   123986617.94708  23593874.660    96612936.34546
 15 02 22 07 54  0.0000000  0 11G01G03G04G06G09G11G17G20G23G31G32
  21164699.020   111221230.54509  21164701.200    86665894.61948
  20756706.240   109077218.19009  20756707.620    84995235.31848
  23358563.600   122750047.84708  23358564.740    95649377.89646
  24101991.280   126656815.29007  24101993.940    98693626.17846
  21933990.020   115263897.95309  21933990.760    89816031.37348
  22582269.420   118670601.80409  22582268.860    92470583.51847
  21734518.280   114215653.65709  21734516.540    88999201.15648
  23238844.700   122120929.98608  23238843.100    95159158.45545
  20685807.900   108704651.17109  20685804.080    84704908.98648
  24409878.800   128274772.05907  24409879.140    99954367.64044
  23609200.820   124067159.11708  23609201.340    96675695.59246
 15 02 22 07 54 30.0000000  0 11G01G03G04G06G09G11G17G20G23G31G32
  21174362.600   111272012.72209  21174364.740    86705465.10648
  20761822.700   109104104.74909  20761823.980    85016185.84648
  23375757.700   122840402.80108  23375758.840    95719784.21746
  24083591.880   126560126.44208  24083594.780    98618284.22046
  21917649.540   115178028.23509  21917650.240    89749119.93548
  22600633.500   118767105.20709  22600632.980    92545780.87947
  21731938.120   114202095.11409  21731936.480    88988636.02548
  23224772.300   122046978.43608  23224770.600    95101533.81145
  20679654.280   108672313.95009  20679650.320    84679711.14348
  24414916.440   128301243.94008  24414916.760    99974995.03045
  23624527.100   124147698.52908  23624527.620    96738453.46746
 15 02 22 07 55  0.0000000  0 11G01G03G04G06G09G11G17G20G23G31G32
  21184096.800   111323165.92509  21184098.860    86745324.70448
  20766976.040   109131185.04509  20766977.200    85037287.34548
  23392990.780   122930962.55108  23392992.040    95790350.13746
  24065196.200   126463456.49408  24065198.960    98542956.96146
  21901375.800   115092509.27209  21901376.500    89682481.80748
  22619045.440   118863860.06609  22619044.860    92621174.19247
  21729469.020   114189120.25009  21729467.500    88978525.70748
  23210722.200   121973144.29908  23210720.520    95044000.69345
  20673593.120   108640462.16309  20673589.060    84654891.56748
  24420053.700   128328239.19408  24420053.980    99996030.27346
  23639853.480   124228239.02108  23639854.120    96801212.17146
 15 02 22 07 55 30.0000000  0 11G01G03G04G06G09G11G17G20G23G31G32
  21193900.820   111374686.03809  21193902.860    86785470.20148
  20772165.400   109158454.46409  20772166.420    85058536.21848
  23410261.880   123021721.99308  23410263.200    95861071.64546
  24046803.840   126366803.07808  24046806.440    98467642.58347
  21885168.380   115007338.94209  21885169.140    89616115.34848
  22637504.040   118960860.29609  22637503.420    92696758.69847
  21727110.300   114176725.25309  21727108.840    88968867.24148
  23196693.740   121899423.93208  23196692.140    94986556.22445
  20667623.680   108609092.01909  20667619.580    84630447.30148
  24425289.760   128355753.27008  24425290.020   100017469.75546
  23655179.040   124308775.73108  23655179.760    96863967.93346
 15 02 22 07 56  0.0000000  0 11G01G03G04G06G09G11G17G20G23G31G32
  21203775.660   111426578.46509  21203777.700    86825905.81148
  20777391.700   109185917.98609  20777392.660    85079936.34548
  23427571.820   123112685.70008  23427573.160    95931952.33146
  24028415.720   126270173.40207  24028418.540    98392346.75347
  21869028.740   114922524.69309  21869029.560    89550026.35248
  22656010.160   119058110.09009  22656009.560    92772537.66947
  21724863.100   114164916.41109  21724861.680    88959665.50248
  23182687.860   121825822.68308  23182686.420    94929204.59346
  20661747.080   108578209.53909  20661742.980    84606383.02948
  24430625.460   128383791.34908  24430625.780   100039317.54546
  23670505.060   124389313.87208  23670505.680    96926724.82346
 15 02 22 07 56 30.0000000  0 11G01G03G04G06G09G11G17G20G23G31G32
  21213720.480   111478838.74709  21213722.540    86866628.05048
  20782653.960   109213570.78409  20782654.860    85101483.94548
  23444919.580   123203848.49808  23444920.980    96002988.14246
  24010031.540   126173564.83808  24010034.340    98317067.34346
  21852956.380   114838064.06209  21852957.260    89484212.90648
  22674562.540   119155602.93009  22674561.920    92848506.02147
  21722726.640   114153689.43709  21722725.300    88950917.18348
  23168703.760   121752336.25608  23168702.420    94871942.45345
  20655962.440   108547810.85309  20655958.400    84582695.73348
  24436059.960   128412348.91908  24436060.260   100061570.11346
  23685830.460   124469848.59908  23685831.040    96989479.05146
 15 02 22 07 57  0.0000000  0 11G01G03G04G06G09G11G17G20G23G31G32
  21223735.520   111531467.81709  21223737.560    86907637.67448
  20787952.280   109241413.33909  20787953.160    85123179.42048
  23462305.260   123295210.38208  23462306.720    96074179.10246
  23991651.860   126076980.22807  23991654.900    98241806.63546
  21836951.840   114753960.11009  21836952.760    89418677.40848
  22693161.100   119253338.42309  22693160.460    92924663.46247
  21720701.280   114143046.17209  21720699.960    88942623.70748
  23154741.900   121678966.61008  23154740.600    94814771.31945
  20650270.100   108517897.72509  20650266.100    84559386.81248
  24441593.280   128441426.41307  24441593.620   100084227.83546
  23701155.280   124550380.43808  23701155.760    97052231.04246
 15 02 22 07 57 30.0000000  0 11G01G03G04G06G09G11G17G20G23G31G32
  21233820.840   111584465.99509  21233822.840    86948934.89848
  20793286.680   109269445.62709  20793287.540    85145022.73448
  23479728.760   123386770.80708  23479730.320    96145524.76846
  23973277.440   125980421.77908  23973280.540    98166566.27046
  21821015.600   114670215.05609  21821016.500    89353421.56048
  22711805.540   119351315.11509  22711804.920    93001008.84847
  21718787.120   114132987.20409  21718785.820    88934785.52948
  23140802.360   121605714.12708  23140801.120    94757691.46845
  20644670.260   108488470.70109  20644666.180    84536456.66648
  24447225.060   128471023.79706  24447225.740   100107290.57244
  23716479.420   124630909.33708  23716479.900    97114980.73346
 15 02 22 07 58  0.0000000  0 11G01G03G04G06G09G11G17G20G23G31G32
  21243975.920   111637830.67609  21243977.880    86990517.71148
  20798656.600   109297664.63709  20798657.500    85167011.54248
  23497189.400   123478526.51908  23497190.920    96217022.60546
  23954908.020   125883888.75908  23954910.820    98091345.69446
  21805147.560   114586828.38409  21805148.460    89288444.96648
  22730495.040   119449528.72709  22730494.480    93077538.83747
  21716983.760   114123510.28409  21716982.420    88927400.88948
  23126884.740   121532576.51408  23126883.600    94700701.13646
  20639162.600   108459527.89709  20639158.440    84513903.84448
  24452955.440   128501138.24808  24452956.360   100130756.33545
  23731802.620   124711432.46408  23731803.060    97177725.92646
 15 02 22 07 58 30.0000000  0 11G01G03G04G06G09G11G17G20G23G31G32
  21254200.780   111691562.25509  21254202.740    87032386.42648
  20804062.020   109326070.43109  20804063.020    85189145.89948
  23514687.120   123570477.14808  23514688.540    96288672.32446
  23936543.900   125787383.45308  23936546.780    98016146.76347
  21789348.200   114503802.47109  21789349.120    89223749.49448
  22749229.460   119547978.15609  22749228.920    93154252.58647
  21715291.400   114114616.53509  21715290.000    88920470.67448
  23112989.220   121459554.54108  23112987.880    94643800.92445
  20633747.320   108431070.08009  20633743.080    84491728.93648
  24458784.420   128531769.77108  24458785.180   100154625.05245
  23747124.780   124791949.85508  23747125.160    97240466.65846
 15 02 22 07 59  0.0000000  0 11G01G03G04G06G09G11G17G20G23G31G32
  21264495.840   111745662.68709  21264497.740    87074542.55848
  20809503.280   109354664.61409  20809504.380    85211427.05848
  23532222.160   123662623.79308  23532223.600    96360474.77946
  23918185.480   125690909.73608  23918188.680    97940972.46247
  21773618.260   114421141.30709  21773619.220    89159338.24348
  22768008.780   119646663.65809  22768008.240    93231150.28147
  21713710.460   114106308.34509  21713709.040    88913996.73548
  23099116.200   121386650.57208  23099114.360    94586992.63546
  20628424.760   108403099.69109  20628420.540    84469933.82448
  24464712.280   128562920.08708  24464712.920   100178897.97946
  23762446.080   124872463.27208  23762446.300    97303204.29646
 15 02 22 07 59 30.0000000  0 11G01G03G04G06G09G11G17G20G23G31G32
  21274860.900   111800131.24309  21274862.760    87116985.53148
  20814980.220   109383446.14409  20814981.420    85233854.20348
  23549794.180   123754964.71908  23549795.700    96432428.61546
  23899833.280   125594468.92808  23899836.660    97865823.75847
  21757958.000   114338846.22409  21757958.980    89095212.24148
  22786832.580   119745582.95809  22786831.980    93308230.16847
  21712240.880   114098585.22709  21712239.400    88907978.68648
  23085265.460   121313863.88708  23085263.340    94530275.74245
  20623194.880   108375616.69109  20623190.800    84448518.49348
  24470738.700   128594587.98908  24470739.220   100203574.22546
  23777766.400   124952971.61908  23777766.540    97365937.97445
 15 02 22 08 00  0.0000000  0 11G01G03G04G06G09G11G17G20G23G31G32
  21285295.640   111854966.22409  21285297.560    87159714.03748
  20820492.480   109412413.05309  20820493.680    85256425.79448
  23567402.800   123847497.95408  23567404.360    96504532.30646
  23881487.220   125498061.22707  23881490.920    97790700.90947
  21742367.460   114256917.52309  21742368.420    89031371.72948
  22805700.260   119844732.76809  22805699.580    93385489.66247
  21710882.360   114091445.80709  21710880.860    88902415.47748
  23071436.800   121241193.99408  23071434.900    94473649.87145
  20618057.460   108348619.60609  20618053.420    84427481.80948
  24476863.140   128626771.70807  24476863.680   100228652.37246
  23793085.420   125033473.04008  23793085.320    97428666.26446
 15 02 22 08 00 30.0000000  0 11G01G03G04G06G09G11G17G20G23G31G32
  21295800.780   111910170.81009  21295802.720    87202730.54948
  20826040.560   109441568.20509  20826041.720    85279144.06648
  23585048.320   123940225.37708  23585049.900    96576787.32146
  23863148.680   125401691.93008  23863152.380    97715607.94447
  21726847.640   114175360.39209  21726848.600    88967820.75148
  22824612.140   119944114.91109  22824611.440    93462930.20047
  21709635.680   114084893.95009  21709634.140    88897310.09848
  23057630.840   121168644.20408  23057629.220    94417117.57345
  20613013.320   108322112.45609  20613009.220    84406826.88748
  24483086.120   128659473.80208  24483086.840   100254134.45345
  23808403.660   125113970.50608  23808403.500    97491391.48946
 15 02 22 08 01  0.0000000  0 11G01G03G04G06G09G11G17G20G23G31G32
  21306374.980   111965738.50109  21306376.960    87246029.99348
  20831623.160   109470904.81309  20831624.240    85302003.73448
  23602729.460   124033140.03308  23602731.080    96649188.21646
  23844816.780   125305356.49408  23844820.240    97640541.34647
  21711397.700   114094170.35409  21711398.640    88904555.79748
  22843566.620   120043721.04209  22843565.920    93540545.26747
  21708499.620   114078923.54609  21708498.000    88892657.80748
  23043846.540   121096208.14308  23043845.100    94360673.90445
  20608061.280   108296089.13709  20608057.040    84386548.97648
  24489406.460   128692687.19208  24489407.080   100280015.00545
  23823719.860   125194457.24408  23823719.900    97554108.33746
 15 02 22 08 01 30.0000000  0 11G01G03G04G06G09G11G17G20G23G31G32
  21317018.780   112021671.94509  21317020.820    87289614.44648
  20837240.740   109500425.32209  20837241.800    85325006.71448
  23620446.600   124126243.56908  23620448.160    96721736.31046
  23826492.340   125209059.67408  23826495.440    97565504.84747
  21696018.500   114013352.13109  21696019.400    88841580.58048
  22862563.980   120143552.36509  22862563.300    93618335.82247
  21707474.760   114073537.53209  21707473.080    88888460.88648
  23030084.600   121023889.04108  23030083.360    94304321.34546
  20603201.900   108270552.92009  20603197.660    84366650.62548
  24495824.740   128726414.61408  24495825.040   100306296.09244
  23839034.340   125274935.75608  23839034.740    97616818.75146
 15 02 22 08 02  0.0000000  0 11G01G03G04G06G09G11G17G20G23G31G32
  21327732.620   112077973.30209  21327734.720    87333485.56748
  20842893.680   109530131.66209  20842894.720    85348154.48048
  23638199.940   124219537.51008  23638201.540    96794432.74746
  23808175.780   125112805.66207  23808178.660    97490501.66747
  21680710.820   113932909.86309  21680711.680    88778898.30648
  22881604.300   120243609.39609  22881603.560    93696302.24247
  21706561.560   114068738.37809  21706559.900    88884721.25348
  23016345.620   120951690.10408  23016344.440    94248062.42046
  20598435.640   108245506.09609  20598431.480    84347133.60348
  24502340.980   128760657.59108  24502341.160   100332978.88744
  23854347.640   125355408.06908  23854348.260    97679524.33746
 15 02 22 08 02 30.0000000  0 11G01G03G04G06G09G11G17G20G23G31G32
  21338515.820   112134639.38009  21338517.960    87377640.89348
  20848581.300   109560020.38809  20848582.380    85371444.37648
  23655988.720   124313017.87708  23655990.420    96867274.45546
  23789866.940   125016593.34008  23789870.380    97415531.05247
  21665474.460   113852842.36409  21665475.340    88716508.05148
  22900686.740   120343887.70109  22900685.960    93774441.08247
  21705759.460   114064523.25909  21705757.880    88881436.71648
  23002629.000   120879608.20908  23002627.600    94191894.68146
  20593762.020   108220946.03109  20593757.900    84327995.88848
  24508954.720   128795412.41208  24508954.660   100360060.55544
  23869659.200   125435870.78108  23869659.940    97742222.45846
 15 02 22 08 03  0.0000000  0 11G01G03G04G06G09G11G17G20G23G31G32
  21349368.760   112191672.09309  21349370.960    87422081.90148
  20854303.980   109590093.23809  20854305.000    85394877.73948
  23673813.220   124406685.85208  23673814.940    96940262.35646
  23771566.780   124920426.70908  23771570.580    97340596.04747
  21650310.180   113773153.62709  21650311.140    88654412.93848
  22919811.240   120444387.15109  22919810.460    93852752.24447
  21705068.920   114060894.50509  21705067.400    88878609.08948
  22988935.040   120807645.73708  22988933.500    94135820.01445
  20589181.540   108196875.35209  20589177.420    84309239.50648
  24515666.100   128830680.58208  24515666.120   100387542.19545
  23884969.300   125516325.72608  23884970.160    97804914.50846
 15 02 22 08 03 30.0000000  0 11G01G03G04G06G09G11G17G20G23G31G32
  21360290.480   112249066.23009  21360292.740    87466804.54348
  20860060.680   109620344.86109  20860061.560    85418450.40248
  23691672.380   124500535.64108  23691674.120    97013391.92546
  23753275.120   124824302.87708  23753279.020    97265694.31747
  21635217.360   113693840.46409  21635218.400    88592610.46748
  22938976.560   120545101.20209  22938975.760    93931230.63047
  21704489.000   114057847.19409  21704487.520    88876234.52648
  22975262.800   120735797.71508  22975261.160    94079834.53445
  20584693.260   108173289.25809  20584689.120    84290860.71548
  24522474.000   128866456.31907  24522474.380   100415419.29045
  23900276.960   125596767.66508  23900278.000    97867596.40946
 15 02 22 08 04  0.0000000  0 11G01G03G04G06G09G11G17G20G23G31G32
  21371282.000   112306826.76309  21371284.300    87511812.69948
  20865852.260   109650779.95309  20865853.020    85442166.03848
  23709566.940   124594571.39208  23709568.760    97086666.40146
  23734992.880   124728228.74208  23734996.860    97190831.40647
  21620197.340   113614909.82609  21620198.400    88531106.07648
  22958183.340   120646033.33809  22958182.560    94009878.95047
  21704020.800   114055386.53409  21704019.340    88874317.10048
  22961613.460   120664070.30208  22961611.760    94023943.05746
  20580298.200   108150192.95109  20580294.000    84272863.59148
  24529379.380   128902744.68607  24529380.040   100443695.79645
  23915583.080   125677201.29008  23915584.100    97930271.87045
 15 02 22 08 04 30.0000000  0 11G01G03G04G06G09G11G17G20G23G31G32
  21382342.820   112364951.24409  21382345.140    87557104.44448
  20871678.220   109681395.99709  20871679.100    85466022.67148
  23727496.220   124688789.63308  23727498.080    97160083.07746
  23716720.460   124632204.23808  23716723.440    97116006.99647
  21605250.080   113536361.30309  21605251.120    88469899.42848
  22977430.820   120747179.34209  22977430.060    94088693.91647
  21703663.840   114053510.37309  21703662.380    88872855.12048
  22947986.580   120592461.50508  22947985.160    93968144.00746
  20575996.020   108127584.69309  20575991.800    84255246.76248
  24536381.680   128939542.65607  24536382.580   100472369.36546
  23930887.040   125757624.29208  23930888.100    97992939.03046
 15 02 22 08 05  0.0000000  0 11G01G03G04G06G09G11G17G20G23G31G32
  21393472.760   112423439.16309  21393475.120    87602679.38048
  20877538.520   109712192.35509  20877539.500    85490019.80648
  23745460.040   124783189.47708  23745461.880    97233641.24546
  23698457.420   124536230.84008  23698460.360    97041222.57547
  21590375.820   113458196.44709  21590376.820    88408991.73248
  22996718.720   120848537.59609  22996718.020    94167674.27347
  21703418.100   114052218.73609  21703416.700    88871848.61648
  22934382.160   120520971.29308  22934381.260    93912437.38746
  20571786.700   108105464.46709  20571782.540    84238010.20748
  24543480.860   128976848.87608  24543481.860   100501438.99546
  23946188.960   125838035.99108  23946190.020    98055597.38646
 15 02 22 08 05 30.0000000  0 11G01G03G04G06G09G11G17G20G23G31G32
  21404671.760   112482289.98009  21404674.160    87648537.10048
  20883433.060   109743168.38509  20883434.040    85514156.95248
  23763458.120   124877769.32108  23763459.960    97307339.68046
  23680204.320   124440310.42007  23680207.140    96966479.33747
  21575574.860   113380416.70709  21575575.800    88348384.15448
  23016046.660   120950105.96509  23016045.900    94246818.35747
  21703283.440   114051511.04309  21703282.120    88871297.13448
  22920800.360   120449599.14608  22920799.660    93856822.75246
  20567670.120   108083831.97409  20567666.080    84221153.71948
  24550676.740   129014662.83408  24550677.760   100530904.28246
  23961488.700   125918435.89508  23961489.760    98118246.54346
 15 02 22 08 06  0.0000000  0 11G01G03G04G06G09G11G17G20G23G31G32
  21415939.500   112541502.10909  21415941.900    87694676.35648
  20889361.440   109774322.39009  20889362.500    85538432.77748
  23781490.080   124972527.17208  23781491.900    97381176.82346
  23661961.440   124344443.54608  23661964.480    96891777.87547
  21560847.280   113303022.54609  21560848.160    88288077.01848
  23035414.040   121051881.55409  23035413.280    94326123.91047
  21703259.680   114051385.99609  21703258.400    88871199.65548
  22907241.060   120378344.54808  22907240.420    93801299.71746
  20563646.120   108062686.12409  20563642.160    84204676.43548
  24557968.900   129052982.26108  24557969.880   100560763.46146
  23976785.840   125998822.44108  23976786.960    98180885.26446
 15 02 22 08 06 30.0000000  0 11G01G03G04G06G09G11G17G20G23G31G32
  21427276.340   112601077.35009  21427278.660    87741098.55648
  20895324.040   109805656.08009  20895325.140    85562848.60748
  23799556.100   125067464.13608  23799557.920    97455153.53346
  23643729.400   124248634.26808  23643732.760    96817121.31747
  21546193.780   113226017.77409  21546194.660    88228073.29548
  23054820.780   121153864.08809  23054819.960    94405590.70947
  21703347.200   114051845.67809  21703345.940    88871557.80548
  22893704.720   120307210.12108  22893704.080    93745870.32246
  20559715.180   108042029.03909  20559711.240    84188580.00948
  24565357.460   129091808.32808  24565358.220   100591017.42146
  23992080.660   126079197.31008  23992081.800    98243514.89546
 15 02 22 08 07  0.0000000  0 12G01G03G04G06G09G10G11G17G20G23G31G32
  21438682.200   112661015.01009  21438684.420    87787803.16748
  20901320.700   109837168.68809  20901321.800    85587403.85148
  23817655.900   125162578.58108  23817657.680    97529268.52945
  23625508.880   124152884.26108  23625512.200    96742510.87947
  21531614.540   113149403.67409  21531615.460    88168374.00748
  24414461.800   128298864.44708  24414463.220    99973150.43144
  23074266.500   121256051.71809  23074265.660    94485217.32146
  21703545.940   114052889.78309  21703544.700    88872371.35848
  22880191.060   120236195.16108  22880190.120    93690533.99846
  20555877.280   108021860.54709  20555873.300    84172864.30148
  24572842.120   129131139.90408  24572842.860   100621665.28844
  24007373.180   126159559.92108  24007374.060    98306135.00945
 15 02 22 08 07 30.0000000  0 12G01G03G04G06G09G10G11G17G20G23G31G32
  21450157.820   112721319.24609  21450159.960    87834793.42748
  20907352.280   109868864.38009  20907353.280    85612101.75448
  23835790.120   125257874.12208  23835791.900    97603524.64546
  23607300.760   124057199.88108  23607304.000    96667951.62847
  21517110.840   113073186.48909  21517111.840    88108984.00548
  24398248.160   128213661.58807  24398249.680    99906758.52744
  23093751.800   121358447.31409  23093750.940    94565005.99346
  21703856.700   114054522.42209  21703855.420    88873643.51048
  22866701.040   120165305.08708  22866699.920    93635295.00246
  20552133.260   108002185.26909  20552129.280    84157532.92548
  24580423.700   129170980.73507  24580424.000   100652710.07044
  24022664.340   126239914.47108  24022665.120    98368748.86946
 15 02 22 08 08  0.0000000  0 12G01G03G04G06G09G10G11G17G20G23G31G32
  21461701.260   112781979.99609  21461703.400    87882061.49148
  20913416.780   109900733.02709  20913417.760    85636934.42348
  23853956.760   125353339.96808  23853958.580    97677913.44846
  23589103.760   123961573.50208  23589106.940    96593437.53447
  21502681.140   112997358.11409  21502682.140    88049896.97048
  24382051.260   128128546.22507  24382053.080    99840434.81944
  23113274.460   121461039.44609  23113273.660    94644947.79146
  21704277.520   114056733.80209  21704276.240    88875366.61448
  22853232.960   120094530.16208  22853231.700    93580145.68946
  20548481.140   107982993.41709  20548477.220    84142578.22748
  24588100.020   129211320.08407  24588100.340   100684143.30145
  24037952.020   126320250.91308  24037953.020    98431348.55046
 15 02 22 08 08 30.0000000  0 12G01G03G04G06G09G10G11G17G20G23G31G32
  21473312.960   112842999.59509  21473315.140    87929609.16948
  20919514.660   109932776.92209  20919515.620    85661903.65348
  23872156.160   125448977.60608  23872157.940    97752436.12646
  23570918.500   123866009.72308  23570921.660    96518972.23747
  21488326.280   112921922.91309  21488327.320    87991116.32248
  24365871.880   128043521.54307  24365873.680    99774181.72044
  23132834.640   121563828.60109  23132833.860    94725043.13246
  21704808.920   114059526.43009  21704807.640    88877542.66148
  22839787.340   120023873.33608  22839786.100    93525088.41546
  20544921.520   107964287.79209  20544917.640    84128002.41248
  24595871.480   129252159.98407  24595872.100   100715966.47945
  24053236.460   126400571.79908  24053237.860    98493936.06546
 15 02 22 08 09  0.0000000  0 12G01G03G04G06G09G10G11G17G20G23G31G32
  21484993.160   112904379.43909  21484995.460    87977437.56448
  20925646.180   109964997.56009  20925647.120    85687010.59748
  23890388.440   125544788.09608  23890390.220    97827093.46846
  23552745.820   123770512.32308  23552749.060    96444558.68747
  21474046.900   112846884.33509  21474047.980    87932644.72248
  24349710.140   127958589.71508  24349711.700    99708000.94144
  23152432.300   121666814.68509  23152431.620    94805291.91246
  21705451.240   114062901.90709  21705450.000    88880172.85448
  22826364.640   119953336.73108  22826363.480    93470124.80946
  20541454.880   107946070.27109  20541450.940    84113806.95348
  24603738.460   129293501.27207  24603739.200   100748180.38345
  24068518.480   126480878.56808  24068519.860    98556512.64145
 15 02 22 08 09 30.0000000  0 12G01G03G04G06G09G10G11G17G20G23G31G32
  21496741.520   112966117.43809  21496743.900    88025545.04448
  20931810.900   109997392.80709  20931811.840    85712253.60748
  23908653.000   125640768.48108  23908654.860    97901883.21545
  23534585.960   123675081.62208  23534589.240    96370197.09447
  21459842.920   112772242.24209  21459844.080    87874482.07948
  24333565.720   127873749.47407  24333567.020    99641891.53245
  23172066.780   121769994.29709  23172066.220    94885691.48546
  21706204.060   114066858.05309  21706202.880    88883255.52448
  22812964.580   119882918.46508  22812963.400    93415253.40646
  20538080.860   107928339.19309  20538076.820    84099990.54348
  24611700.460   129335341.49108  24611701.260   100780783.11045
  24083797.560   126561169.04908  24083798.500    98619076.59745
 15 02 22 08 10  0.0000000  0 12G01G03G04G06G09G10G11G17G20G23G31G32
  21508558.280   113028214.74709  21508560.680    88073932.50248
  20938009.000   110029963.91109  20938009.980    85737633.64748
  23926949.980   125736919.21608  23926951.800    97976805.69746
  23516439.540   123579721.21008  23516442.920    96295890.28747
  21445715.020   112697999.81109  21445716.220    87816630.86848
  24317439.100   127789002.65308  24317440.340    99575854.91245
  23191738.080   121873367.18809  23191737.520    94966241.67546
  21707067.680   114071396.45209  21707066.580    88886791.89848
  22799587.500   119812621.18608  22799586.280    93360476.28746
  20534799.620   107911095.97409  20534795.540    84086554.28748
  24619757.400   129377680.84708  24619758.420   100813774.77746
  24099073.640   126641444.90008  24099074.700    98681629.07345
 15 02 22 08 10 30.0000000  0 12G01G03G04G06G09G10G11G17G20G23G31G32
  21520443.120   113090669.82609  21520445.540    88122598.74548
  20944240.240   110062709.34309  20944241.300    85763149.52948
  23945278.920   125833238.11808  23945280.780    98051859.21145
  23498306.720   123484431.96208  23498310.100    96221638.93348
  21431663.280   112624157.50809  21431664.460    87759091.43248
  24301330.100   127704348.31108  24301331.240    99509890.35544
  23211445.620   121976930.54509  23211445.040    95046940.27146
  21708041.820   114076515.81209  21708040.800    88890780.96748
  22786233.200   119742443.66608  22786232.040    93305792.47746
  20531610.820   107894339.34709  20531606.860    84073497.18149
  24627909.080   129420517.36108  24627910.140   100847153.81546
  24114346.540   126721704.63908  24114347.880    98744168.95746
 15 02 22 08 11  0.0000000  0 12G01G03G04G06G09G10G11G17G20G23G31G32
  21532396.100   113153483.13109  21532398.580    88171544.12648
  20950504.800   110095629.68909  20950505.860    85788801.71248
  23963639.900   125929725.04108  23963641.840    98127043.66046
  23480187.880   123389216.74408  23480191.240    96147445.29047
  21417688.160   112550717.77809  21417689.320    87701865.70148
  24285238.960   127619788.02007  24285239.860    99443999.06945
  23231189.180   122080683.17709  23231188.580    95127786.35146
  21709126.580   114082216.42209  21709125.580    88895222.95248
  22772901.840   119672387.14308  22772900.880    93251202.98146
  20528514.860   107878070.50909  20528511.000    84060820.16948
  24636155.240   129463850.79807  24636156.220   100880920.06945
  24129616.660   126801948.77608  24129618.220    98806696.71946
 15 02 22 08 11 30.0000000  0 11G01G03G04G06G09G10G11G17G20G23G32
  21544416.980   113216652.87809  21544419.400    88220767.26448
  20956802.340   110128723.26909  20956803.340    85814588.88748
  23982032.340   126026377.53708  23982034.400    98202357.10545
  23462083.080   123294076.32108  23462086.480    96073309.91047
  21403789.680   112477680.90909  21403790.820    87644953.88248
  24269165.500   127535320.87108  24269166.780    99378180.44644
  23250968.200   122184622.14809  23250967.580    95208777.62846
  21710321.680   114088496.41809  21710320.660    88900116.42948
  22759593.240   119602450.57208  22759592.360    93196706.94146
  20525511.500   107862287.74309  20525507.580    84048521.91848
  24144883.640   126882175.74908  24144884.920    98869211.13745
 15 02 22 08 12  0.0000000  0 11G01G03G04G06G09G10G11G17G20G23G32
  21556506.320   113280182.48309  21556508.700    88270270.81048
  20963133.460   110161993.53509  20963134.480    85840513.73448
  24000456.900   126123198.52308  24000458.960    98277801.84546
  23443993.640   123199016.53208  23443997.200    95999237.37747
  21389968.900   112405052.21709  21389969.980    87588360.11648
  24253110.660   127450951.06307  24253111.780    99312437.65144
  23270783.080   122288749.35709  23270782.440    95289915.59246
  21711627.780   114095359.41309  21711626.700    88905464.17848
  22746308.300   119532638.18008  22746307.380    93142307.70346
  20522601.400   107846994.82009  20522597.320    84036605.36448
  24160147.880   126962389.28608  24160148.660    98931715.11045
 15 02 22 08 12 30.0000000  0 11G01G03G04G06G09G10G11G17G20G23G32
  21568662.480   113344063.52709  21568664.880    88320048.19148
  20969496.660   110195432.27409  20969497.700    85866569.85248
  24018911.740   126220178.62908  24018913.920    98353370.57446
  23425918.820   123104031.51108  23425921.980    95925223.05347
  21376224.560   112332825.32509  21376225.640    87532079.44048
  24237072.780   127366670.87308  24237074.020    99246764.78444
  23290631.960   122393055.20809  23290631.360    95371192.74846
  21713043.300   114102797.46409  21713042.140    88911260.02148
  22733045.520   119462942.13108  22733044.620    93087999.12146
  20519782.900   107832183.37109  20519778.740    84025063.98248
  24175407.840   127042581.10408  24175408.700    98994202.11645
 15 02 22 08 13  0.0000000  0 11G01G03G04G06G09G10G11G17G20G23G32
  21580886.660   113408301.76109  21580889.080    88370103.92648
  20975893.000   110229045.34109  20975894.120    85892761.82348
  24037397.920   126317323.25108  24037400.180    98429067.50945
  23407859.640   123009129.52208  23407862.800    95851273.47247
  21362558.160   112261008.01109  21362559.240    87476117.91148
  24221053.140   127282486.83607  24221054.300    99181166.85144
  23310515.520   122497543.57909  23310514.980    95452612.13346
  21714569.260   114110815.99909  21714568.020    88917508.20748
  22719806.260   119393369.39808  22719805.360    93033786.63846
  20517057.220   107817860.11709  20517053.120    84013903.00948
  24190664.980   127122757.24308  24190666.160    99056676.88246
 15 02 22 08 13 30.0000000  0 11G01G03G04G06G09G10G11G17G20G23G32
  21593178.140   113472893.78309  21593180.620    88420435.30948
  20982321.980   110262829.52509  20982323.120    85919087.13148
  24055914.580   126414628.24908  24055916.840    98504889.40145
  23389816.100   122914309.73008  23389819.300    95777387.92347
  21348969.440   112189598.82709  21348970.540    87420474.39048
  24205051.360   127198396.51308  24205052.440    99115641.94944
  23330432.920   122602209.83709  23330432.540    95534170.11246
  21716204.960   114119411.62909  21716203.760    88924206.05648
  22706589.900   119323916.76008  22706589.000    92979667.73846
  20514423.840   107804021.56509  20514419.780    84003119.71548
  24205918.700   127202914.54508  24205919.940    99119136.96045
 15 02 22 08 14  0.0000000  0 11G01G03G04G06G09G10G11G17G20G23G32
  21605537.700   113537843.66709  21605540.260    88471045.56648
  20988784.340   110296789.09909  20988785.460    85945549.10848
  24074462.360   126512097.06508  24074464.760    98580838.94046
  23371789.380   122819578.75609  23371792.500    95703571.58447
  21335459.520   112118603.86209  21335460.680    87365153.64749
  24189068.120   127114404.82408  24189069.400    99050193.94944
  23350384.720   122707056.90609  23350384.440    95615868.98546
  21717951.300   114128588.76309  21717950.200    88931357.02848
  22693397.420   119254589.42908  22693396.440    92925646.47246
  20511883.680   107790672.43209  20511879.540    83992717.78348
  24221169.480   127283057.52808  24221170.660    99181585.89245
 15 02 22 08 14 30.0000000  0 11G01G03G04G06G09G10G11G17G20G23G32
  21617963.980   113603144.10109  21617966.600    88521928.97848
  20995278.700   110330916.91009  20995279.800    85972142.18548
  24093039.880   126609721.84608  24093042.340    98656909.99445
  23353778.480   122724931.86508  23353781.920    95629820.80947
  21322027.440   112048017.75809  21322028.620    87310151.49648
  24173102.740   127030504.97208  24173103.860    98984817.45345
  23370369.260   122812075.86309  23370369.040    95697701.79546
  21719806.880   114138339.73609  21719805.820    88938955.15848
  22680227.500   119185380.59108  22680226.480    92871717.52846
  20509435.240   107777805.56409  20509431.000    83982691.64948
  24236415.980   127363179.03108  24236416.980    99244018.10345
 15 02 22 08 15  0.0000000  0 11G01G03G04G06G09G10G11G17G20G23G32
  21630457.380   113668797.37509  21630460.060    88573087.33448
  21001805.480   110365215.47809  21001806.600    85998868.31348
  24111647.500   126707504.18809  24111650.000    98733103.83545
  23335784.660   122630374.10708  23335788.000    95556139.42547
  21308673.920   111977844.84709  21308675.200    87255471.30448
  24157155.240   126946700.22308  24157156.740    98919515.12744
  23390386.760   122917267.95209  23390386.480    95779669.51146
  21721772.040   114148666.77909  21721771.020    88947002.16648
  22667080.660   119116293.54608  22667079.680    92817883.48346
  20507078.980   107765423.70009  20507074.740    83973043.42848
  24251659.140   127443281.65208  24251660.140    99306435.64445
 15 02 22 08 15 30.0000000  0 11G01G03G04G06G09G10G11G17G20G23G32
  21643017.600   113734801.87309  21643020.360    88624519.37448
  21008364.480   110399683.41109  21008365.620    86025726.41448
  24130284.720   126805442.02408  24130287.180    98809418.83745
  23317808.160   122535906.40208  23317811.460    95482528.24747
  21295399.100   111908085.42809  21295400.400    87201113.32549
  24141225.880   126862990.18008  24141227.100    98854286.54544
  23410436.620   123022630.18109  23410436.380    95861769.81446
  21723846.500   114159568.25609  21723845.480    88955496.79948
  22653956.780   119047327.60108  22653955.960    92764143.79046
  20504814.720   107753525.58009  20504810.620    83963772.15948
  24266898.600   127523364.12308  24266899.920    99368837.42446
 15 02 22 08 16  0.0000000  0 11G01G03G04G06G09G10G11G17G20G23G32
  21655645.000   113801159.18709  21655647.780    88676226.32948
  21014956.100   110434322.57309  21014957.260    86052717.93848
  24148951.640   126903536.19208  24148954.100    98885855.64845
  23299849.520   122441532.99108  23299852.540    95408990.51447
  21282203.660   111838743.14609  21282204.980    87147080.38249
  24125314.880   126779377.36608  24125315.900    98789133.72145
  23430519.000   123128163.17009  23430518.720    95944003.17446
  21726030.740   114171046.40709  21726029.720    88964440.78048
  22640856.400   118978485.07508  22640855.580    92710500.25346
  20502642.900   107742112.93309  20502638.960    83954879.17849
  24282134.280   127603428.61607  24282135.900    99431225.13645
 15 02 22 08 16 30.0000000  0 11G01G03G04G06G09G10G11G17G20G23G32
  21668339.360   113867868.28409  21668342.100    88728207.39048
  21021580.120   110469132.19409  21021581.340    86079842.29348
  24167648.020   127001785.25208  24167650.540    98962413.15545
  23281909.240   122347255.56408  23281912.180    95335527.58547
  21269087.800   111769818.89509  21269089.100    87093373.17349
  24109422.260   126695861.50208  24109423.300    98724056.39145
  23450633.300   123233863.96009  23450633.080    96026367.28146
  21728324.320   114183099.30109  21728323.360    88973832.62548
  22627779.660   118909766.02008  22627778.740    92656952.89646
  20500563.460   107731185.08409  20500559.600    83946363.95649
  24297366.340   127683474.28308  24297367.940    99493598.21545
 15 02 22 08 17  0.0000000  0 11G01G03G04G06G09G10G11G17G20G23G32
  21681100.280   113934927.26609  21681102.980    88780461.10348
  21028236.320   110504110.68709  21028237.580    86107098.24448
  24186373.320   127100186.48708  24186375.920    99039089.24145
  23263987.080   122253074.88108  23263990.260    95262140.07147
  21256051.540   111701312.83409  21256052.820    87039991.82948
  24093547.820   126612441.73108  24093549.160    98659053.96145
  23470778.880   123339729.30809  23470778.780    96108859.61546
  21730726.940   114195725.24609  21730726.020    88983670.98948
  22614726.260   118841169.30908  22614725.220    92603500.87746
  20498575.980   107720740.59309  20498572.200    83938225.38649
  24312594.920   127763499.64808  24312595.800    99555955.59944
 15 02 22 08 17 30.0000000  0 11G01G03G04G06G09G10G11G17G20G23G32
  21693927.560   114002334.92309  21693930.220    88832986.50148
  21034924.500   110539257.08209  21034925.780    86134485.02248
  24205127.300   127198738.41909  24205129.940    99115882.74745
  23246083.780   122158992.58808  23246087.100    95188829.22247
  21243095.000   111633225.62209  21243096.260    86986936.86349
  24077691.440   126529117.44208  24077693.020    98594125.93744
  23490955.360   123445757.01609  23490955.380    96191478.45546
  21733238.380   114208923.07909  21733237.500    88993955.00248
  22601696.200   118772694.61808  22601694.900    92550143.95046
  20496680.200   107710778.24109  20496676.420    83930462.50049
  24327819.520   127843503.85808  24327820.380    99618296.44845
 15 02 22 08 18  0.0000000  0 11G01G03G04G06G09G10G11G17G20G23G32
  21706821.500   114070092.69309  21706824.060    88885784.72048
  21041644.940   110574573.19009  21041646.260    86162004.04748
  24223910.060   127297441.77408  24223912.780    99192794.24845
  23228200.120   122065012.62209  23228203.200    95115598.08448
  21230218.780   111565560.72709  21230220.020    86934210.98749
  24061853.720   126445890.96208  24061855.340    98529274.10044
  23511162.740   123551947.06809  23511162.740    96274223.80046
  21735858.900   114222693.95709  21735858.040    89004685.53048
  22588689.740   118704344.13208  22588688.320    92496883.80447
  20494876.560   107701299.86009  20494872.660    83923076.74449
  24343040.260   127923489.07908  24343041.740    99680622.38145
 15 02 22 08 18 30.0000000  0 11G01G03G04G06G09G10G11G17G20G23G32
  21719781.480   114138197.38209  21719783.940    88938853.25648
  21048397.120   110610056.14609  21048398.500    86189653.06548
  24242720.980   127396292.85608  24242723.700    99269820.85045
  23210335.980   121971134.75008  23210338.820    95042446.49347
  21217422.660   111498316.94109  21217423.960    86881813.23249
  24046034.360   126362760.51808  24046036.060    98464497.07144
  23531400.260   123658295.32809  23531400.340    96357092.42946
  21738587.960   114237034.93309  21738587.060    89015860.28848
  22575706.520   118636116.03908  22575705.000    92443719.02647
  20493164.480   107692302.41409  20493160.420    83916065.74849
  24358256.680   128003452.31008  24358258.840    99742931.18446
 15 02 22 08 19  0.0000000  0 11G01G03G04G06G09G10G11G17G20G23G32
  21732807.720   114206650.35709  21732810.140    88992193.18248
  21055181.380   110645707.63609  21055182.740    86217433.43348
  24261560.100   127495292.28308  24261562.740    99346963.05245
  23192491.880   121877363.02208  23192494.520    94969377.61047
  21204707.320   111431497.54909  21204708.680    86829746.18749
  24030233.820   126279728.26508  24030235.400    98399796.53644
  23551667.860   123764801.64908  23551668.000    96440084.20346
  21741425.720   114251946.93709  21741424.740    89027480.00648
  22562746.840   118568011.96408  22562745.240    92390650.89147
  20491544.300   107683787.84009  20491540.180    83909431.01949
  24373469.540   128083395.45208  24373471.620    99805224.41245
 15 02 22 08 19 30.0000000  0 11G01G03G04G06G09G10G11G17G20G23G32
  21745899.440   114275447.44809  21745901.880    89045801.23848
  21061996.980   110681523.89809  21061998.320    86245342.17148
  24280426.580   127594435.47708  24280429.320    99424217.25346
  23174667.540   121783696.04608  23174670.280    94896390.38047
  21192072.320   111365100.36009  21192073.700    86778008.12849
  24014451.600   126196790.94108  24014452.920    98335169.98044
  23571964.620   123871461.01808  23571964.780    96523195.24846
  21744371.320   114267425.64909  21744370.240    89039541.30448
  22549810.160   118500029.16208  22549808.560    92337677.24947
  20490015.160   107675752.14809  20490011.080    83903169.44049
  24388677.900   128163314.81408  24388679.420    99867499.15445
 15 02 22 08 20  0.0000000  0 11G01G03G04G06G09G10G11G17G20G23G32
  21759056.900   114344590.08309  21759059.340    89099678.55748
  21068844.280   110717506.73709  21068845.600    86273380.72248
  24299320.640   127693723.54408  24299323.600    99501584.35545
  23156863.980   121690138.16908  23156866.900    94823488.14948
  21179518.380   111299128.77109  21179519.760    86726601.71149
  23998687.980   126113950.99308  23998689.120    98270619.32645
  23592290.360   123978272.85408  23592290.520    96606425.09246
  21747424.980   114283472.33909  21747423.860    89052045.18948
  22536897.060   118432170.04308  22536895.500    92284799.98047
  20488577.460   107668197.07809  20488573.420    83897282.37949
  24403882.020   128243212.34708  24403883.520    99929756.81845
 15 02 22 08 20 30.0000000  0 11G01G03G04G06G09G10G11G17G20G23G32
  21772280.400   114414079.76609  21772282.820    89153826.29248
  21075723.640   110753658.02309  21075724.960    86301550.52948
  24318242.380   127793157.10808  24318245.440    99579064.81945
  23139081.900   121596693.68508  23139085.160    94750674.31148
  21167046.100   111233586.21809  21167047.420    86675529.61949
  23982943.280   126031210.87407  23982944.100    98206146.42545
  23612645.280   124085237.84508  23612645.400    96689774.27246
  21750586.960   114300088.25909  21750585.800    89064992.62548
  22524007.880   118364436.89808  22524006.460    92232020.90847
  20487231.560   107661124.37509  20487227.440    83891771.18049
  24419082.340   128323089.99508  24419084.160    99991998.95546
 15 02 22 08 21  0.0000000  0 11G01G03G04G06G09G10G11G17G20G23G32
  21785569.260   114483912.61809  21785571.620    89208241.43148
  21082634.440   110789974.36409  21082635.760    86329848.94448
  24337191.060   127892731.99008  24337194.180    99656655.40945
  23121321.440   121503361.60708  23121324.500    94677948.00148
  21154655.040   111168470.76109  21154656.300    86624790.31249
  23967217.000   125948567.91908  23967217.960    98141749.32945
  23633028.300   124192350.79608  23633028.480    96773238.74446
  21753856.540   114317269.58209  21753855.320    89078380.63848
  22511142.160   118296827.09108  22511140.780    92179337.95647
  20485976.720   107654530.34109  20485972.520    83886632.96649
  24434278.260   128402944.56008  24434280.300   100054223.11745
 15 02 22 08 21 30.0000000  0 11G01G03G04G06G09G10G11G17G20G23G32
  21798923.320   114554088.10709  21798925.640    89262923.55648
  21089576.660   110826455.64009  21089578.040    86358275.87148
  24356166.360   127992446.93108  24356169.540    99734355.12445
  23103582.980   121410144.25409  23103585.900    94605311.11748
  21142345.540   111103783.83609  21142346.780    86574384.93749
  23951509.220   125866022.61008  23951510.260    98077428.30745
  23653439.180   124299609.88808  23653439.420    96856817.09146
  21757233.580   114335015.77109  21757232.320    89092208.80448
  22498299.820   118229340.80608  22498298.540    92126751.26747
  20484812.880   107648414.73109  20484808.760    83881867.54749
  24449469.700   128482776.01608  24449471.680   100116429.27145
 15 02 22 08 22  0.0000000  0 11G01G03G04G06G09G10G11G17G20G23G32
  21812343.320   114624610.31309  21812345.620    89317875.84648
  21096551.140   110863106.36709  21096552.560    86386834.83248
  24375168.960   128092305.63808  24375172.140    99812166.87146
  23085867.440   121317048.54408  23085870.260    94532769.02247
  21130118.740   111039531.44509  21130119.940    86524318.14949
  23935820.760   125783579.86908  23935821.960    98013187.26144
  23673878.480   124407018.19609  23673878.740    96940511.69346
  21760718.780   114353330.49209  21760717.540    89106479.97048
  22485481.940   118161983.18508  22485480.780    92074264.82447
  20483740.920   107642781.89009  20483736.960    83877478.31049
  24464657.680   128562588.99308  24464659.540   100178621.04345
 15 02 22 08 22 30.0000000  0 11G01G03G04G06G09G10G11G17G20G23G32
  21825827.640   114695470.57709  21825829.920    89373091.56348
  21103556.360   110899918.36909  21103557.780    86415519.46848
  24394197.220   128192299.09109  24394200.500    99890083.59045
  23068173.940   121224068.80808  23068176.980    94460317.30647
  21117973.320   110975706.84309  21117974.500    86474584.72349
  23920150.440   125701232.38108  23920151.400    97949020.44544
  23694344.300   124514565.93908  23694344.580    97024314.96145
  21764310.460   114372204.69809  21764309.220    89121187.11348
  22472687.220   118094746.74608  22472686.060    92021872.84247
  20482759.280   107637623.49709  20482755.440    83873458.77948
  24479840.780   128642375.43208  24479842.460   100240792.15345
 15 02 22 08 23  0.0000000  0 11G01G03G04G06G09G10G11G17G20G23G32
  21839376.940   114766672.47409  21839379.320    89428573.47548
  21110593.000   110936895.69709  21110594.440    86444332.92148
  24413251.720   128292430.25008  24413255.060    99968107.60345
  23050503.760   121131211.55609  23050506.620    94387960.99847
  21105910.380   110912315.56809  21105911.500    86425188.94549
  23904499.080   125618984.35208  23904499.680    97884931.13744
  23714837.040   124622255.21908  23714837.260    97108228.49545
  21768009.240   114391641.81509  21768008.040    89136332.87248
  22459916.420   118027636.15208  22459915.160    91969578.91147
  20481868.640   107632943.15509  20481864.840    83869811.74249
  24495019.640   128722139.42908  24495021.380   100302945.77445
 15 02 22 08 23 30.0000000  0 11G01G03G04G06G09G10G11G17G20G23G32
  21852990.880   114838213.99409  21852993.300    89484320.03548
  21117660.840   110974036.90309  21117662.140    86473274.08248
  24432332.000   128392696.57108  24432335.260   100046236.95745
  23032857.120   121038477.73209  23032859.960    94315700.88748
  21093929.860   110849357.53109  21093930.960    86376130.75949
  23888866.660   125536835.03108  23888867.160    97820918.76344
  23735356.140   124730082.91808  23735356.300    97192249.89945
  21771814.700   114411639.60909  21771813.600    89151915.53348
  22447169.360   117960650.12308  22447168.120    91917382.04047
  20481068.680   107628739.40709  20481064.840    83866536.08749
  24510193.740   128801879.87407  24510195.740   100365080.97445
 15 02 22 08 24  0.0000000  0 11G01G03G04G06G09G10G11G17G20G23G32
  21866669.640   114910096.14709  21866672.160    89540332.02148
  21124760.100   111011343.43709  21124761.340    86502344.07448
  24451438.100   128493098.52508  24451441.420   100124471.98745
  23015234.720   120945871.29508  23015237.540    94243540.03448
  21082032.360   110786835.66609  21082033.400    86327412.44949
  23873253.420   125454786.61208  23873253.360    97756984.99644
  23755901.520   124838048.74408  23755901.680    97276378.92545
  21775726.960   114432198.88109  21775725.960    89167935.70048
  22434446.380   117893791.08408  22434445.140    91865284.13747
  20480359.600   107625013.22709  20480355.740    83863632.56248
  24525363.520   128881598.23908  24525365.760   100427199.02945
 15 02 22 08 24 30.0000000  0 11G01G03G04G06G09G10G11G17G20G23G32
  21880412.380   114982314.37909  21880414.940    89596605.89048
  21131890.060   111048811.33609  21131891.260    86531539.79648
  24470569.080   128593631.20208  24470572.380   100202808.87745
  22997636.340   120853390.74009  22997639.240    94171477.28848
  21070217.360   110724747.34809  21070218.320    86279031.96849
  23857658.740   125372835.62908  23857658.340    97693127.13644
  23776472.160   124946147.17008  23776472.260    97360611.28145
  21779745.200   114453314.84109  21779744.180    89184389.65448
  22421746.920   117827055.63608  22421745.780    91813282.53547
  20479740.580   107621760.23709  20479736.740    83861097.75449
  24540528.520   128961290.62108  24540530.720   100489296.84145
 15 02 22 08 25  0.0000000  0 11G01G03G04G06G09G10G11G17G20G23G32
  21894219.600   115054871.45809  21894222.160    89653143.79848
  21139051.400   111086443.93009  21139052.580    86560863.84448
  24489725.300   128694296.78808  24489728.660   100281249.32645
  22980062.820   120761041.80508  22980065.700    94099517.11048
  21058485.720   110663097.23209  21058486.640    86230992.93949
  23842083.180   125290985.80608  23842082.860    97629348.09645
  23797068.360   125054379.90708  23797068.500    97444948.29045
  21783869.800   114474989.93109  21783868.840    89201279.29348
  22409071.780   117760447.45508  22409070.700    91761380.09947
  20479212.240   107618983.51009  20479208.400    83858934.06349
  24555689.400   129040960.52408  24555691.620   100551377.10745
 15 02 22 08 25 30.0000000  0 11G01G03G04G06G09G10G11G17G20G23G32
  21908091.260   115127767.17609  21908093.780    89709945.57648
  21146244.120   111124241.51609  21146245.300    86590316.46348
  24508906.740   128795094.73208  24508910.180   100359792.91145
  22962515.060   120668827.34609  22962517.820    94027661.69247
  21046837.780   110601887.00709  21046838.680    86183296.68349
  23826526.960   125209238.14008  23826526.700    97565648.65744
  23817689.820   125162745.42808  23817689.920    97529388.75545
  21788100.660   114497223.59409  21788099.880    89218604.17948
  22396421.060   117693967.30908  22396419.860    91709577.43347
  20478774.500   107616683.04009  20478770.660    83857141.47049
  24570846.000   129120608.29808  24570848.380   100613440.09545
 15 02 22 08 26  0.0000000  0 11G01G03G04G06G09G10G11G17G20G23G32
  21922026.240   115200995.80909  21922028.800    89767006.77748
  21153467.220   111162199.04409  21153468.400    86619893.71148
  24528112.120   128896018.69508  24528115.620   100438434.71645
  22944992.320   120576744.66009  22944995.180    93955908.97448
  21035272.800   110541112.90809  21035273.740    86135940.26649
  23810989.420   125127588.26608  23810989.540    97502025.43044
  23838335.320   125271237.23508  23838335.360    97613927.62945
  21792436.600   114520009.31309  21792436.000    89236359.24748
  22383793.940   117627610.93108  22383792.600    91657871.19747
  20478426.280   107614853.12609  20478422.400    83855715.55349
  24585997.520   129200229.05408  24585999.880   100675482.06244
 15 02 22 08 26 30.0000000  0 11G01G03G04G06G09G10G11G17G20G23G32
  21936024.900   115274559.13509  21936027.520    89824328.76948
  21160721.100   111200318.81909  21160722.320    86649597.39748
  24547341.740   128997070.11508  24547345.260   100517175.80245
  22927495.560   120484798.60009  22927498.500    93884262.72248
  21023791.500   110480778.55109  21023792.500    86088926.50449
  23795470.980   125046038.94908  23795471.300    97438480.51045
  23859004.880   125379855.56008  23859005.000    97698565.07445
  21796878.080   114543349.17409  21796877.480    89254546.10148
  22371190.920   117561380.91508  22371189.360    91606263.42147
  20478168.080   107613496.08409  20478164.100    83854658.11549
  24601144.520   129279825.21608  24601146.320   100737504.96644
 15 02 22 08 27  0.0000000  0 11G01G03G04G06G09G10G11G17G20G23G32
  21950087.360   115348457.84009  21950090.100    89881912.09848
  21168006.080   111238602.22109  21168007.300    86679428.58448
  24566595.660   129098249.27008  24566599.320   100596016.42445
  22910025.500   120392992.93909  22910028.480    93812725.87148
  21012394.400   110420886.53309  21012395.460    86042257.41449
  23779972.060   124964591.79308  23779972.440    97375015.19145
  23879698.440   125488599.95408  23879698.580    97783300.75245
  21801425.160   114567243.75709  21801424.520    89273165.21048
  22358612.260   117495279.16908  22358610.500    91554755.58547
  20478000.060   107612612.68909  20477995.960    83853969.74549
  24616286.940   129359398.31307  24616288.720   100799509.80545
 15 02 22 08 27 30.0000000  0 11G01G03G04G06G09G10G11G17G20G23G32
  21964213.320   115422690.16409  21964216.200    89939755.38948
  21175322.000   111277048.09709  21175323.240    86709386.38148
  24585873.540   129199554.11308  24585877.240   100674954.98745
  22892582.360   120301329.05809  22892585.360    93741299.51848
  21001081.540   110361437.00809  21001082.600    85995933.13549
  23764492.460   124883246.46908  23764493.260    97311629.25544
  23900415.480   125597467.66909  23900415.620    97868132.52745
  21806077.300   114591690.51409  21806076.620    89292214.58148
  22346057.840   117429305.31508  22346056.060    91503347.41247
  20477921.880   107612201.44809  20477917.740    83853649.29849
  24631424.500   129438947.39007  24631426.920   100861495.83645
 15 02 22 08 28  0.0000000  0 11G01G03G04G06G09G10G11G17G20G23G32
  21978402.520   115497254.71809  21978405.520    89997857.57448
  21182668.680   111315655.71309  21182670.000    86739470.21148
  24605174.920   129300982.48208  24605178.640   100753989.81145
  22875166.620   120209808.70809  22875169.460    93669985.00548
  20989852.980   110302430.48209  20989854.000    85949954.04849
  23749032.220   124802002.55108  23749033.240    97248322.32044
  23921155.540   125706456.40608  23921155.740    97953058.61145
  21810834.200   114616687.60309  21810833.440    89311692.79648
  22333527.600   117363458.94008  22333525.800    91452038.57547
  20477933.340   107612261.29009  20477929.220    83853695.93049
  24646557.600   129518471.72608  24646560.200   100923462.68245
 15 02 22 08 28 30.0000000  0 11G01G03G04G06G09G10G11G17G20G23G32
  21992654.300   115572147.96809  21992657.300    90056215.87348
  21190045.680   111354422.22209  21190047.000    86769677.84648
  24624499.080   129402530.54108  24624502.780   100833117.87745
  22857778.060   120118431.44809  22857780.920    93598781.99448
  20978708.380   110243865.30009  20978709.380    85904318.84849
  23733590.960   124720857.85108  23733592.060    97185092.65745
  23941917.680   125815561.43408  23941917.940    98038075.28545
  21815695.040   114642230.95909  21815694.220    89331596.65848
  22321021.220   117297737.69508  22321019.420    91400827.22647
  20478033.700   107612788.44409  20478029.580    83854106.68349
  24661685.660   129597968.52608  24661687.980   100985408.09245
 15 02 22 08 29  0.0000000  0 11G01G03G04G06G09G10G11G17G20G23G32
  22006969.180   115647372.75709  22006972.140    90114832.52248
  21197453.600   111393351.12009  21197455.000    86800012.01348
  24643846.480   129504200.71308  24643850.200   100912341.10545
  22840417.980   120027203.32509  22840420.660    93527695.17848
  20967648.660   110185746.13709  20967649.620    85859031.20949
  23718169.280   124639816.27008  23718170.240    97121943.39044
  23962702.280   125924784.39308  23962702.500    98123183.87145
  21820660.420   114668323.54009  21820659.520    89351928.49448
  22308539.480   117232145.94808  22308537.700    91349716.77547
  20478223.600   107613786.22209  20478219.480    83854884.16949
  24676809.080   129677441.52308  24676811.120   101047334.96845
 15 02 22 08 29 30.0000000  0 11G01G03G04G06G09G10G11G17G20G23G32
  22021346.520   115722925.92109  22021349.440    90173705.04848
  21204891.960   111432439.97109  21204893.480    86830470.82548
  24663216.400   129605989.42108  24663220.200   100991656.68644
  22823086.220   119936124.31709  22823088.900    93456724.56148
  20956673.600   110128071.75009  20956674.500    85814090.14249
  23702767.060   124558876.24108  23702767.980    97058873.20645
  23983508.560   126034121.20808  23983508.800    98208381.18445
  21825729.620   114694961.48509  21825728.640    89372685.28648
  22296081.960   117166681.57808  22296080.080    91298705.57847
  20478502.440   107615251.60709  20478498.320    83856026.02549
  24691927.320   129756888.47907  24691929.480   101109241.49445
 15 02 22 08 30  0.0000000  0 11G01G03G04G06G09G10G11G17G20G23G32
  22035786.600   115798808.92509  22035789.520    90232834.58148
  21212361.240   111471690.91409  21212362.720    86861055.94748
  24682609.060   129707897.91908  24682613.040   101071065.63845
  22805783.740   119845199.08209  22805786.320    93385873.75748
  20945783.800   110070845.42509  20945784.700    85769498.21949
  23687384.500   124478040.17408  23687385.180    96995884.06845
  24004336.580   126143572.33708  24004336.960    98293667.56245
  21830902.840   114722146.05209  21830901.760    89393868.03248
  22283649.100   117101347.12508  22283647.240    91247795.61247
  20478870.520   107617185.90709  20478866.380    83857533.26549
  24707041.080   129836311.60008  24707043.620   101171129.41646
 15 02 22 08 30 30.0000000  0 11G01G03G04G06G09G10G11G17G20G23G32
  22050288.900   115875018.98909  22050291.860    90292218.97148
  21219861.020   111511101.95609  21219862.380    86891765.81148
  24702023.840   129809922.80108  24702028.140   101150565.25745
  22788510.580   119754428.10009  22788513.300    93315143.16348
  20934979.080   110014066.29909  20934979.980    85725254.75749
  23672021.380   124397306.38908  23672021.900    96932974.62745
  24025185.600   126253133.95708  24025186.020    98379040.03345
  21836179.360   114749873.88909  21836178.240    89415474.08448
  22271240.840   117036141.36508  22271238.980    91196985.91947
  20479327.380   107619586.71709  20479323.260    83859404.01249
  24722150.100   129915708.90608  24722152.720   101232997.24245
 15 02 22 08 31  0.0000000  0 11G01G03G04G06G09G10G11G17G20G23G32
  22064853.080   115951554.05109  22064856.060    90351856.60248
  21227390.960   111550671.76609  21227392.280    86922599.39248
  24721460.440   129912061.70408  24721464.700   101230153.70845
  22771267.000   119663812.52809  22771269.540    93244533.63248
  20924259.360   109957734.12109  20924260.340    85681359.56849
  23656677.500   124316674.30508  23656678.540    96870144.48045
  24046055.040   126362802.72408  24046055.540    98464495.99246
  21841558.760   114778142.42009  21841557.640    89437501.46148
  22258856.940   116971063.38208  22258855.180    91146275.79047
  20479872.680   107622452.18309  20479868.580    83861636.82649
  24737254.000   129995079.28608  24737256.640   101294844.09645
 15 02 22 08 31 30.0000000  0 11G01G03G04G06G09G10G11G17G20G23G32
  22079479.280   116028414.75109  22079482.200    90411747.98548
  21234951.320   111590401.78709  21234952.660    86953557.82148
  24740918.820   130014314.73908  24740922.940   101309831.11744
  22754053.720   119573356.27609  22754056.360    93174048.26748
  20913625.180   109901851.42209  20913626.220    85637814.62449
  23641353.360   124236145.95208  23641354.540    96807395.14144
  24066944.820   126472578.47108  24066945.420    98550035.32245
  21847041.120   114806951.89609  21847039.960    89459950.35848
  22246497.740   116906115.04508  22246496.040    91095666.68047
  20480506.620   107625783.31609  20480502.480    83864232.50249
  24752353.040   130074424.33308  24752355.440   101356671.24444
 15 02 22 08 32  0.0000000  0 11G01G03G04G06G09G10G11G17G20G23G32
  22094167.180   116105599.78509  22094170.060    90471892.08748
  21242542.080   111630291.45209  21242543.480    86984640.64348
  24760398.660   130116680.47008  24760402.780   101389596.32744
  22736871.080   119483061.29009  22736873.860    93103688.56948
  20903076.620   109846418.69409  20903077.700    85594620.29849
  23626048.820   124155721.08108  23626050.120    96744726.45645
  24087854.540   126582458.98408  24087855.160    98635656.26645
  21852626.040   114836300.45709  21852624.840    89482819.32048
  22234163.220   116841296.46809  22234161.540    91045158.68247
  20481228.900   107629578.85509  20481224.740    83867190.04649
  24767447.140   130153743.45808  24767449.380   101418478.20644
 15 02 22 08 32 30.0000000  0 11G01G03G04G06G09G10G11G17G20G23G32
  22108916.460   116183107.46209  22108919.320    90532287.60248
  21250163.060   111670339.87309  21250164.560    87015847.15948
  24779899.500   130219156.72008  24779903.560   101469447.62944
  22719719.540   119392929.18409  22719722.280    93033455.76548
  20892613.720   109791436.12709  20892614.820    85551776.75049
  23610763.900   124075399.32008  23610765.320    96682138.13645
  24108783.660   126692441.39308  24108784.300    98721356.61145
  21858313.140   114866186.17509  21858311.920    89506106.83948
  22221853.380   116776607.33909  22221851.600    90994751.54047
  20482039.200   107633837.12809  20482035.060    83870508.15549
  24782536.100   130233036.12808  24782538.380   101480264.53745
 15 02 22 08 33  0.0000000  0 11G01G03G04G06G09G10G11G17G20G23G32
  22123727.060   116260937.35909  22123729.900    90592934.19348
  21257814.380   111710547.47309  21257815.860    87047177.72248
  24799421.220   130321742.81408  24799425.300   101549384.56045
  22702599.560   119302962.85609  22702602.200    92963352.13548
  20882236.780   109736905.08909  20882237.820    85509285.05349
  23595498.840   123995181.63208  23595500.240    96619630.90645
  24129731.880   126802524.16808  24129732.620    98807135.15545
  21864102.160   114896607.99009  21864100.980    89529812.09948
  22209568.380   116712048.49009  22209566.460    90944445.92047
  20482937.520   107638557.96809  20482933.440    83874186.71149
  24797620.080   130312302.76808  24797622.900   101542030.56645
 15 02 22 08 33 30.0000000  0 11G01G03G04G06G09G10G11G17G20G23G32
  22138598.480   116339086.86709  22138601.240    90653829.83648
  21265495.680   111750912.43109  21265497.140    87078630.89348
  24818963.220   130424435.70807  24818967.300   101629404.71246
  22685511.200   119213162.98609  22685513.580    92893378.21248
  20871945.640   109682824.84209  20871946.600    85467144.60449
  23580253.560   123915066.70108  23580254.880    96557203.72145
  24150698.600   126912703.92708  24150699.360    98892989.27945
  21869992.480   114927562.31909  21869991.400    89553932.30648
  22197307.920   116647618.64209  22197305.940    90894240.83547
  20483923.380   107643738.90209  20483919.380    83878223.78449
  24812698.840   130391541.69508  24812701.920   101603774.94945
 15 02 22 08 34  0.0000000  0 11G01G03G04G06G09G10G11G17G20G23G32
  22153531.000   116417557.40109  22153533.720    90714975.63048
  21273207.300   111791437.03309  21273208.840    87110208.46648
  24838525.720   130527236.27008  24838530.180   101709508.70044
  22668455.360   119123534.33309  22668457.880    92823537.72648
  20861740.860   109629198.54709  20861741.820    85425357.88949
  23565028.440   123835057.12208  23565029.640    96494858.63445
  24171683.800   127022981.04608  24171684.540    98978919.25845
  21875984.380   114959050.63109  21875983.480    89578468.60048
  22185072.500   116583320.54709  22185070.480    90844138.42647
  20484997.100   107649381.45209  20484993.140    83882620.55649
  24827772.860   130470755.22508  24827776.060   101665499.59145
 15 02 22 08 34 30.0000000  0 11G01G03G04G06G09G10G11G17G20G23G32
  22168524.080   116496346.23909  22168526.780    90776369.45348
  21280948.900   111832119.45809  21280950.540    87141909.00448
  24858108.140   130630141.61208  24858112.800   101789694.34744
  22651432.240   119034077.59409  22651434.900    92753831.18048
  20851622.320   109576025.36809  20851623.280    85383924.24349
  23549823.220   123755151.64408  23549824.300    96432594.65845
  24192686.840   127133351.97008  24192687.640    99064922.32345
  21882077.320   114991069.82209  21882076.640    89603418.57048
  22172861.820   116519152.92809  22172859.820    90794137.68447
  20486158.200   107655482.99009  20486154.240    83887374.98649
  24842841.780   130549941.75708  24842844.860   101727203.23345
 15 02 22 08 35  0.0000000  0 11G01G03G04G06G09G10G11G17G20G23G32
  22183577.640   116575453.00509  22183580.360    90838011.01348
  21288720.560   111872960.12509  21288722.340    87173732.85748
  24877710.420   130733151.10908  24877715.100   101869961.15444
  22634442.400   118944795.71009  22634444.940    92684260.88648
  20841590.240   109523306.70309  20841591.240    85342844.76849
  23534637.780   123675350.96408  23534638.880    96370412.36145
  24213707.500   127243815.17708  24213708.320    99150997.30545
  21888271.060   115023618.65309  21888270.560    89628781.23848
  22160676.160   116455116.73209  22160674.120    90744239.36347
  20487406.620   107662043.14209  20487402.620    83892486.78749
  24857905.620   130629101.85608  24857908.560   101788886.25344
 15 02 22 08 35 30.0000000  0 11G01G03G04G06G09G10G11G17G20G23G32
  22198691.460   116654876.67609  22198694.240    90899899.51047
  21296522.340   111913958.96309  21296524.240    87205679.95448
  24897332.300   130836263.28408  24897336.960   101950307.96244
  22617486.320   118855691.07209  22617488.860    92614828.70848
  20831644.820   109471043.34409  20831645.840    85302120.06449
  23519472.260   123595655.51608  23519473.000    96308312.02644
  24234745.420   127354369.03508  24234746.240    99237142.91945
  21894565.400   115056695.72209  21894564.920    89654555.52648
  22148515.560   116391212.41309  22148513.540    90694443.80547
  20488742.220   107669061.36309  20488738.160    83897955.51049
  24872964.380   130708235.56908  24872967.500   101850548.70244
 15 02 22 08 36  0.0000000  0 11G01G03G04G06G09G10G11G17G20G23G32
  22213865.580   116734616.92309  22213868.360    90962034.70248
  21304354.420   111955116.51709  21304356.240    87237750.72648
  24916973.560   130939477.48508  24916978.160   102030734.29944
  22600564.660   118766766.78609  22600567.120    92545537.06648
  20821786.380   109419236.77109  20821787.400    85261751.31349
  23504326.780   123516066.45608  23504327.440    96246294.60445
  24255800.360   127465012.27408  24255801.140    99323358.18545
  21900960.120   115090299.97109  21900959.540    89680740.59448
  22136380.180   116327440.96809  22136378.180    90644751.79247
  20490164.940   107676537.33409  20490160.800    83903780.93649
  24888018.160   130787343.55408  24888021.300   101912191.05745
 15 02 22 08 36 30.0000000  0 11G01G03G04G06G09G10G11G17G20G23G32
  22229099.640   116814672.09709  22229102.440    91024415.28147
  21312216.540   111996432.04909  21312218.260    87269944.59748
  24936633.880   131042791.92408  24936638.300   102111238.71944
  22583677.500   118678024.56309  22583679.980    92476387.31348
  20812014.900   109367887.06109  20812015.900    85221738.54549
  23489201.460   123436583.53708  23489202.480    96184359.87845
  24276871.680   127575741.83908  24276872.520    99409640.70145
  21907454.720   115124429.09309  21907454.120    89707334.65848
  22124270.040   116263801.88409  22124267.960    90595162.93147
  20491674.420   107684469.41909  20491670.260    83909961.77149
  24903066.900   130866425.07208  24903070.160   101973812.82445
 15 02 22 08 37  0.0000000  0 10G01G03G06G09G10G11G17G20G23G32
  22244392.920   116895038.36809  22244395.700    91087038.27647
  21320108.180   112037902.72909  21320109.840    87302259.35948
  22566825.000   118589464.15409  22566827.400    92407379.20048
  20802329.980   109316992.25309  20802330.980    85182080.25349
  23474095.860   123357204.36408  23474096.740    96122506.01044
  24297958.600   127686553.21608  24297959.540    99495986.96245
  21914048.380   115159078.87409  21914047.760    89734334.42548
  22112184.780   116200293.50109  22112182.640    90545675.91647
  20493270.000   107692853.94109  20493265.860    83916495.15649
  24918110.180   130945477.59608  24918113.580   102035412.01745
 15 02 22 08 37 30.0000000  0 10G01G03G06G09G10G11G17G20G23G32
  22259745.500   116975716.53409  22259748.380    91149904.29948
  21328029.640   112079530.25609  21328031.260    87334696.33648
  22550007.880   118501089.67309  22550010.220    92338515.98348
  20792732.100   109266554.87709  20792733.100    85142778.40649
  23459010.540   123277930.98408  23459011.420    96060734.54944
  24319061.100   127797446.61708  24319062.100    99582397.15344
  21920741.140   115194249.22409  21920740.500    89761739.83948
  22100124.680   116136917.49209  22100122.440    90496292.04347
  20494951.840   107701691.94609  20494947.700    83923381.91249
  24933148.280   131024502.92108  24933151.740   102096990.02545
 15 02 22 08 38  0.0000000  0 10G01G03G06G09G10G11G17G20G23G32
  22275157.380   117056706.04509  22275160.300    91213012.93147
  21335981.060   112121315.08809  21335982.620    87367255.89148
  22533226.700   118412904.12409  22533229.120    92269799.99348
  20783221.480   109216576.19709  20783222.500    85103833.98449
  23443945.680   123198764.25608  23443946.580    95999046.20645
  24340178.900   127908420.26708  24340179.940    99668869.85545
  21927532.760   115229939.10209  21927532.120    89789550.07548
  22088090.000   116073675.15809  22088087.700    90447012.35047
  20496719.840   107710982.87809  20496715.660    83930621.60149
  24948181.460   131103501.55708  24948184.640   102158547.20944
 15 02 22 08 38 30.0000000  0 10G01G03G06G09G10G11G17G20G23G32
  22290628.260   117138005.64509  22290631.220    91276363.18547
  21343962.400   112163256.93909  21343963.880    87399937.78448
  22516481.940   118324909.75309  22516484.260    92201232.96148
  20773798.220   109167056.68909  20773799.280    85065247.36349
  23428901.220   123119704.48108  23428902.400    95937441.18845
  24361311.560   128019472.04708  24361312.660    99755403.43545
  21934422.980   115266146.89309  21934422.220    89817763.88048
  22076080.720   116010566.36809  22076078.540    90397836.70247
  20498573.800   107720725.56409  20498569.580    83938213.30049
  24963209.460   131182473.27908  24963212.740   102220083.45044
 15 02 22 08 39  0.0000000  0 10G01G03G06G09G10G11G17G20G23G32
  22306157.540   117219612.13109  22306160.540    91339952.57147
  21351973.200   112205353.61009  21351974.680    87432740.32748
  22499773.600   118237106.81609  22499775.980    92132815.12948
  20764462.060   109117994.91109  20764463.120    85027017.41849
  23413876.720   123040749.74608  23413877.980    95875918.06345
  24382458.360   128130598.17208  24382459.640    99841994.95045
  21941411.000   115302868.69209  21941410.180    89846378.20848
  22064096.620   115947589.59709  22064094.440    90348763.93247
  20500513.100   107730916.84809  20500508.900    83946154.56749
  24978232.020   131261416.04808  24978235.340   102281597.08144
 15 02 22 08 39 30.0000000  0 11G01G03G06G07G09G10G11G17G20G23G32
  22321745.880   117301528.99909  22321748.920    91403783.80648
  21360014.300   112247609.60709  21360015.840    87465667.01348
  22483103.000   118149502.35309  22483105.280    92064551.92348
  24653720.800   129556175.20808  24653725.120   100952881.90845
  20755214.020   109069396.11409  20755215.020    84989148.24649
  23398873.180   122961905.36108  23398874.440    95814480.90946
  24403619.760   128241800.92908  24403621.060    99928646.17745
  21948497.320   115340107.34209  21948496.480    89875395.27648
  22052138.540   115884749.62309  22052136.340    90299797.73747
  20502538.440   107741560.44409  20502534.300    83954448.26649
  24993249.820   131340334.58608  24993253.320   102343091.83544
 15 02 22 08 40  0.0000000  0 11G01G03G06G07G09G10G11G17G20G23G32
  22337392.280   117383750.87809  22337395.280    91467852.71548
  21368084.940   112290020.62609  21368086.500    87498714.49048
  22466469.940   118062094.59409  22466472.020    91996441.98948
  24634968.520   129457632.23908  24634972.980   100876095.17045
  20746053.440   109021256.70509  20746054.340    84951637.02949
  23383889.760   122883167.12308  23383890.960    95753126.48145
  24424794.600   128353074.39208  24424795.960   100015352.50145
  21955680.800   115377856.49009  21955679.980    89904810.13148
  22040205.780   115822042.93709  22040203.680    90250935.40147
  20504648.880   107752651.14709  20504644.800    83963090.36449
  25008262.220   131419224.59008  25008265.680   102404564.36444
 15 02 22 08 40 30.0000000  0 11G01G03G06G07G09G10G11G17G20G23G32
  22353097.060   117466279.85209  22353100.100    91532160.91648
  21376185.680   112332589.73709  21376187.300    87531885.17548
  22449875.220   117974889.06209  22449877.200    91928489.65148
  24616200.780   129359008.25308  24616205.440   100799245.30145
  20736981.000   108973580.45409  20736981.800    84914486.72949
  23368927.160   122804538.54508  23368928.240    95691857.49645
  24445983.100   128464419.74708  24445984.520   100102114.82845
  21962961.740   115416117.69109  21962960.860    89934623.98448
  22028299.100   115759473.04809  22028297.060    90202179.65547
  20506844.780   107764190.86109  20506840.720    83972082.34249
  25023269.660   131498089.37207  25023273.500   102466017.24044
 15 02 22 08 41  0.0000000  0 10G01G03G06G07G09G10G11G17G20G23
  22368860.220   117549115.56509  22368863.320    91596708.12448
  21384316.640   112375317.68409  21384318.240    87565179.62448
  22433319.640   117887889.04609  22433321.640    91860697.44848
  24597418.360   129260306.92108  24597423.200   100722335.17445
  20727996.940   108926368.73909  20727997.660    84877698.40949
  23353985.660   122726020.94508  23353986.860    95630675.01245
  24467185.000   128575835.57708  24467186.460   100188932.09245
  21970339.960   115454890.14909  21970339.060    89964836.22648
  22016418.720   115697041.22209  22016416.720    90153531.48747
  20509126.180   107776179.63509  20509122.120    83981424.23449
 15 02 22 08 41 30.0000000  0 10G01G03G06G07G09G10G11G17G20G23
  22384680.300   117632250.31509  22384683.440    91661488.35548
  21392476.480   112418197.83309  21392478.180    87598592.67248
  22416802.360   117801090.42409  22416804.460    91793062.18548
  24578620.600   129161524.39008  24578625.620   100645361.79045
  20719100.140   108879615.62209  20719100.860    84841267.43749
  23339064.020   122647607.94608  23339065.600    95569574.03346
  24488398.740   128687313.50508  24488400.360   100275797.71445
  21977813.840   115494165.42509  21977812.980    89995440.27048
  22004563.380   115634741.18909  22004561.480    90104986.01847
  20511491.560   107788609.62809  20511487.500    83991109.93148
 15 02 22 08 42  0.0000000  0 10G01G03G06G07G09G10G11G17G20G23
  22400557.020   117715682.77409  22400560.240    91726500.55848
  21400665.240   112461229.92109  21400666.960    87632124.12748
  22400323.840   117714495.44109  22400326.020    91725585.60548
  24559807.780   129062662.70608  24559812.820   100568326.77145
  20710290.660   108833321.40009  20710291.380    84805194.05049
  23324162.440   122569299.83308  23324163.880    95508554.78945
  24509623.920   128798851.51808  24509625.540   100362710.16845
  21985382.960   115533941.23809  21985382.160    90026434.35048
  21992733.240   115572573.38709  21992731.420    90056543.58448
  20513940.600   107801479.43109  20513936.600    84001138.32449
 15 02 22 08 42 30.0000000  0 10G01G03G06G07G09G10G11G17G20G23
  22416491.820   117799420.15109  22416495.100    91791750.35048
  21408884.540   112504422.31009  21408886.260    87665780.47848
  22383886.280   117628115.00409  22383888.260    91658276.17448
  24540982.080   128963733.25008  24540987.120   100491238.95745
  20701570.220   108787495.09909  20701570.920    84769485.27149
  23309282.440   122491105.18908  23309283.860    95447623.95745
  24530861.760   128910456.03808  24530863.380   100449674.43644
  21993048.580   115574224.22709  21993047.820    90057823.62748
  21980929.840   115510546.27209  21980928.080    90008210.75947
  20516474.760   107814796.75009  20516470.840    84011515.43148
 15 02 22 08 43  0.0000000  0 10G01G03G06G07G09G10G11G17G20G23
  22432482.700   117883452.17009  22432486.020    91857229.75148
  21417132.620   112547765.82709  21417134.380    87699554.60648
  22367488.240   117541942.40409  22367490.160    91591128.71648
  24522142.180   128864729.40908  24522147.140   100414093.20345
  20692937.160   108742128.11509  20692937.840    84734134.41449
  23294422.300   122413015.33308  23294423.680    95386774.77645
  24552110.080   129022115.69308  24552111.820   100536681.65345
  22000808.620   115615003.44209  22000807.880    90089599.57348
  21969151.600   115448651.68409  21969150.000    89959981.21447
  20519092.140   107828551.53209  20519088.320    84022233.42248
 15 02 22 08 43 30.0000000  0 10G01G03G06G07G09G10G11G17G20G23
  22448530.800   117967784.85509  22448534.140    91922943.40748
  21425410.840   112591267.57009  21425412.540    87733452.00948
  22351131.500   117455987.27909  22351133.480    91524150.70648
  24503290.020   128765661.02908  24503295.120   100336897.20245
  20684392.960   108697228.07009  20684393.580    84699147.39049
  23279583.540   122335037.85308  23279585.060    95326013.16146
  24573370.000   129133836.22608  24573371.860   100623736.33345
  22008664.140   115656284.24409  22008663.460    90121766.37248
  21957399.980   115386897.13409  21957398.560    89911860.78447
  20521793.900   107842749.68909  20521790.220    84033296.89549
 15 02 22 08 44  0.0000000  0 10G01G03G06G07G09G10G11G17G20G23
  22464634.860   118052411.77009  22464638.240    91988886.33948
  21433718.200   112634922.31109  21433719.760    87767468.64348
  22334815.540   117370246.92709  22334817.460    91457340.07148
  24484425.080   128666525.62308  24484430.260   100259648.98145
  20675936.700   108652790.34209  20675937.280    84664520.61349
  23264765.340   122257167.96208  23264766.880    95265335.38045
  24594640.080   129245610.06108  24594642.080   100710832.54545
  22016613.740   115698059.29009  22016613.080    90154318.29548
  21945673.980   115325277.13809  21945672.680    89863845.20048
  20524578.780   107857384.62409  20524575.200    84044700.71449
 15 02 22 08 44 30.0000000  0 10G01G03G06G07G09G10G11G17G20G23
  22480795.080   118137333.80809  22480798.500    92055059.24148
  21442055.040   112678732.05809  21442056.500    87801606.07348
  22318541.340   117284725.90209  22318543.340    91390700.33848
  24465548.220   128567327.88208  24465553.340   100182352.19945
  20667568.880   108608817.40409  20667569.460    84630256.00849
  23249968.080   122179408.13308  23249969.440    95204743.36245
  24615920.320   129357437.37808  24615922.400   100797970.39745
  22024657.380   115740328.74909  22024656.720    90187255.48048
  21933974.160   115263794.99609  21933972.940    89815937.03448
  20527447.000   107872457.41109  20527443.520    84056445.71249
 15 02 22 08 45  0.0000000  0 10G01G03G06G07G09G10G11G17G20G23
  22497011.540   118222551.40509  22497014.960    92121462.44448
  21450421.620   112722698.45109  21450423.080    87835865.56148
  22302309.740   117199428.28109  22302311.780    91324234.68448
  24446660.380   128468072.24908  24446665.540   100105010.33845
  20659289.860   108565311.38509  20659290.500    84596355.22749
  23235192.200   122101760.29408  23235193.480    95144238.56145
  24637210.680   129469318.07108  24637212.880   100885149.84345
  22032795.040   115783092.22009  22032794.380    90220577.60848
  21922301.020   115202452.92809  21922299.940    89768138.01848
  20530398.640   107887968.58909  20530395.200    84068532.32149
 15 02 22 08 45 30.0000000  0 10G01G03G06G07G09G10G11G17G20G23
  22513283.260   118308059.43209  22513286.700    92188091.94947
  21458817.260   112766817.56109  21458818.700    87870244.05048
  22286120.440   117114352.69909  22286122.460    91257942.03548
  24427761.280   128368757.43308  24427766.300   100027622.36745
  20651099.060   108522268.85609  20651099.800    84562815.59449
  23220436.880   122024220.78508  23220437.980    95083818.18445
  24658510.060   129581246.28807  24658512.340   100972366.35145
  22041025.620   115826343.89509  22041024.960    90254280.15448
  21910653.820   115141246.86209  21910652.940    89720444.97747
  20533432.780   107903913.09209  20533429.360    84080956.57049
 15 02 22 08 46  0.0000000  0 10G01G03G06G07G09G10G11G17G20G23
  22529610.400   118393858.65909  22529613.840    92254948.36447
  21467242.280   112811091.30109  21467243.760    87904743.03548
  22269974.200   117029503.59609  22269976.240    91191825.86548
  24408851.760   128269388.13608  24408856.760    99950192.00345
  20642997.000   108479692.21209  20642997.800    84529638.99849
  23205702.620   121946792.08108  23205703.700    95023484.13145
  24679818.440   129693221.69308  24679820.820   101059619.59344
  22049349.040   115870083.47509  22049348.440    90288362.89848
  21899032.960   115080179.59809  21899032.320    89672860.11348
  20536549.520   107920291.70809  20536546.120    84093719.10848
 15 02 22 08 46 30.0000000  0 10G01G03G06G07G09G10G11G17G20G23
  22545992.940   118479948.96509  22545996.380    92322031.59047
  21475696.940   112855520.80709  21475698.500    87939363.38248
  22253871.700   116944884.58909  22253873.720    91125888.98948
  24389932.680   128169968.30708  24389937.600    99872722.27346
  20634983.920   108437582.98509  20634984.720    84496826.61249
  23190989.760   121869475.67408  23190991.020    94963237.59345
  24701135.740   129805243.52608  24701138.260   101146909.02644
  22057765.240   115914310.60009  22057764.740    90322825.53148
  21887438.860   115019252.83009  21887438.400    89625384.72347
  20539748.900   107937104.39709  20539745.480    84106819.86648
 15 02 22 08 47  0.0000000  0 10G01G03G06G07G09G10G11G17G20G23
  22562430.220   118566327.04709  22562433.680    92389339.06048
  21484180.860   112900103.98709  21484182.460    87974103.47548
  22237813.040   116860496.13709  22237815.160    91060131.79248
  24371003.960   128070498.23608  24371008.880    99795213.40545
  20627059.480   108395939.52709  20627060.200    84464377.16049
  23176298.080   121792269.92808  23176299.180    94903077.27945
  24722461.140   129917308.16908  24722463.760   101234231.82845
  22066273.460   115959021.15409  22066273.040    90357664.87248
  21875871.240   114958464.86809  21875870.900    89578017.50547
  20543030.320   107954348.07409  20543026.860    84120256.46848
 15 02 22 08 47 30.0000000  0 10G01G03G06G07G09G10G11G17G20G23
  22578922.300   118652993.08209  22578925.800    92456870.91048
  21492694.300   112944842.23509  21492695.920    88008964.39648
  22221799.100   116776342.18809  22221801.120    90994557.30148
  24352066.480   127970982.20308  24352071.320    99717668.74746
  20619223.960   108354763.62009  20619224.600    84432292.03849
  23161627.760   121715176.54708  23161628.840    94843004.51545
  24743794.580   130029415.05708  24743797.380   101321587.52545
  22074873.480   116004213.94709  22074873.060    90392879.99248
  21864330.420   114897817.55709  21864330.120    89530759.87248
  20546393.840   107972022.97309  20546390.340    84134029.08048
 15 02 22 08 48  0.0000000  0 10G01G03G06G07G09G10G11G17G20G23
  22595468.420   118739942.95109  22595471.920    92524623.92648
  21501236.740   112989732.75009  21501238.360    88043943.96948
  22205829.780   116692422.40109  22205831.620    90929165.27448
  24333120.200   127871420.00908  24333125.000    99640088.12846
  20611476.860   108314052.83909  20611477.520    84400569.33949
  23146978.400   121638193.03108  23146979.460    94783017.36246
  24765135.140   130141559.33508  24765138.060   101408972.34745
  22083564.340   116049884.39109  22083563.940    90428467.28448
  21852815.880   114837308.55109  21852815.660    89483610.01648
  20549838.600   107990124.93109  20549835.020    84148134.46948
 15 02 22 08 48 30.0000000  0 10G01G03G06G07G09G10G11G17G20G23
  22612068.980   118827178.90409  22612072.500    92592599.85748
  21509808.740   113034778.99009  21509810.500    88079044.87048
  22189906.140   116608742.75609  22189907.940    90863960.37248
  24314166.320   127771817.82708  24314171.080    99562476.34246
  20603818.980   108273810.97609  20603819.700    84369212.03149
  23132350.660   121561323.42908  23132351.480    94723118.99945
  24786483.080   130253742.31607  24786486.020   101496387.33344
  22092346.300   116096033.93309  22092346.000    90464427.90548
  21841328.360   114776941.79409  21841328.240    89436571.01748
  20553365.020   108008656.22509  20553361.400    84162574.40448
 15 02 22 08 49  0.0000000  0 10G01G03G06G07G09G10G11G17G20G23
  22628723.300   118914697.45509  22628726.880    92660795.99148
  21518409.940   113079978.83509  21518411.900    88114265.47548
  22174028.140   116525303.65009  22174030.000    90798942.90748
  24295205.060   127672176.67908  24295209.700    99484834.17546
  20596250.040   108234036.22209  20596250.840    84338218.70649
  23117744.280   121484566.02108  23117744.860    94663308.04645
  24807837.540   130365959.99607  24807840.600   101583829.36845
  22101218.560   116142658.03209  22101218.360    90500758.30848
  21829867.620   114716715.75809  21829867.620    89389641.66348
  20556972.520   108027613.50809  20556968.820    84177346.29648
 15 02 22 08 49 30.0000000  0 10G01G03G06G07G09G10G11G17G20G23
  22645431.120   119002497.22209  22645434.740    92729211.25647
  21527040.360   113125332.13209  21527042.480    88149605.66448
  22158196.300   116442107.42909  22158198.340    90734114.70748
  24276236.800   127572499.06708  24276241.360    99407163.58345
  20588770.080   108194728.76209  20588770.940    84307589.50649
  23103159.280   121407921.00308  23103159.720    94603584.70746
  24829198.300   130478210.41707  24829201.460   101671296.90045
  22110180.720   116189754.62409  22110180.600    90537456.89848
  21818433.780   114656630.84709  21818433.840    89342822.28848
  20560660.800   108046995.56809  20560657.100    84192449.18648
 15 02 22 08 50  0.0000000  0 10G01G03G06G07G09G10G11G17G20G23
  22662192.860   119090580.18209  22662196.480    92797847.19047
  21535700.640   113170842.20609  21535702.820    88185068.00848
  22142411.800   116359159.93409  22142414.000    90669480.33248
  24257262.740   127472790.57008  24257267.160    99329468.92346
  20581379.800   108155892.18409  20581380.680    84277327.23149
  23088596.300   121331392.20508  23088596.740    94543951.92345
  24850565.460   130590494.73708  24850568.860   101758790.84944
  22119233.080   116237324.92609  22119232.980    90574524.59448
  21807027.540   114596690.75309  21807027.600    89296115.75548
  20564430.280   108066804.28309  20564426.560    84207884.53248
 15 02 22 08 50 30.0000000  0 10G01G03G06G07G09G10G11G17G20G23
  22679007.320   119178940.14509  22679010.900    92866698.97047
  21544389.820   113216504.16509  21544392.000    88220648.70048
  22126674.380   116276458.83909  22126676.600    90605037.93348
  24238282.380   127373049.25408  24238286.720    99251748.67246
  20574078.260   108117521.87009  20574079.120    84247428.27749
  23074054.420   121254975.00908  23074054.820    94484406.10245
  24871937.780   130702806.04308  24871941.200   101846305.81144
  22128374.180   116285361.56809  22128374.080    90611955.68048
  21795648.120   114536891.10609  21795647.920    89249518.64848
  20568279.740   108087033.31309  20568276.040    84223647.40448
 15 02 22 08 51  0.0000000  0 10G01G03G06G07G09G10G11G17G20G23
  22695874.480   119267577.06009  22695878.060    92935766.54847
  21553108.140   113262319.24309  21553110.300    88256348.69848
  22110984.580   116194007.88209  22110986.560    90540790.44048
  24219296.480   127273279.09208  24219300.900    99174005.93946
  20566865.680   108079619.35109  20566866.540    84217893.84149
  23059534.100   121178670.92408  23059534.760    94424948.43345
  24893315.280   130815144.26108  24893318.740   101933841.75244
  22137603.880   116333863.76109  22137603.820    90649749.52148
  21784295.820   114477233.77309  21784295.420    89203032.44748
  20572209.220   108107682.84109  20572205.560    84239737.94348
 15 02 22 08 51 30.0000000  0 10G01G03G06G07G09G10G11G17G20G23
  22712793.880   119356488.46309  22712797.420    93005048.02847
  21561855.400   113308286.41309  21561857.460    88292167.19948
  22095342.580   116111808.49409  22095344.480    90476738.97948
  24200305.500   127173481.69608  24200309.700    99096241.97246
  20559741.860   108042183.76309  20559742.740    84188723.23849
  23045035.260   121102479.10008  23045035.880    94365578.23645
  24914697.260   130927506.03407  24914700.880   102021396.05945
  22146921.500   116382828.33509  22146921.480    90687903.65748
  21772970.420   114417717.79509  21772969.840    89156656.38348
  20576218.320   108128750.47209  20576214.620    84256154.28648
 15 02 22 08 52  0.0000000  0 10G01G03G06G07G09G10G11G17G20G23
  22729765.680   119445675.33609  22729769.260    93074544.15147
  21570632.020   113354408.00209  21570634.040    88328106.03648
  22079749.300   116029865.57209  22079751.320    90412887.37048
  24181310.320   127073662.40208  24181314.520    99018460.97046
  20552707.340   108005217.61309  20552708.240    84159918.44249
  23030558.380   121026402.78708  23030558.980    94306298.06245
  24936083.720   131039891.48407  24936087.520   102108968.77545
  22156327.100   116432255.24609  22156327.220    90726418.05548
  21761672.600   114358346.75209  21761671.840    89110393.25648
  20580307.160   108150237.20609  20580303.440    84272897.20448
 15 02 22 08 52 30.0000000  0 10G01G03G06G07G09G10G11G17G20G23
  22746790.000   119535138.16309  22746793.600    93144255.30047
  21579438.400   113400685.79609  21579440.420    88364166.58448
  22064205.460   115948183.36309  22064207.660    90349238.92748
  24162311.840   126973825.68608  24162316.040    98940666.38046
  20545762.620   107968722.93909  20545763.460    84131481.03249
  23016103.840   120950443.89808  23016104.460    94247109.36045
  24957474.740   131152300.83807  24957478.840   102196560.13444
  22165820.660   116482144.01209  22165820.880    90765292.34048
  21750402.660   114299122.26509  21750401.700    89064244.31848
  20584475.880   108172143.60709  20584472.120    84289967.13548
 15 02 22 08 53  0.0000000  0 10G01G03G06G07G09G10G11G17G20G23
  22763865.660   119624870.87109  22763869.360    93214176.73847
  21588273.700   113447115.16209  21588275.700    88400345.25148
  22048711.040   115866759.79409  22048713.200    90285791.99848
  24143309.720   126873969.49708  24143313.800    98862856.60646
  20538906.800   107932695.18609  20538907.580    84103407.46249
  23001670.900   120874598.20308  23001671.500    94188008.88045
  24978869.020   131264727.36408  24978873.440   102284164.86044
  22175400.860   116532487.76409  22175401.080    90804521.15448
  21739159.840   114240040.21709  21739158.720    89018206.36548
  20588723.320   108194463.76109  20588719.520    84307359.46248
 15 02 22 08 53 30.0000000  0 10G01G03G06G07G09G10G11G17G20G23
  22780992.580   119714872.86509  22780996.340    93284308.02147
  21597138.040   113493696.96309  21597139.980    88436642.70348
  22033266.600   115785598.20709  22033268.760    90222549.21548
  24124304.620   126774097.54708  24124308.560    98785034.56246
  20532140.040   107897135.41209  20532140.800    84075698.54749
  22987259.700   120798866.72008  22987260.160    94128997.38245
  25000266.360   131377169.80708  25000270.800   102371782.00544
  22185067.360   116583284.96809  22185067.540    90844103.30148
  21727944.360   114181101.85909  21727943.040    88972280.37848
  20593049.380   108217197.02609  20593045.540    84325073.70348
 15 02 22 08 54  0.0000000  0 10G01G03G06G07G09G10G11G17G20G23
  22798171.040   119805145.77909  22798174.820    93354650.40547
  21606031.980   113540434.15009  21606033.800    88473061.22548
  22017873.040   115704704.03809  22017875.040    90159514.79848
  24105297.560   126674215.33308  24105301.360    98707204.52346
  20525462.900   107862046.66009  20525463.720    84048356.67749
  22972870.840   120723253.07608  22972871.520    94070077.70645
  25021666.920   131489629.41407  25021671.460   102459412.49645
  22194820.320   116634536.39909  22194820.360    90884039.39347
  21716756.920   114122310.97909  21716755.480    88926469.30148
  20597454.340   108240344.96309  20597450.480    84343111.05048
 15 02 22 08 54 30.0000000  0 10G01G03G06G07G09G10G11G17G20G23
  22815400.260   119895685.29809  22815404.080    93425200.54247
  21614954.840   113587323.85409  21614956.640    88509598.59948
  22002530.160   115624076.94109  22002532.220    90096688.50448
  24086288.520   126574323.11508  24086292.180    98629366.69746
  20518874.820   107827426.20809  20518875.780    84021379.70549
  22958503.920   120647754.81208  22958504.740    94011247.93346
  25043069.800   131602101.10607  25043074.460   102547052.41244
  22204658.680   116686236.57809  22204658.520    90924325.16148
  21705597.120   114063665.41209  21705595.540    88880771.46648
  20601937.360   108263903.28709  20601933.480    84361468.18648
 15 02 22 08 55  0.0000000  0 10G01G03G06G07G09G10G11G17G20G23
  22832679.840   119986489.39209  22832683.680    93495956.83347
  21623906.560   113634365.49209  21623908.420    88546254.35948
  21987238.400   115543718.85709  21987240.560    90034071.82448
  24067277.980   126474422.93608  24067281.500    98551522.65546
  20512375.720   107793273.46409  20512376.780    83994767.18649
  22944158.840   120572371.73308  22944159.720    93952507.92446
  25064474.600   131714582.42407  25064479.280   102634699.81344
  22214581.900   116738382.66309  22214581.660    90964958.38647
  21694464.960   114005164.68009  21694463.180    88835186.46848
  20606498.100   108287870.11909  20606494.180    84380143.62548
 15 02 22 08 55 30.0000000  0 10G01G03G06G07G09G10G11G17G20G23
  22850009.960   120077559.34309  22850013.820    93566920.29848
  21632887.660   113681561.83509  21632889.720    88583030.67348
  21971998.920   115463635.03309  21972001.060    89971668.85648
  24048266.860   126374519.95008  24048270.300    98473676.44446
  20505966.200   107759591.30109  20505967.220    83968521.35749
  22929836.420   120497106.73408  22929837.180    93893859.90446
  25085881.380   131827074.17207  25085886.060   102722355.36044
  22224590.080   116790975.17609  22224589.740    91005939.47148
  21683361.060   113946812.32209  21683359.000    88789717.09048
  20611136.880   108312247.12309  20611132.940    84399138.68248
 15 02 22 08 56  0.0000000  0 10G01G03G06G07G09G10G11G17G20G23
  22867390.200   120168892.67909  22867394.080    93638088.98447
  21641898.040   113728911.81209  21641900.280    88619926.70448
  21956812.040   115383826.94809  21956814.120    89909480.73648
  24029255.580   126274616.13708  24029258.980    98395829.56846
  20499646.140   107726378.70209  20499647.000    83942641.42249
  22915536.440   120421959.03308  22915536.860    93835303.27346
  25107289.440   131939573.27307  25107294.340   102810016.62844
  22234682.480   116844010.40309  22234682.080    91047265.53347
  21672285.240   113888607.75509  21672282.960    88744362.87348
  20615853.120   108337031.30209  20615849.220    84418450.99548
 15 02 22 08 56 30.0000000  0 10G01G03G06G07G09G10G11G17G20G23
  22884820.040   120260486.68309  22884824.000    93709460.79647
  21650937.540   113776414.21109  21650939.740    88656941.50348
  21941677.860   115304295.86709  21941679.860    89847508.47248
  24010244.480   126174713.09408  24010247.740    98317983.28946
  20493415.260   107693634.40509  20493415.880    83917126.40249
  22901258.540   120346927.87108  22901258.680    93776837.43846
  25128698.360   132052076.49007  25128703.380   102897681.13144
  22244858.400   116897484.87109  22244858.020    91088933.84548
  21661237.260   113830550.30909  21661234.960    88699123.30847
  20620646.300   108362219.84009  20620642.440    84438078.38948
 15 02 22 08 57  0.0000000  0 10G01G03G06G07G09G10G11G17G20G23
  22902299.220   120352339.82709  22902303.240    93781034.52147
  21660006.120   113824068.97409  21660008.200    88694075.01748
  21926596.720   115225044.21709  21926598.760    89785753.94548
  23991234.060   126074813.48808  23991237.260    98240139.66146
  20487273.440   107661358.40609  20487273.940    83891976.28449
  22887002.860   120272013.55108  22887002.960    93718462.65246
  25150107.800   132164581.98108  25150112.780   102985347.33644
  22255117.340   116951395.90209  22255117.100    91130942.33647
  21650217.260   113772640.12309  21650214.960    88653998.47947
  20625516.280   108387811.79509  20625512.400    84458020.12048
 15 02 22 08 57 30.0000000  0  9G01G03G06G07G09G10G17G20G23
  22919828.620   120444456.70709  22919832.660    93852813.76747
  21669104.880   113871882.20909  21669106.840    88731332.02848
  21911570.400   115146080.63609  21911572.380    89724223.89448
  23972225.960   125974926.10008  23972229.120    98162305.53946
  20481221.780   107629556.81009  20481222.320    83867195.82649
  22872770.440   120197222.67808  22872770.780    93660184.07046
  22265460.100   117005747.34909  22265459.980    91173294.02147
  21639226.460   113714883.66809  21639224.280    88608993.44348
  20630463.880   108413811.48509  20630459.980    84478279.57448
 15 02 22 08 58  0.0000000  0  9G01G03G06G07G09G10G17G20G23
  22937406.220   120536827.04309  22937410.320    93924790.50947
  21678232.060   113919845.14109  21678233.880    88768705.68648
  21896597.700   115067398.82109  21896599.580    89662913.41248
  23953219.020   125875044.91008  23953222.000    98084476.22746
  20475258.620   107598220.71809  20475259.360    83842778.10049
  22858559.880   120122546.83708  22858560.540    93601995.12546
  22275884.520   117060527.76209  22275884.360    91215979.97147
  21628263.340   113657272.92409  21628261.400    88564101.95448
  20635487.120   108440208.60509  20635483.180    84498848.70348
 15 02 22 08 58 30.0000000  0  9G01G03G06G07G09G10G17G20G23
  22955032.000   120629450.60109  22955036.160    93996964.56247
  21687387.880   113967959.04509  21687389.660    88806196.98048
  21881679.420   114989002.52609  21881681.200    89601825.39348
  23934214.040   125775173.86408  23934216.920    98006654.80946
  20469384.280   107567351.36509  20469385.240    83818724.05949
  22844371.700   120047987.78208  22844372.280    93543897.14646
  22286390.420   117115735.96109  22286390.200    91258999.26147
  21617328.300   113599809.91009  21617326.600    88519325.58248
  20640585.980   108467003.15609  20640582.080    84519727.51548
 15 02 22 08 59  0.0000000  0  9G01G03G06G07G09G10G17G20G23
  22972706.240   120722328.71009  22972710.480    94069336.96547
  21696572.980   114016226.76409  21696574.820    88843808.14148
  21866816.500   114910897.12309  21866818.300    89540964.05748
  23915212.040   125675318.56808  23915214.840    97928845.65046
  20463599.380   107536951.52409  20463600.380    83795035.87949
  22830206.440   119973548.58008  22830206.920    93485892.56146
  22296977.820   117171372.39609  22296977.520    91302352.24547
  21606421.960   113542497.86309  21606420.540    88474666.85447
  20645760.700   108494196.62709  20645756.900    84540917.17148
 15 02 22 08 59 30.0000000  0  9G01G03G06G07G09G10G17G20G23
  22990428.960   120815461.80909  22990433.280    94141908.06847
  21705787.680   114064650.29209  21705789.600    88881540.69948
  21852009.760   114833087.07609  21852011.560    89480332.87248
  23896214.020   125575483.88508  23896216.860    97851052.52946
  20457904.300   107507023.06909  20457905.120    83771715.01249
  22816064.500   119899231.50908  22816064.900    93427983.14846
  22307646.480   117227436.10909  22307646.180    91346038.17247
  21595544.780   113485339.09709  21595543.600    88430127.57048
  20651011.380   108521789.05509  20651007.620    84562417.70148
 15 02 22 09 00  0.0000000  0  9G01G03G06G07G09G10G17G20G23
  23008199.020   120908843.71309  23008203.420    94214673.04347
  21715031.160   114113224.98409  21715033.080    88919391.05248
  21837258.740   114755570.23509  21837260.640    89419930.16348
  23877219.500   125475667.86808  23877222.360    97773273.95646
  20452298.000   107477561.25409  20452298.600    83748757.76049
  22801944.980   119825032.39408  22801945.360    93370165.64446
  22318395.080   117283920.33909  22318394.920    91390051.77147
  21584696.080   113428329.64209  21584695.060    88385704.63548
  20656336.860   108549774.62109  20656333.140    84584224.56348
 15 02 22 09 00 30.0000000  0  9G01G03G06G07G09G10G17G20G23
  23026016.700   121002475.65209  23026021.160    94287632.84847
  21724303.940   114161953.64509  21724305.900    88957361.37548
  21822564.500   114678351.89509  21822566.500    89359760.04848
  23858229.660   125375876.13708  23858232.400    97695514.28246
  20446780.940   107448568.73509  20446781.400    83726166.19249
  22787848.500   119750954.50608  22787848.900    93312442.61246
  22329223.740   117340825.31009  22329223.640    91434393.23447
  21573876.460   113371472.76809  21573875.620    88341400.59748
  20661737.380   108578154.52109  20661733.740    84606338.70848
 15 02 22 09 01  0.0000000  0  9G01G03G06G07G09G10G17G20G23
  23043881.060   121096353.01409  23043885.640    94360783.88547
  21733605.360   114210833.27409  21733607.460    88995449.32548
  21807926.960   114601431.51809  21807928.940    89299822.11548
  23839244.380   125276108.44008  23839247.120    97617773.34046
  20441352.520   107420042.34509  20441353.020    83703937.83649
  22773774.460   119676995.10208  22773775.080    93254811.91246
  22340131.400   117398145.16709  22340131.260    91479057.97347
  21563085.540   113314766.18409  21563084.760    88297213.66148
  20667212.080   108606924.31909  20667208.540    84628756.67548
 15 02 22 09 01 30.0000000  0  9G01G03G06G07G09G10G17G20G23
  23061792.900   121190479.63509  23061797.420    94434129.15347
  21742936.560   114259869.22109  21742938.860    89033659.07648
  21793347.680   114524816.97409  21793349.560    89240122.48348
  23820265.220   125176372.75208  23820267.940    97540057.32846
  20436013.740   107391987.26609  20436014.400    83682076.73649
  22759724.020   119603159.84908  22759724.700    93197277.96146
  22351118.520   117455882.51209  22351118.280    91524048.03547
  21552324.380   113258215.68909  21552323.540    88253148.35048
  20672761.700   108636087.73509  20672758.240    84651481.35548
 15 02 22 09 02  0.0000000  0  9G01G03G06G07G09G10G17G20G23
  23079751.060   121284849.78809  23079755.540    94507664.17347
  21752296.780   114309057.37809  21752299.140    89071987.42248
  21778826.340   114448506.59909  21778828.160    89180659.85948
  23801291.960   125076668.19908  23801294.620    97462365.56546
  20430763.860   107364399.14709  20430764.680    83660579.50049
  22745696.520   119529445.32008  22745697.360    93139838.08946
  22362183.900   117514031.09509  22362183.660    91569358.53347
  21541592.220   113201817.33709  21541591.260    88209201.59148
  20678385.160   108665639.10109  20678381.720    84674508.33948
 15 02 22 09 02 30.0000000  0  9G01G03G06G07G09G10G17G20G23
  23097755.200   121379461.32909  23097759.660    94581387.29247
  21761685.900   114358397.26809  21761688.260    89110433.99648
  21764363.220   114372502.38209  21764365.080    89121435.81148
  23782325.000   124976996.55108  23782327.640    97384699.43446
  20425602.780   107337277.31309  20425603.640    83639445.60749
  22731691.940   119455851.19208  22731692.800    93082492.04746
  22373326.840   117572587.35109  22373326.640    91614986.69447
  21530889.100   113145571.40209  21530888.100    88165373.60648
  20684082.120   108695576.56509  20684078.680    84697836.18448
 15 02 22 09 03  0.0000000  0  9G01G03G06G07G09G10G17G20G23
  23115805.580   121474315.86709  23115810.060    94655299.75547
  21771104.520   114407892.06709  21771106.860    89149001.29848
  21749959.340   114296810.01609  21749961.280    89062454.76848
  23763365.440   124877363.87408  23763368.060    97307063.68046
  20420531.000   107310624.68709  20420531.780    83618677.34249
  22717711.020   119382381.08508  22717711.680    93025242.63446
  22384547.440   117631551.79509  22384547.260    91660932.92647
  21520215.700   113089481.87309  21520214.760    88121667.51048
  20689852.780   108725901.32509  20689849.320    84721465.82848
 15 02 22 09 03 30.0000000  0  9G01G03G06G07G09G10G17G20G23
  23133901.000   121569406.97108  23133905.460    94729396.56047
  21780551.740   114457537.01509  21780553.980    89187685.59548
  21735614.340   114221427.12309  21735616.440    89003714.88048
  23744412.880   124777768.29508  23744415.500    97229456.85646
  20415547.500   107284436.23409  20415548.200    83598270.76749
  22703752.860   119309030.34608  22703753.300    92968086.26146
  22395844.340   117690917.05009  22395844.180    91707191.47447
  21509571.220   113033544.23309  21509570.240    88078079.76748
  20695695.940   108756607.07309  20695692.440    84745392.34048
 15 02 22 09 04  0.0000000  0  9G01G03G06G07G09G10G17G20G23
  23152041.860   121664737.06208  23152046.360    94803679.57747
  21790028.260   114507336.06909  21790030.420    89226489.96548
  21721329.600   114146360.17909  21721331.780    88945221.16648
  23725468.680   124678216.51708  23725471.380    97151884.15146
  20410652.880   107258715.67309  20410653.600    83578228.79049
  22689818.240   119235803.34708  22689818.620    92911026.32046
  22407217.800   117750684.49709  22407217.620    91753763.42747
  21498956.520   112977762.89909  21498955.380    88034613.81948
  20701612.060   108787696.22509  20701608.560    84769617.62948
 15 02 22 09 04 30.0000000  0  9G01G03G06G07G09G10G17G20G23
  23170228.060   121760305.32109  23170232.540    94878148.18147
  21799534.240   114557290.17409  21799536.380    89265415.15148
  21707105.720   114071612.59109  21707107.780    88886976.29048
  23706533.460   124578712.30508  23706536.260    97074348.52446
  20405847.400   107233463.62709  20405848.180    83558551.87249
  22675907.380   119162701.25608  22675907.740    92854063.70446
  22418667.400   117810852.15209  22418667.200    91800647.22447
  21488371.800   112922139.32009  21488370.560    87991270.79648
  20707601.000   108819168.22309  20707597.480    84794141.23248
 15 02 22 09 05  0.0000000  0  9G01G03G06G07G09G10G17G20G23
  23188458.800   121856107.54909  23188463.300    94952799.10647
  21809069.220   114607396.69009  21809071.440    89304459.10248
  21692942.560   113997184.19209  21692944.480    88828980.13548
  23687607.360   124479255.85308  23687610.200    96996850.11746
  20401130.580   107208677.12509  20401131.400    83539237.73349
  22662019.960   119089722.43708  22662020.540    92797197.16846
  22430192.160   117871414.97209  22430192.000    91847838.94847
  21477816.740   112866671.73809  21477815.460    87948049.32948
  20713662.020   108851018.83309  20713658.440    84818959.88148
 15 02 22 09 05 30.0000000  0  9G01G03G06G07G09G10G17G20G23
  23206733.920   121952143.02609  23206738.440    95027631.77547
  21818633.400   114657656.65309  21818635.700    89343622.62148
  21678840.700   113923078.45109  21678842.620    88771235.41048
  23668691.020   124379850.84008  23668693.980    96919391.79846
  20396502.640   107184356.87409  20396503.460    83520286.89549
  22648156.260   119016867.96808  22648156.820    92740427.50746
  22441791.800   117932371.23409  22441791.680    91895337.24247
  21467291.580   112811361.60709  21467290.280    87904950.55548
  20719794.960   108883247.40809  20719791.380    84844073.04048
 15 02 22 09 06  0.0000000  0  9G01G03G06G07G09G10G17G20G23
  23225053.580   122048412.58509  23225058.080    95102646.84447
  21828227.280   114708072.56509  21828229.640    89382907.66348
  21664801.100   113849300.29709  21664803.040    88713745.94548
  23649785.520   124280502.34308  23649788.400    96841977.51746
  20391963.900   107160504.94309  20391964.680    83501700.98649
  22634316.720   118944140.66208  22634317.060    92683756.94346
  22453466.200   117993720.39409  22453466.100    91943141.69447
  21456796.900   112756211.65709  21456795.480    87861976.58648
  20725999.980   108915854.74809  20725996.380    84869481.34748
 15 02 22 09 06 30.0000000  0  9G01G03G06G07G09G10G17G20G23
  23243416.200   122144907.91409  23243420.660    95177837.84947
  21837849.660   114758637.75409  21837851.920    89422309.03448
  21650823.120   113775845.55609  21650825.120    88656508.47848
  23630890.080   124181206.81308  23630893.020    96764604.52546
  20387512.920   107137114.37309  20387513.660    83483474.56949
  22620500.320   118871534.44408  22620500.280    92627180.71446
  22465213.620   118055453.30909  22465213.600    91991245.17147
  21446331.540   112701215.97909  21446330.040    87819122.84048
  20732275.540   108948832.65009  20732271.880    84895178.41348
 15 02 22 09 07  0.0000000  0  9G01G03G06G07G09G10G17G20G23
  23261822.240   122241631.61808  23261826.680    95253206.79647
  21847501.240   114809356.57609  21847503.400    89461830.12248
  21636908.040   113702720.97009  21636910.100    88599528.27648
  23612006.020   124081971.33008  23612009.000    96687278.31446
  20383150.380   107114189.07009  20383151.140    83465610.69149
  22606707.880   118799053.87308  22606707.500    92570702.39446
  22477034.320   118117571.29409  22477034.400    92039648.70247
  21435896.420   112646379.34209  21435894.820    87776393.01048
  20738622.020   108982183.41209  20738618.300    84921166.01848
 15 02 22 09 07 30.0000000  0  9G01G03G06G07G09G10G17G20G23
  23280271.460   122338582.35109  23280275.960    95328752.65147
  21857182.100   114860229.38209  21857184.220    89501471.20048
  21623056.320   113629929.35409  21623058.420    88542807.52548
  23593133.960   123982799.07608  23593137.020    96610001.37846
  20378876.340   107091728.98309  20378877.060    83448109.30849
  22592939.380   118726699.42308  22592939.020    92514322.34647
  22488927.840   118180071.87409  22488927.960    92088350.35747
  21425491.820   112591702.92909  21425490.240    87733788.03348
  20745039.260   109015906.18809  20745035.500    84947443.51048
 15 02 22 09 08  0.0000000  0  9G01G03G06G07G09G10G17G20G23
  23298763.820   122435759.64909  23298768.300    95404475.04547
  21866892.460   114911257.45009  21866894.560    89541233.26148
  21609268.640   113557474.45109  21609270.760    88486349.14648
  23574274.620   123883693.54008  23574277.680    96532776.44046
  20374691.020   107069734.91809  20374691.640    83430971.04549
  22579195.080   118654472.92108  22579195.000    92458041.99746
  22500893.880   118242953.70709  22500894.040    92137349.09147
  21415117.980   112537188.16609  21415116.420    87691309.00148
  20751527.120   109050000.33809  20751523.420    84974010.37848
 15 02 22 09 08 30.0000000  0  9G01G03G06G07G09G10G17G20G23
  23317299.040   122533161.90509  23317303.460    95480372.73147
  21876632.360   114962440.86709  21876634.540    89581116.38248
  21595545.400   113485358.75109  21595547.560    88430155.07948
  23555428.620   123784657.98508  23555431.640    96455606.03046
  20370594.380   107048206.56909  20370594.880    83414195.67549
  22565475.220   118582374.89508  22565475.160    92401861.76347
  22512931.920   118306214.07909  22512932.220    92186642.78747
  21404774.960   112482835.75509  21404773.460    87648956.48648
  20758085.380   109084464.28709  20758081.720    85000865.40448
 15 02 22 09 09  0.0000000  0  9G01G03G06G07G09G10G17G20G23
  23335876.180   122630784.58109  23335880.640    95556442.16647
  21886401.280   115013776.81209  21886403.600    89621118.34848
  21581886.660   113413581.90009  21581888.840    88374225.04748
  23536595.940   123685692.29508  23536599.020    96378490.04346
  20366585.760   107027140.63009  20366586.160    83397780.60849
  22551779.340   118510402.92808  22551779.200    92345779.75647
  22525040.940   118369847.17209  22525041.340    92236226.91547
  21394462.380   112428643.71409  21394461.100    87606728.92648
  20764713.200   109119293.78009  20764709.600    85028005.27248
 15 02 22 09 09 30.0000000  0  9G01G03G06G07G09G10G17G20G23
  23354494.880   122728625.54309  23354499.380    95632681.69547
  21896199.240   115065264.89609  21896201.540    89661238.86948
  21568292.860   113342145.93909  21568294.940    88318560.63548
  23517776.980   123586798.85008  23517780.120    96301430.35946
  20362664.920   107006536.24009  20362665.340    83381725.18049
  22538107.400   118438556.94008  22538107.200    92289795.89547
  22537220.300   118433849.55809  22537220.680    92286098.80847
  21384180.320   112374612.09609  21384179.260    87564626.36348
  20771410.080   109154486.37109  20771406.560    85055428.06248
 15 02 22 09 10  0.0000000  0  9G01G03G06G07G09G10G17G20G23
  23373154.940   122826684.10509  23373159.460    95709090.76747
  21906026.360   115116906.18709  21906028.680    89701478.76848
  21554764.640   113271054.33909  21554766.760    88263164.57848
  23498972.580   123487981.52308  23498975.680    96224429.98046
  20358831.940   106986393.94909  20358832.480    83366029.82349
  22524459.720   118366838.40408  22524459.680    92233911.37147
  22549469.680   118498219.56209  22549469.980    92336257.15047
  21373929.080   112320742.35409  21373928.140    87522649.93748
  20778176.020   109190041.63909  20778172.500    85083133.46048
 15 02 22 09 10 30.0000000  0  9G01G03G06G07G09G10G17G20G23
  23391856.220   122924959.32709  23391860.780    95785668.66647
  21915882.820   115168701.62209  21915885.120    89741838.78448
  21541302.600   113200310.43709  21541304.700    88208039.44948
  23480183.380   123389243.96308  23480186.420    96147491.74046
  20355087.000   106966714.18809  20355087.620    83350694.87549
  22510836.680   118295248.60708  22510836.520    92178127.15747
  22561788.640   118562955.36109  22561788.900    92386700.53847
  21363708.940   112267035.89709  21363708.000    87480800.73548
  20785010.780   109225958.60009  20785007.220    85111120.70248
 15 02 22 09 11  0.0000000  0  9G01G03G06G07G09G10G17G20G23
  23410598.420   123023449.60409  23410602.980    95862414.13647
  21925768.520   115220651.24209  21925770.940    89782318.94448
  21527907.160   113129916.70109  21527909.280    88153187.18148
  23461409.980   123290589.23208  23461412.980    96070618.03046
  20351430.020   106947496.45809  20351430.600    83335719.94249
  22497238.240   118223788.09108  22497237.940    92122443.67347
  22574176.620   118628054.08409  22574176.820    92437426.70747
  21353520.160   112213493.74409  21353519.180    87439079.56248
  20791914.040   109262235.69509  20791910.500    85139388.55248
 15 02 22 09 11 30.0000000  0  9G01G03G06G07G09G10G17G20G23
  23429381.300   123122153.64309  23429385.900    95939326.16947
  21935683.640   115272755.57509  21935686.120    89822919.66248
  21514578.780   113059876.09609  21514580.980    88098610.08048
  23442652.940   123192020.44508  23442655.900    95993811.29046
  20347861.040   106928740.70309  20347861.500    83321105.00549
  22483664.640   118152457.77908  22483664.180    92066861.65147
  22586633.180   118693513.21209  22586633.340    92488433.72447
  21343362.920   112160117.00609  21343361.820    87397487.27848
  20798885.620   109298871.94209  20798882.160    85167936.26048
 15 02 22 09 12  0.0000000  0  9G01G03G06G07G09G10G17G20G23
  23448204.320   123221068.67909  23448208.940    96016402.61146
  21945628.060   115325013.64709  21945630.580    89863640.17848
  21501317.840   112990189.99309  21501320.100    88044309.22448
  23423912.560   123093539.27308  23423915.440    95917072.81047
  20344379.700   106910445.42309  20344380.020    83306848.88349
  22470115.740   118081257.20408  22470115.100    92011380.72847
  22599157.660   118759329.14209  22599157.740    92539718.76847
  21333237.100   112106905.01809  21333235.880    87356023.37248
  20805924.980   109335864.22509  20805921.500    85196761.40648
 15 02 22 09 12 30.0000000  0  9G01G03G06G07G09G10G17G20G23
  23467067.000   123320191.89609  23467071.600    96093641.26547
  21955601.520   115377424.46009  21955604.100    89904479.70148
  21488124.720   112920859.83709  21488126.980    87990285.71048
  23405189.180   122995147.64408  23405192.080    95840404.09847
  20340985.620   106892609.06009  20340985.920    83292950.35949
  22456591.280   118010185.46608  22456590.540    91956000.20047
  22611749.220   118825497.79009  22611749.280    92591278.65347
  21323142.620   112053856.92509  21323141.100    87314687.16048
  20813031.620   109373209.88409  20813028.200    85225861.89248
 15 02 22 09 13  0.0000000  0  9G01G03G06G07G09G10G17G20G23
  23485969.240   123419522.97309  23485973.840    96171041.88547
  21965604.300   115429989.41309  21965606.960    89945439.34148
  21475000.080   112851889.44109  21475002.260    87936542.53848
  23386483.700   122896849.80108  23386486.480    95763808.45646
  20337678.980   106875232.41509  20337679.340    83279410.07649
  22443091.680   117939244.68408  22443090.920    91900721.72247
  22624407.540   118892017.27109  22624407.600    92643111.91947
  21313079.900   112000975.53709  21313078.140    87273480.85548
  20820205.420   109410908.43909  20820202.080    85255237.36348
 15 02 22 09 13 30.0000000  0  9G01G03G06G07G09G10G17G20G23
  23504910.900   123519061.04309  23504915.560    96248603.78247
  21975636.700   115482709.50009  21975639.380    89986519.85448
  21461944.520   112783282.16309  21461946.760    87883082.31348
  23367796.880   122798649.82808  23367799.500    95687289.07746
  20334459.860   106858315.85409  20334460.360    83266228.30949
  22429617.180   117868435.87208  22429616.440    91845546.05647
  22637132.280   118958885.81909  22637132.300    92695217.17047
  21303049.080   111948262.18709  21303047.220    87232405.49348
  20827446.300   109448959.49609  20827443.040    85284887.49748
 15 02 22 09 14  0.0000000  0  9G01G03G06G07G09G10G17G20G23
  23523891.620   123618804.53509  23523896.320    96326325.74747
  21985698.720   115535585.03409  21985701.360    90027721.49548
  21448958.520   112715040.63709  21448961.000    87829907.10648
  23349129.180   122700550.30008  23349131.800    95610847.94846
  20331328.240   106841858.97509  20331328.800    83253404.75549
  22416167.940   117797759.99008  22416167.320    91790473.96647
  22649922.920   119026100.93909  22649922.940    92747592.48147
  21293050.220   111895717.49509  21293048.480    87191461.56148
  20834754.020   109487361.41909  20834750.760    85314811.03048
 15 02 22 09 14 30.0000000  0  9G01G03G06G07G09G10G17G20G23
  23542910.920   123718750.74109  23542915.680    96404205.66747
  21995790.020   115588615.03409  21995792.640    90069043.50048
  21436042.380   112647166.35009  21436045.020    87777018.04348
  23330480.920   122602553.19008  23330483.520    95534486.63747
  20328283.820   106825860.21209  20328284.400    83240938.19649
  22402743.880   117727216.44208  22402743.420    91735505.00147
  22662778.720   119093658.61109  22662778.840    92800234.72147
  21283083.300   111843341.21309  21283081.820    87150648.86348
  20842127.960   109526111.21309  20842124.640    85345005.61948
 15 02 22 09 15  0.0000000  0  9G01G03G06G07G09G10G17G20G23
  23561968.400   123818897.36809  23561973.200    96482241.76947
  22005910.620   115641799.15609  22005913.300    90110485.60148
  21423196.500   112579661.27809  21423199.300    87724416.68048
  23311852.620   122504660.83108  23311855.120    95458206.96146
  20325326.380   106810318.51209  20325326.920    83228827.80849
  22389344.920   117656804.97309  22389344.480    91680638.95347
  22675699.080   119161555.44509  22675699.260    92853141.24747
  21273148.460   111791133.57609  21273147.200    87109967.57548
  20849567.720   109565207.14209  20849564.400    85375469.92348
 15 02 22 09 15 30.0000000  0  9G01G03G06G07G09G10G17G20G23
  23581063.760   123919243.00909  23581068.660    96560432.92747
  22016060.580   115695137.78509  22016063.380    90152048.09148
  21410421.500   112512528.18409  21410424.180    87672105.16248
  23293244.780   122406875.87208  23293247.140    95382010.96746
  20322455.800   106795233.58109  20322456.300    83217073.36149
  22375971.320   117586526.57208  22375970.820    91625876.55447
  22688683.540   119229788.87009  22688683.780    92906310.04347
  21263245.960   111739095.64309  21263244.840    87069418.52048
  20857073.120   109604647.84109  20857069.760    85406202.87848
 15 02 22 09 16  0.0000000  0  9G01G03G06G07G09G10G17G20G23
  23600196.580   124019785.55809  23600201.500    96638777.51147
  22026239.940   115748630.59609  22026242.800    90193730.71548
  21397717.640   112445769.09609  21397720.280    87620085.09448
  23274658.060   122309201.96808  23274660.360    95305901.51346
  20319671.880   106780604.41109  20319672.420    83205674.04449
  22362623.020   117516381.46308  22362622.580    91571218.02347
  22701731.440   119298355.58209  22701731.700    92959738.55547
  21253375.780   111687227.36309  21253374.780    87029001.66648
  20864643.720   109644430.88809  20864640.260    85437202.58648
 15 02 22 09 16 30.0000000  0  9G01G03G06G07G09G10G17G20G23
  23619366.540   124120523.41909  23619371.440    96717274.28946
  22036448.720   115802277.94509  22036451.680    90235533.77048
  21385085.520   112379386.75009  21385088.040    87568358.57248
  23256092.920   122211641.69608  23256095.160    95229880.61346
  20316974.600   106766430.55609  20316975.220    83194629.53149
  22349300.240   117446370.47008  22349299.820    91516664.00947
  22714842.240   119367252.82009  22714842.520    93013424.61147
  21243538.160   111635530.13909  21243537.100    86988718.10348
  20872279.240   109684555.09609  20872275.680    85468468.13848
 15 02 22 09 17  0.0000000  0  9G01G03G06G07G09G10G17G20G23
  23638573.440   124221455.59509  23638578.460    96795922.47846
  22046687.080   115856080.73709  22046690.020    90277457.94648
  21372525.680   112313384.36409  21372528.240    87516928.14948
  23237550.060   122114198.49008  23237552.240    95153950.94346
  20314364.020   106752712.18809  20314364.760    83183939.95349
  22336003.280   117376494.76708  22336002.900    91462215.41247
  22728015.520   119436478.37509  22728015.780    93067366.50347
  21233733.420   111584005.51209  21233732.260    86948569.04548
  20879979.400   109725019.22109  20879975.820    85499998.55948
 15 02 22 09 17 30.0000000  0  9G01G03G06G07G09G10G17G20G23
  23657816.960   124322580.17608  23657822.100    96874720.59146
  22056955.060   115910038.85009  22056957.920    90319503.14748
  21360038.520   112247764.15309  21360041.240    87465795.51548
  23219029.980   122016875.17308  23219032.100    95078114.69846
  20311839.980   106739448.41809  20311840.780    83173604.59549
  22322732.100   117306754.48508  22322731.880    91407872.35147
  22741250.600   119506028.97109  22741250.920    93121561.66947
  21223961.540   111532653.62409  21223960.260    86908554.57848
  20887743.900   109765821.53209  20887740.300    85531792.49648
 15 02 22 09 18  0.0000000  0  9G01G03G06G07G09G10G17G20G23
  23677096.420   124423893.66809  23677101.640    96953665.90146
  22067252.260   115964150.68909  22067255.100    90361668.13448
  21347624.240   112182526.89209  21347627.020    87414961.28748
  23200532.960   121919673.00008  23200534.980    95002372.84846
  20309402.020   106726636.88409  20309402.840    83163621.63249
  22309486.560   117237148.57909  22309486.380    91353634.00547
  22754546.740   119575900.31409  22754547.080    93176006.77147
  21214222.340   111481473.54109  21214220.900    86868673.99048
  20895572.100   109806958.63509  20895568.520    85563847.30648
 15 02 22 09 18 30.0000000  0  9G01G03G06G07G09G10G17G20G23
  23696411.940   124525396.45208  23696417.260    97032758.71746
  22077579.080   116018418.52009  22077582.020    90403954.67348
  21335283.800   112117677.18409  21335286.540    87364429.04048
  23182059.880   121822596.79808  23182061.840    94926729.16947
  20307050.360   106714279.06609  20307051.160    83153992.19549
  22296267.080   117167679.78708  22296266.900    91299502.49847
  22767903.760   119646091.47409  22767904.160    93230701.08247
  21204516.340   111430468.23709  21204514.780    86828929.59248
  20903464.120   109848431.03309  20903460.560    85596163.39148
 15 02 22 09 19  0.0000000  0  9G01G03G06G07G09G10G17G20G23
  23715762.960   124627085.45609  23715768.380    97111996.63446
  22087935.440   116072841.24409  22087938.460    90446361.91248
  21323017.360   112053216.23109  21323020.060    87314199.72648
  23163611.180   121725648.43008  23163613.040    94851185.10147
  20304784.700   106702373.06309  20304785.420    83144714.82349
  22283073.500   117098347.36408  22283073.340    91245477.25547
  22781320.860   119716598.21909  22781321.320    93285641.30347
  21194843.380   111379637.13809  21194841.800    86789320.95148
  20911419.360   109890235.80209  20911415.780    85628738.47248
 15 02 22 09 19 30.0000000  0  9G01G03G06G07G09G10G17G20G23
  23735149.120   124728959.28408  23735154.640    97191378.57246
  22098321.380   116127419.30209  22098324.380    90488890.18248
  21310825.400   111989146.79409  21310828.040    87264275.48748
  23145187.440   121628831.22508  23145189.160    94775743.22547
  20302604.960   106690918.43909  20302605.560    83135789.15449
  22269906.020   117029152.18609  22269906.020    91191558.95947
  22794797.500   119787417.86509  22794797.980    93340825.33447
  21185203.780   111328981.38409  21185202.240    86749848.93748
  20919437.560   109932371.59409  20919433.960    85661571.49348
 15 02 22 09 20  0.0000000  0  9G01G03G06G07G09G10G17G20G23
  23754570.180   124831016.74208  23754575.700    97270903.59146
  22108736.980   116182153.41809  22108739.980    90531540.06748
  21298708.500   111925471.89509  21298710.980    87214658.68448
  23126789.260   121532148.41009  23126790.900    94700406.05946
  20300511.120   106679915.13609  20300511.600    83127215.15149
  22256764.920   116960095.53709  22256765.100    91137748.62047
  22808333.240   119858548.23009  22808333.760    93396251.49447
  21175597.820   111278502.18109  21175596.420    86710514.51148
  20927518.420   109974837.10709  20927514.960    85694661.45248
 15 02 22 09 20 30.0000000  0  9G01G03G06G07G09G10G17G20G23
  23774025.420   124933253.69408  23774031.000    97350568.48246
  22119181.880   116237041.35209  22119184.940    90574309.79448
  21286666.620   111862191.60109  21286669.120    87165349.38148
  23108416.760   121435600.55708  23108418.400    94625174.06247
  20298502.560   106669360.01609  20298503.000    83118990.37249
  22243649.880   116891175.69609  22243650.060    91084044.88547
  22821927.140   119929984.05509  22821927.640    93451915.67147
  21166025.200   111228198.06709  21166023.940    86671316.52448
  20935661.280   110017628.48809  20935657.980    85728005.34048
 15 02 22 09 21  0.0000000  0  9G01G03G06G07G09G10G17G20G23
  23793514.800   125035670.12008  23793520.380    97430373.21646
  22129656.400   116292085.04209  22129659.500    90617200.88548
  21274700.680   111799310.18509  21274703.220    87116350.88148
  23090070.920   121339192.63608  23090072.480    94550051.07847
  20296579.480   106659254.19709  20296579.940    83111115.69049
  22230561.380   116822395.14609  22230561.440    91030449.67047
  22835578.940   120001724.06809  22835579.380    93507816.86947
  21156486.480   111178071.51609  21156485.260    86632256.88248
  20943866.120   110060745.62509  20943863.000    85761603.06448
 15 02 22 09 21 30.0000000  0  9G01G03G06G07G09G10G17G20G23
  23813037.800   125138263.22408  23813043.480    97510315.62846
  22140160.360   116347283.65309  22140163.500    90660212.71048
  21262810.920   111736829.03509  21262813.460    87067664.29448
  23071752.080   121242926.65209  23071753.580    94475038.69947
  20294741.540   106649595.95109  20294742.100    83103589.75549
  22217499.200   116753752.99509  22217499.120    90976962.29647
  22849287.820   120073763.88609  22849288.220    93563951.68847
  21146981.660   111128122.79109  21146980.360    86593335.81948
  20952132.460   110104186.12409  20952129.540    85795452.76748
 15 02 22 09 22  0.0000000  0  9G01G03G06G07G09G10G17G20G23
  23832594.340   125241032.55008  23832600.140    97590395.33946
  22150694.120   116402638.57309  22150697.260    90703346.34248
  21250998.040   111674751.85309  21251000.580    87019292.47348
  23053460.920   121146806.14208  23053462.380    94400139.64947
  20292988.860   106640385.77609  20292989.480    83096412.96149
  22204463.620   116685251.22208  22204463.700    90923584.31347
  22863053.400   120146101.79209  22863053.780    93620318.79047
  21137510.920   111078353.21909  21137509.540    86554554.35348
  20960460.200   110147949.16109  20960457.460    85829553.81648
 15 02 22 09 22 30.0000000  0  9G01G03G06G07G09G10G17G20G23
  23852184.440   125343978.04308  23852190.260    97670612.33946
  22161258.020   116458151.81409  22161261.200    90746603.33748
  21239262.880   111613082.89809  21239265.420    86971238.75248
  23035198.420   121050836.26109  23035199.840    94325357.97147
  20291321.660   106631624.74409  20291322.320    83089586.15449
  22191455.120   116616892.35508  22191455.560    90870317.66147
  22876875.620   120218737.42109  22876876.060    93676917.87047
  21128074.740   111028765.62709  21128073.320    86515914.68648
  20968849.400   110192035.02709  20968846.780    85863906.41748
 15 02 22 09 23  0.0000000  0  9G01G03G06G07G09G10G17G20G23
  23871806.960   125447094.01808  23871812.840    97750962.16246
  22171851.320   116513819.54509  22171854.500    90789980.71048
  21227605.100   111551820.63209  21227607.540    86923501.92248
  23016964.400   120955015.97409  23016965.800    94250692.84347
  20289739.060   106623308.16409  20289739.760    83083105.66749
  22178473.080   116548672.78208  22178473.900    90817159.55147
  22890753.060   120291663.09809  22890753.520    93733742.96747
  21118672.500   110979357.02209  21118671.080    86477414.48848
  20977299.040   110236438.07209  20977296.400    85898506.18048
 15 02 22 09 23 30.0000000  0  9G01G03G06G07G09G10G17G20G23
  23891462.520   125550383.52408  23891468.400    97831447.20946
  22182475.000   116569646.76909  22182478.100    90833482.35148
  21216026.040   111490972.33809  21216028.460    86876087.67048
  22998760.300   120859352.85609  22998761.620    94176150.17047
  20288241.820   106615440.10509  20288242.520    83076974.67549
  22165518.520   116480598.13808  22165519.660    90764114.36647
  22904686.100   120364881.05309  22904686.560    93790795.80847
  21109305.360   110930133.01809  21109303.960    86439058.12748
  20985809.600   110281161.42209  20985806.980    85933355.52748
 15 02 22 09 24  0.0000000  0  9G01G03G06G07G09G10G17G20G23
  23911149.480   125653838.27708  23911155.540    97912060.99946
  22193127.800   116625627.18309  22193130.860    90877103.37548
  21204524.940   111430533.92809  21204527.360    86828992.81848
  22980585.480   120763843.46909  22980586.780    94101727.29047
  20286828.560   106608013.25209  20286829.280    83071187.48949
  22152590.560   116412662.89708  22152592.080    90711177.80047
  22918672.940   120438381.84909  22918673.320    93848069.04347
  21099972.280   110881088.05809  21099970.940    86400841.29448
  20994379.560   110326196.87109  20994377.020    85968448.08248
 15 02 22 09 24 30.0000000  0  9G01G03G06G07G09G10G17G20G23
  23930868.080   125757459.19508  23930874.220    97992804.28746
  22203810.280   116681763.71309  22203813.420    90920846.02748
  21193102.860   111370510.58209  21193105.320    86782221.38348
  22962441.060   120668493.72009  22962442.280    94027428.79047
  20285499.600   106601029.62009  20285500.380    83065745.67349
  22139689.820   116344870.15708  22139691.620    90658352.28447
  22932713.520   120512164.96209  22932713.800    93905562.27947
  21090673.880   110832225.37709  21090672.680    86362766.49248
  21003009.160   110371545.74909  21003006.640    86003784.86648
 15 02 22 09 25  0.0000000  0  9G01G03G06G07G09G10G17G20G23
  23950618.360   125861246.70808  23950624.600    98073677.36946
  22214522.920   116738058.76109  22214526.120    90964712.22148
  21181760.720   111310906.93109  21181763.160    86735776.97948
  22944327.980   120573308.70009  22944329.140    93953258.64447
  20284255.280   106594490.61409  20284256.100    83060650.32149
  22126816.900   116277222.94208  22126818.780    90605640.16447
  22946807.660   120586229.98109  22946807.960    93963275.16747
  21081410.900   110783548.47309  21081409.780    86324836.44148
  21011698.480   110417208.38409  21011696.020    86039366.12648
 15 02 22 09 25 30.0000000  0  9G01G03G06G07G09G10G17G20G23
  23970398.620   125965191.48508  23970404.980    98154672.99046
  22225264.340   116794504.89709  22225267.560    91008696.13548
  21170497.440   111251717.75409  21170499.860    86689655.54448
  22926245.380   120478283.73809  22926246.420    93879213.23047
  20283093.980   106588387.81309  20283094.820    83055894.87149
  22113970.460   116209713.95809  22113972.220    90553035.76147
  22960953.300   120660565.84509  22960953.720    94021199.10147
  21072182.040   110735050.16509  21072180.900    86287045.54848
  21020445.820   110463175.44609  21020443.260    86075184.60548
 15 02 22 09 26  0.0000000  0 10G01G02G03G06G07G09G10G17G20G23
  23990210.120   126069300.40708  23990216.520    98235796.52846
  24869462.200   130689902.44806  24869462.900   101836290.26746
  22236036.220   116851111.02009  22236039.480    91052804.71448
  21159315.180   111192954.22109  21159317.560    86643865.76748
  22908195.440   120383430.45609  22908196.440    93805301.59847
  20282017.180   106582729.08509  20282018.020    83051485.45649
  22101152.160   116142352.66208  22101153.920    90500546.44647
  22975151.620   120735178.64909  22975152.200    94079338.85247
  21062989.060   110686740.24109  21062987.880    86249401.44748
  21029252.420   110509454.01809  21029249.720    86111245.81448
 15 02 22 09 26 30.0000000  0 10G01G02G03G06G07G09G10G17G20G23
  24010049.540   126173556.13508  24010055.900    98317034.43946
  24849817.080   130586657.65408  24849816.480   101755839.76246
  22246835.700   116907861.83209  22246838.900    91097026.04648
  21148211.400   111134603.21909  21148213.740    86598397.44648
  22890175.760   120288736.28309  22890176.700    93731513.95347
  20281021.780   106577498.12809  20281022.620    83047409.38249
  22088359.180   116075124.28109  22088360.840    90448160.72547
  22989399.160   120810049.97709  22989399.840    94137680.03247
  21053829.120   110638603.94809  21053827.960    86211892.65348
  21038115.060   110556026.92509  21038112.240    86147536.37948
 15 02 22 09 27  0.0000000  0 10G01G02G03G06G07G09G10G17G20G23
  24029919.240   126277970.77908  24029925.660    98398396.19346
  24830182.040   130483467.69908  24830180.280   101675431.97446
  22257665.340   116964771.36709  22257668.500    91141371.03648
  21137189.120   111076680.95109  21137191.460    86553263.20848
  22872189.640   120194218.44209  22872190.560    93657863.72447
  20280110.220   106572707.93809  20280111.080    83043676.76449
  22075594.280   116008043.45909  22075595.720    90395889.97747
  23003697.940   120885190.34709  23003698.740    94196230.85847
  21044705.040   110590656.20509  21044703.900    86174530.77848
  21047036.020   110602906.30309  21047033.120    86184065.74148
 15 02 22 09 27 30.0000000  0 10G01G02G03G06G07G09G10G17G20G23
  24049819.760   126382547.52908  24049826.380    98479884.22946
  24810558.160   130380339.69908  24810555.820   101595072.49846
  22268526.200   117021844.79109  22268529.320    91185843.73448
  21126249.800   111019194.86809  21126252.280    86508468.85748
  22854238.440   120099884.37809  22854239.360    93584356.70247
  20279283.340   106568362.67209  20279284.220    83040290.84749
  22062858.340   115941115.84008  22062859.740    90343738.63047
  23018048.320   120960601.91909  23018049.200    94254993.00947
  21035617.940   110542902.90509  21035616.740    86137320.41848
  21056015.860   110650095.06009  21056012.840    86220836.18348
 15 02 22 09 28  0.0000000  0 10G01G02G03G06G07G09G10G17G20G23
  24069749.840   126487279.43508  24069756.380    98561493.19146
  24790944.960   130277270.92807  24790942.380   101514759.16544
  22279417.300   117079077.23009  22279420.440    91230440.33348
  21115393.020   110962142.20609  21115395.460    86464012.23548
  22836321.740   120005731.85209  22836322.760    93510991.16547
  20278539.980   106564456.34209  20278540.880    83037246.94949
  22050150.700   115874337.11409  22050152.140    90291703.29447
  23032448.760   121036276.62609  23032449.780    94313960.20147
  21026566.920   110495339.50209  21026565.640    86100258.03448
  21065053.420   110697587.04909  21065050.340    86257842.90148
 15 02 22 09 28 30.0000000  0 10G01G02G03G06G07G09G10G17G20G23
  24089709.340   126592166.14608  24089716.100    98643222.73946
  24771343.240   130174264.95207  24771340.360   101434494.67644
  22290338.920   117136470.33909  22290342.120    91275162.11548
  21104619.480   110905526.79809  21104621.880    86419896.32248
  22818440.480   119911765.57509  22818441.560    93437770.74747
  20277880.280   106560989.51609  20277881.160    83034545.51449
  22037471.740   115807709.22109  22037473.200    90239785.47647
  23046898.960   121112212.88409  23046900.120    94373131.17647
  21017552.460   110447968.46109  21017551.080    86063345.53448
  21074148.600   110745381.94909  21074145.420    86295085.62948
 15 02 22 09 29  0.0000000  0 10G01G02G03G06G07G09G10G17G20G23
  24109696.840   126697200.07008  24109703.760    98725067.02346
  24751752.800   130071318.23208  24751750.640   101354276.46746
  22301290.060   117194018.46109  22301293.260    91320004.71348
  21093928.480   110849345.16609  21093930.840    86376118.42648
  22800594.140   119817982.58009  22800595.200    93364693.16047
  20277302.960   106557955.45009  20277303.820    83032181.31149
  22024820.460   115741226.76609  22024821.980    90187981.01547
  23061397.260   121188401.61309  23061398.480    94432498.90047
  21008573.680   110400785.06109  21008572.240    86026579.26748
  21083299.920   110793472.05309  21083296.620    86332558.39948
 15 02 22 09 29 30.0000000  0 10G01G02G03G06G07G09G10G17G20G23
  24129712.660   126802383.03608  24129719.740    98807027.43046
  24732174.920   129968436.95708  24732173.440   101274109.26546
  22312271.420   117251725.51409  22312274.580    91364971.14848
  21083321.140   110793603.37909  21083323.560    86332683.28348
  22782783.920   119724389.46609  22782784.920    93291763.54147
  20276808.540   106555357.00309  20276809.380    83030156.54349
  22012197.860   115674894.30809  22012199.260    90136293.40847
  23075943.780   121264843.80509  23075945.060    94492064.12547
  20999631.520   110353793.85809  20999630.040    85989962.74848
  21092507.740   110841859.34209  21092504.340    86370262.73548
 15 02 22 09 30  0.0000000  0 10G01G02G03G06G07G09G10G17G20G23
  24149756.180   126907710.97308  24149763.280    98889100.78745
  24712609.440   129865620.91208  24712608.340   101193992.89246
  22323282.640   117309589.43209  22323285.740    91410059.82348
  21072797.520   110738301.50809  21072799.980    86289590.91448
  22765009.960   119630987.08609  22765010.960    93218982.54347
  20276396.400   106553190.93309  20276397.220    83028468.69249
  21999603.580   115608710.56009  21999604.960    90084721.66947
  23090537.500   121341534.09809  23090538.960    94551822.67247
  20990725.680   110306993.42109  20990724.180    85953494.88148
  21101771.320   110890539.94409  21101767.940    86408195.61848
 15 02 22 09 30 30.0000000  0 10G01G02G03G06G07G09G10G17G20G23
  24169826.820   127013182.02608  24169834.100    98971285.65846
  24693056.900   129762872.53208  24693055.860   101113929.20846
  22334323.740   117367610.40709  22334326.940    91455270.87448
  21062358.000   110683441.89409  21062360.600    86246843.17148
  22747272.820   119537778.19009  22747273.820    93146352.30947
  20276066.360   106551456.35909  20276067.160    83027117.06749
  21987037.700   115542676.02909  21987038.940    90033266.19047
  23105177.860   121418469.55709  23105179.460    94611772.24947
  20981856.300   110260384.60709  20981854.860    85917176.32248
  21111090.360   110939512.19009  21111087.080    86446355.75448
 15 02 22 09 31  0.0000000  0 10G01G02G03G06G07G09G10G17G20G23
  24189924.340   127118794.06908  24189931.840    99053580.39046
  24673517.640   129660193.67708  24673516.520   101033919.69245
  22345394.720   117425788.39009  22345397.980    91500604.26548
  21052003.060   110629026.60909  21052005.720    86204441.64848
  22729573.040   119444765.45809  22729573.980    93073874.92047
  20275818.180   106550152.09009  20275818.960    83026100.75049
  21974500.360   115476791.13509  21974501.440    89981927.28747
  23119864.260   121495646.64709  23119865.940    94671910.11347
  20973023.480   110213968.04009  20973022.220    85881007.57748
  21120464.460   110988774.01109  21120461.280    86484741.53247
 15 02 22 09 31 30.0000000  0 10G01G02G03G06G07G09G10G17G20G23
  24210048.740   127224547.22708  24210056.460    99135985.07246
  24653992.260   129557588.42107  24653991.320   100953967.58946
  22356495.960   117484125.32409  22356499.260    91546061.52048
  21041733.460   110575059.75409  21041736.160    86162389.56048
  22711911.500   119351953.87209  22711912.480    93001554.27047
  20275652.020   106549278.94509  20275652.800    83025420.37349
  21961991.940   115411058.48709  21961993.040    89930707.02347
  23134596.480   121573064.24009  23134598.160    94732235.38747
  20964227.760   110167746.58509  20964226.680    85844990.85448
  21129893.740   111038325.76109  21129890.680    86523353.23447
 15 02 22 09 32  0.0000000  0 10G01G02G03G06G07G09G10G17G20G23
  24230198.940   127330436.30808  24230206.720    99218495.66945
  24634480.980   129455055.93408  24634480.000   100874072.13745
  22367626.840   117542618.28109  22367630.080    91591640.33248
  21031549.020   110521540.42109  21031551.760    86120686.18948
  22694288.160   119259343.02609  22694289.160    92929390.02347
  20275567.060   106548832.75909  20275567.900    83025072.68749
  21949512.020   115345475.77609  21949513.140    89879603.58547
  23149373.280   121650716.24309  23149374.960    94792743.31147
  20955468.700   110121717.77909  20955467.800    85809124.25148
  21139377.200   111088162.42909  21139374.260    86562186.94447
 15 02 22 09 32 30.0000000  0 10G01G02G03G06G07G09G10G17G20G23
  24250375.080   127436461.43008  24250383.080    99301112.25146
  24614984.340   129352600.25007  24614983.220   100794236.50245
  22378787.820   117601269.28009  22378791.180    91637342.30348
  21021450.600   110468472.81609  21021453.340    86079334.80648
  22676703.920   119166937.61609  22676704.960    92857385.86447
  20275563.560   106548814.46009  20275564.420    83025058.42549
  21937061.120   115280045.55209  21937062.100    89828618.96548
  23164194.460   121728601.42609  23164196.140    94853432.94547
  20946746.860   110075884.50509  20946746.040    85773409.99948
  21148914.960   111138284.14309  21148912.200    86601242.76548
 15 02 22 09 33  0.0000000  0 10G01G02G03G06G07G09G10G17G20G23
  24270577.240   127542622.99208  24270585.400    99383835.16745
  24595503.000   129250226.06508  24595502.220   100714464.46946
  22389979.320   117660080.80709  22389982.700    91683169.35048
  21011439.040   110415861.46609  21011441.680    86038338.94148
  22659159.780   119074742.95809  22659160.840    92785545.92147
  20275641.760   106549225.35209  20275642.660    83025378.59049
  21924639.820   115214770.77809  21924640.700    89777755.47448
  23179059.860   121806718.78709  23179061.520    94914303.47247
  20938062.840   110030250.16909  20938062.140    85737850.76548
  21158507.160   111188691.65109  21158504.440    86640521.30047
 15 02 22 09 33 30.0000000  0 10G01G02G03G06G07G09G10G17G20G23
  24290803.900   127648913.43108  24290812.180    99466658.47446
  24576036.940   129147929.95308  24576036.280   100634753.17646
  22401200.380   117719047.42309  22401203.740    91729117.25348
  21001513.640   110363703.02409  21001516.220    85997695.98948
  22641655.240   118982756.35009  22641656.360    92713868.08547
  20275800.420   106550058.76909  20275801.300    83026027.99749
  21912247.300   115149646.61609  21912248.040    89727009.34747
  23193967.820   121885059.81309  23193969.360    94975348.29847
  20929415.880   109984810.09509  20929415.160    85702442.89348
  21168152.340   111239377.42809  21168149.640    86680016.66147
 15 02 22 09 34  0.0000000  0 10G01G02G03G06G07G09G10G17G20G23
  24311055.460   127755334.76008  24311063.920    99549583.77145
  24556586.800   129045717.89206  24556586.060   100555107.41445
  22412451.680   117778173.05209  22412455.040    91775189.06248
  20991675.520   110312003.42009  20991678.100    85957410.57748
  22624191.580   118890984.46809  22624192.700    92642357.57747
  20276039.980   106551317.37109  20276040.840    83027008.72249
  21899884.280   115084677.49109  21899884.740    89676384.04647
  23208918.420   121963625.10709  23208919.940    95036567.87747
  20920806.740   109939568.56209  20920805.960    85667189.73248
  21177850.900   111290343.60209  21177848.180    86719730.52247
 15 02 22 09 34 30.0000000  0 10G01G02G03G06G07G09G10G17G20G23
  24331332.060   127861887.57508  24331340.720    99632611.52745
  24537153.240   128943594.98808  24537152.520   100475531.17846
  22423733.820   117837460.48509  22423737.120    91821386.96648
  20981925.680   110260767.58909  20981928.280    85917486.54548
  22606769.900   118799432.95609  22606770.980    92571018.78747
  20276360.700   106553002.84709  20276361.580    83028322.07649
  21887551.440   115019866.87009  21887551.620    89625882.25647
  23223911.620   122042414.37708  23223913.180    95097961.97847
  20912236.080   109894529.26909  20912235.240    85632094.16948
  21187603.040   111341590.86809  21187600.220    86759663.41447
 15 02 22 09 35  0.0000000  0 11G01G02G03G06G07G09G10G17G20G23G30
  24351632.080   127968563.46208  24351640.840    99715735.18045
  24517736.020   128841556.80207  24517735.300   100396020.89046
  22435045.500   117896903.28409  22435048.900    91867705.92648
  20972263.260   110209991.10309  20972265.920    85877920.44048
  22589389.480   118708097.92209  22589390.480    92499848.67047
  20276761.180   106555107.48109  20276762.040    83029962.03449
  21875247.500   114955208.47809  21875247.620    89575499.09048
  23238945.560   122121417.70309  23238947.080    95159522.86647
  20903702.840   109849686.57409  20903701.880    85597151.79148
  21197407.220   111393111.16009  21197404.240    86799809.04748
  24743458.440   130027752.48208                                
 15 02 22 09 35 30.0000000  0 11G01G02G03G06G07G09G10G17G20G23G30
  24371955.560   128075362.19208  24371964.400    99798954.55146
  24498335.660   128739607.42508  24498334.980   100316579.91946
  22446387.040   117956503.28709  22446390.520    91914147.38248
  20962688.960   110159677.81409  20962691.700    85838715.27148
  22572051.100   118616983.94909  22572052.080    92428850.81748
  20277241.540   106557631.84809  20277242.340    83031929.06749
  21862972.940   114890704.95409  21862972.920    89525236.61947
  23254020.000   122200633.87608  23254021.560    95221249.61347
  20895207.560   109805042.97809  20895206.460    85562364.55748
  21207263.340   111444904.41109  21207260.280    86840167.38148
  24722900.460   129919719.99608  24722909.840   101236161.12045
 15 02 22 09 36  0.0000000  0 11G01G02G03G06G07G09G10G17G20G23G30
  24392302.900   128182286.42008  24392311.920    99882271.67546
  24478953.780   128637753.92508  24478952.200   100237213.43145
  22457759.400   118016265.24309  22457762.960    91960715.02348
  20953204.120   110109834.52009  20953206.920    85799876.33149
  22554756.180   118526098.68109  22554757.200    92358031.16848
  20277802.520   106560579.47909  20277803.200    83034225.90849
  21850728.840   114826361.53709  21850728.700    89475098.90847
  23269135.200   122280064.27808  23269136.820    95283143.29847
  20886751.240   109760604.05409  20886750.020    85527736.80348
  21217171.980   111496973.56209  21217168.880    86880740.68848
  24702331.900   129811633.13408  24702341.240   101151938.02145
 15 02 22 09 36 30.0000000  0 11G01G02G03G06G07G09G10G17G20G23G30
  24412673.080   128289330.86408  24412682.320    99965682.49245
  24459589.740   128535994.94808  24459588.380   100157920.77746
  22469162.040   118076185.96609  22469165.580    92007406.40648
  20943808.560   110060460.04609  20943811.300    85761402.70648
  22537504.700   118435441.49209  22537505.740    92287389.26248
  20278443.200   106563945.92009  20278443.780    83036849.09549
  21838514.680   114762175.64909  21838514.480    89425083.95847
  23284290.020   122359702.59308  23284291.640    95345198.99147
  20878333.400   109716367.26009  20878332.040    85493266.55848
  21227132.080   111549313.42109  21227128.940    86921524.93547
  24681752.860   129703491.15708  24681762.060   101067671.95945
 15 02 22 09 37  0.0000000  0 11G01G02G03G06G07G09G10G17G20G23G30
  24433065.740   128396493.45008  24433075.120   100049185.34545
  24440243.980   128434332.63208  24440243.000   100078703.47346
  22480594.860   118136265.36809  22480598.560    92054221.42048
  20934502.580   110011556.28409  20934505.240    85723295.86248
  22520297.080   118345015.12209  22520298.120    92216927.21548
  20279163.300   106567729.81109  20279163.840    83039797.56149
  21826330.520   114698147.85509  21826330.360    89375192.20647
  23299483.780   122439545.36408  23299485.380    95407413.99547
  20869954.100   109672333.39209  20869952.620    85458954.44148
  21237143.280   111601921.95409  21237140.040    86962518.54448
  24661163.800   129595296.44308  24661172.920   100983364.78345
 15 02 22 09 37 30.0000000  0 11G01G02G03G06G07G09G10G17G20G23G30
  24453480.960   128503774.18407  24453490.400   100132780.24946
  24420917.440   128332771.40708  24420916.420    99999564.85746
  22492058.240   118196505.61009  22492062.120    92101161.76648
  20925286.860   109963127.40609  20925289.460    85685559.06248
  22503134.280   118254824.39109  22503135.380    92146648.78048
  20279962.960   106571932.05009  20279963.540    83043072.01049
  21814176.880   114634280.67109  21814176.720    89325425.60447
  23314716.260   122519591.54109  23314717.800    95469787.50246
  20861614.040   109628505.73709  20861612.500    85424803.00748
  21247205.580   111654799.51909  21247202.420    87003721.78648
  24640565.600   129487053.52408  24640574.520   100899020.01845
 15 02 22 09 38  0.0000000  0 11G01G02G03G06G07G09G10G17G20G23G30
  24473917.740   128611168.34907  24473927.300   100216463.54746
  24401609.960   128231310.53008  24401609.020    99920504.47046
  22503551.700   118256903.94509  22503555.580    92148225.30748
  20916161.380   109915172.65309  20916163.940    85648191.70848
  22486016.380   118164869.54509  22486017.480    92076554.14848
  20280841.440   106576548.62709  20280842.080    83046669.31749
  21802053.440   114570572.16009  21802053.460    89275782.65447
  23329986.220   122599835.02308  23329987.800    95532314.75646
  20853312.840   109584882.05009  20853311.200    85390810.50948
  21257318.180   111707941.47209  21257314.980    87045131.04348
  24619958.240   129378762.22608  24619966.980   100814637.54645
 15 02 22 09 38 30.0000000  0 11G01G02G03G06G07G09G10G17G20G23G30
  24494376.080   128718675.97007  24494385.820   100300235.23245
  24382322.440   128129954.58308  24382321.680    99841525.89746
  22515075.680   118317462.57509  22515079.700    92195413.74548
  20907126.900   109867696.21209  20907129.440    85611197.07848
  22468944.240   118075155.06209  22468945.360    92006646.81648
  20281798.940   106581580.44209  20281799.640    83050590.18249
  21789960.740   114507025.08409  21789960.800    89226265.48447
  23345293.460   122680274.78608  23345295.140    95594994.95847
  20845050.960   109541465.21509  20845049.220    85356979.21148
  21267481.160   111761348.27909  21267478.040    87086746.67547
  24599342.520   129270427.13608  24599351.280   100730220.93845
 15 02 22 09 39  0.0000000  0 11G01G02G03G06G07G09G10G17G20G23G30
  24514854.860   128826290.52007  24514864.820   100384090.22646
  24363054.780   128028701.32608  24363053.620    99762627.20746
  22526629.240   118378177.05309  22526633.320    92242723.63048
  20898183.000   109820695.51609  20898185.460    85574573.14748
  22451917.500   117985679.27609  22451918.660    91936925.47248
  20282834.380   106587021.68509  20282835.100    83054830.07549
  21777897.960   114443635.39909  21777898.000    89176870.96747
  23360636.580   122760903.21908  23360638.380    95657822.16947
  20836827.720   109498251.55609  20836825.940    85323306.22248
  21277693.320   111815013.36909  21277690.340    87128563.54648
  24578718.080   129162046.23108  24578726.720   100645768.61845
 15 02 22 09 39 30.0000000  0 11G01G02G03G06G07G09G10G17G20G23G30
  24535354.660   128934015.18707  24535364.620   100468031.02946
  24343807.920   127927557.86108  24343806.580    99683814.14846
  22538213.500   118439052.52109  22538217.640    92290158.96848
  20889330.960   109774177.72409  20889333.440    85538325.51748
  22434937.720   117896450.33709  22434938.920    91867396.48448
  20283948.500   106592876.25909  20283949.160    83059392.05049
  21765866.240   114380409.02209  21765866.400    89127603.70447
  23376015.940   122841722.10908  23376017.760    95720797.77647
  20828644.220   109455247.05409  20828642.460    85289796.22548
  21287955.280   111868940.17009  21287952.340    87170584.35848
  24558086.440   129053627.30108  24558094.940   100561286.62545
 15 02 22 09 40  0.0000000  0 11G01G02G03G06G07G09G10G17G20G23G30
  24555875.340   129041849.96207  24555885.360   100552057.59345
  24324582.640   127826528.29608  24324581.340    99605089.84646
  22549828.760   118500091.17709  22549832.880    92337721.45048
  20880571.660   109728146.89809  20880574.080    85502457.34748
  22418005.760   117807472.72009  22418006.980    91798063.32948
  20285141.460   106599144.99909  20285142.080    83064276.76649
  21753866.140   114317348.79109  21753866.420    89078465.90847
  23391431.340   122922730.39908  23391433.320    95783920.97547
  20820501.060   109412454.82509  20820499.400    85256451.61648
  21298267.040   111923128.89009  21298264.200    87212809.26547
  24537448.420   128945174.83808  24537456.900   100476778.49945
 15 02 22 09 40 30.0000000  0 11G01G02G03G06G07G09G10G17G20G23G30
  24576415.600   129149787.51807  24576425.680   100636164.26546
  24305378.380   127725610.16408  24305377.260    99526452.40846
  22561474.160   118561287.76809  22561478.360    92385407.00348
  20871904.380   109682599.76309  20871906.740    85466966.07348
  22401121.220   117718744.28109  22401122.460    91728924.34148
  20286411.920   106605821.34309  20286412.560    83069479.08949
  21741896.800   114254450.25709  21741897.140    89029454.10547
  23406881.240   123003919.65108  23406883.280    95847185.17647
  20812397.360   109369870.27409  20812395.940    85223268.84848
  21308627.300   111977572.56009  21308624.460    87255232.85347
  24516803.440   128836686.27508  24516812.020   100392242.24045
 15 02 22 09 41  0.0000000  0 11G01G02G03G06G07G09G10G17G20G23G30
  24596975.640   129257828.92708  24596985.660   100720351.83445
  24286196.460   127624808.78608  24286195.480    99447905.89647
  22573150.240   118622645.37509  22573154.300    92433218.03648
  20863330.060   109637541.30209  20863332.360    85431855.58449
  22384285.200   117630270.71709  22384286.460    91659983.95048
  20287760.240   106612907.08009  20287760.960    83075000.43549
  21729958.920   114191716.96509  21729959.320    88980571.06547
  23422365.540   123085289.70008  23422367.640    95910590.26447
  20804333.920   109327497.41509  20804332.720    85190251.02748
  21319036.260   112032272.16909  21319033.460    87297855.86848
  24496152.660   128728167.13608  24496161.060   100307682.14045
 15 02 22 09 41 30.0000000  0 11G01G02G03G06G07G09G10G17G20G23G30
  24617554.300   129365968.31607  24617564.440   100804615.74845
  24267036.460   127524122.37408  24267035.640    99369449.00346
  22584856.260   118684160.25309  22584860.380    92481151.59648
  20854848.320   109592969.62909  20854850.600    85397124.40649
  22367497.420   117542050.86809  22367498.700    91591241.26648
  20289185.460   106620397.09309  20289186.300    83080836.79049
  21718051.880   114129145.47909  21718052.280    88931814.10247
  23437882.860   123166833.42608  23437885.080    95974130.67347
  20796310.160   109285333.06809  20796309.160    85157395.67948
  21329492.960   112087222.33309  21329490.240    87340674.12047
  24475495.900   128619616.12608  24475504.140   100223097.20345
 15 02 22 09 42  0.0000000  0 11G01G02G03G06G07G09G10G17G20G23G30
  24638152.020   129474207.78207  24638162.380   100888957.63846
  24247899.780   127423558.01108  24247898.680    99291087.15646
  22596593.060   118745836.65209  22596597.160    92529211.02748
  20846460.400   109548890.80109  20846462.680    85362777.26548
  22350759.320   117454091.93809  22350760.640    91522701.89948
  20290688.140   106628294.16809  20290689.120    83086990.35149
  21706176.580   114066740.50309  21706177.040    88883186.89347
  23453433.440   123248551.91508  23453435.760    96037807.26947
  20788327.280   109243382.61409  20788326.280    85124706.99548
  21339997.860   112142425.51609  21339995.180    87383689.54547
  24454834.380   128511040.04608  24454842.500   100138492.70145
 15 02 22 09 42 30.0000000  0 11G01G02G03G06G07G09G10G17G20G23G30
  24658768.080   129582543.60207  24658778.500   100973374.60746
  24228786.240   127323115.41808  24228784.960    99212820.22946
  22608360.240   118807672.88009  22608364.140    92577394.99147
  20838166.340   109505305.15809  20838168.580    85328814.42148
  22334071.040   117366394.70009  22334072.360    91454366.44948
  20292267.740   106636595.38709  20292268.860    83093458.82849
  21694332.880   114004501.48709  21694333.360    88834688.99547
  23469016.300   123330440.00808  23469018.580    96101616.00547
  20780385.080   109201645.56109  20780383.980    85092184.60848
  21350550.100   112197877.96709  21350547.560    87426899.19147
  24434168.260   128402439.74608  24434176.380   100053869.32245
 15 02 22 09 43  0.0000000  0 11G01G02G03G06G07G09G10G17G20G23G30
  24679402.260   129690974.60007  24679412.720   101057865.70145
  24209696.520   127222798.07008  24209695.160    99134650.89246
  22620158.020   118869669.88109  22620161.800    92625704.24647
  20829966.620   109462215.40709  20829968.900    85295237.98348
  22317433.160   117278962.52009  22317434.580    91386237.54148
  20293924.140   106645300.26209  20293925.380    83100241.83449
  21682521.100   113942429.93309  21682521.520    88786321.57347
  23484631.080   123412495.72408  23484633.420    96165555.34546
  20772483.820   109160123.19609  20772482.540    85059829.50048
  21361149.660   112253578.94409  21361147.180    87470302.51147
  24413498.200   128293818.70108  24413506.280    99969229.76845
 15 02 22 09 43 30.0000000  0 11G01G02G03G06G07G09G10G17G20G23G30
  24700054.260   129799499.35407  24700064.860   101142429.86946
  24190630.920   127122608.76208  24190629.640    99056581.36446
  22631986.460   118931828.23009  22631990.320    92674139.22548
  20821861.780   109419623.96509  20821863.960    85262049.84448
  22300846.460   117191798.95009  22300847.900    91318317.95448
  20295657.200   106654407.97109  20295658.520    83107338.76149
  21670741.440   113880527.25209  21670741.820    88738085.74648
  23500277.180   123494716.19508  23500279.600    96229623.07947
  20764623.640   109118816.96909  20764622.260    85027642.82048
  21371796.280   112309527.15509  21371793.680    87513898.48947
  24392824.760   128185179.99708  24392832.780    99884576.45545
 15 02 22 09 44  0.0000000  0 11G01G02G03G06G07G09G10G17G20G23G30
  24720723.740   129908115.93708  24720734.480   101227065.56345
  24171590.420   127022550.56608  24171589.200    98978613.95947
  22643845.600   118994148.22409  22643849.440    92722700.16348
  20813852.200   109377532.95209  20813854.280    85229251.64048
  22284311.420   117104906.88609  22284312.860    91250609.92748
  20297466.760   106663917.42609  20297468.060    83114748.71549
  21658994.040   113818794.12209  21658994.480    88689982.02747
  23515954.060   123577098.23008  23515956.520    96293816.70146
  20756804.680   109077727.94409  20756803.320    84995625.39648
  21382489.660   112365721.09909  21382487.020    87557685.95147
  24372148.480   128076526.41408  24372156.420    99799911.51845
 15 02 22 09 44 30.0000000  0 11G01G02G03G06G07G09G10G17G20G23G30
  24741410.100   130016820.70807  24741420.960   101311769.98745
  24152574.920   126922623.48208  24152573.700    98900748.72747
  22655735.240   119056628.28109  22655739.100    92771385.81548
  20805937.820   109335942.59609  20805939.880    85196843.56948
  22267828.280   117018287.78709  22267829.740    91183114.60148
  20299352.240   106673825.65309  20299353.480    83122469.40649
  21647278.740   113757229.74009  21647279.080    88642009.79547
  23531660.800   123659637.37008  23531663.320    96358132.73346
  20749026.900   109036855.55309  20749025.560    84963776.76448
  21393229.080   112422157.10009  21393226.500    87601662.03547
  24351469.560   127967858.99608  24351477.500    99715235.79245
 15 02 22 09 45  0.0000000  0 11G01G02G03G06G07G09G10G17G20G23G30
  24762112.540   130125610.39707  24762123.540   101396540.59245
  24133584.720   126822828.60308  24133583.600    98822986.49646
  22667655.060   119119267.16809  22667658.880    92820195.23547
  20798118.860   109294853.46109  20798120.880    85164826.05048
  22251397.240   116931942.47809  22251398.660    91115832.63048
  20301313.180   106684130.03909  20301314.360    83130498.79249
  21635595.480   113695833.51009  21635595.760    88594168.58648
  23547396.600   123742329.02308  23547399.180    96422567.60046
  20741290.240   108996199.29509  20741288.940    84932096.56648
  21404013.920   112478831.99309  21404011.420    87645824.27347
  24330788.240   127859178.94008  24330796.120    99630550.19245
 15 02 22 09 45 30.0000000  0 11G01G02G03G06G07G09G10G17G20G23G30
  24782831.660   130234487.46607  24782842.800   101481379.26145
  24114620.720   126723173.02708  24114619.800    98745332.84245
  22679606.020   119182069.47709  22679609.820    92869131.99747
  20790396.500   109254271.96409  20790398.500    85133204.08748
  22235019.740   116845878.66809  22235021.180    91048770.00748
  20303350.140   106694833.74009  20303351.220    83138839.33349
  21623945.280   113634610.66009  21623945.540    88546462.47547
  23563161.720   123825174.36108  23563164.320    96487122.23046
  20733595.820   108955764.65909  20733594.480    84900589.05348
  21414844.800   112535748.72009  21414842.380    87690174.94547
  24310106.020   127750493.54508  24310113.740    99545860.41545
 15 02 22 09 46  0.0000000  0 11G01G02G03G06G07G09G10G17G20G23G30
  24803566.660   130343448.75107  24803578.000   101566283.55846
  24095683.500   126623657.93408  24095682.540    98667788.63846
  22691587.940   119245034.11709  22691591.720    92918195.23447
  20782770.880   109214198.75309  20782772.840    85101978.18348
  22218696.120   116760097.76509  22218697.540    90981927.82548
  20305462.560   106705934.26909  20305463.620    83147489.08649
  21612328.000   113573560.80009  21612328.180    88498891.16248
  23578955.280   123908169.00908  23578957.840    96551793.18446
  20725943.500   108915551.39309  20725942.100    84869254.04148
  21425721.180   112592904.40909  21425718.760    87734711.81947
  24289423.020   127641804.24308  24289430.660    99461167.57145
 15 02 22 09 46 30.0000000  0 10G02G03G06G07G09G10G17G20G23G30
  24076772.560   126524281.45408  24076771.520    98590352.48146
  22703599.880   119308156.78009  22703603.640    92967381.59847
  20775241.500   109174631.30809  20775243.440    85071146.39148
  22202426.000   116674597.98109  22202427.400    90915304.69948
  20307649.400   106717425.92609  20307650.420    83156443.60949
  21600742.960   113512680.48909  21600743.080    88451451.96548
  23594775.860   123991305.66208  23594778.320    96616574.78546
  20718332.640   108875556.05109  20718331.200    84838088.84648
  21436641.880   112650292.98309  21436639.380    87779430.16147
  24268738.940   127533109.35508  24268746.600    99376470.36645
 15 02 22 09 47  0.0000000  0 10G02G03G06G07G09G10G17G20G23G30
  24057889.340   126425049.50508  24057888.440    98513028.88947
  22715642.580   119371441.23809  22715646.440    93016694.04847
  20767809.420   109135575.16709  20767811.400    85040713.01248
  22186210.660   116589385.97209  22186212.000    90848905.79948
  20309911.080   106729311.00309  20309912.080    83165704.69449
  21589190.980   113451974.05209  21589190.980    88404148.24948
  23610623.580   124074584.81808  23610625.920    96681467.42946
  20710764.100   108835783.35209  20710762.680    84807097.14248
  21447607.300   112707916.59109  21447604.860    87824331.63147
  24248054.960   127424415.08708  24248062.780    99291773.62045
 15 02 22 09 47 30.0000000  0 10G02G03G06G07G09G10G17G20G23G30
  24039033.920   126325963.22008  24039032.860    98435818.84846
  22727715.740   119434886.38009  22727719.800    93066131.70047
  20760474.700   109097030.84609  20760476.660    85010678.45448
  22170050.340   116504463.19409  22170051.640    90782732.28348
  20312247.120   106741586.91309  20312248.100    83175270.33049
  21577671.940   113391440.84609  21577671.960    88356979.51548
  23626497.520   124158001.91408  23626499.840    96746467.54646
  20703237.860   108796233.20109  20703236.560    84776278.85548
  21458616.860   112765771.60709  21458614.320    87869413.42147
  24227371.400   127315722.93608  24227379.220    99207078.53445
 15 02 22 09 48  0.0000000  0 10G02G03G06G07G09G10G17G20G23G30
  24020207.140   126227027.95508  24020206.140    98358726.46647
  22739820.120   119498495.01909  22739824.200    93115696.75247
  20753238.220   109059002.95709  20753240.240    84981046.31249
  22153946.120   116419835.27209  22153947.400    90716788.52548
  20314657.800   106754255.10909  20314658.760    83185141.63549
  21566186.480   113331084.58309  21566186.620    88309948.65748
  23642397.680   124241556.72808  23642400.020    96811575.00346
  20695754.620   108756909.16409  20695753.420    84745636.75648
  21469670.780   112823859.43909  21469668.140    87914676.61847
  24206689.400   127207038.44208  24206697.120    99122389.39046
 15 02 22 09 48 30.0000000  0 10G02G03G06G07G09G10G17G20G23G30
  24001408.820   126128242.44308  24001407.940    98281750.82446
  22751955.080   119562263.85509  22751959.220    93165386.65247
  20746099.760   109021489.89209  20746101.780    84951815.33049
  22137897.860   116335501.35409  22137899.140    90651073.85248
  20317142.260   106767310.84009  20317143.200    83195314.91049
  21554734.160   113270902.76809  21554734.260    88263053.73248
  23658322.800   124325242.83408  23658325.180    96876784.72546
  20688314.000   108717808.89909  20688312.820    84715169.01148
  21480768.100   112882175.06509  21480765.240    87960117.31847
  24186008.700   127098360.81208  24186016.260    99037705.61046
 15 02 22 09 49  0.0000000  0 10G02G03G06G07G09G10G17G20G23G30
  23982640.180   126029613.68508  23982639.320    98204897.31947
  22764121.300   119626197.26809  22764125.520    93215204.78347
  20739060.440   108984497.74509  20739062.400    84922990.25849
  22121906.880   116251468.57109  22121908.160    90585593.83648
  20319701.020   106780756.96509  20319701.920    83205792.39949
  21543316.000   113210900.55509  21543316.120    88216298.75348
  23674273.100   124409061.11008  23674275.480    96942097.45846
  20680916.960   108678937.54909  20680915.880    84684879.65148
  21491909.140   112940720.97309  21491906.160    88005737.44547
  24165330.620   126989697.10408  24165338.160    98953032.67946
 15 02 22 09 49 30.0000000  0 10G02G03G06G07G09G10G17G20G23G30
  23963900.800   125931137.80508  23963900.060    98128162.95446
  22776317.740   119690289.11509  22776321.900    93265146.36147
  20732119.400   108948021.95309  20732121.300    84894567.53449
  22105972.500   116167733.19109  22105973.740    90520345.55448
  20322332.620   106794585.87209  20322333.480    83216568.15549
  21531930.940   113151072.38109  21531931.120    88169679.40147
  23690246.760   124493002.15108  23690249.160    97007505.84046
  20673562.540   108640289.90609  20673561.520    84654764.60748
  21503092.400   112999489.17809  21503089.380    88051530.78447
  24144654.480   126881043.73608  24144662.100    98868367.83746
 15 02 22 09 50  0.0000000  0 10G02G03G06G07G09G10G17G20G23G30
  23945191.940   125832821.87709  23945190.600    98051553.12047
  22788545.240   119754544.27309  22788549.140    93315215.20547
  20725277.860   108912069.17309  20725279.720    84866552.35449
  22090096.140   116084302.82309  22090097.340    90455334.94048
  20325037.760   106808801.08409  20325038.560    83227644.92549
  21520580.040   113091423.99209  21520580.240    88123200.12447
  23706244.120   124577067.88108  23706246.580    97073011.38546
  20666251.880   108601871.86309  20666250.820    84624828.46748
  21514318.580   113058482.71809  21514315.600    88097499.69847
  24123981.760   126772408.26908  24123989.340    98783716.96345
 15 02 22 09 50 30.0000000  0 10G02G03G06G07G09G10G17G20G23G30
  23926513.320   125734664.48308  23926512.160    97975066.95646
  22800803.080   119818958.76409  22800806.860    93365408.18647
  20718535.320   108876636.96509  20718537.240    84838942.82148
  22074277.580   116001176.19209  22074278.820    90390561.01548
  20327815.360   106823397.07109  20327816.060    83239018.39749
  21509262.700   113031952.08309  21509263.040    88076858.36547
  23722263.800   124661250.83008  23722266.380    97138608.25846
  20658984.360   108563680.25409  20658983.200    84595068.76248
  21525586.600   113117696.01709  21525583.600    88143639.86547
  24103312.180   126663789.29808  24103319.760    98699078.96246
 15 02 22 09 51  0.0000000  0 10G02G03G06G07G09G10G17G20G23G30
  23907866.360   125636674.12308  23907864.840    97898710.81046
  22813092.380   119883538.87709  22813096.200    93415730.22747
  20711893.340   108841733.33709  20711895.400    84811745.16448
  22058518.540   115918362.24309  22058519.800    90326030.73748
  20330666.340   106838378.69909  20330666.940    83250692.36849
  21497980.320   112972663.62209  21497980.800    88030659.55847
  23738306.360   124745554.22108  23738309.020    97204298.97746
  20651761.300   108525722.35709  20651760.060    84565491.17648
  21536897.180   113177133.42609  21536894.280    88189954.66047
  24082647.440   126555195.86008  24082654.940    98614460.87746
 15 02 22 09 51 30.0000000  0 10G02G03G06G07G09G10G17G20G23G30
  23889250.500   125538847.96208  23889249.440    97822482.75847
  22825412.260   119948279.55609  22825416.040    93466177.39247
  20705351.260   108807354.77409  20705353.460    84784956.64549
  22042818.500   115835858.44609  22042819.800    90261742.13448
  20333589.400   106853739.40709  20333590.000    83262661.71249
  21486732.100   112913554.16909  21486732.540    87984600.22947
  23754370.280   124829969.86508  23754373.080    97270077.14946
  20644581.860   108487993.94109  20644580.720    84536092.41448
  21548249.080   113236788.40509  21548246.240    88236438.97947
  24061987.060   126446625.44608  24061994.580    98529860.76946
 15 02 22 09 52  0.0000000  0 10G02G03G06G07G09G10G17G20G23G30
  23870666.840   125441191.05208  23870665.800    97746386.49547
  22837763.120   120013183.35309  22837767.020    93516751.66547
  20698909.880   108773505.41509  20698912.200    84758580.50049
  22027178.460   115753669.87609  22027179.740    90197699.15948
  20336584.820   106869480.18009  20336585.420    83274927.22949
  21475518.680   112854627.25209  21475519.120    87938683.15547
  23770455.380   124914496.84308  23770458.180    97335942.09546
  20637446.780   108450498.66609  20637445.740    84506875.31948
  21559642.420   113296661.26509  21559639.720    88283093.08947
  24041332.020   126338083.16408  24041339.640    98445282.60346
 15 02 22 09 52 30.0000000  0 10G02G03G06G07G09G10G17G20G23G30
  23852115.820   125343704.24508  23852114.780    97670422.78746
  22850144.720   120078248.60609  22850148.760    93567451.74847
  20692569.260   108740185.24709  20692571.620    84732616.70949
  22011598.620   115671797.66309  22011599.900    90133902.71448
  20339651.960   106885597.99909  20339652.620    83287486.53649
  21464339.900   112795882.27709  21464340.400    87892907.85048
  23786560.800   124999130.61308  23786563.620    97401890.23246
  20630355.900   108413235.75909  20630354.940    84477839.28748
  21571076.600   113356748.49709  21571073.940    88329914.24747
  24020682.460   126229570.09408  24020690.140    98360727.23846
 15 02 22 09 53  0.0000000  0 10G02G03G06G07G09G10G17G20G23G30
  23833597.540   125246389.50209  23833596.060    97594593.12947
  22862556.960   120143474.98209  22862561.120    93618277.37847
  20686329.520   108707395.42409  20686331.960    84707066.17649
  21996079.400   115590244.07709  21996080.700    90070354.54648
  20342790.500   106902090.94609  20342791.180    83300338.15849
  21453195.880   112737319.53109  21453196.340    87847274.54147
  23802685.920   125083867.86108  23802688.880    97467919.00246
  20623309.280   108376205.73609  20623308.400    84448984.72648
  21582551.300   113417048.35809  21582548.660    88376901.09247
  24000038.940   126121088.59208  24000046.640    98276196.47646
 15 02 22 09 53 30.0000000  0 10G02G03G06G07G09G10G17G20G23G30
  23815112.560   125149250.53608  23815111.140    97518900.50446
  22875000.240   120208863.83209  22875004.420    93669229.61548
  20680191.320   108675138.92309  20680193.760    84681931.22449
  21980621.500   115509012.79209  21980622.840    90007057.51948
  20346000.400   106918958.98009  20346001.080    83313482.05249
  21442087.020   112678940.99309  21442087.260    87801784.77748
  23818830.240   125168705.79708  23818833.320    97534026.22746
  20616307.420   108339410.76909  20616306.560    84420313.32348
  21594066.420   113477560.56409  21594063.920    88424053.41647
  23979402.140   126012642.61908  23979409.780    98191693.41746
 15 02 22 09 54  0.0000000  0 10G02G03G06G07G09G10G17G20G23G30
  23796661.740   125052290.53908  23796659.980    97443347.20046
  22887474.540   120274415.89809  22887478.600    93720309.02847
  20674155.040   108643418.00209  20674157.520    84657213.60348
  21965225.620   115428107.15109  21965226.940    89944014.23748
  20349281.540   106936201.26109  20349282.240    83326917.57749
  21431013.480   112620748.20609  21431013.500    87756439.76147
  23834993.380   125253642.51508  23834996.440    97600210.44146
  20609350.680   108302852.96909  20609349.800    84391826.71448
  21605621.720   113538283.97109  21605619.260    88471370.31347
  23958772.700   125904235.44708  23958780.300    98107220.58546
 15 02 22 09 54 30.0000000  0 10G02G03G06G07G09G10G17G20G23G30
  23778245.440   124955513.36708  23778244.020    97367936.49447
  22899980.160   120340132.72109  22899984.220    93771516.81747
  20668221.220   108612235.73109  20668223.780    84632915.71148
  21949892.540   115347531.58009  21949893.860    89881228.14848
  20352633.900   106953817.88209  20352634.620    83340644.79649
  21419975.680   112562743.34309  21419975.500    87711241.17547
  23851174.980   125338676.48508  23851178.200    97666470.40346
  20602439.400   108266534.58609  20602438.520    84363526.67548
  21617217.200   113599218.50309  21617214.820    88518851.71947
  23938151.460   125795871.40708  23938159.100    98022781.34846
 15 02 22 09 55  0.0000000  0 10G02G03G06G07G09G10G17G20G23G30
  23759863.780   124858917.64308  23759862.600    97292667.15747
  22912516.340   120406010.41009  22912520.540    93822849.96147
  20662389.420   108581589.67509  20662392.060    84609035.65349
  21934621.960   115267284.49509  21934623.280    89818698.03048
  20356056.440   106971803.39309  20356057.200    83354659.46549
  21408972.960   112504923.66709  21408972.820    87666186.90048
  23867373.680   125423800.38708  23867377.060    97732800.45646
  20595573.200   108230452.75009  20595572.380    84335410.95748
  21628851.720   113660358.13209  21628849.320    88566492.96047
  23917538.220   125687549.21708  23917545.900    97938374.71546
 15 02 22 09 55 30.0000000  0 10G02G03G06G07G09G10G17G20G23G30
  23741517.480   124762506.25308  23741516.000    97217541.39846
  22925083.180   120472049.39008  22925087.460    93874308.78747
  20656660.040   108551481.77109  20656662.740    84585574.93549
  21919414.520   115187369.02609  21919415.820    89756426.30848
  20359548.980   106990156.72809  20359549.760    83368960.76149
  21398005.680   112447290.18709  21398005.660    87621277.71048
  23883589.060   125509011.61208  23883592.540    97799198.55646
  20588752.320   108194608.73409  20588751.480    84307480.55948
  21640525.040   113721701.61909  21640522.660    88614293.04347
  23896933.540   125579272.01208  23896941.080    97854003.11046
 15 02 22 09 56  0.0000000  0 10G02G03G06G07G09G10G17G20G23G30
  23723207.120   124666283.97608  23723205.520    97142563.01547
  22937681.120   120538252.15108  22937685.620    93925895.22347
  20651033.820   108521915.98809  20651036.620    84562536.65249
  21904271.120   115107790.20609  21904272.380    89694416.91048
  20363111.700   107008878.86909  20363112.520    83383549.43749
  21387074.580   112389846.40409  21387074.600    87576516.32248
  23899820.960   125594309.67408  23899824.580    97865664.28946
  20581977.460   108159006.39709  20581976.540    84279738.46348
  21652237.360   113783249.94009  21652234.980    88662252.73747
  23876338.400   125471044.93708  23876345.900    97769670.55646
 15 02 22 09 56 30.0000000  0 10G02G03G06G07G09G10G17G20G23G30
  23704933.020   124570252.79408  23704931.240    97067733.55546
  22950310.160   120604618.22208  22950314.740    93977608.91647
  20645510.920   108492893.25809  20645513.780    84539921.53149
  21889192.220   115028550.15709  21889193.400    89632671.48848
  20366744.260   107027967.77209  20366745.060    83398423.90949
  21376179.640   112332592.53309  21376179.640    87531902.92648
  23916068.700   125679690.68708  23916072.440    97932194.68446
  20575248.560   108123645.69709  20575247.600    84252184.67548
  21663988.200   113845000.80509  21663985.840    88710370.26147
  23855753.300   125362870.18508  23855760.640    97685378.72546
 15 02 22 09 57  0.0000000  0 10G02G03G06G07G09G10G17G20G23G30
  23686695.520   124474414.50508  23686693.720    96993054.40547
  22962970.280   120671146.97209  22962974.800    94029449.37947
  20640091.600   108464414.46509  20640094.440    84517730.25449
  21874178.120   114949650.71809  21874179.240    89571191.47448
  20370446.220   107047421.35609  20370446.960    83413582.55249
  21365320.880   112275528.85709  21365320.860    87487437.72448
  23932331.500   125765150.89808  23932335.340    97998786.77446
  20568565.820   108088527.30109  20568564.800    84224819.69148
  21675777.060   113906951.93509  21675774.800    88758643.83047
  23835178.600   125254749.84808  23835185.680    97601129.26846
 15 02 22 09 57 30.0000000  0 10G02G03G06G07G09G10G17G20G23G30
  23668495.360   124378772.58808  23668493.660    96918528.25746
  22975661.500   120737839.33108  22975666.080    94081417.32447
  20634776.260   108436481.90509  20634779.040    84495964.62148
  21859229.500   114871095.48109  21859230.600    89509979.67948
  20374217.400   107067238.97809  20374218.100    83429024.86549
  21354498.600   112218657.11509  21354498.520    87443122.08848
  23948608.920   125850687.76808  23948612.740    98065438.59646
  20561929.560   108053653.15709  20561928.360    84197645.03648
  21687603.920   113969102.39409  21687601.720    88807072.72647
  23814614.900   125146687.60808  23814621.920    97516925.06446
 15 02 22 09 58  0.0000000  0 10G02G03G06G07G09G10G17G20G23G30
  23650333.100   124283329.46009  23650331.340    96844157.00747
  22988383.880   120804695.21608  22988388.520    94133512.68447
  20629565.140   108409096.97209  20629567.840    84474625.71248
  21844346.840   114792886.74309  21844347.900    89449037.87148
  20378057.560   107087419.09709  20378058.240    83444749.63749
  21343712.940   112161978.15009  21343712.840    87398956.66447
  23964900.380   125936298.60108  23964904.100    98132148.03946
  20555339.940   108019024.16809  20555338.660    84170661.40248
  21699468.400   114031450.63009  21699466.300    88855655.71047
  23794062.760   125038686.06408  23794069.800    97432768.12846
 15 02 22 09 58 30.0000000  0 10G02G03G06G07G09G10G17G20G23G30
  23632208.820   124188085.45208  23632207.200    96769940.94847
  23001136.900   120871712.59708  23001141.680    94185733.87447
  20624458.120   108382258.90409  20624460.700    84453712.92949
  21829530.200   114715025.02209  21829531.240    89388366.46548
  20381965.980   107107958.05409  20381966.700    83460754.02549
  21332963.580   112105490.67809  21332963.500    87354940.45247
  23981204.820   126021978.05608  23981208.660    98198910.96646
  20548796.680   107984638.90209  20548795.380    84143867.68448
  21711369.840   114093992.83109  21711367.680    88904389.83747
  23773522.340   124930745.88308  23773529.280    97348658.99246
 15 02 22 09 59  0.0000000  0 10G02G03G06G07G09G10G17G20G23G30
  23614123.420   124093045.40308  23614121.580    96695883.77147
  23013921.220   120938893.97108  23013925.900    94238082.86647
  20619455.900   108355971.63209  20619458.360    84433229.33549
  21814780.600   114637515.67409  21814781.640    89327969.64048
  20385942.880   107128856.86209  20385943.620    83477038.80949
  21322251.160   112049197.74809  21322251.160    87311075.82947
  23997522.200   126107725.43408  23997526.180    98265726.77946
  20542300.580   107950501.33309  20542299.240    84117266.96848
  21723308.440   114156729.95909  21723306.360    88953275.84747
  23752994.660   124822872.39108  23753001.620    97264601.83046
 15 02 22 09 59 30.0000000  0 10G02G03G06G07G09G10G17G20G23G30
  23596076.980   123998211.02808  23596075.320    96621986.92146
  23026736.560   121006238.31808  23026741.260    94290558.84347
  20614558.520   108330235.49309  20614560.960    84413175.19649
  21800098.280   114560359.75009  21800099.300    89267848.20348
  20389987.740   107150112.92909  20389988.540    83493601.96749
  21311575.820   111993099.50609  21311575.960    87267362.91948
  24013851.660   126193536.41108  24013855.840    98332592.16846
  20535851.680   107916611.55609  20535850.300    84090859.33248
  21735283.480   114219658.89009  21735281.240    89002311.30947
  23732480.000   124715067.24108  23732486.900    97180597.88446
 15 02 22 10 00  0.0000000  0 10G02G03G06G07G09G10G17G20G23G30
  23578069.980   123903584.35108  23578068.320    96548251.89547
  23039582.880   121073745.59908  23039587.840    94343161.76447
  20609766.240   108305051.72309  20609768.660    84393551.48049
  21785483.720   114483559.86409  21785484.720    89208004.19248
  20394100.340   107171724.70409  20394101.180    83510442.29549
  21300937.800   111937196.83009  21300938.000    87223802.39747
  24030192.720   126279408.08908  24030196.980    98399504.85346
  20529449.960   107882970.17509  20529448.620    84064645.25848
  21747294.800   114282778.12509  21747292.540    89051495.05247
  23711978.880   124607333.15708  23711985.680    97096649.33946
 15 02 22 10 00 30.0000000  0 10G02G03G06G07G09G10G17G20G23G30
  23560103.160   123809168.30008  23560101.420    96474680.98346
  23052460.260   121141416.00208  23052465.220    94395891.81347
  20605079.300   108280421.93909  20605081.780    84374359.44049
  21770937.400   114407118.69909  21770938.360    89148439.71048
  20398280.380   107193690.89109  20398281.260    83527558.78649
  21290337.400   111881490.97909  21290337.500    87180395.23447
  24046544.760   126365337.44108  24046549.080    98466462.44446
  20523095.680   107849578.63109  20523094.400    84038625.86148
  21759341.980   114346086.32609  21759339.620    89100826.03847
  23691491.840   124499673.12408  23691498.560    97012758.49746
 15 02 22 10 01  0.0000000  0 10G02G03G06G07G09G10G17G20G23G30
  23542176.760   123714964.52509  23542174.940    96401275.45847
  23065368.420   121209248.27808  23065373.300    94448747.99747
  20600497.800   108256346.11809  20600500.320    84355599.06049
  21756459.620   114331037.63009  21756460.540    89089155.81548
  20402527.300   107216008.62209  20402528.200    83544949.19549
  21279774.360   111825981.45109  21279774.320    87137141.06447
  24062906.940   126451320.14208  24062911.400    98533461.61146
  20516788.960   107816437.07509  20516787.860    84012801.25848
  21771424.580   114409580.61709  21771422.300    89150302.01147
  23671019.180   124392088.57208  23671025.760    96928926.49846
 15 02 22 10 01 30.0000000  0 10G02G03G06G07G09G10G17G20G23G30
  23524291.660   123620977.44008  23524289.900    96328038.81247
  23078307.820   121277245.12108  23078312.980    94501732.39447
  20596022.460   108232828.19209  20596025.000    84337273.40849
  21742051.280   114255321.65209  21742052.200    89030156.39948
  20406841.300   107238679.03209  20406842.260    83562614.42549
  21269249.420   111770672.00509  21269249.240    87094042.78347
  24079279.240   126537355.77708  24079283.700    98600502.03846
  20510530.340   107783548.39909  20510529.480    83987173.70748
  21783542.760   114473261.89709  21783540.500    89199923.69747
  23650561.880   124284584.95908  23650568.400    96845157.57746
 15 02 22 10 02  0.0000000  0 10G02G03G06G07G09G10G17G20G23G30
  23506448.100   123527209.28308  23506446.380    96254972.75047
  23091278.480   121345405.92108  23091283.660    94554844.55547
  20591653.400   108209868.94509  20591655.960    84319383.09549
  21727712.820   114179973.02309  21727713.780    88971443.22048
  20411222.020   107261700.10709  20411223.020    83580552.89049
  21258762.560   111715562.89009  21258762.440    87051100.61748
  24095660.900   126623440.70208  24095665.260    98667580.84246
  20504320.020   107750913.50909  20504319.280    83961743.91148
  21795696.100   114537127.89809  21795693.900    89249689.31447
  23630120.380   124177164.52408  23630126.760    96761453.48446
 15 02 22 10 02 30.0000000  0 10G02G03G06G07G09G10G17G20G23G30
  23488646.540   123433662.27608  23488645.140    96182079.04047
  23104280.280   121413730.34008  23104285.300    94608084.22647
  20587390.780   108187469.14009  20587393.360    84301928.70849
  21713444.580   114104993.23909  21713445.520    88913017.45348
  20415669.080   107285069.82009  20415670.140    83598763.01349
  21248313.760   111660654.26909  21248313.680    87008314.67747
  24112051.280   126709571.53708  24112055.620    98734695.42246
  20498158.160   107718533.06609  20498157.500    83936512.38248
  21807884.260   114601176.65109  21807881.920    89299597.35247
  23609695.120   124069829.56308  23609701.460    96677815.99746
 15 02 22 10 03  0.0000000  0 10G02G03G06G07G09G10G17G20G23G30
  23470887.400   123340338.41708  23470886.040    96109359.20947
  23117313.260   121482218.17908  23117318.300    94661451.24547
  20583234.820   108165629.84909  20583237.460    84284911.08349
  21699247.060   114030384.88809  21699247.980    88854881.12448
  20420182.160   107308786.43409  20420183.300    83617243.45749
  21237903.240   111605947.04309  21237903.260    86965685.67247
  24128449.760   126795744.68908  24128454.120    98801842.96046
  20492044.900   107686407.87209  20492044.360    83911479.76248
  21820106.800   114665406.33009  21820104.400    89349646.36647
  23589286.600   123962582.70008  23589292.920    96594247.17846
 15 02 22 10 03 30.0000000  0 10G02G03G06G07G09G10G17G20G23G30
  23453171.140   123247238.97908  23453169.860    96036814.22347
  23130377.160   121550867.89508  23130382.140    94714944.40247
  20579185.480   108144350.81509  20579188.160    84268330.01749
  21685120.420   113956149.03909  21685121.340    88797035.04048
  20424760.680   107332847.01609  20424761.920    83635991.91949
  21227531.060   111551440.92709  21227531.140    86923213.36548
  24144855.440   126881955.76808  24144860.000    98869020.04646
  20485980.160   107654537.54809  20485979.660    83886645.72948
  21832363.220   114729814.00509  21832360.880    89399834.08147
  23568895.080   123855425.22208  23568901.380    96510748.01746
 15 02 22 10 04  0.0000000  0 10G02G03G06G07G09G10G17G20G23G30
  23435498.720   123154369.81108  23435497.280    95964448.65247
  23143472.380   121619683.06808  23143477.340    94768566.46147
  20575243.700   108123636.71909  20575246.420    84252189.16349
  21671065.820   113882291.68509  21671066.740    88739483.89848
  20429405.000   107357253.41609  20429406.360    83655009.84849
  21217198.020   111497140.26709  21217198.080    86880901.14648
  24161268.380   126968205.10008  24161273.100    98936226.90546
  20479964.840   107622926.53709  20479964.220    83862013.76048
  21844653.900   114794401.54109  21844651.540    89450161.94347
  23548521.760   123748363.36808  23548528.000    96427323.37646
 15 02 22 10 04 30.0000000  0 10G02G03G06G07G09G10G17G20G23G30
  23417870.120   123061730.74609  23417868.580    95892262.41047
  23156598.540   121688660.72908  23156603.360    94822315.15747
  20571409.040   108103485.79109  20571411.840    84236487.14049
  21657083.140   113808812.19009  21657084.020    88682227.19648
  20434114.260   107382001.24609  20434115.780    83674293.82249
  21206903.740   111443042.99809  21206903.620    86838747.41847
  24177687.560   127054486.96508  24177692.400    99003459.14346
  20473998.580   107591573.30609  20473997.820    83837582.67148
  21856977.920   114859164.24609  21856975.620    89500626.30747
  23528166.600   123641397.08408  23528172.800    96343973.20946
 15 02 22 10 05  0.0000000  0 10G02G03G06G07G09G10G17G20G23G30
  23400285.840   122969325.74708  23400284.640    95820258.59547
  23169755.920   121757802.55708  23169760.640    94876191.77647
  20567682.100   108083900.77609  20567684.940    84221226.07649
  21643173.120   113735714.72009  21643174.020    88625268.18248
  20438888.500   107407090.54309  20438890.200    83693843.87749
  21196648.620   111389151.66409  21196648.420    86796754.14647
  24194112.680   127140800.22108  24194117.640    99070715.82446
  20468081.800   107560480.15709  20468080.860    83813354.24348
  21869335.260   114924102.18109  21869332.980    89551227.21947
  23507830.400   123534530.70408  23507836.600    96260700.89346
 15 02 22 10 05 30.0000000  0 10G02G03G06G07G09G10G17G20G23G30
  23382746.580   122877156.39008  23382745.300    95748438.30347
  23182944.180   121827107.11308  23182949.340    94930195.17747
  20564062.840   108064881.57309  20564065.700    84206405.90849
  21629336.000   113663000.23809  21629336.880    88568607.59748
  20443727.220   107432518.46409  20443728.980    83713657.80749
  21186432.580   111335465.93809  21186432.460    86754921.09248
  24210542.880   127227139.93808  24210547.920    99137993.15646
  20462214.480   107529646.98509  20462213.440    83789328.39748
  21881725.400   114989212.51709  21881723.140    89601962.47646
  23487513.500   123427765.70108  23487519.700    96177507.57146
 15 02 22 10 06  0.0000000  0 10G02G03G06G07G09G10G17G20G23G30
  23365252.980   122785227.43208  23365251.980    95676805.42747
  23196163.840   121896576.95908  23196169.280    94984327.37046
  20560552.000   108046431.74209  20560554.800    84192029.41149
  21615572.720   113590673.74709  21615573.540    88512249.35048
  20448630.620   107458285.94209  20448632.400    83733736.32649
  21176256.340   111281989.38609  21176256.420    86713251.04348
  24226978.040   127313505.61308  24226983.180    99205290.66846
  20456397.340   107499077.36609  20456396.220    83765507.91748
  21894148.440   115054496.11409  21894146.280    89652832.73047
  23467216.900   123321107.38108  23467223.100    96094397.36346
 15 02 22 10 06 30.0000000  0 10G02G03G06G07G09G10G17G20G23G30
  23347805.060   122693538.53009  23347804.060    95605359.57647
  23209414.520   121966209.27108  23209419.700    95038586.19647
  20557149.200   108028549.65009  20557151.940    84178095.30049
  21601883.180   113518734.75809  21601883.940    88456193.05848
  20453597.860   107484388.68309  20453599.600    83754076.09849
  21166119.500   111228720.24709  21166119.800    86671742.61848
  24243417.160   127399891.77208  24243422.360    99272604.15346
  20450630.060   107468769.70609  20450628.880    83741891.55648
  21906603.700   115119948.75309  21906601.460    89703834.73947
  23446940.680   123214555.84808  23446946.800    96011370.36746
 15 02 22 10 07  0.0000000  0 10G02G03G06G07G09G10G17G20G23G30
  23330403.520   122602092.31808  23330402.280    95534102.81047
  23222696.180   122036004.10408  23222701.360    95092971.63647
  20553854.620   108011236.26009  20553857.300    84164604.34349
  21588267.880   113447186.00709  21588268.580    88400440.85348
  20458628.580   107510825.03809  20458630.280    83774675.83049
  21156022.320   111175659.50809  21156022.720    86630396.57648
  24259859.580   127486295.05808  24259864.580    99339930.98546
  20444912.760   107438725.03909  20444911.560    83718480.12748
  21919090.880   115185568.85609  21919088.640    89754967.23647
  23426685.220   123108113.68308  23426691.400    95928428.60547
 15 02 22 10 07 30.0000000  0 10G02G03G06G07G09G10G17G20G23G30
  23313048.720   122510891.95308  23313047.420    95463037.61747
  23236008.860   122105961.77408  23236014.040    95147483.96147
  20550668.520   107994493.08209  20550671.160    84151557.69848
  21574727.300   113376029.96109  21574727.940    88344994.66048
  20463722.580   107537593.91009  20463724.300    83795534.67149
  21145965.100   111122808.43409  21145965.480    86589213.91948
  24276304.800   127572713.13908  24276309.760    99407269.33046
  20439245.760   107408944.75909  20439244.540    83695274.71448
  21931609.600   115251354.81109  21931607.440    89806228.95947
  23406451.200   123001784.26708  23406457.460    95845574.68746
 15 02 22 10 08  0.0000000  0 10G02G03G06G07G09G10G17G20G23G30
  23295741.340   122419941.27208  23295739.920    95392166.98747
  23249352.900   122176083.99508  23249357.960    95202124.52046
  20547591.460   107978322.91409  20547594.080    84138957.55249
  21561262.240   113305270.87409  21561262.880    88289857.77748
  20468879.840   107564695.42009  20468881.560    83816652.72349
  21135948.360   111070169.86309  21135948.700    86548196.84748
  24292752.500   127659144.41208  24292757.560    99474617.94645
  20433629.540   107379431.77009  20433628.420    83672277.58248
  21944159.960   115317307.19309  21944157.960    89857620.35447
  23386239.520   122895572.06508  23386245.660    95762812.11246
 15 02 22 10 08 30.0000000  0 10G02G03G06G07G09G10G17G20G23G30
  23278481.920   122329242.76008  23278480.600    95321492.88147
  23262728.060   122246370.69908  23262733.240    95256893.23547
  20544623.560   107962726.56809  20544626.240    84126804.54849
  21547873.080   113234910.73409  21547873.680    88235031.77648
  20474100.120   107592127.98809  20474101.820    83838028.74349
  21125972.220   111017744.46209  21125972.440    86507345.87948
  24309202.120   127745585.93808  24309207.300    99541974.56045
  20428064.440   107350187.16109  20428063.360    83649489.56748
  21956741.660   115383423.97109  21956739.680    89909139.86847
  23366050.680   122789479.84108  23366056.800    95680143.03146
 15 02 22 10 09  0.0000000  0 10G02G03G06G07G09G10G17G20G23G30
  23261270.900   122238798.20309  23261269.640    95251016.63247
  23276134.440   122316820.88108  23276139.680    95311789.34447
  20541764.880   107947704.17409  20541767.640    84115098.76949
  21534560.140   113164951.13209  21534560.740    88180517.88348
  20479382.880   107619889.08209  20479384.580    83859660.75449
  21116036.620   110965532.20909  21116036.680    86466661.00448
  24325652.840   127832033.80008  24325658.280    99609336.11045
  20422550.420   107321211.03809  20422549.360    83626910.76148
  21969354.320   115449703.54709  21969352.280    89960786.24447
  23345884.980   122683509.46608  23345891.180    95597568.91046
 15 02 22 10 09 30.0000000  0 10G02G03G06G07G09G10G17G20G23G30
  23244108.720   122148609.68409  23244107.360    95180739.89447
  23289571.820   122387433.97808  23289577.140    95366812.38847
  20539015.560   107933256.04809  20539018.340    84103840.48249
  21521323.760   113095393.90909  21521324.360    88126317.52548
  20484727.760   107647976.52109  20484729.440    83881547.07349
  21106141.720   110913533.94509  21106141.640    86426142.87748
  24342104.160   127918484.42008  24342109.680    99676699.83046
  20417087.620   107292503.96409  20417086.640    83604541.60748
  21981997.440   115516143.24509  21981995.420    90012557.37747
  23325742.940   122577663.20308  23325749.200    95515091.50446
 15 02 22 10 10  0.0000000  0 10G02G03G06G07G09G10G17G20G23G30
  23226995.680   122058679.30309  23226994.060    95110664.30647
  23303040.000   122458209.66308  23303045.560    95421962.12147
  20536375.700   107919382.89109  20536378.380    84093030.21249
  21508164.280   113026240.88409  21508164.900    88072432.14148
  20490134.380   107676388.47209  20490136.040    83903686.24949
  21096287.620   110861750.21909  21096287.480    86385791.93047
  24358555.380   128004934.65308  24358560.920    99744063.23946
  20411676.240   107264066.61509  20411675.200    83582382.62148
  21994670.740   115582741.29409  21994668.540    90064451.92947
  23305624.960   122471943.50308  23305631.180    95432712.74246
 15 02 22 10 10 30.0000000  0 10G02G03G06G07G09G10G17G20G23G30
  23209932.540   121969011.95209  23209930.840    95040793.67147
  23316539.580   122529150.06908  23316545.120    95477240.22146
  20533845.820   107906087.84109  20533848.420    84082670.41449
  21495082.640   112957496.75409  21495083.200    88018865.36848
  20495602.900   107705125.54709  20495604.500    83926078.76548
  21086475.000   110810184.32909  21086474.800    86345610.71548
  24375006.380   128091383.50208  24375012.020    99811425.56746
  20406316.840   107235902.30809  20406315.760    83560436.38748
  22007374.280   115649498.43009  22007372.060    90116470.41047
  23285532.020   122366355.45508  23285538.160    95350436.55246
 15 02 22 10 11  0.0000000  0 10G02G03G06G07G09G10G17G20G23G30
  23192919.980   121879610.56208  23192918.440    94971130.29747
  23330070.480   122600255.71008  23330076.140    95532647.05646
  20531426.180   107893372.27109  20531428.760    84072762.16149
  21482079.340   112889164.40409  21482079.860    87965619.46348
  20501133.120   107734186.75709  20501134.620    83948723.85849
  21076704.040   110758837.59909  21076703.880    86305600.28048
  24391456.740   128177828.73308  24391462.360    99878785.08245
  20401009.660   107208012.75709  20401008.620    83538704.25048
  22020107.780   115716413.59509  22020105.760    90168612.04247
  23265464.740   122260902.36108  23265470.780    95268265.52946
 15 02 22 10 11 30.0000000  0 10G02G03G06G07G09G10G17G20G23G30
  23175957.720   121790473.15809  23175955.900    94901672.58247
  23343632.100   122671522.03908  23343637.820    95588179.10546
  20529116.080   107881232.53209  20529118.660    84063302.60249
  21469153.920   112821241.43809  21469154.400    87912692.55148
  20506723.880   107763565.94009  20506725.260    83971616.70449
  21066974.120   110707706.74709  21066974.060    86265758.06447
  24407904.960   128264262.75808  24407910.580    99946135.87145
  20395754.060   107180394.50609  20395753.060    83517183.50848
  22032870.120   115783480.60409  22032868.420    90220871.96547
  23245422.880   122155582.48308  23245428.840    95186198.30246
 15 02 22 10 12  0.0000000  0 10G02G03G06G07G09G10G17G20G23G30
  23159046.940   121701606.06709  23159045.020    94832425.52347
  23357225.000   122742952.58508  23357230.660    95643839.13146
  20526916.380   107869673.07809  20526919.000    84054295.21249
  21456307.540   112753733.83409  21456308.040    87860089.29248
  20512375.560   107793265.09609  20512376.780    83994758.88649
  21057286.120   110656796.28109  21057286.140    86226087.59248
  24424351.120   128350686.23108  24424356.900   100013478.41946
  20390551.060   107153052.35109  20390550.000    83495877.89648
  22045661.920   115850701.66709  22045660.300    90273251.96947
  23225407.560   122050402.27808  23225413.540    95104239.90846
 15 02 22 10 12 30.0000000  0 10G02G03G06G07G09G10G17G20G23G30
  23142188.000   121613011.59809  23142186.080    94763390.90847
  23370849.180   122814547.31708  23370854.820    95699627.09946
  20524827.240   107858694.71209  20524829.920    84045740.61949
  21443540.640   112686643.69209  21443541.140    87807811.32348
  20518087.860   107823282.69409  20518088.920    84018149.19949
  21047640.260   110606107.21009  21047640.260    86186589.63048
  24440794.680   128437096.31308  24440800.580   100080810.55045
  20385400.760   107125987.07209  20385399.720    83474788.03948
  22058482.700   115918075.33109  22058481.140    90325750.86147
  23205419.400   121945364.50808  23205425.320    95022392.47346
 15 02 22 10 13  0.0000000  0 10G02G03G06G07G09G10G17G20G23G30
  23125381.160   121524691.14909  23125379.140    94694569.79447
  23384504.320   122886304.92308  23384510.140    95755541.96646
  20522848.600   107848297.01509  20522851.340    84037638.48949
  21430853.420   112619972.15909  21430853.920    87755859.54048
  20523860.240   107853615.91209  20523861.120    84041785.45349
  21038036.480   110555639.46309  21038036.480    86147264.14047
  24457234.880   128523488.53408  24457240.780   100148128.77045
  20380303.140   107099198.75309  20380302.140    83453914.00448
  22071332.000   115985598.90609  22071330.400    90378366.57847
  23185458.620   121840470.76608  23185464.460    94940657.28646
 15 02 22 10 13 30.0000000  0 10G02G03G06G07G09G10G17G20G23G30
  23108626.940   121436647.74609  23108625.180    94625964.60447
  23398190.600   122958225.96408  23398196.380    95811584.20047
  20520980.760   107838481.35709  20520983.520    84029989.90249
  21418246.420   112553722.00809  21418246.880    87704236.09148
  20529692.460   107884263.76009  20529693.200    84065666.86649
  21028475.200   110505394.82409  21028475.100    86108112.48947
  24473671.200   128609860.64408  24473677.100   100215431.30945
  20375258.600   107072689.12009  20375257.560    83433257.12448
  22084209.680   116053271.51609  22084207.940    90431098.43947
  23165525.900   121735724.46608  23165531.680    94859036.96346
 15 02 22 10 14  0.0000000  0 10G02G03G06G07G09G10G17G20G23G30
  23091926.000   121348884.08009  23091924.260    94557577.32347
  23411907.900   123030310.26308  23411913.660    95867753.64446
  20519223.780   107829248.37809  20519226.560    84022795.33849
  21405720.020   112487895.42609  21405720.440    87652942.69048
  20535584.240   107915224.54509  20535584.820    84089792.12049
  21018956.580   110455374.05409  21018956.440    86069135.27848
  24490103.100   128696209.34208  24490109.040   100282715.59445
  20370267.300   107046459.35109  20370266.220    83412818.31748
  22097115.420   116121091.54309  22097113.660    90483945.15447
  23145621.780   121631128.35908  23145627.520    94777533.67446
 15 02 22 10 14 30.0000000  0 10G02G03G06G07G09G10G17G20G23G30
  23075278.540   121261401.55209  23075276.620    94489409.12047
  23425656.120   123102556.95808  23425662.000    95924049.60947
  20517577.720   107820597.98609  20517580.480    84016054.73149
  21393274.460   112422493.64009  21393274.880    87601980.29648
  20541535.080   107946495.89209  20541535.540    84114159.36349
  21009480.580   110405577.30909  21009480.540    86030332.63848
  24506529.960   128782531.51408  24506536.140   100349979.22846
  20365329.260   107020509.47909  20365328.140    83392597.60648
  22110048.820   116189056.40409  22110047.120    90536904.73947
  23125746.640   121526684.46608  23125752.360    94696148.97646
 15 02 22 10 15  0.0000000  0 10G02G03G06G07G09G10G17G20G23G30
  23058685.560   121174205.37108  23058683.780    94421464.07547
  23439435.620   123174968.05808  23439441.700    95980473.69847
  20516043.120   107812533.07009  20516045.840    84009770.34649
  21380910.560   112357520.97809  21380911.000    87551352.26648
  20547545.060   107978078.40009  20547545.500    84138769.07149
  21000047.840   110356007.80709  21000047.860    85991707.06948
  24522951.560   128868826.10408  24522957.920   100417221.33645
  20360445.060   106994842.69309  20360443.940    83372597.47948
  22123009.880   116257167.23609  22123008.320    90589978.04147
  23105901.420   121422397.73808  23105907.100    94614886.75546
 15 02 22 10 15 30.0000000  0  9G02G03G06G07G09G10G20G23G30
  23042147.240   121087296.58809  23042145.500    94353742.94547
  23453246.160   123247542.34708  23453252.300    96037024.93747
  20514619.800   107805053.05709  20514622.460    84003941.72849
  21368628.540   112292978.50909  21368628.920    87501059.45148
  20553613.680   108009969.18709  20553614.100    84163619.00449
  20990658.220   110306665.24209  20990658.360    85953258.34748
  20355614.780   106969458.94809  20355613.560    83352817.89848
  22135998.160   116325421.13709  22135996.580    90643162.84846
  23086086.420   121318269.80608  23086092.060    94533748.29147
 15 02 22 10 16  0.0000000  0  9G02G03G06G07G09G10G20G23G30
  23025663.840   121000676.32508  23025662.280    94286246.67347
  23467087.560   123320278.45408  23467093.460    96093702.28047
  20513307.660   107798157.30009  20513310.240    83998568.37649
  21356428.500   112228866.94309  21356428.900    87451102.39348
  20559740.420   108042165.43109  20559740.840    84188706.95749
  20981311.720   110257549.39209  20981311.940    85914986.28148
  20350838.300   106944358.15609  20350837.020    83333258.81148
  22149013.300   116393815.57909  22149011.580    90696457.16746
  23066301.900   121214302.19008  23066307.540    94452734.74947
 15 02 22 10 16 30.0000000  0  9G02G03G06G07G09G10G20G23G30
  23009236.440   120914350.47309  23009235.020    94218979.80247
  23480960.400   123393179.70608  23480966.300    96150508.32547
  20512107.460   107791849.85209  20512109.960    83993653.44749
  21344311.620   112165192.27909  21344312.020    87401485.78648
  20565925.620   108074668.93209  20565926.100    84214034.33848
  20972009.300   110208665.10009  20972009.540    85876894.65148
  20346116.480   106919544.91909  20346115.260    83313923.80648
  22162055.500   116462352.22709  22162053.500    90749862.31246
  23046549.060   121110501.15108  23046554.660    94371851.03546
 15 02 22 10 17  0.0000000  0  9G02G03G06G07G09G10G20G23G30
  22992865.020   120828318.06409  22992863.480    94151941.56947
  23494863.760   123466241.98308  23494869.760    96207439.82247
  20511018.560   107786127.35209  20511021.000    83989194.31949
  21332277.460   112101952.22409  21332277.880    87352207.81748
  20572168.220   108107474.09009  20572168.760    84239596.76648
  20962750.300   110160009.26509  20962750.620    85838981.03248
  20341448.860   106895016.43409  20341447.640    83294810.67548
  22175123.760   116531025.75009  22175121.760    90803374.09546
  23026827.640   121006865.46708  23026833.280    94291096.17346
 15 02 22 10 17 30.0000000  0  9G02G03G06G07G09G10G20G23G30
  22976550.200   120742583.35109  22976548.720    94085135.33647
  23508798.140   123539467.51208  23508804.220    96264498.54347
  20510041.520   107780992.62309  20510043.940    83985193.19649
  21320326.940   112039151.72809  21320327.340    87303272.36948
  20578468.320   108140581.60409  20578468.940    84265394.80448
  20953535.400   110111585.11409  20953535.760    85801247.96048
  20336836.060   106870775.92709  20336834.800    83275921.94848
  22188218.140   116599836.84809  22188216.200    90856993.07946
  23007138.680   120903400.21108  23007144.360    94210474.12146
 15 02 22 10 18  0.0000000  0  9G02G03G06G07G09G10G20G23G30
  22960292.440   120657148.65309  22960290.980    94018562.88547
  23522763.660   123612855.75408  23522769.500    96321684.04346
  20509176.340   107776445.81909  20509178.760    83981650.18949
  21308460.260   111976791.86709  21308460.640    87254680.26848
  20584825.580   108173989.51509  20584826.360    84291426.90648
  20944364.880   110063393.42509  20944365.100    85763696.00748
  20332278.200   106846824.11109  20332276.940    83257258.17348
  22201338.400   116668783.79909  22201336.480    90910717.92346
  22987482.600   120800107.86208  22987488.340    94129986.81047
 15 02 22 10 18 30.0000000  0  9G02G03G06G07G09G10G20G23G30
  22944091.860   120572014.08809  22944090.360    93952224.29047
  23536759.640   123686403.81408  23536765.220    96378994.10347
  20508422.600   107772484.69909  20508424.980    83978563.56849
  21296677.280   111914871.96009  21296677.700    87206431.00248
  20591239.140   108207693.41209  20591240.060    84317689.65248
  20935238.340   110015432.64809  20935238.360    85726323.99748
  20327774.920   106823159.18909  20327773.740    83238817.96348
  22214483.680   116737862.41709  22214481.760    90964545.37546
  22967859.420   120696988.42508  22967865.160    94049634.22347
 15 02 22 10 19  0.0000000  0  9G02G03G06G07G09G10G20G23G30
  22927949.720   120487186.40409  22927948.160    93886124.83947
  23550786.800   123760116.02808  23550792.480    96436432.04247
  20507781.260   107769114.18009  20507783.600    83975937.15449
  21284979.300   111853398.53909  21284979.700    87158529.65848
  20597709.540   108241696.09309  20597710.620    84344185.22348
  20926156.680   109967708.05809  20926156.580    85689136.02648
  20323327.340   106799786.86409  20323326.180    83220605.75248
  22227654.600   116807075.72509  22227652.620    91018477.78746
  22948270.520   120594049.04808  22948276.240    93969421.94147
 15 02 22 10 19 30.0000000  0  9G02G03G06G07G09G10G20G23G30
  22911866.380   120402668.08209  22911864.740    93820266.43447
  23564845.120   123833992.25208  23564850.840    96493997.76546
  20507252.380   107766334.76009  20507254.740    83973771.33649
  21273366.700   111792373.87009  21273367.140    87110977.99248
  20604236.520   108275996.05109  20604237.780    84370912.43148
  20917120.120   109920220.60409  20917119.880    85652132.83148
  20318935.660   106776708.25209  20318934.480    83202622.40348
  22240850.900   116876422.40009  22240848.840    91072514.10246
  22928716.480   120491292.62908  22928722.100    93889352.20847
 15 02 22 10 20  0.0000000  0  9G02G03G06G07G09G10G20G23G30
  22895841.720   120318457.58409  22895840.040    93754647.87547
  23578933.820   123908028.47408  23578939.580    96551688.18646
  20506835.280   107764142.91609  20506837.680    83972063.36349
  21261839.160   111731796.04909  21261839.600    87063774.53048
  20610819.020   108310587.65909  20610820.440    84397866.90148
  20908128.180   109872967.45909  20908127.900    85615312.22148
  20314599.200   106753919.99009  20314598.020    83184865.32048
  22254071.520   116945896.67509  22254069.460    91126649.85246
  22909196.980   120388717.97308  22909202.580    93809424.12047
 15 02 22 10 20 30.0000000  0  9G02G03G06G07G09G10G20G23G30
  22879876.900   120234561.38909  22879875.200    93689274.24347
  23593053.760   123982228.51308  23593059.560    96609506.25647
  20506530.820   107762543.07109  20506533.260    83970816.69349
  21250397.780   111671671.14709  21250398.180    87016924.00648
  20617457.500   108345473.34309  20617458.980    84425050.52748
  20899181.800   109825954.02509  20899181.560    85578678.38948
  20310319.080   106731427.94409  20310317.940    83167339.04748
  22267316.940   117015501.43809  22267314.820    91180887.26647
  22889713.360   120286331.96208  22889718.900    93729643.01347
 15 02 22 10 21  0.0000000  0  9G02G03G06G07G09G10G20G23G30
  22863972.140   120150981.10909  22863970.540    93624146.78747
  23607204.460   124056591.27508  23607210.460    96667451.10546
  20506338.900   107761534.63209  20506341.380    83970030.86249
  21239042.720   111611999.91409  21239043.020    86970427.00548
  20624151.440   108380650.48209  20624153.040    84452461.25849
  20890280.980   109779180.04509  20890280.800    85542231.14448
  20306095.260   106709231.89609  20306094.260    83150043.43748
  22280586.740   117085234.45009  22280584.740    91235224.61547
  22870266.020   120184136.31008  22870271.500    93650010.24647
 15 02 22 10 21 30.0000000  0  9G02G03G06G07G09G10G20G23G30
  22848127.640   120067717.42909  22848126.020    93559266.02647
  23621385.840   124131114.76108  23621391.980    96725521.19946
  20506259.220   107761116.14209  20506261.780    83969704.73149
  21227774.000   111552782.59309  21227774.260    86924283.71448
  20630900.180   108416115.65209  20630901.940    84480096.42548
  20881425.720   109732644.99209  20881425.440    85505970.06048
  20301927.660   106687331.05809  20301926.720    83132977.84648
  22293880.280   117155092.30409  22293878.340    91289659.23847
  22850855.100   120082131.98608  22850860.560    93570526.53447
 15 02 22 10 22  0.0000000  0  9G02G03G06G07G09G10G20G23G30
  22832344.200   119984774.37109  22832342.500    93494635.09348
  23635598.080   124205800.31308  23635604.200    96783717.58946
  20506292.180   107761289.38509  20506294.800    83969839.69949
  21216592.280   111494022.65209  21216592.480    86878496.82448
  20637703.720   108451868.70909  20637705.620    84507955.92949
  20872616.400   109686351.22809  20872616.000    85469896.98348
  20297816.680   106665728.11109  20297815.860    83116144.39848
  22307197.460   117225075.09809  22307195.720    91344191.21047
  22831481.400   119980323.30108  22831486.880    93491195.28147
 15 02 22 10 22 30.0000000  0  9G02G03G06G07G09G10G20G23G30
  22816622.280   119902154.57809  22816620.460    93430256.04548
  23649841.280   124280647.87308  23649847.320    96842040.20546
  20506437.840   107762054.80409  20506440.500    83970436.09749
  21205497.960   111435721.90909  21205498.140    86833067.76448
  20644561.780   108487908.20009  20644563.800    84536038.61849
  20863853.180   109640299.98609  20863852.740    85434012.89448
  20293762.600   106644424.04809  20293761.840    83099543.84648
  22320538.300   117295181.46009  22320536.500    91398819.48246
  22812145.500   119878713.14908  22812150.960    93412018.71647
 15 02 22 10 23  0.0000000  0  9G02G03G06G07G09G10G20G23G30
  22800961.980   119819858.95609  22800960.120    93366129.61748
  23664114.900   124355655.59508  23664121.020    96900487.63046
  20506695.920   107763411.08409  20506698.660    83971492.91849
  21194491.100   111377880.94809  21194491.280    86787996.97348
  20651473.740   108524230.85509  20651475.840    84564341.95549
  20855136.020   109594491.02209  20855135.580    85398317.58748
  20289765.360   106623418.57809  20289764.620    83083175.96348
  22333901.960   117365408.34509  22333900.300    91453541.66547
  22792847.660   119777302.68908  22792853.020    93332997.73347
 15 02 22 10 23 30.0000000  0  9G02G03G06G07G09G10G20G23G30
  22785364.720   119737894.65509  22785362.740    93302261.34148
  23678419.820   124430828.11108  23678426.160    96959063.43546
  20507067.380   107765363.18309  20507070.140    83973014.00949
  21183572.960   111320506.07909  21183573.100    86743289.37348
  20658440.280   108560839.75509  20658442.380    84592868.34049
  20846465.900   109548930.00909  20846465.700    85362815.49748
  20285825.940   106602717.06209  20285825.200    83067044.93248
  22347289.260   117435759.39709  22347287.800    91508360.57846
  22773589.220   119676099.40508  22773594.480    93254138.16747
 15 02 22 10 24  0.0000000  0  9G02G03G06G07G09G10G20G23G30
  22769829.880   119656258.27309  22769827.760    93238648.59447
  23692755.040   124506159.43808  23692761.540    97017762.99546
  20507551.200   107767905.56909  20507553.960    83974995.06849
  21172742.780   111263593.71409  21172742.960    86698942.17048
  20665459.960   108597727.53909  20665461.920    84621612.03149
  20837842.120   109503612.20409  20837842.060    85327502.90548
  20281943.620   106582315.47709  20281942.880    83051147.61448
  22360698.700   117506227.10509  22360697.520    91563270.38746
  22754369.620   119575100.27708  22754374.820    93175437.67747
 15 02 22 10 24 30.0000000  0  9G02G03G06G07G09G10G20G23G30
  22754358.880   119574957.64509  22754356.880    93175297.47648
  23707121.460   124581654.71208  23707127.880    97076590.31146
  20508148.400   107771043.72609  20508151.180    83977440.35749
  21162001.940   111207150.91709  21162002.160    86654960.85248
  20672533.440   108634897.90809  20672535.280    84650575.92849
  20829265.900   109458543.96609  20829265.940    85292384.77748
  20278119.540   106562219.77509  20278118.760    83035488.64048
  22374131.240   117576815.55609  22374130.160    91618274.29246
  22735190.460   119474313.39508  22735195.560    93096902.55247
 15 02 22 10 25  0.0000000  0  9G02G03G06G07G09G10G20G23G30
  22738951.480   119493991.01209  22738949.420    93112206.60548
  23721518.180   124657309.45808  23721524.480    97135541.88446
  20508858.180   107774773.54609  20508861.040    83980346.68549
  21151349.980   111151175.19409  21151350.240    86611343.48348
  20679659.520   108672344.93909  20679661.220    84679755.40648
  20820736.600   109413722.00809  20820736.700    85257458.56648
  20274352.960   106542426.66809  20274352.220    83020065.47448
  22387585.680   117647519.29109  22387584.760    91673368.01646
  22716051.380   119373737.27608  22716056.460    93018531.65347
 15 02 22 10 25 30.0000000  0  9G02G03G06G07G09G10G20G23G30
  22723608.380   119413362.49009  22723606.460    93049379.20848
  23735945.580   124733125.00608  23735951.900    97194618.74546
  20509680.880   107779096.76909  20509683.760    83983715.40449
  21140787.540   111095670.06409  21140787.840    86568092.81048
  20686838.180   108710068.63409  20686839.780    84709150.47549
  20812254.680   109369149.23409  20812254.820    85222726.53448
  20270644.520   106522939.01009  20270643.840    83004880.31548
  22401062.160   117718338.21909  22401061.160    91728551.51746
  22696953.260   119273376.28308  22696958.320    92940328.36847
 15 02 22 10 26  0.0000000  0  9G02G03G06G07G09G10G20G23G30
  22708330.340   119333076.34209  22708328.360    92986818.59447
  23750403.840   124809102.87108  23750410.300    97253822.08846
  20510616.860   107784015.30309  20510619.760    83987548.00649
  21130315.360   111040639.10709  21130315.700    86525211.61348
  20694069.520   108748069.11409  20694071.020    84738761.22749
  20803820.720   109324828.35609  20803820.780    85188190.78848
  20266994.860   106503759.88609  20266994.180    82989935.56748
  22414560.760   117789272.99309  22414559.640    91783825.28046
  22677896.940   119173234.89308  22677901.960    92862296.19347
 15 02 22 10 26 30.0000000  0  9G02G03G06G07G09G10G20G23G30
  22693117.420   119253132.88009  22693115.540    92924525.00648
  23764892.640   124885241.08008  23764899.140    97313150.37746
  20511665.760   107789527.22109  20511668.640    83991842.97449
  21119933.420   110986081.99609  21119933.760    86482699.63348
  20701352.820   108786342.83809  20701354.260    84768584.88749
  20795434.480   109280758.28609  20795434.460    85153850.47748
  20263403.720   106484888.08909  20263402.960    82975230.27548
  22428080.760   117860320.20509  22428079.560    91839186.66446
  22658882.560   119073313.93508  22658887.580    92784435.76047
 15 02 22 10 27  0.0000000  0  9G02G03G06G07G09G10G20G23G30
  22677970.760   119173537.49609  22677968.900    92862502.64948
  23779412.420   124961542.35608  23779418.920    97372605.70546
  20512828.200   107795635.69709  20512831.080    83996602.78749
  21109642.620   110932003.52209  21109642.900    86440560.61048
  20708688.400   108824891.17209  20708689.760    84798622.54049
  20787096.800   109236943.32209  20787096.720    85119708.95748
  20259871.840   106466327.90309  20259871.040    82960767.81348
  22441622.360   117931481.44409  22441621.060    91894636.90246
  22639911.240   118973619.19408  22639916.220    92706751.60447
 15 02 22 10 27 30.0000000  0  9G02G03G06G07G09G10G20G23G30
  22662889.740   119094286.72109  22662887.840    92800748.81748
  23793962.060   125038000.28708  23793968.620    97432183.11346
  20514102.980   107802334.55409  20514105.900    84001822.64249
  21099442.120   110878399.46909  21099442.320    86398791.25348
  20716074.780   108863706.35909  20716075.980    84828868.13648
  20778806.760   109193378.74709  20778806.640    85085762.53548
  20256398.240   106448073.95709  20256397.400    82946543.96748
  22455184.300   118002749.45409  22455183.000    91950170.33346
  22620982.360   118874147.32609  22620987.240    92629241.11147
 15 02 22 10 28  0.0000000  0  9G02G03G06G07G09G10G20G23G30
  22647875.940   119015389.27109  22647874.040    92739270.31147
  23808542.640   125114621.00108  23808549.280    97491887.35946
  20515491.380   107809630.22509  20515494.320    84007507.54049
  21089333.380   110825277.67109  21089333.540    86357397.67348
  20723512.760   108902793.22309  20723513.920    84859325.42548
  20770565.740   109150071.77609  20770565.660    85052016.84748
  20252984.320   106430133.70909  20252983.480    82932564.55848
  22468767.580   118074129.11409  22468766.120    92005790.76946
  22602097.640   118774907.43709  22602102.400    92551911.38047
 15 02 22 10 28 30.0000000  0  9G02G03G06G07G09G10G20G23G30
  22632928.580   118936840.89309  22632926.660    92678063.81147
  23823152.920   125191397.59208  23823159.440    97551713.06546
  20516992.060   107817515.92009  20516994.960    84013652.19249
  21079315.480   110772633.32509  21079315.580    86316376.11948
  20731000.820   108942143.30009  20731001.940    84889987.83048
  20762372.620   109107016.60109  20762372.620    85018467.37248
  20249629.000   106412501.54709  20249628.160    82918825.22048
  22482370.620   118145612.34209  22482369.200    92061491.89646
  22583256.340   118675895.52708  22583260.980    92474759.31247
 15 02 22 10 29  0.0000000  0  9G02G03G06G07G09G10G20G23G30
  22618049.700   118858652.55709  22618047.900    92617137.87848
  23837794.400   125268338.21108  23837800.820    97611666.60246
  20518606.620   107826000.03109  20518609.400    84020263.14449
  21069390.320   110720476.35209  21069390.380    86275734.32148
  20738540.240   108981763.46309  20738541.340    84920860.69348
  20754229.320   109064223.07309  20754229.280    84985121.76948
  20246334.160   106395187.23209  20246333.360    82905333.53748
  22495994.680   118217206.24309  22495993.200    92117279.26546
  22564460.480   118577122.72108  22564465.120    92397793.55947
