     2.11           OBSERVATION DATA    G                   RINEX VERSION / TYPE
SPIDER V4,0,0,3554                      2015 03 17 00:02    PGM / RUN BY / DATE 
ABZH                                                        MARKER NAME         
ABZH                                                        MARKER NUMBER       
                                                            OBSERVER / AGENCY   
462405              LEICA GRX1200PRO    8.20/2.127          REC # / TYPE / VERS 
103261              LEIAT504                                ANT # / TYPE        
  5106694.6829   270584.9059  3799508.1083                  APPROX POSITION XYZ 
        0.0770        0.0000        0.0000                  ANTENNA: DELTA H/E/N
     1     1                                                WAVELENGTH FACT L1/2
     4    C1    L1    P2    L2                              # / TYPES OF OBSERV 
    30.000                                                  INTERVAL            
  2015    03    06    00    00    0.0000000     GPS         TIME OF FIRST OBS   
  2015    03    06    23    59   30.0000000     GPS         TIME OF LAST OBS    
    16                                                      LEAP SECONDS        
    30                                                      # OF SATELLITES     
   G 1   816   816   814   814                              PRN / # OF OBS      
   G 2   905   905   899   899                              PRN / # OF OBS      
   G 3   836   836   836   836                              PRN / # OF OBS      
   G 4   834   834   834   834                              PRN / # OF OBS      
   G 5   662   662   662   662                              PRN / # OF OBS      
   G 6   784   784   784   784                              PRN / # OF OBS      
   G 7   652   652   652   652                              PRN / # OF OBS      
   G 9   783   783   783   783                              PRN / # OF OBS      
   G10   769   769   769   769                              PRN / # OF OBS      
   G11   783   783   782   782                              PRN / # OF OBS      
   G12   805   805   805   805                              PRN / # OF OBS      
   G13   806   806   806   806                              PRN / # OF OBS      
   G14   890   890   872   872                              PRN / # OF OBS      
   G15   721   721   721   721                              PRN / # OF OBS      
   G16   678   678   675   675                              PRN / # OF OBS      
   G17   917   917   913   913                              PRN / # OF OBS      
   G18   890   890   887   887                              PRN / # OF OBS      
   G19   776   776   776   776                              PRN / # OF OBS      
   G20   776   776   776   776                              PRN / # OF OBS      
   G21   648   648   641   641                              PRN / # OF OBS      
   G22   755   755   754   754                              PRN / # OF OBS      
   G23   733   733   733   733                              PRN / # OF OBS      
   G24   805   805   805   805                              PRN / # OF OBS      
   G25   830   830   830   830                              PRN / # OF OBS      
   G27   816   816   816   816                              PRN / # OF OBS      
   G28   879   879   875   875                              PRN / # OF OBS      
   G29   735   735   735   735                              PRN / # OF OBS      
   G30   699   699   699   699                              PRN / # OF OBS      
   G31   818   818   818   818                              PRN / # OF OBS      
   G32   745   745   745   745                              PRN / # OF OBS      
BIT 2 OF LLI FLAGS DATA COLLECTED UNDER A/S CONDITION       COMMENT             
SNR is mapped to RINEX snr flag value [2-9]                 COMMENT             
Lx:     = 25dBHz -> 1; 26-27dBHz -> 2; 28-31dBHz -> 3       COMMENT             
       32-35dBHz -> 4; 36-38dBHz -> 5; 39-41dBHz -> 6       COMMENT             
       42-44dBHz -> 7; 45-48dBHz -> 8; >=49dBHz -> 9        COMMENT             
                                                            END OF HEADER       
 15 03 06 00 00  0.0000000  0  7G16G18G19G21G22G27G31
  20997215.800   110341129.85609  20997214.660    85980102.67946
  22230030.000   116819605.85808  22230029.280    91028263.79944
  24333270.740   127872200.44805  24333269.620    99640682.96643
  21753263.860   114314185.41508  21753262.720    89075988.50245
  23198505.080   121909024.35607  23198504.440    94994058.91243
  22145345.700   116374623.01208  22145347.080    90681557.26445
  23907083.940   125632516.68306  23907084.080    97895449.36643
 15 03 06 00 00 30.0000000  0  7G16G18G19G21G22G27G31
  20987458.440   110289854.91108  20987457.340    85940148.17546
  22221350.400   116773994.68808  22221349.740    90992722.65244
  24318015.320   127792033.33405  24318014.300    99578215.15743
  21763291.820   114366882.39308  21763290.600    89117051.08245
  23181227.180   121818227.69807  23181226.260    94923308.36644
  22134149.740   116315788.57808  22134151.260    90635712.28145
  23925761.240   125730665.40906  23925761.380    97971928.59444
 15 03 06 00 01  0.0000000  0  7G16G18G19G21G22G27G31
  20977774.860   110238967.63108  20977773.860    85900495.75746
  22212745.380   116728775.22908  22212744.700    90957486.72845
  24302774.920   127711944.79605  24302773.800    99515808.54543
  21773368.120   114419833.28908  21773366.900    89158311.51246
  23163973.520   121727558.67507  23163972.460    94852657.30644
  22122977.940   116257080.33608  22122979.560    90589965.60545
  23944444.280   125828845.31306  23944444.740    98048432.11644
 15 03 06 00 01 30.0000000  0  7G16G18G19G21G22G27G31
  20968165.820   110188472.00308  20968164.860    85861148.51446
  22204215.720   116683951.40508  22204215.040    90922559.08244
  24287549.780   127631936.70504  24287548.500    99453464.60943
  21783493.020   114473039.22508  21783491.700    89199770.68145
  23146744.840   121637022.17807  23146743.680    94782109.51744
  22111830.640   116198500.32808  22111832.220    90544318.87245
  23963133.000   125927055.67706  23963134.000    98124959.36643
 15 03 06 00 02  0.0000000  0  7G16G18G19G21G22G27G31
  20958631.660   110138369.89108  20958630.700    85822107.90946
  22195761.620   116639525.41108  22195761.120    90887941.43544
  24272339.940   127552009.35504  24272338.580    99391183.66843
  21793665.960   114526497.88408  21793664.540    89241426.77745
  23129542.020   121546621.17707  23129540.700    94711667.24843
  22100707.760   116140048.93108  22100709.220    90498772.33145
  23981827.040   126025293.44206  23981828.540    98201507.99544
 15 03 06 00 02 30.0000000  0  7G16G18G19G21G22G27G31
  20949173.080   110088664.88809  20949172.140    85783376.74046
  22187383.860   116595500.18808  22187383.340    90853636.07644
  24257145.820   127472161.15905  24257146.440    99328955.64843
  21803886.780   114580208.37408  21803885.260    89283279.11345
  23112365.680   121456359.29507  23112364.380    94641333.40744
  22089609.640   116081727.52808  22089611.020    90453327.09445
  24000526.060   126123556.96906  24000528.160    98278076.62543
 15 03 06 00 03  0.0000000  0  7G16G18G19G21G22G27G31
  20939785.360   110039331.90809  20939784.340    85744935.45146
  22179077.520   116551849.95008  22179077.020    90819622.92644
  24241962.940   127392370.68705  24241961.720    99266781.29943
  21814150.060   114634142.09608  21814148.520    89325305.38046
  23095211.240   121366212.26007  23095210.040    94571089.06643
  22078531.100   116023509.01008  22078532.380    90407962.04045
  24019224.440   126221816.41306  24019226.660    98354642.06744
 15 03 06 00 03 30.0000000  0  7G16G18G19G21G22G27G31
  20930479.720   109990430.37908  20930478.720    85706830.37247
  22170854.060   116508635.24808  22170853.620    90785949.14845
  24226800.500   127312692.98305  24226798.940    99204694.77643
  21824466.560   114688355.23808  21824464.960    89367549.38946
  23078090.160   121276240.57907  23078089.020    94500981.35144
  22067483.200   115965451.52508  22067484.440    90362722.44945
  24037932.600   126320126.64206  24037934.780    98431247.09643
 15 03 06 00 04  0.0000000  0  7G16G18G19G21G22G27G31
  20921247.660   109941915.46309  20921246.640    85669026.53946
  22162704.780   116465810.29008  22162704.340    90752579.06844
  24211650.740   127233081.19505  24211649.220    99142659.72343
  21834826.900   114742799.16408  21834825.280    89409973.22345
  23060993.920   121186399.64407  23060992.820    94430975.51144
  22056456.940   115907508.26908  22056458.220    90317571.87145
  24056640.940   126418437.74806  24056643.000    98507852.80544
 15 03 06 00 04 30.0000000  0  7G16G18G19G21G22G27G31
  20912092.200   109893802.90709  20912091.120    85631536.24046
  22154632.640   116423390.74808  22154632.160    90719524.88944
  24196516.240   127153549.05005  24196514.700    99080686.63843
  21845233.300   114797485.15408  21845231.660    89452585.67745
  23043925.740   121096706.22607  23043924.680    94361084.64744
  22045455.040   115849693.05208  22045456.340    90272521.06246
  24075351.460   126516760.47106  24075353.420    98584467.53541
 15 03 06 00 05  0.0000000  0  7G16G18G19G21G22G27G31
  20903014.020   109846096.31809  20903012.760    85594362.27746
  22146638.160   116381379.44808  22146637.460    90686788.81444
  24181397.220   127074098.35505  24181395.660    99018776.99743
  21855685.800   114852413.42808  21855684.120    89495386.92745
  23026886.500   121007164.58307  23026885.380    94291312.00644
  22034477.860   115792007.74008  22034479.120    90227571.48445
  24094063.920   126615093.85306  24094065.960    98661090.59344
 15 03 06 00 05 30.0000000  0  7G16G18G19G21G22G27G31
  20894013.380   109798797.05809  20894011.920    85557505.69846
  22138721.740   116339777.87308  22138720.820    90654372.02745
  24166293.460   126994728.26705  24166292.140    98956930.23743
  21866183.900   114907581.00908  21866182.220    89538374.65045
  23009876.520   120917776.68507  23009875.280    94221659.16944
  22023525.340   115734451.89308  22023526.580    90182722.79546
  24112777.640   126713434.05406  24112780.040    98737718.94243
 15 03 06 00 06  0.0000000  0  7G16G18G19G21G22G27G31
  20885089.840   109751903.30009  20885088.320    85520965.10946
  22130882.780   116298584.14708  22130881.900    90622273.04444
  24151204.480   126915435.16306  24151203.120    98895143.44643
  21876726.580   114962983.10308  21876724.960    89581545.10345
  22992895.400   120828541.22707  22992894.240    94152125.14344
  22012596.740   115677021.92008  22012598.020    90137972.18546
  24131491.360   126811774.50406  24131494.100    98814347.49843
 15 03 06 00 06 30.0000000  0  7G16G18G19G21G22G27G31
  20876244.640   109705421.39409  20876243.100    85484745.44446
  22123122.780   116257804.69808  22123121.700    90590496.85844
  24136131.040   126836223.80106  24136129.760    98833420.36044
  21887314.260   115018621.96508  21887312.700    89624900.05545
  22975944.820   120739465.96407  22975943.740    94082715.92744
  22001692.980   115619722.67908  22001694.420    90093323.42645
  24150205.560   126910117.00906  24150208.380    98890977.60043
 15 03 06 00 07  0.0000000  0  7G16G18G19G21G22G27G31
  20867477.100   109659347.82609  20867475.580    85448843.96546
  22115440.720   116217435.13208  22115439.600    90559040.06444
  24121072.220   126757088.45306  24121070.780    98771756.50942
  21897945.680   115074490.55208  21897944.140    89668434.01846
  22959024.100   120650547.53507  22959023.080    94013428.92144
  21990813.040   115562548.60208  21990814.680    90048772.21246
  24168918.560   127008453.18506  24168921.300    98967602.74143
 15 03 06 00 07 30.0000000  0  7G16G18G19G21G22G27G31
  20858790.020   109613697.07809  20858788.500    85413271.95346
  22107839.320   116177489.67608  22107838.260    90527913.76344
  24106030.000   126678041.73706  24106028.500    98710161.71944
  21908622.580   115130598.24508  21908621.040    89712154.30545
  22942136.140   120561801.11007  22942135.140    93944275.96344
  21979959.340   115505512.54208  21979961.100    90004328.56146
  24187632.100   127106792.53706  24187634.620    99044230.39843
 15 03 06 00 08  0.0000000  0  7G16G18G19G21G22G27G31
  20850181.220   109568457.94909  20850179.740    85378020.68446
  22100316.580   116137957.29008  22100315.560    90497109.31444
  24091002.300   126599070.82906  24091000.780    98648626.01843
  21919342.460   115186931.95208  21919340.960    89756050.69645
  22925278.980   120473216.64907  22925277.880    93875249.16344
  21969129.560   115448601.72108  21969131.320    89959982.47746
  24206343.400   127205119.31106  24206345.860    99120848.18744
 15 03 06 00 08 30.0000000  0  7G16G18G19G21G22G27G31
  20841651.700   109523635.39009  20841650.360    85343094.01846
  22092873.240   116098842.71308  22092872.360    90466630.44044
  24075989.800   126520179.18406  24075988.200    98587152.02543
  21930105.480   115243492.10908  21930103.980    89800123.54145
  22908453.780   120384799.99407  22908452.660    93806353.14244
  21958324.160   115391819.41008  21958325.840    89915736.53146
  24225052.440   127303433.69406  24225054.880    99197456.32242
 15 03 06 00 09  0.0000000  0  7G16G18G19G21G22G27G31
  20833202.980   109479237.27409  20833201.780    85308498.07847
  22085510.640   116060152.67208  22085509.980    90436482.37644
  24060993.320   126441372.22806  24060991.700    98525744.04143
  21940912.420   115300282.50708  21940910.940    89844375.78945
  22891662.060   120296559.11507  22891660.840    93737594.08344
  21947544.320   115335171.45208  21947546.020    89871595.27546
  24243759.740   127401738.50206  24243761.960    99274056.99041
 15 03 06 00 09 30.0000000  0  7G16G18G19G21G22G27G31
  20824834.440   109435260.46709  20824833.300    85274230.43247
  22078228.380   116021884.41608  22078227.780    90406662.97244
  24046011.960   126362644.80506  24046010.240    98464398.03443
  21951761.820   115357296.37608  21951760.420    89888802.17945
  22874903.440   120208492.14107  22874902.180    93668970.53244
  21936789.160   115278653.25408  21936790.940    89827555.15846
  24262463.760   127500026.11906  24262465.920    99350644.26444
 15 03 06 00 10  0.0000000  0  7G16G18G19G21G22G27G31
  20816547.520   109391712.12309  20816546.300    85240296.65347
  22071027.640   115984044.57708  22071027.060    90377177.39844
  24031046.740   126284002.69506  24031044.820    98403118.52743
  21962654.360   115414537.33308  21962653.060    89933405.52045
  22858179.340   120120606.84107  22858178.040    93600488.55044
  21926059.720   115222270.26308  21926061.600    89783620.36846
  24281164.960   127598298.82606  24281167.300    99427219.86143
 15 03 06 00 10 30.0000000  0  7G16G18G19G21G22G27G31
  20808340.820   109348585.44409  20808339.560    85206691.45347
  22063907.060   115946626.14908  22063906.480    90348020.19244
  24016096.280   126205437.09006  24016094.080    98341898.60943
  21973588.180   115471995.04308  21973586.920    89978177.76345
  22841488.600   120032897.08007  22841487.280    93532143.34844
  21915354.480   115166014.07008  21915356.420    89739784.38046
  24299861.120   127696545.21206  24299863.780    99503774.99143
 15 03 06 00 11  0.0000000  0  7G16G18G19G21G22G27G31
  20800216.400   109305891.05609  20800215.080    85173423.09047
  22056868.740   115909639.34408  22056868.100    90319199.32145
  24001162.000   126126957.17906  24001159.720    98280745.44643
  21984564.520   115529676.57208  21984563.360    90023124.39646
  22824833.460   119945374.42507  22824832.120    93463943.92543
  21904675.180   115109893.68108  21904677.060    89696054.22046
  24318553.120   127794771.21306  24318556.180    99580314.21042
 15 03 06 00 11 30.0000000  0  7G16G18G19G21G22G27G31
  20792173.480   109263625.26309  20792172.220    85140488.70847
  22049911.820   115873080.54608  22049911.200    90290711.98745
  23986242.920   126048557.01106  23986240.760    98219654.45142
  21995582.040   115587574.47408  21995580.880    90068239.64545
  22808213.400   119858036.19307  22808212.060    93395888.24445
  21894020.740   115053903.77208  21894022.520    89652425.73246
  24337239.740   127892968.60006  24337243.460    99656831.06344
 15 03 06 00 12  0.0000000  0  7G16G18G19G21G22G27G31
  20784213.360   109221794.43709  20784212.120    85107893.25547
  22043037.380   115836955.46408  22043036.800    90262562.57444
  23971339.720   125970241.22005  23971337.880    98158629.19244
  22006641.180   115645691.33308  22006640.040    90113525.50545
  22791629.920   119770889.50907  22791628.460    93327981.79644
  21883392.020   114998049.29808  21883393.680    89608902.77946
  24355921.280   127991138.86606  24355925.400    99733326.78843
 15 03 06 00 12 30.0000000  0  7G16G18G19G21G22G27G31
  20776335.520   109180396.41009  20776334.340    85075635.05747
  22036245.080   115801261.51608  22036244.500    90234749.11444
  23956451.760   125892006.09105  23956450.160    98097666.83243
  22017740.960   115704021.10408  22017739.800    90158977.27545
  22775082.540   119683932.26707  22775080.920    93260222.98044
  21872788.220   114942326.20508  21872789.900    89565482.20046
  24374596.400   128089275.10306  24374600.560    99809796.00042
 15 03 06 00 13  0.0000000  0  7G16G18G19G21G22G27G31
  20768540.520   109139433.52409  20768539.340    85043715.91947
  22029535.200   115766000.91308  22029534.640    90207273.32644
  23941579.280   125813851.90505  23941577.960    98036767.51841
  22028881.140   115762562.89108  22028879.860    90204594.24946
  22758572.020   119597168.39407  22758570.260    93192614.81544
  21862209.620   114886735.16808  21862211.260    89522164.52146
  24393264.720   128187375.18606  24393268.620    99886236.95944
 15 03 06 00 13 30.0000000  0  7G16G18G19G21G22G27G31
  20760829.640   109098912.29509  20760828.420    85012140.92947
  22022908.980   115731179.85808  22022908.320    90180140.06144
  23926723.080   125735784.09405  23926722.300    97975935.57444
  22040062.100   115821319.15608  22040060.800    90250378.35445
  22742099.760   119510605.64707  22742097.880    93125163.37744
  21851657.200   114831281.55108  21851658.840    89478953.92946
  24411926.740   128285440.96306  24411930.340    99962651.22643
 15 03 06 00 14  0.0000000  0  7G16G18G19G21G22G27G31
  20753201.460   109058825.98109  20753200.260    84980904.84247
  22016365.140   115696791.07708  22016364.260    90153343.60644
  23911881.840   125657793.73205  23911881.360    97915163.91241
  22051282.040   115880280.29108  22051280.720    90296322.09445
  22725664.420   119424237.41607  22725662.360    93057863.53844
  21841129.340   114775956.97608  21841130.960    89435843.86346
  24430580.080   128383461.49306  24430583.380   100039030.19643
 15 03 06 00 14 30.0000000  0  7G16G18G19G21G22G27G31
  20745658.040   109019185.05709  20745656.940    84950015.81347
  22009905.360   115662844.63308  22009904.480    90126891.85045
  23897056.780   125579889.32105  23897056.460    97854459.19744
  22062542.200   115939452.50508  22062540.840    90342430.31745
  22709268.180   119338075.05307  22709266.100    92990724.05544
  21830627.660   114720770.11808  21830629.320    89392841.11646
  24449225.700   128481442.18306  24449228.740   100115378.08243
 15 03 06 00 15  0.0000000  0  7G16G18G19G21G22G27G31
  20738199.100   108979988.18109  20738197.980    84919472.78847
  22003529.460   115629338.85008  22003528.520    90100783.47044
  23882247.520   125502067.97605  23882247.600    97793819.22743
  22073841.600   115998831.35308  22073840.320    90388699.53245
  22692911.100   119252118.29607  22692909.080    92923744.83144
  21820151.720   114665718.32708  21820153.300    89349943.63946
  24467862.600   128579377.14706  24467865.540   100191690.37443
 15 03 06 00 15 30.0000000  0  7G16G18G19G21G22G27G31
  20730824.460   108941234.24709  20730823.360    84889274.91747
  21997237.120   115596271.84908  21997235.940    90075016.97844
  23867453.920   125424326.80205  23867454.060    97733241.76743
  22085179.300   116058411.40608  22085178.020    90435125.54545
  22676593.060   119166366.68007  22676591.080    92856925.45244
  21809700.920   114610798.77608  21809702.380    89307149.19246
  24486489.420   128677260.73005  24486493.040   100267962.65444
 15 03 06 00 16  0.0000000  0  7G16G18G19G21G22G27G31
  20723534.800   108902926.84109  20723533.620    84859424.99247
  21991028.880   115563647.39608  21991027.680    90049595.34344
  23852676.160   125346667.89406  23852675.840    97672728.37243
  22096555.380   116118192.69208  22096553.940    90481708.36045
  22660314.900   119080824.57607  22660312.920    92790269.29844
  21799275.640   114556013.63108  21799276.980    89264459.47946
  24505106.160   128775091.79405  24505110.440   100344193.93243
 15 03 06 00 16 30.0000000  0  7G16G18G19G21G22G27G31
  20716330.900   108865070.22209  20716329.780    84829926.32747
  21984905.640   115531469.45608  21984904.500    90024521.64344
  23837914.460   125269093.92206  23837913.940    97612281.15244
  22107970.020   116178176.49608  22107968.360    90528448.97845
  22644077.640   118995497.40707  22644075.720    92723780.65644
  21788876.540   114501365.87408  21788877.740    89221876.81946
  24523713.240   128872870.60506  24523717.780   100420384.52143
 15 03 06 00 17  0.0000000  0  7G16G18G19G21G22G27G31
  20709212.500   108827662.95409  20709211.440    84800777.81247
  21978866.960   115499735.86808  21978865.900    89999794.18544
  23823168.320   125191601.25906  23823167.620    97551897.27744
  22119422.300   116238358.10608  22119420.500    90575343.73345
  22627881.240   118910384.43508  22627879.240    92657458.90145
  21778503.000   114446852.37908  21778504.200    89179398.78146
  24542309.320   128970591.00305  24542314.180   100496529.53641
 15 03 06 00 17 30.0000000  0  7G16G18G19G21G22G27G31
  20702181.320   108790713.53509  20702180.180    84771986.05547
  21972914.240   115468454.65908  21972913.280    89975419.23244
  23808438.840   125114197.25606  23808438.180    97491582.50643
  22130913.060   116298742.05308  22130911.100    90622396.15745
  22611727.380   118825495.19407  22611725.180    92591311.48144
  21768156.360   114392480.39608  21768157.580    89137031.00046
  24560895.220   129068256.91006  24560899.980   100572632.07843
 15 03 06 00 18  0.0000000  0  7G16G18G19G21G22G27G31
  20695235.800   108754214.67109  20695234.700    84743545.38847
  21967046.220   115437618.53208  21967045.360    89951391.09844
  23793724.640   125036873.10007  23793723.840    97431329.95943
  22142440.200   116359317.27508  22142438.060    90669597.62745
  22595614.900   118740823.50808  22595612.580    92525333.60844
  21757834.980   114338241.25908  21757836.220    89094766.75046
  24579468.700   129165856.63106  24579472.940   100648683.02743
 15 03 06 00 18 30.0000000  0  7G16G18G19G21G22G27G31
  20688377.320   108718173.21809  20688376.180    84715461.13447
  21961264.100   115407233.54608  21961263.280    89927714.50544
  23779026.580   124959633.50707  23779025.660    97371143.32644
  22154004.440   116420087.35608  22154002.200    90716950.92245
  22579545.260   118656376.83007  22579542.940    92459531.06144
  21747539.880   114284140.12208  21747540.920    89052610.01646
  24598030.040   129263392.38606  24598034.060   100724684.17541
 15 03 06 00 19  0.0000000  0  7G16G18G19G21G22G27G31
  20681606.700   108682593.34309  20681605.500    84687736.55147
  21955568.460   115377303.32108  21955567.740    89904392.24944
  23764345.020   124882481.24107  23764344.060    97311024.74343
  22165605.900   116481053.00608  22165603.620    90764456.62045
  22563519.420   118572160.17308  22563516.940    92393907.72444
  21737271.600   114230179.85508  21737272.560    89010563.06946
  24616578.960   129360863.87705  24616583.160   100800635.14743
 15 03 06 00 19 30.0000000  0  7G16G18G19G21G22G27G31
  20674923.760   108647474.00109  20674922.560    84660370.83247
  21949959.140   115347826.47408  21949958.420    89881423.29044
  23749679.620   124805413.75206  23749678.600    97250972.17044
  22177243.700   116542209.57708  22177241.380    90812111.08745
  22547537.280   118488173.28708  22547534.640    92328463.43744
  21727029.700   114176357.99408  21727030.580    88968623.95246
  24635114.480   129458265.76005  24635119.040   100876531.83342
 15 03 06 00 20  0.0000000  0  7G16G18G19G21G22G27G31
  20668329.280   108612819.74609  20668328.140    84633367.52047
  21944436.940   115318807.20408  21944436.240    89858810.88645
  23735030.780   124728433.88006  23735029.960    97190987.89844
  22188917.840   116603558.08608  22188915.620    90859915.11745
  22531599.960   118404421.75308  22531597.200    92263202.54044
  21716814.660   114122677.78308  21716815.700    88926795.22746
  24653636.560   129555597.96605  24653641.780   100952374.26944
 15 03 06 00 20 30.0000000  0  7G16G18G19G21G22G27G31
  20661822.720   108578627.43509  20661821.600    84606724.15947
  21939001.180   115290242.16608  21939000.520    89836552.43945
  23720397.840   124651537.14106  23720396.980    97131068.38144
  22200627.320   116665092.33908  22200625.220    90907863.86945
  22515706.960   118320903.56408  22515704.280    92198123.47645
  21706625.720   114069135.02608  21706626.920    88885073.60446
  24672143.940   129652853.42505  24672150.100   101028156.80041
 15 03 06 00 21  0.0000000  0  7G16G18G19G21G22G27G31
  20655404.260   108544898.33409  20655403.140    84580441.74547
  21933652.020   115262131.87708  21933651.380    89814648.33145
  23705780.580   124574723.02406  23705779.620    97071213.24344
  22212371.760   116726810.14508  22212369.840    90955955.66245
  22499858.720   118237621.05808  22499856.160    92133228.06844
  21696462.840   114015729.42208  21696464.300    88843458.85646
  24690636.320   129750028.66305  24690643.420   101103876.83343
 15 03 06 00 21 30.0000000  0  6G16G18G19G21G22G27
  20649072.940   108511626.53709  20649071.700    84554515.65947
  21928388.160   115234469.97808  21928387.520    89793093.61245
  23691177.520   124497984.14006  23691176.640    97011416.76844
  22224149.320   116788702.02908  22224147.600    91004183.09245
  22484054.400   118154569.07408  22484051.880    92068512.26944
  21686324.700   113962453.57608  21686326.280    88801945.21346
 15 03 06 00 22  0.0000000  0  6G16G18G19G21G22G27
  20642834.100   108478841.06109  20642832.860    84528968.53747
  21923215.100   115207285.22708  21923214.400    89771910.70644
  23676594.140   124421347.97406  23676593.260    96951700.31444
  22235964.900   116850793.69408  22235963.280    91052566.20645
  22468299.700   118071777.68808  22468297.140    92003999.54045
  21676216.600   113909335.44608  21676218.220    88760554.47346
 15 03 06 00 22 30.0000000  0  6G16G18G19G21G22G27
  20636684.680   108446525.42809  20636683.340    84503787.52047
  21918129.640   115180560.76008  21918128.860    89751086.46045
  23662026.820   124344797.00805  23662025.980    96892050.18644
  22247814.640   116913065.30008  22247813.300    91101089.51445
  22452591.660   117989231.62508  22452589.160    91939677.98145
  21666135.160   113856357.28908  21666136.760    88719272.79946
 15 03 06 00 23  0.0000000  0  6G16G18G19G21G22G27
  20630624.400   108414678.35509  20630623.000    84478971.61947
  21913131.300   115154294.31108  21913130.460    89730619.11245
  23647474.980   124268327.47606  23647474.140    96832463.59543
  22259697.820   116975512.16608  22259696.580    91149749.41445
  22436930.220   117906930.22608  22436927.700    91875547.06445
  21656079.900   113803516.52308  21656081.440    88678098.17946
 15 03 06 00 23 30.0000000  0  6G16G18G19G21G22G27
  20624654.120   108383304.63209  20624652.720    84454524.55847
  21908220.940   115128490.41608  21908220.040    89710512.18445
  23632939.500   124191943.19206  23632938.680    96772943.41044
  22271614.660   117038135.84308  22271613.400    91198547.08045
  22421316.300   117824879.20008  22421313.900    91811611.25144
  21646051.460   113750816.69708  21646053.040    88637033.40046
 15 03 06 00 24  0.0000000  0  6G16G18G19G21G22G27
  20618774.440   108352406.80009  20618773.060    84430448.31947
  21903399.100   115103151.33908  21903398.180    89690767.45545
  23618420.580   124115645.83706  23618419.760    96713490.93644
  22283565.020   117100935.73208  22283563.780    91247482.05945
  22405750.840   117743082.51808  22405748.480    91747873.61444
  21636050.120   113698259.20608  21636051.740    88596079.52346
 15 03 06 00 24 30.0000000  0  6G16G18G19G21G22G27
  20612985.200   108321984.30409  20612983.840    84406742.47647
  21898665.620   115078276.21908  21898664.620    89671384.25745
  23603917.840   124039432.78506  23603916.840    96654104.15544
  22295548.100   117163907.66008  22295546.900    91296551.08145
  22390233.860   117661540.46708  22390231.580    91684334.38644
  21626075.500   113645842.42108  21626077.220    88555235.29246
 15 03 06 00 25  0.0000000  0  6G16G18G19G21G22G27
  20607288.240   108292046.65309  20607286.900    84383414.43647
  21894021.940   115053873.18508  21894020.780    89652368.93044
  23589432.360   123963311.76005  23589431.340    96594789.10344
  22307565.020   117227057.46608  22307563.880    91345758.71445
  22374767.220   117580263.07408  22374765.000    91621001.39445
  21616129.120   113593574.13508  21616130.840    88514506.75646
 15 03 06 00 25 30.0000000  0  6G16G18G19G21G22G27
  20601682.140   108262586.52509  20601680.820    84360458.48447
  21889466.680   115029934.87208  21889465.400    89633715.70445
  23574963.040   123887274.48606  23574961.780    96535539.33344
  22319613.840   117290374.53208  22319612.740    91395096.67945
  22359349.740   117499244.27408  22359347.660    91557869.89845
  21606209.460   113541446.09108  21606211.100    88473887.50946
 15 03 06 00 26  0.0000000  0  6G16G18G19G21G22G27
  20596168.200   108233610.67709  20596166.860    84337879.89747
  21885000.980   115006467.83808  21884999.780    89615429.72045
  23560510.500   123811326.27806  23560509.180    96476358.89844
  22331695.380   117353863.20608  22331694.280    91444568.37645
  22343982.940   117418491.54708  22343980.780    91494945.73645
  21596317.740   113489464.18108  21596319.140    88433382.13546
 15 03 06 00 26 30.0000000  0  6G16G18G19G21G22G27
  20590746.340   108205118.62908  20590745.000    84315678.30147
  21880624.620   114983470.42608  21880623.460    89597509.67745
  23546074.660   123735465.11206  23546073.320    96417246.34444
  22343808.760   117417519.04508  22343807.640    91494170.31645
  22328667.040   117338006.31208  22328664.900    91432229.99745
  21586453.420   113437626.44408  21586454.740    88392989.08846
 15 03 06 00 27  0.0000000  0  6G16G18G19G21G22G27
  20585416.820   108177112.12808  20585415.560    84293855.04947
  21876338.000   114960944.43508  21876336.980    89579956.95745
  23531655.480   123659691.47306  23531653.780    96358201.94043
  22355953.680   117481340.58108  22355952.560    91543901.38745
  22313402.480   117257791.07608  22313400.400    91369724.65544
  21576616.720   113385933.80508  21576617.960    88352709.11246
 15 03 06 00 27 30.0000000  0  6G16G18G19G21G22G27
  20580180.580   108149595.49008  20580179.340    84272413.50847
  21872141.860   114938893.91308  21872140.980    89562774.74345
  23517253.400   123584008.21306  23517251.580    96299228.00844
  22368130.420   117545329.51408  22368129.320    91593762.88745
  22298190.460   117177851.44508  22298188.280    91307434.06445
  21566808.220   113334389.53008  21566809.440    88312544.75646
 15 03 06 00 28  0.0000000  0  6G16G18G19G21G22G27
  20575036.880   108122565.24808  20575035.700    84251350.98147
  21868035.300   114917314.22008  21868034.520    89545959.40945
  23502867.700   123508410.50507  23502865.900    96240320.73644
  22380337.660   117609478.93808  22380336.540    91643749.44945
  22283030.400   117098184.59408  22283028.100    91245356.03244
  21557027.040   113282988.86708  21557028.240    88272492.29546
 15 03 06 00 28 30.0000000  0  6G16G18G19G21G22G27
  20569986.500   108096025.25709  20569985.340    84230670.46047
  21864019.100   114896209.10108  21864018.260    89529513.86844
  23488498.940   123432901.56807  23488497.220    96181482.63443
  22392575.720   117673789.94608  22392574.600    91693861.92745
  22267923.100   117018795.43408  22267920.860    91183494.38345
  21547273.720   113231734.86108  21547275.000    88232554.11546
 15 03 06 00 29  0.0000000  0  6G16G18G19G21G22G27
  20565029.860   108069977.73508  20565028.720    84210373.69047
  21860093.540   114875580.01608  21860092.620    89513439.27445
  23474147.140   123357481.85807  23474145.140    96122713.99644
  22404844.200   117738260.91308  22404843.160    91744099.03445
  22252869.260   116939687.33308  22252867.000    91121851.75444
  21537548.440   113180628.54308  21537549.880    88192731.02246
 15 03 06 00 29 30.0000000  0  6G16G18G19G21G22G27
  20560167.200   108044424.11109  20560166.060    84190461.77347
  21856258.600   114855427.37008  21856257.700    89497735.93044
  23459812.340   123282151.28007  23459810.060    96064014.88344
  22417142.800   117802890.26908  22417141.860    91794459.56345
  22237869.420   116860862.45308  22237867.080    91060429.80245
  21527851.280   113129670.29308  21527852.840    88153023.29346
 15 03 06 00 30  0.0000000  0  6G16G18G19G21G22G27
  20555399.240   108019368.26508  20555398.100    84170937.72947
  21852515.120   114835755.30208  21852514.320    89482407.04445
  23445494.820   123206912.24107  23445492.620    96005387.07944
  22429471.680   117867678.61608  22429470.660    91844943.98345
  22222924.520   116782326.62508  22222922.200    90999233.08844
  21518182.920   113078862.96008  21518184.440    88113433.17046
 15 03 06 00 30 30.0000000  0  6G16G18G19G21G22G27
  20550725.080   107994805.60408  20550723.980    84151797.99747
  21848862.040   114816558.33708  21848861.340    89467448.37645
  23431193.880   123131759.66907  23431191.560    95946826.67244
  22441829.500   117932619.04608  22441828.240    91895546.90744
  22208033.880   116704076.09408  22208031.560    90938258.67545
  21508542.360   113028201.31008  21508543.780    88073956.54946
 15 03 06 00 31  0.0000000  0  6G16G18G19G21G22G27
  20546146.300   107970744.06008  20546145.200    84133048.73447
  21845300.700   114797843.50608  21845300.040    89452865.40945
  23416910.520   123056699.73807  23416908.160    95888338.43444
  22454216.940   117997715.23308  22454215.500    91946271.21544
  22193199.120   116626119.10408  22193196.800    90877512.98945
  21498930.820   112977691.79508  21498932.040    88034598.48246
 15 03 06 00 31 30.0000000  0  6G16G18G19G21G22G27
  20541662.740   107947182.56708  20541661.620    84114689.11947
  21841831.060   114779610.27508  21841830.240    89438657.70945
  23402644.380   122981730.69207  23402642.280    95829921.01344
  22466633.440   118062964.48908  22466631.940    91997114.78344
  22178420.360   116548456.61908  22178418.060    90816996.80045
  21489347.960   112927333.23708  21489349.120    87995358.04346
 15 03 06 00 32  0.0000000  0  6G16G18G19G21G22G27
  20537274.960   107924124.59108  20537273.900    84096721.86347
  21838453.420   114761860.68508  21838452.560    89424826.86645
  23388395.620   122906854.24306  23388393.920    95771575.78144
  22479078.960   118128366.10908  22479077.420    92048077.08244
  22163698.540   116471093.05608  22163696.180    90756713.54145
  21479794.140   112877127.58208  21479795.340    87956236.76146
 15 03 06 00 32 30.0000000  0  6G16G18G19G21G22G27
  20532982.600   107901568.01609  20532981.580    84079145.30947
  21835167.260   114744591.96908  21835166.360    89411370.73645
  23374163.880   122832067.15306  23374162.440    95713300.15144
  22491552.560   118193915.15908  22491550.920    92099154.25845
  22149033.400   116394027.18308  22149030.940    90696662.23845
  21470268.820   112827071.73708  21470270.140    87917232.19946
 15 03 06 00 33  0.0000000  0  6G16G18G19G21G22G27
  20528786.020   107879514.68408  20528784.980    84061960.89147
  21831972.920   114727805.68608  21831972.100    89398290.53244
  23359949.480   122757370.37406  23359948.000    95655094.92044
  22504053.960   118259610.37308  22504052.340    92150345.32145
  22134425.420   116317262.09508  22134423.020    90636845.31945
  21460772.160   112777166.98808  21460773.680    87878345.39846
 15 03 06 00 33 30.0000000  0  6G16G18G19G21G22G27
  20524685.540   107857966.31208  20524684.440    84045169.94747
  21828870.620   114711502.73708  21828869.700    89385586.93345
  23345752.400   122682764.35906  23345751.080    95596960.35344
  22516583.140   118325451.22408  22516581.380    92201649.87544
  22119875.220   116240800.41508  22119872.780    90577264.82445
  21451304.380   112727414.00508  21451305.960    87839576.84546
 15 03 06 00 34  0.0000000  0  6G16G18G19G21G22G27
  20520681.420   107836924.26208  20520680.260    84028773.53847
  21825860.560   114695684.63308  21825859.580    89373261.15245
  23331572.720   122608249.77206  23331571.320    95538897.09944
  22529139.720   118391436.09308  22529137.860    92253066.64545
  22105383.420   116164645.47408  22105380.980    90517923.33845
  21441865.740   112677814.11308  21441867.320    87800927.58546
 15 03 06 00 34 30.0000000  0  6G16G18G19G21G22G27
  20516774.080   107816391.07208  20516772.900    84012773.64047
  21822942.880   114680351.94508  21822941.840    89361313.61445
  23317410.600   122533827.30306  23317408.880    95480905.59044
  22541723.520   118457564.08208  22541721.600    92304594.94544
  22090950.560   116088800.40608  22090948.160    90458823.32645
  21432456.500   112628367.93408  21432457.900    87762398.10646
 15 03 06 00 35  0.0000000  0  6G16G18G19G21G22G27
  20512963.520   107796366.50508  20512962.360    83997170.08147
  21820117.480   114665504.64108  21820116.460    89349744.31145
  23303265.880   122459496.07206  23303263.980    95422985.18644
  22554334.020   118523832.34708  22554332.000    92356232.55244
  22076576.880   116013266.19208  22076574.500    90399965.52345
  21423076.500   112579074.99508  21423077.720    87723988.02746
 15 03 06 00 35 30.0000000  0  6G16G18G19G21G22G27
  20509250.540   107776854.76308  20509249.400    83981966.12047
  21817385.220   114651146.75708  21817384.300    89338556.34745
  23289139.080   122385259.07606  23289137.080    95365138.18344
  22566971.320   118590241.61308  22566969.260    92407980.01944
  22062263.360   115938048.25008  22062261.040    90341354.17245
  21413726.300   112529938.72408  21413727.360    87685700.01946
 15 03 06 00 36  0.0000000  0  6G16G18G19G21G22G27
  20505634.940   107757854.75908  20505633.840    83967160.91847
  21814745.700   114637275.89908  21814744.840    89327747.90045
  23275029.780   122311114.33006  23275027.740    95307363.12444
  22579634.860   118656788.57808  22579632.800    92459834.78344
  22048010.060   115863146.73108  22048007.720    90282989.36945
  21404405.460   112480957.19808  21404406.460    87647532.60946
 15 03 06 00 36 30.0000000  0  6G16G18G19G21G22G27
  20502117.240   107739369.41508  20502116.220    83952756.75247
  21812199.400   114623894.87608  21812198.460    89317321.13545
  23260938.360   122237063.74706  23260936.140    95249661.38944
  22592324.600   118723473.26308  22592322.500    92511796.87244
  22033817.760   115788565.94908  22033815.500    90224874.50545
  21395114.480   112432132.84708  21395115.480    87609487.65846
 15 03 06 00 37  0.0000000  0  6G16G18G19G21G22G27
  20498697.380   107721398.23408  20498696.360    83938753.23047
  21809746.040   114611002.34908  21809745.000    89307275.02045
  23246864.600   122163105.74707  23246862.360    95192031.80144
  22605039.780   118790292.54408  22605037.820    92563863.84344
  22019686.640   115714306.60908  22019684.460    90167010.11545
  21385853.220   112383464.47908  21385854.260    87571564.24446
 15 03 06 00 37 30.0000000  0  6G16G18G19G21G22G27
  20495375.760   107703943.13008  20495374.700    83925151.84447
  21807385.880   114598599.41608  21807384.800    89297610.40845
  23232808.720   122089241.41007  23232806.480    95134475.19344
  22617780.260   118857244.95708  22617778.400    92616034.55044
  22005617.200   115640371.46608  22005615.120    90109398.33545
  21376621.820   112334953.07608  21376622.960    87533763.15546
 15 03 06 00 38  0.0000000  0  6G16G18G19G21G22G27
  20492153.420   107687009.49009  20492152.300    83911956.79447
  21805119.860   114586691.44308  21805118.800    89288331.47845
  23218771.260   122015475.21307  23218769.020    95076995.07944
  22630546.540   118924333.07808  22630544.800    92668311.00444
  21991610.860   115566767.47908  21991608.780    90052044.60845
  21367421.200   112286603.76008  21367422.500    87496088.38246
 15 03 06 00 38 30.0000000  0  6G16G18G19G21G22G27
  20489028.960   107670590.24708  20489027.820    83899162.57347
  21802946.440   114575270.30708  21802945.440    89279431.89745
  23204751.100   121941799.00307  23204748.680    95019585.05644
  22643336.940   118991547.74008  22643335.260    92720686.04744
  21977666.520   115493488.76808  21977664.140    89994944.33445
  21358249.900   112238408.60008  21358251.400    87458533.71846
 15 03 06 00 39  0.0000000  0  6G16G18G19G21G22G27
  20486003.020   107654688.85708  20486001.900    83886771.87747
  21800866.220   114564338.85808  21800865.260    89270913.88945
  23190748.720   121868215.33507  23190746.180    94962247.14544
  22656151.600   119058889.05508  22656150.000    92773159.79044
  21963784.860   115420539.86108  21963782.360    89938101.05445
  21349108.500   112190370.41308  21349110.080    87421101.36846
 15 03 06 00 39 30.0000000  0  6G16G18G19G21G22G27
  20483076.980   107639312.16309  20483075.780    83874790.02547
  21798880.420   114553903.50308  21798879.480    89262782.45645
  23176765.120   121794730.33307  23176762.600    94904986.12944
  22668991.240   119126361.60508  22668989.660    92825735.80244
  21949967.460   115347928.96308  21949964.920    89881521.15845
  21339998.220   112142495.57408  21339999.760    87383796.30146
 15 03 06 00 40  0.0000000  0  6G16G18G19G21G22G27
  20480250.920   107624460.74708  20480249.680    83863217.48947
  21796989.040   114543964.17108  21796988.100    89255037.54145
  23162799.900   121721343.27607  23162797.720    94847801.43844
  22681855.360   119193963.18008  22681853.760    92878412.35844
  21936214.760   115275658.05508  21936212.200    89825206.18845
  21330919.000   112094783.98708  21330920.440    87346618.44646
 15 03 06 00 40 30.0000000  0  6G16G18G19G21G22G27
  20477523.960   107610130.03908  20477522.660    83852050.70047
  21795191.080   114534515.60408  21795190.120    89247675.02745
  23148852.540   121648049.17407  23148850.540    94790689.15444
  22694742.660   119261686.44107  22694741.080    92931183.73044
  21922526.060   115203723.90308  21922523.580    89769153.62645
  21321869.940   112047230.94008  21321871.360    87309564.12346
 15 03 06 00 41  0.0000000  0  6G16G18G19G21G22G27
  20474896.880   107596324.44408  20474895.560    83841293.08547
  21793487.140   114525561.18408  21793486.200    89240697.57745
  23134923.560   121574851.45107  23134921.480    94733651.97244
  22707653.500   119329533.43408  22707651.860    92984051.49844
  21908902.420   115132131.93808  21908900.120    89713367.71045
  21312851.740   111999840.03208  21312853.180    87272636.14746
 15 03 06 00 41 30.0000000  0  6G16G18G19G21G22G27
  20472369.520   107583043.14808  20472368.200    83830944.02747
  21791877.060   114517099.97508  21791876.060    89234104.43645
  23121012.620   121501748.60807  23121010.560    94676688.75845
  22720587.240   119397500.32608  22720585.500    93037012.71744
  21895344.080   115060883.10808  21895341.920    89657849.16046
  21303864.160   111952610.11408  21303865.620    87235833.60946
 15 03 06 00 42  0.0000000  0  6G16G18G19G21G22G27
  20469942.740   107570290.43008  20469941.440    83821006.83947
  21790361.560   114509135.81108  21790360.520    89227898.60844
  23107120.420   121428744.14707  23107118.280    94619802.16544
  22733544.240   119465589.46108  22733542.520    93090069.18644
  21881852.040   114989982.86308  21881850.060    89602602.24245
  21294907.940   111905545.08908  21294909.400    87199159.56246
 15 03 06 00 42 30.0000000  0  6G16G18G19G21G22G27
  20467616.320   107558065.29508  20467615.100    83811480.75347
  21788940.280   114501666.96908  21788939.220    89222078.73145
  23093246.580   121355836.51807  23093244.300    94562991.04844
  22746523.680   119533796.87608  22746522.040    93143217.80644
  21868426.460   114919431.26608  21868424.520    89547626.99945
  21285982.840   111858643.40108  21285984.300    87162612.79446
 15 03 06 00 43  0.0000000  0  6G16G18G19G21G22G27
  20465390.760   107546369.81908  20465389.560    83802367.38747
  21787613.420   114494694.50408  21787612.380    89216645.65744
  23079391.360   121283026.57707  23079389.040    94506256.06345
  22759525.500   119602121.68807  22759524.020    93196457.90744
  21855067.960   114849231.57808  21855065.860    89492925.95945
  21277089.220   111811906.65009  21277090.620    87126194.55647
 15 03 06 00 43 30.0000000  0  6G16G18G19G21G22G27
  20463266.640   107535207.23009  20463265.380    83793669.26047
  21786381.580   114488221.26108  21786380.480    89211601.57545
  23065555.140   121210317.02607  23065553.020    94449599.29245
  22772549.860   119670565.11207  22772548.560    93249790.44144
  21841777.240   114779388.67508  21841775.100    89438502.94545
  21268227.480   111765337.66908  21268228.800    87089907.04146
 15 03 06 00 44  0.0000000  0  6G16G18G19G21G22G27
  20461243.380   107524574.60108  20461242.080    83785384.09247
  21785244.000   114482243.62208  21785243.040    89206943.67445
  23051737.420   121137704.73807  23051735.440    94393018.31545
  22785595.720   119739121.66107  22785594.720    93303211.11944
  21828554.160   114709901.30408  21828552.060    89384356.96645
  21259397.040   111718933.55908  21259398.300    87053748.00447
 15 03 06 00 44 30.0000000  0  6G16G18G19G21G22G27
  20459321.300   107514473.74308  20459319.920    83777513.28547
  21784201.020   114476762.89808  21784200.160    89202672.99045
  23037938.320   121065190.43307  23037936.420    94336513.69044
  22798663.040   119807790.83307  22798662.220    93356719.56544
  21815399.300   114640772.23008  21815397.260    89330490.17945
  21250598.220   111672695.59708  21250599.480    87017718.42846
 15 03 06 00 45  0.0000000  0  6G16G18G19G21G22G27
  20457501.020   107504907.82009  20457499.580    83770059.31747
  21783253.060   114471781.51608  21783252.220    89198791.41045
  23024158.220   120992776.56406  23024156.380    94280087.32844
  22811751.880   119876573.29307  22811751.040    93410316.28344
  21802313.500   114572005.80208  21802311.320    89276905.97545
  21241831.520   111626626.46208  21241832.920    86981820.40247
 15 03 06 00 45 30.0000000  0  6G16G18G19G21G22G27
  20455782.460   107495876.62908  20455780.980    83763022.02247
  21782399.920   114467298.45108  21782399.020    89195298.12945
  23010397.080   120920462.21606  23010395.400    94223738.51945
  22824861.700   119945466.35707  22824860.840    93463999.18544
  21789296.980   114503603.43608  21789294.720    89223605.44845
  21233096.840   111580725.77108  21233098.420    86946053.64747
 15 03 06 00 46  0.0000000  0  6G16G18G19G21G22G27
  20454165.400   107487378.94508  20454163.960    83756400.43947
  21781641.300   114463311.96208  21781640.340    89192191.77445
  22996654.640   120848245.72407  22996653.000    94167465.95144
  22837991.860   120014466.34907  22837990.960    93517765.41144
  21776349.800   114435565.27008  21776347.560    89170588.71645
  21224393.960   111534992.04408  21224395.620    86910416.97847
 15 03 06 00 46 30.0000000  0  6G16G18G19G21G22G27
  20452650.620   107479418.74609  20452649.220    83750197.68347
  21780977.820   114459825.29108  21780976.840    89189474.89845
  22982931.480   120776130.68307  22982929.760    94111272.44744
  22851142.580   120083574.62207  22851141.640    93571616.01344
  21763472.960   114367896.66708  21763470.680    89117859.95145
  21215723.680   111489429.11009  21215725.280    86874913.39346
 15 03 06 00 47  0.0000000  0  6G16G18G19G21G22G27
  20451237.780   107471994.17208  20451236.360    83744412.29647
  21780409.020   114456836.23508  21780408.080    89187145.77945
  22969227.280   120704114.64107  22969225.420    94055156.07044
  22864313.300   120152787.55607  22864312.300    93625548.15344
  21750666.340   114300596.92608  21750663.940    89065418.61045
  21207085.560   111444034.87609  21207087.000    86839541.26546
 15 03 06 00 47 30.0000000  0  6G16G18G19G21G22G27
  20449927.220   107465107.33808  20449925.900    83739045.92447
  21779935.140   114454346.01308  21779934.220    89185205.34545
  22955542.340   120632199.22907  22955540.380    93999118.09444
  22877503.940   120222104.77107  22877502.920    93679561.56844
  21737930.560   114233670.10808  21737928.220    89013267.88045
  21198479.840   111398811.31509  21198481.120    86804302.13546
 15 03 06 00 48  0.0000000  0  6G16G18G19G21G22G27
  20448718.980   107458758.43808  20448717.760    83734098.72347
  21779556.140   114452354.37508  21779555.300    89183653.44645
  22941876.460   120560384.06407  22941874.360    93943158.24644
  22890714.100   120291524.10007  22890713.080    93733654.53744
  21725266.040   114167117.37708  21725263.640    88961408.63245
  21189906.500   111353758.40108  21189907.720    86769195.97646
 15 03 06 00 48 30.0000000  0  6G16G18G19G21G22G27
  20447614.180   107452952.59308  20447612.980    83729574.68647
  21779272.840   114450865.55808  21779272.040    89182493.32745
  22928230.420   120488673.46107  22928228.280    93887279.87444
  22903944.180   120361048.20907  22903943.100    93787829.15744
  21712673.920   114100945.12708  21712671.400    88909845.86645
  21181366.600   111308881.12309  21181367.800    86734226.66946
 15 03 06 00 49  0.0000000  0  6G16G18G19G21G22G27
  20446612.200   107447687.15808  20446611.000    83725471.74147
  21779084.520   114449875.86108  21779083.700    89181722.14945
  22914603.740   120417064.66707  22914601.480    93831480.82044
  22917193.340   120430672.53407  22917192.360    93842081.88044
  21700154.040   114035152.50908  21700151.420    88858578.91346
  21172859.580   111264176.71508  21172860.860    86699392.07547
 15 03 06 00 49 30.0000000  0  6G16G18G19G21G22G27
  20445713.200   107442962.93408  20445712.000    83721790.52147
  21778991.440   114449386.44208  21778990.480    89181340.78145
  22900996.580   120345558.30308  22900994.180    93775761.61344
  22930461.280   120500395.79207  22930460.400    93896411.67344
  21687706.820   113969741.90008  21687704.100    88807609.62045
  21164385.680   111219646.17008  21164386.980    86664692.95346
 15 03 06 00 50  0.0000000  0  6G16G18G19G21G22G27
  20444917.220   107438780.06008  20444916.020    83718531.13147
  21778993.320   114449396.40808  21778992.260    89181348.55545
  22887408.820   120274153.91708  22887406.240    93720121.85144
  22943747.600   120570215.64107  22943746.620    93950816.73444
  21675332.640   113904714.78008  21675329.780    88756939.15146
  21155944.860   111175289.40909  21155946.220    86630129.24547
 15 03 06 00 50 30.0000000  0  6G16G18G19G21G22G27
  20444224.880   107435141.82808  20444223.640    83715696.14747
  21779090.680   114449908.30108  21779089.560    89181747.45345
  22873841.020   120202854.34908  22873838.460    93664563.75544
  22957052.580   120640133.19707  22957051.340    94005297.95744
  21663032.200   113840075.73108  21663029.360    88706571.08245
  21147537.700   111131109.60308  21147539.080    86595703.42346
 15 03 06 00 51  0.0000000  0  6G16G18G19G21G22G27
  20443636.420   107432049.30208  20443635.120    83713286.37247
  21779283.700   114450922.63608  21779282.600    89182537.84645
  22860293.260   120131660.16408  22860290.500    93609087.78344
  22970375.920   120710147.66707  22970374.560    94059854.69244
  21650806.060   113775827.15008  21650803.220    88656507.27345
  21139164.420   111087107.94309  21139165.840    86561416.42347
 15 03 06 00 51 30.0000000  0  6G16G18G19G21G22G27
  20443151.780   107429502.49108  20443150.460    83711301.84047
  21779572.200   114452438.62708  21779571.060    89183719.15045
  22846765.440   120060571.35507  22846762.640    93553693.94744
  22983717.260   120780256.80307  22983715.780    94114485.15144
  21638654.540   113711970.86008  21638651.800    88606749.15145
  21130825.140   111043284.39409  21130826.420    86527268.21047
 15 03 06 00 52  0.0000000  0  6G16G18G19G21G22G27
  20442770.700   107427500.14408  20442769.460    83709741.56247
  21779955.760   114454454.12708  21779954.600    89185289.67645
  22833257.340   119989586.17907  22833254.540    93498380.85344
  22997076.160   120850457.24807  22997074.380    94169186.78844
  21626577.600   113648506.84208  21626574.980    88557296.69245
  21122519.520   110999637.80408  21122520.680    86493257.88347
 15 03 06 00 52 30.0000000  0  7G04G16G18G19G21G22G27
  24584097.900   129190308.22505  24584101.380   100667772.20643
  20442493.840   107426045.40908  20442492.700    83708607.99747
  21780434.920   114456972.35308  21780433.780    89187251.93645
  22819769.580   119918707.65807  22819766.920    93443150.87244
  23010452.700   120920750.08707  23010450.760    94223960.41844
  21614576.260   113585439.63208  21614573.660    88508153.42845
  21114248.100   110956171.39309  21114249.280    86459387.96547
 15 03 06 00 53  0.0000000  0  7G04G16G18G19G21G22G27
  24564967.100   129089776.93905  24564970.980   100589436.54542
  20442321.160   107425138.03708  20442320.020    83707900.94747
  21781009.440   114459991.62908  21781008.280    89189604.62245
  22806301.940   119847935.35007  22806299.500    93388003.62944
  23023846.280   120991133.02307  23023844.320    94278804.24144
  21602650.700   113522770.66508  21602648.140    88459320.49145
  21106010.960   110912884.89309  21106012.140    86425658.22347
 15 03 06 00 53 30.0000000  0  7G04G16G18G19G21G22G27
  24545862.600   128989383.37806  24545866.880   100511208.20442
  20442252.120   107424775.29508  20442250.960    83707618.28247
  21781678.720   114463508.69008  21781677.480    89192345.21045
  22792853.920   119777265.98007  22792851.640    93332936.61444
  23037255.960   121061601.53307  23037254.080    94333714.75544
  21590800.760   113460498.87808  21590798.140    88410797.03545
  21097807.560   110869775.78509  21097808.740    86392066.72047
 15 03 06 00 54  0.0000000  0  7G04G16G18G19G21G22G27
  24526785.760   128889134.65606  24526790.360   100433092.82841
  20442287.880   107424963.28108  20442286.720    83707764.75947
  21782443.820   114467529.64308  21782442.620    89195478.42244
  22779426.740   119706706.05107  22779424.460    93277954.87645
  23050682.720   121132160.10007  23050680.960    94388695.45544
  21579027.860   113398632.03908  21579025.160    88362589.12546
  21089639.180   110826850.71608  21089640.240    86358618.61346
 15 03 06 00 54 30.0000000  0  7G04G16G18G19G21G22G27
  24507736.160   128789029.00206  24507741.060   100355088.96541
  20442428.140   107425700.33708  20442426.980    83708339.08647
  21783304.260   114472051.42508  21783303.080    89199001.88345
  22766019.940   119636253.25907  22766017.620    93223056.62144
  23064125.740   121202804.30907  23064124.120    94443742.87244
  21567331.900   113337169.54908  21567329.160    88314696.28845
  21081505.360   110784107.71608  21081506.420    86325312.38947
 15 03 06 00 55  0.0000000  0  7G04G16G18G19G21G22G27
  24488714.120   128689068.91806  24488719.400   100277198.52542
  20442673.360   107426988.88708  20442672.220    83709343.14347
  21784260.360   114477076.05408  21784259.340    89202917.19645
  22752633.900   119565909.60407  22752631.440    93168243.42644
  23077585.220   121273534.78207  23077583.660    94498857.53144
  21555713.560   113276115.19908  21555710.860    88267121.48845
  21073406.680   110741549.28908  21073407.860    86292149.98047
 15 03 06 00 55 30.0000000  0  7G04G16G18G19G21G22G27
  24469719.500   128589252.57606  24469724.940   100199419.93842
  20443022.920   107428825.91408  20443021.820    83710774.58247
  21785311.580   114482600.40708  21785310.700    89207221.89545
  22739268.100   119495672.37107  22739265.700    93113513.13544
  23091060.340   121344347.33407  23091058.980    94554036.14044
  21544172.740   113215468.06908  21544170.080    88219863.99945
  21065342.780   110699173.14009  21065344.040    86259129.60847
 15 03 06 00 56  0.0000000  0  7G04G16G18G19G21G22G27
  24450752.920   128489584.54605  24450758.660   100121757.14243
  20443477.640   107431215.61508  20443476.520    83712636.68447
  21786458.560   114488627.75408  21786457.720    89211918.53745
  22725923.360   119425545.75107  22725921.120    93058869.07445
  23104551.440   121415243.63207  23104550.240    94609279.97244
  21532710.400   113155233.65708  21532707.860    88172928.10446
  21057314.380   110656983.54509  21057315.720    86226254.60347
 15 03 06 00 56 30.0000000  0  7G04G16G18G19G21G22G27
  24431814.120   128390062.96505  24431819.700   100044208.35643
  20444037.040   107434155.26608  20444035.940    83714927.31747
  21787700.600   114495154.60808  21787699.720    89217004.40245
  22712599.400   119355527.39107  22712597.160    93004309.33744
  23118057.740   121486219.86007  23118056.540    94664586.12243
  21521326.440   113095410.98208  21521324.060    88126313.05345
  21049321.140   110614978.48509  21049322.520    86193523.40347
 15 03 06 00 57  0.0000000  0  7G04G16G18G19G21G22G27
  24412903.700   128290692.03405  24412909.540    99966777.02644
  20444701.920   107437648.99508  20444700.800    83717649.69147
  21789038.340   114502184.17208  21789037.420    89222481.98845
  22699296.700   119285620.57107  22699294.440    92949836.50844
  23131579.440   121557277.60607  23131578.320    94719955.77844
  21510021.880   113036005.23408  21510019.540    88080022.86846
  21041363.700   110573161.68809  21041365.040    86160938.89947
 15 03 06 00 57 30.0000000  0  7G04G16G18G19G21G22G27
  24394021.660   128191469.25805  24394027.560    99889461.19644
  20445471.600   107441693.55108  20445470.400    83720801.28847
  21790471.040   114509712.55908  21790470.020    89228348.27445
  22686014.540   119215822.17307  22686012.260    92895448.16545
  23145115.760   121628411.93607  23145114.600    94775385.11644
  21498796.340   112977014.86508  21498794.040    88034056.38546
  21033441.580   110531530.39309  21033442.900    86128498.93447
 15 03 06 00 58  0.0000000  0  7G04G16G18G19G21G22G27
  24375168.840   128092400.62205  24375174.700    99812265.51843
  20446347.200   107446294.52608  20446345.940    83724386.45547
  21791999.660   114517745.15708  21791998.560    89234607.45145
  22672754.040   119146138.26707  22672751.820    92841149.06645
  23158667.320   121699626.85307  23158666.080    94830877.25044
  21487651.440   112918447.41908  21487648.940    87988419.42246
  21025555.940   110490090.82509  21025557.220    86096208.37047
 15 03 06 00 58 30.0000000  0  7G04G16G18G19G21G22G27
  24356344.240   127993479.10706  24356349.800    99735184.31543
  20447327.180   107451444.30308  20447325.960    83728399.26047
  21793622.580   114526273.56208  21793621.500    89241252.97645
  22659513.800   119076560.64807  22659511.600    92786932.77345
  23172232.480   121770913.17207  23172231.160    94886425.05844
  21476585.880   112860296.75408  21476583.220    87943107.22646
  21017705.360   110448835.61009  21017706.640    86064061.45747
 15 03 06 00 59  0.0000000  0  7G04G16G18G19G21G22G27
  24337548.760   127894709.69805  24337553.640    99658221.55942
  20448412.360   107457147.13908  20448411.240    83732843.01847
  21795340.460   114535301.42108  21795339.500    89248287.68245
  22646294.520   119007094.05307  22646292.480    92732802.97744
  23185811.860   121842273.50807  23185810.440    94942030.49444
  21465600.580   112802568.48208  21465597.920    87898124.17746
  21009890.740   110407769.53909  21009892.020    86032061.92947
 15 03 06 00 59 30.0000000  0  7G04G16G18G19G21G22G27
  24318782.540   127796093.39506  24318786.920    99581378.09041
  20449602.860   107463403.29308  20449601.740    83737717.93347
  21797153.260   114544828.22008  21797152.340    89255711.17145
  22633096.660   118937739.20408  22633094.580    92678760.25445
  23199405.120   121913706.47707  23199403.700    94997692.54443
  21454696.220   112745264.92108  21454693.420    87853472.05645
  21002112.220   110366893.54009  21002113.540    86000210.52847
 15 03 06 01 00  0.0000000  0  7G04G16G18G19G21G22G27
  24300045.900   127697632.07405  24300049.760    99504655.33144
  20450898.980   107470214.32608  20450897.880    83743025.21947
  21799061.180   114554855.16608  21799060.280    89263524.37045
  22619920.280   118868496.87308  22619918.220    92624805.21545
  23213012.180   121985211.77607  23213010.740    95053410.92844
  21443873.100   112688388.88208  21443870.320    87809153.08945
  20994370.200   110326209.22309  20994371.540    85968508.46147
 15 03 06 01 00 30.0000000  0  7G04G16G18G19G21G22G27
  24281339.240   127599330.21605  24281343.260    99428056.87442
  20452301.360   107477583.86408  20452300.220    83748767.71847
  21801064.820   114565384.89908  21801063.940    89271729.36345
  22606766.300   118799371.59008  22606764.060    92570941.35444
  23226633.520   122056791.67607  23226632.040    95109187.46344
  21433132.280   112631945.65408  21433129.580    87765171.37046
  20986665.580   110285720.92009  20986666.840    85936959.13947
 15 03 06 01 01  0.0000000  0  7G04G16G18G19G21G22G27
  24262662.040   127501183.25605  24262666.420    99351578.98943
  20453809.040   107485506.67408  20453807.860    83754941.32647
  21803163.140   114576411.54508  21803162.280    89280321.56745
  22593633.580   118730357.91608  22593631.300    92517164.49245
  23240267.700   122128439.18907  23240266.180    95165016.67443
  21422473.140   112575931.11708  21422470.380    87721523.68946
  20978997.280   110245423.83109  20978998.540    85905558.82547
 15 03 06 01 01 30.0000000  0  7G04G16G18G19G21G22G27
  24244015.380   127403195.41606  24244019.620    99275225.22942
  20455422.680   107493986.10708  20455421.400    83761548.67047
  21805356.540   114587937.94308  21805355.680    89289303.17145
  22580522.800   118661459.43208  22580520.320    92463477.38044
  23253914.920   122200156.16107  23253913.420    95220900.03343
  21411896.480   112520350.90908  21411893.700    87678214.47045
  20971366.160   110205321.97709  20971367.360    85874310.64047
 15 03 06 01 02  0.0000000  0  7G04G16G18G19G21G22G27
  24225398.980   127305366.30706  24225403.120    99198995.06643
  20457142.040   107503021.05808  20457140.720    83768588.88347
  21807644.760   114599962.55708  21807643.980    89298673.01745
  22567433.720   118592675.63708  22567430.980    92409879.62244
  23267574.900   122271940.07507  23267573.440    95276835.55244
  21401402.600   112465205.49708  21401399.840    87635244.03646
  20963772.100   110165415.01509  20963773.320    85843214.31147
 15 03 06 01 02 30.0000000  0  7G04G16G18G19G21G22G27
  24206813.040   127207697.86006  24206817.380    99122890.18641
  20458967.300   107512612.98708  20458966.040    83776063.10047
  21810027.880   114612486.11608  21810027.140    89308431.64045
  22554366.540   118524007.78708  22554363.720    92356372.23044
  23281247.740   122343790.83507  23281246.400    95332823.15344
  21390992.040   112410497.78408  21390989.300    87592614.66046
  20956215.400   110125704.61709  20956216.760    85812271.16247
 15 03 06 01 03  0.0000000  0  7G04G16G18G19G21G22G27
  24188257.680   127110190.16406  24188262.340    99046910.48543
  20460898.360   107522761.01508  20460897.180    83783970.65047
  21812505.700   114625507.20008  21812505.000    89318577.95845
  22541321.300   118455455.41308  22541318.560    92302954.80044
  23294932.980   122415706.29707  23294931.720    95388861.17144
  21380664.920   112356228.86808  21380662.280    87550327.22146
  20948696.180   110086190.90109  20948697.600    85781481.26347
 15 03 06 01 03 30.0000000  0  7G04G16G18G19G21G22G27
  24169733.340   127012846.39706  24169738.220    98971058.46943
  20462935.700   107533467.51908  20462934.600    83792313.37647
  21815078.480   114639027.41308  21815077.760    89329113.18745
  22528298.740   118387021.45108  22528296.000    92249629.63745
  23308630.580   122487687.13207  23308629.340    95444950.12644
  21370422.080   112302402.25908  21370419.400    87508384.42346
  20941214.920   110046876.71709  20941216.320    85750846.83947
 15 03 06 01 04  0.0000000  0  7G04G16G18G19G21G22G27
  24151239.980   126915665.06006  24151244.920    98895333.02041
  20465078.940   107544730.16908  20465077.880    83801089.46347
  21817745.880   114653044.16108  21817745.060    89340035.34145
  22515298.360   118318704.06107  22515295.700    92196395.32244
  23322339.900   122559729.68507  23322338.680    95501087.16444
  21360263.440   112249017.86708  21360260.700    87466786.19846
  20933771.400   110007760.66409  20933772.680    85720366.80247
 15 03 06 01 04 30.0000000  0  7G04G16G18G19G21G22G27
  24132778.180   126818648.77606  24132782.700    98819736.22342
  20467328.400   107556551.00608  20467327.320    83810300.49347
  21820507.920   114667558.36708  21820507.000    89351345.12445
  22502320.340   118250505.22207  22502317.940    92143253.40844
  23336061.060   122631834.63907  23336059.900    95557272.82145
  21350189.380   112196078.74808  21350186.760    87425534.97746
  20926366.000   109968845.14209  20926367.200    85690043.03147
 15 03 06 01 05  0.0000000  0  7G04G16G18G19G21G22G27
  24114347.760   126721797.27706  24114351.940    98744267.73744
  20469683.900   107568928.85108  20469682.760    83819945.55647
  21823364.120   114682568.03908  21823363.240    89363040.97045
  22489364.780   118182424.13007  22489362.600    92090203.23644
  23349793.580   122703999.58707  23349792.520    95613505.23244
  21340200.320   112143585.81508  21340197.800    87384631.39946
  20918998.680   109930129.88009  20918999.840    85659875.29447
 15 03 06 01 05 30.0000000  0  7G04G16G18G19G21G22G27
  24095949.140   126625112.30206  24095952.380    98668929.03943
  20472145.460   107581864.40708  20472144.320    83830025.20447
  21826314.800   114698074.35508  21826313.960    89375123.83345
  22476431.960   118114462.38607  22476429.960    92037246.05945
  23363537.400   122776224.13307  23363536.440    95669784.10543
  21330296.660   112091541.71708  21330294.180    87344077.56746
  20911669.900   109891616.69409  20911671.020    85629865.02647
 15 03 06 01 06  0.0000000  0  7G04G16G18G19G21G22G27
  24077582.140   126528592.95506  24077584.780    98593719.41041
  20474712.840   107595356.04808  20474711.740    83840538.16547
  21829359.460   114714074.48808  21829358.640    89387591.46245
  22463521.760   118046618.61707  22463519.740    91984380.78445
  23377291.900   122848504.99907  23377291.060    95726106.85443
  21320478.320   112039946.22908  21320475.860    87303873.31746
  20904379.360   109853304.49009  20904380.520    85600011.37147
 15 03 06 01 06 30.0000000  0  7G04G16G18G19G21G22G27
  24059247.180   126432242.57406  24059249.700    98518641.44142
  20477386.620   107609406.60508  20477385.520    83851486.64147
  21832498.440   114730569.96008  21832497.460    89400445.08545
  22450634.680   117978895.83408  22450632.580    91931609.81145
  23391057.400   122920843.68606  23391056.780    95782474.65444
  21310746.280   111988803.63008  21310743.740    87264021.95546
  20897127.700   109815196.71809  20897128.860    85570317.00747
 15 03 06 01 07  0.0000000  0  7G04G16G18G19G21G22G27
  24040944.500   126336063.08105  24040947.080    98443696.69243
  20480166.860   107624016.80408  20480165.760    83862871.20847
  21835731.820   114747561.50808  21835730.780    89413685.25845
  22437770.840   117911295.48107  22437768.620    91878934.21844
  23404833.820   122993239.82706  23404833.340    95838887.22544
  21301100.780   111938116.20608  21301098.140    87224525.27646
  20889915.160   109777295.09809  20889916.360    85540783.28947
 15 03 06 01 07 30.0000000  0  7G04G16G18G19G21G22G27
  24022674.020   126240053.18605  24022676.960    98368884.00642
  20483053.140   107639184.42408  20483052.020    83874690.12247
  21839059.120   114765046.53008  21839058.140    89427309.96345
  22424929.900   117843815.87307  22424927.580    91826352.72544
  23418620.640   123065690.15207  23418620.040    95895342.01344
  21291541.820   111887883.74308  21291539.180    87185383.12146
  20882741.640   109739598.43709  20882742.880    85511409.27447
 15 03 06 01 08  0.0000000  0  7G04G16G18G19G21G22G27
  24004436.280   126144215.09106  24004439.720    98294205.23842
  20486045.620   107654910.20108  20486044.540    83886943.96647
  21842480.360   114783025.38308  21842479.460    89441319.45945
  22412112.240   117776458.79107  22412109.800    91773866.71444
  23432417.900   123138194.56707  23432416.980    95951838.93444
  21282070.040   111838109.18208  21282067.380    87146597.75946
  20875607.540   109702108.64409  20875608.880    85482196.46247
 15 03 06 01 08 30.0000000  0  7G04G16G18G19G21G22G27
  23986231.440   126048549.28606  23986235.300    98219660.64741
  20489144.340   107671193.90608  20489143.240    83899632.55747
  21845995.480   114801497.33208  21845994.560    89455713.20645
  22399318.060   117709224.69508  22399315.520    91721476.52045
  23446225.140   123210751.89106  23446223.980    96008377.09943
  21272685.600   111788794.07608  21272682.960    87108170.42546
  20868513.040   109664826.57609  20868514.420    85453145.49447
 15 03 06 01 09  0.0000000  0  7G04G16G18G19G21G22G27
  23968059.300   125953054.19806  23968063.220    98145249.10543
  20492348.940   107688034.09308  20492347.820    83912754.76647
  21849603.820   114820459.11808  21849602.800    89470488.63245
  22386546.920   117642111.44708  22386544.340    91669180.48845
  23460041.680   123283358.29806  23460040.420    96064953.51543
  21263388.380   111739937.36308  21263385.780    87070100.28346
  20861457.720   109627750.66109  20861459.100    85424255.18847
 15 03 06 01 09 30.0000000  0  7G04G16G18G19G21G22G27
  23949920.480   125857733.63506  23949924.020    98070973.52443
  20495659.760   107705432.83508  20495658.640    83926312.22747
  21853305.820   114839913.19108  21853304.740    89485647.65044
  22373799.460   117575122.67008  22373796.920    91616981.46345
  23473867.820   123356015.41706  23473866.720    96121569.45643
  21254179.380   111691543.49108  21254176.640    87032390.77946
  20854442.320   109590884.64309  20854443.680    85395528.43047
 15 03 06 01 10  0.0000000  0  7G04G16G18G19G21G22G27
  23931815.440   125762590.85306  23931818.900    97996836.52041
  20499077.420   107723392.73808  20499076.280    83940306.94147
  21857101.800   114859860.91708  21857100.700    89501191.33645
  22361076.180   117508261.24308  22361073.680    91564881.66945
  23487703.840   123428724.61306  23487702.920    96178225.99143
  21245059.200   111643616.72508  21245056.460    86995045.26346
  20847467.540   109554231.83509  20847468.820    85366967.80347
 15 03 06 01 10 30.0000000  0  7G04G16G18G19G21G22G27
  23913743.720   125667623.85906  23913746.880    97922836.49142
  20502601.260   107741910.36908  20502600.140    83954736.25647
  21860991.040   114880298.78508  21860989.860    89517116.96245
  22348376.720   117441524.96208  22348374.140    91512879.39245
  23501549.040   123501481.88806  23501548.280    96234919.93244
  21236027.680   111596155.83508  21236024.880    86958062.75846
  20840532.940   109517790.19309  20840534.160    85338571.72047
 15 03 06 01 11  0.0000000  0  7G04G16G18G19G21G22G27
  23895705.520   125572832.99106  23895708.160    97848973.65443
  20506231.040   107760984.77108  20506229.920    83969599.41847
  21864973.260   114901225.52708  21864972.100    89533423.52445
  22335701.020   117374913.71408  22335698.440    91460974.54645
  23515403.240   123574285.72007  23515402.340    96291650.19743
  21227084.960   111549161.66608  21227082.200    86921443.94346
  20833638.660   109481560.16009  20833639.820    85310340.53147
 15 03 06 01 11 30.0000000  0  7G04G16G18G19G21G22G27
  23877701.040   125478219.28506  23877703.340    97775248.82243
  20509966.820   107780616.39908  20509965.680    83984896.78447
  21869048.500   114922641.23308  21869047.440    89550111.08445
  22323049.280   117308428.50008  22323046.720    91409167.89745
  23529266.200   123647135.08107  23529265.060    96348415.91843
  21218231.340   111502636.24608  21218228.800    86885190.39046
  20826784.880   109445543.01609  20826786.060    85282275.23547
 15 03 06 01 12  0.0000000  0  7G04G16G18G19G21G22G27
  23859730.580   125383784.89706  23859732.800    97701663.81443
  20513808.820   107800806.36908  20513807.640    84000629.21547
  21873216.800   114944545.71408  21873215.740    89567179.51845
  22310421.920   117242071.05208  22310419.360    91357460.79845
  23543137.880   123720030.11607  23543136.520    96405217.21644
  21209467.480   111456582.01908  21209465.040    86849304.00246
  20819971.960   109409740.73309  20819973.140    85254377.35647
 15 03 06 01 12 30.0000000  0  7G04G16G18G19G21G22G27
  23841794.360   125289529.97406  23841796.400    97628218.55541
  20517756.840   107821553.40108  20517755.640    84016795.72447
  21877477.840   114966937.48608  21877476.720    89584627.65444
  22297818.820   117175841.25908  22297816.280    91305853.18645
  23557017.740   123792968.64506  23557016.000    96462052.40644
  21200793.500   111410999.81508  21200791.000    86813785.40746
  20813199.940   109374153.52509  20813201.120    85226647.07047
 15 03 06 01 13  0.0000000  0  7G04G16G18G19G21G22G27
  23823893.000   125195459.02206  23823895.220    97554916.70242
  20521811.580   107842861.18008  20521810.400    84033399.17647
  21881832.220   114989819.89908  21881831.040    89602458.12345
  22285240.660   117109743.35508  22285238.260    91254348.33845
  23570906.320   123865953.84806  23570904.060    96518923.96144
  21192210.280   111365894.99508  21192207.740    86778638.81646
  20806469.740   109338786.26709  20806470.960    85199088.17047
 15 03 06 01 13 30.0000000  0  7G04G16G18G19G21G22G27
  23806026.000   125101568.95606  23806028.420    97481755.77241
  20525972.280   107864725.67708  20525971.120    84050436.43847
  21886278.960   115013187.90708  21886277.760    89620666.95445
  22272686.900   117043774.08308  22272684.700    91202943.72145
  23584802.740   123938980.22007  23584800.200    96575827.64443
  21183717.560   111321265.35808  21183714.920    86743862.48246
  20799780.800   109303635.79409  20799782.140    85171698.19747
 15 03 06 01 14  0.0000000  0  7G04G16G18G19G21G22G27
  23788193.800   125007861.93106  23788196.440    97408737.38242
  20530239.140   107887147.96508  20530237.940    84067908.33847
  21890818.220   115037042.11308  21890817.000    89639254.65545
  22260158.100   116977935.45708  22260155.920    91151640.89745
  23598707.140   124012048.29106  23598704.580    96632763.79044
  21175315.760   111277113.46908  21175313.120    86709458.44446
  20793133.600   109268704.54109  20793134.980    85144479.04347
 15 03 06 01 14 30.0000000  0  7G04G16G18G19G21G22G27
  23770396.240   124914336.81705  23770398.780    97335860.88143
  20534611.640   107910125.50208  20534610.380    84085812.90147
  21895449.480   115061379.40908  21895448.260    89658218.79845
  22247653.980   116912226.25208  22247651.860    91100438.94045
  23612618.900   124085155.09606  23612616.560    96689730.10144
  21167004.780   111233438.85708  21167002.100    86675426.29446
  20786527.880   109233991.35009  20786529.240    85117429.81447
 15 03 06 01 15  0.0000000  0  7G04G16G18G19G21G22G27
  23752633.820   124820996.40106  23752636.220    97263128.22643
  20539090.040   107933659.78708  20539088.820    84104151.30147
  21900172.900   115086201.15108  21900171.720    89677560.41245
  22235175.040   116846648.98508  22235172.860    91049339.78345
  23626538.160   124158301.20906  23626536.080    96746727.05044
  21158785.360   111190244.98008  21158782.560    86641768.73046
  20779964.220   109199499.12909  20779965.580    85090552.75647
 15 03 06 01 15 30.0000000  0  7G04G16G18G19G21G22G27
  23734906.360   124727838.96306  23734908.840    97190538.17143
  20543673.760   107957747.54308  20543672.620    84122920.96647
  21904987.940   115111504.00308  21904986.760    89697276.93145
  22222720.840   116781201.53608  22222718.720    90998341.77845
  23640464.340   124231483.24307  23640462.300    96803751.97943
  21150657.140   111147530.65908  21150654.320    86608484.86046
  20773442.340   109165226.36609  20773443.640    85063846.70347
 15 03 06 01 16  0.0000000  0  7G04G16G18G19G21G22G27
  23717214.680   124634869.27206  23717217.220    97118094.36441
  20548363.680   107982393.12908  20548362.520    84142125.30647
  21909895.020   115137290.70308  21909893.760    89717370.46445
  22210292.200   116715888.55708  22210290.020    90947448.56545
  23654397.880   124304703.87807  23654395.860    96860807.06243
  21142621.100   111105301.17808  21142618.380    86575578.78746
  20766963.160   109131177.90609  20766964.360    85037315.43747
 15 03 06 01 16 30.0000000  0  7G04G16G18G19G21G22G27
  23699558.540   124542085.16206  23699561.120    97045795.21342
  20553159.120   108007593.17808  20553157.900    84161761.69447
  21914893.440   115163557.35208  21914892.060    89737837.99345
  22197888.780   116650707.65108  22197886.440    90896658.27545
  23668337.960   124377959.34006  23668336.020    96917889.22643
  21134677.000   111063554.97108  21134674.380    86543049.29246
  20760526.240   109097351.75009  20760527.460    85010957.39647
 15 03 06 01 17  0.0000000  0  7G04G16G18G19G21G22G27
  23681938.320   124449488.94406  23681940.740    96973642.42043
  20558060.280   108033348.75108  20558058.940    84181830.96147
  21919983.340   115190304.91708  21919981.960    89758680.25245
  22185510.920   116585661.35608  22185508.440    90845972.87545
  23682284.660   124451250.21906  23682282.920    96974998.95243
  21126825.420   111022295.18908  21126822.900    86510898.82746
  20754132.160   109063750.66109  20754133.420    84984774.72947
 15 03 06 01 17 30.0000000  0  7G04G16G18G19G21G22G27
  23664354.360   124357084.33406  23664356.520    96901638.95743
  20563067.540   108059661.81208  20563066.180    84202334.63547
  21925165.000   115217534.95308  21925163.560    89779898.47244
  22173159.240   116520753.20707  22173156.820    90795395.10145
  23696238.360   124524577.95406  23696236.800    97032137.43943
  21119067.180   110981525.53108  21119064.700    86479130.27646
  20747781.540   109030378.05409  20747782.720    84958770.10447
 15 03 06 01 18  0.0000000  0  7G04G16G18G19G21G22G27
  23646806.260   124264868.78806  23646808.400    96829782.81743
  20568180.200   108086529.01908  20568178.880    84223270.11347
  21930437.680   115245243.38908  21930436.300    89801489.46144
  22160833.120   116455980.37007  22160830.940    90744922.78745
  23710198.380   124597938.24607  23710196.880    97089301.26644
  21111402.020   110941244.63508  21111399.520    86447742.57646
  20741474.040   108997232.06509  20741475.200    84932942.07147
 15 03 06 01 18 30.0000000  0  7G04G16G18G19G21G22G27
  23629294.180   124172842.23406  23629295.940    96758073.88941
  20573397.880   108113948.32508  20573396.640    84244635.79147
  21935801.000   115273428.05708  21935799.620    89823451.54045
  22148532.780   116391342.46408  22148530.680    90694555.60645
  23724164.180   124671329.37506  23724162.660    97146489.19841
  21103829.840   110901452.38808  21103827.360    86416735.64646
  20735209.580   108964312.42609  20735210.880    84907290.41147
 15 03 06 01 19  0.0000000  0  7G04G16G18G19G21G22G27
  23611818.820   124081008.84406  23611820.540    96686515.53142
  20578721.320   108141923.48808  20578720.200    84266434.60747
  21941255.520   115302092.04708  21941254.160    89845787.12945
  22136259.100   116326844.11708  22136256.920    90644297.17445
  23738136.160   124744753.85606  23738134.820    97203703.03844
  21096351.600   110862154.17108  21096349.160    86386113.68146
  20728989.120   108931623.86209  20728990.500    84881818.80247
 15 03 06 01 19 30.0000000  0  7G04G16G18G19G21G22G27
  23594379.920   123989366.84306  23594381.300    96615106.29042
  20584149.940   108170451.04208  20584148.860    84288663.86247
  21946800.440   115331231.00108  21946799.120    89868492.81144
  22124011.720   116262482.92508  22124009.240    90594145.58845
  23752113.840   124818207.89306  23752112.620    97260939.94042
  21088967.020   110823348.19808  21088964.520    86355875.26546
  20722812.300   108899164.45909  20722813.760    84856525.77147
 15 03 06 01 20  0.0000000  0  7G04G16G18G19G21G22G27
  23576977.700   123897917.99606  23576979.200    96543847.53643
  20589683.720   108199531.35208  20589682.680    84311323.83647
  21952435.920   115360845.49608  21952434.560    89891569.04745
  22111790.900   116198261.02908  22111788.020    90544102.54245
  23766097.260   124891691.29206  23766096.120    97318199.70143
  21081676.580   110785036.93508  21081674.020    86326022.34346
  20716679.580   108866936.60309  20716681.020    84831413.15647
 15 03 06 01 20 30.0000000  0  7G04G16G18G19G21G22G27
  23559612.060   123806661.93506  23559613.400    96472739.06243
  20595322.400   108229162.81808  20595321.380    84334413.28147
  21958161.340   115390933.11708  21958160.040    89915013.94745
  22099596.400   116134177.82608  22099593.340    90494167.57845
  23780086.100   124965202.50706  23780085.160    97375481.15843
  21074480.360   110747220.46008  21074477.620    86296554.96846
  20710590.880   108834940.09809  20710592.260    84806480.81047
 15 03 06 01 21  0.0000000  0  7G04G16G18G19G21G22G27
  23542283.860   123715602.24906  23542285.100    96401783.54142
  20601066.400   108259347.48108  20601065.320    84357933.78647
  21963977.160   115421495.56008  21963975.900    89938828.85045
  22087428.880   116070236.61708  22087425.840    90444343.26645
  23794080.360   125038742.74206  23794079.740    97432785.20342
  21067378.940   110709902.25108  21067376.120    86267475.86946
  20704546.860   108803178.49009  20704548.220    84781731.51447
 15 03 06 01 21 30.0000000  0  7G04G16G18G19G21G22G27
  23524993.000   123624738.36706  23524994.180    96330980.60743
  20606915.260   108290083.39808  20606914.160    84381883.83547
  21969882.920   115452530.29708  21969881.740    89963011.76745
  22075288.280   116006436.80008  22075285.280    90394629.11745
  23808079.720   125112310.41705  23808079.020    97490110.61744
  21060372.480   110673082.83208  21060369.540    86238785.41446
  20698547.540   108771651.61409  20698548.880    84757165.11547
 15 03 06 01 22  0.0000000  0  7G04G16G18G19G21G22G27
  23507739.300   123534069.46407  23507740.520    96260329.58244
  20612868.620   108321368.68408  20612867.520    84406261.96647
  21975878.080   115484035.08608  21975876.960    89987560.96445
  22063174.460   115942777.96308  22063171.520    90345024.83245
  23822083.800   125185902.72206  23822082.880    97547455.29743
  21053460.860   110636762.15208  21053457.880    86210483.60746
  20692592.820   108740359.11309  20692594.120    84732781.34847
 15 03 06 01 22 30.0000000  0  7G04G16G18G19G21G22G27
  23490522.860   123443595.94906  23490523.960    96189830.85843
  20618926.340   108353202.09708  20618925.200    84431067.21647
  21981962.260   115516008.09008  21981961.240    90012474.98545
  22051087.440   115879260.40708  22051084.600    90295530.64745
  23836092.420   125259518.27206  23836091.020    97604818.06341
  21046644.240   110600940.72508  21046641.220    86182570.81846
  20686682.780   108709301.55109  20686684.040    84708580.64847
 15 03 06 01 23  0.0000000  0  7G04G16G18G19G21G22G27
  23473344.160   123353321.08406  23473345.280    96119486.85943
  20625088.740   108385585.54608  20625087.580    84456301.05647
  21988135.800   115548450.44108  21988134.800    90037754.73945
  22039027.840   115815887.04908  22039025.080    90246148.80346
  23850105.860   125333158.71606  23850104.140    97662200.21143
  21039923.260   110565621.77308  21039920.220    86155049.57046
  20680818.020   108678482.39209  20680819.340    84684565.72147
 15 03 06 01 23 30.0000000  0  7G04G16G18G19G21G22G27
  23456203.300   123263245.62506  23456204.540    96049298.34042
  20631355.580   108418518.12308  20631354.420    84481962.79047
  21994398.560   115581361.76908  21994397.540    90063399.93345
  22026995.800   115752658.90708  22026993.200    90196880.13946
  23864123.800   125406822.68906  23864122.120    97719600.69344
  21033298.200   110530806.77708  21033295.160    86127921.02246
  20674998.800   108647902.65509  20675000.200    84660737.36747
 15 03 06 01 24  0.0000000  0  7G04G16G18G19G21G22G27
  23439100.720   123173371.70106  23439101.760    95979266.78743
  20637727.120   108452000.77608  20637725.920    84508053.15947
  22000750.660   115614742.00908  22000749.480    90089410.51044
  22014991.820   115689578.00508  22014989.360    90147726.20446
  23878146.360   125480511.06406  23878144.880    97777020.13044
  21026769.460   110496497.99308  21026766.400    86101186.90646
  20669225.660   108617565.00609  20669227.100    84637097.63747
 15 03 06 01 24 30.0000000  0  7G04G16G18G19G21G22G27
  23422035.860   123083696.33106  23422037.020    95909389.96443
  20644202.500   108486028.93308  20644201.360    84534568.60047
  22007191.020   115648586.16908  22007189.740    90115782.58744
  22003015.380   115626641.48208  22003013.020    90098684.76646
  23892172.720   125554219.22406  23892171.200    97834455.03143
  21020336.600   110462693.15708  21020333.560    86074845.49446
  20663498.100   108587466.61709  20663499.500    84613644.34947
 15 03 06 01 25  0.0000000  0  7G04G16G18G19G21G22G27
  23405009.840   122994226.23606  23405011.600    95839673.07843
  20650782.760   108520608.06508  20650781.640    84561513.36647
  22013720.540   115682898.94908  22013719.220    90142519.83344
  21991067.760   115563856.13908  21991065.440    90049761.12445
  23906203.740   125627951.97806  23906202.120    97891909.18043
  21014000.980   110429399.26708  21013997.940    86048902.20946
  20657817.440   108557614.49009  20657818.820    84590382.94647
 15 03 06 01 25 30.0000000  0  7G04G16G18G19G21G22G27
  23388021.540   122904953.53906  23388023.740    95770110.00744
  20657466.020   108555728.45508  20657464.880    84588879.88947
  22020337.360   115717670.63908  22020336.140    90169614.65845
  21979147.320   115501213.99408  21979145.080    90000949.08146
  23920237.740   125701700.32106  23920236.080    97949375.43243
  21007761.160   110396608.73908  21007758.180    86023351.16746
  20652182.240   108528001.09609  20652183.580    84567307.57947
 15 03 06 01 26  0.0000000  0  7G04G16G18G19G21G22G27
  23371072.260   122815885.34406  23371074.660    95700706.28443
  20664253.320   108591395.81808  20664252.140    84616672.62547
  22027042.460   115752906.34008  22027041.340    90197071.04044
  21967255.540   115438722.49608  21967253.340    89952254.41846
  23934275.600   125775469.42106  23934273.820    98006857.83743
  21001618.540   110364329.08808  21001615.640    85998198.20446
  20646593.920   108498634.06109  20646595.220    84544424.16647
 15 03 06 01 26 30.0000000  0  7G04G16G18G19G21G22G27
  23354162.020   122727022.01807  23354164.460    95631462.21944
  20671144.400   108627608.92408  20671143.220    84644890.62047
  22033835.680   115788604.78108  22033834.540    90224888.00545
  21955392.420   115376381.99208  21955390.380    89903677.42046
  23948317.000   125849258.19305  23948315.260    98064355.54141
  20995573.240   110332560.87908  20995570.420    85973443.76646
  20641052.580   108469514.02309  20641053.900    84521733.23448
 15 03 06 01 27  0.0000000  0  7G04G16G18G19G21G22G27
  23337290.520   122638361.23806  23337292.940    95562375.99143
  20678138.560   108664363.95308  20678137.520    84673530.88847
  22040716.120   115824761.42508  22040714.960    90253062.02645
  21943557.580   115314190.14308  21943555.760    89855216.25346
  23962361.300   125923062.69106  23962359.840    98121865.45144
  20989624.860   110301302.16008  20989622.120    85949086.33346
  20635557.880   108440639.02909  20635559.200    84499233.24347
 15 03 06 01 27 30.0000000  0  7G04G16G18G19G21G22G27
  23320457.800   122549904.55006  23320460.040    95493448.75542
  20685235.820   108701660.63208  20685234.960    84702593.22347
  22047683.620   115861375.82408  22047682.420    90281592.71444
  21931751.400   115252148.49208  21931749.660    89806872.12946
  23976408.700   125996882.58106  23976407.460    98179387.46043
  20983773.720   110270554.59308  20983771.000    85925127.20646
  20630110.120   108412010.79209  20630111.440    84476925.52747
 15 03 06 01 28  0.0000000  0  7G04G16G18G19G21G22G27
  23303664.380   122461655.52606  23303666.540    95424683.35543
  20692436.560   108739500.94708  20692435.780    84732079.17647
  22054738.500   115898449.45308  22054737.300    90310481.26044
  21919974.580   115190260.99108  21919972.700    89758648.10746
  23990459.600   126070720.31206  23990458.520    98236923.30743
  20978020.620   110240321.96408  20978017.880    85901569.32446
  20624710.120   108383633.39809  20624711.360    84454813.26847
 15 03 06 01 28 30.0000000  0  7G04G16G18G19G21G22G27
  23286910.040   122373611.03307  23286911.960    95356077.33643
  20699740.040   108777880.89108  20699739.220    84761985.60347
  22061879.840   115935977.62608  22061878.720    90339723.98745
  21908226.620   115128524.77108  21908224.520    89710541.98146
  24004512.940   126144571.27206  24004511.880    98294469.54943
  20972365.060   110210601.74008  20972362.280    85878410.71046
  20619357.340   108355504.22609  20619358.480    84432894.43147
 15 03 06 01 29  0.0000000  0  7G04G16G18G19G21G22G27
  23270194.980   122285772.95707  23270196.720    95287632.14643
  20707146.120   108816799.91008  20707145.200    84792312.09947
  22069107.660   115973959.94608  22069106.500    90369320.60944
  21896507.800   115066941.44608  21896505.400    89662554.96845
  24018568.840   126218435.52305  24018567.540    98352026.14943
  20966807.340   110181395.54608  20966804.540    85855652.65146
  20614052.060   108327625.33809  20614053.280    84411170.62647
 15 03 06 01 29 30.0000000  0  7G04G16G18G19G21G22G27
  23253519.460   122198141.98007  23253520.940    95219348.32344
  20714654.640   108856257.30208  20714653.660    84823058.10247
  22076421.720   116012395.42508  22076420.620    90399270.34145
  21884818.280   115005512.24908  21884815.720    89614688.08446
  24032627.300   126292312.52206  24032625.860    98409592.57043
  20961347.660   110152704.93108  20961344.880    85833296.33546
  20608794.700   108299998.08409  20608795.960    84389642.89648
 15 03 06 01 30  0.0000000  0  7G04G16G18G19G21G22G27
  23236883.780   122110721.08106  23236885.140    95151228.21741
  20722265.880   108896254.45609  20722264.940    84854224.71047
  22083822.120   116051284.87608  22083821.160    90429573.80645
  21873158.620   114944239.96808  21873155.980    89566943.46646
  24046688.520   126366203.46006  24046686.960    98467169.87743
  20955986.560   110124532.54408  20955983.840    85811343.84246
  20603585.980   108272625.69509  20603587.120    84368313.75847
 15 03 06 01 30 30.0000000  0  7G04G16G18G19G21G22G27
  23220288.280   122023512.00906  23220289.740    95083273.15843
  20729979.900   108936791.47909  20729978.880    84885811.98747
  22091308.800   116090627.94208  22091308.000    90460230.74245
  21861529.200   114883126.51708  21861526.580    89519322.60945
  24060752.400   126440108.59706  24060750.960    98524758.27743
  20950724.500   110096880.58908  20950721.840    85789796.87746
  20598426.240   108245510.32409  20598427.260    84347184.88748
 15 03 06 01 31  0.0000000  0  7G04G16G18G19G21G22G27
  23203732.300   121936509.80207  23203733.680    95015479.28244
  20737795.280   108977861.33908  20737794.220    84917814.45947
  22098880.460   116130417.33108  22098879.660    90491235.46145
  21849929.040   114822167.33608  21849926.460    89471821.95746
  24074817.520   126514021.26506  24074816.380    98582352.56043
  20945560.660   110069744.23008  20945558.000    85768651.66447
  20593314.340   108218647.25509  20593315.440    84326252.62848
 15 03 06 01 31 30.0000000  0  7G04G16G18G19G21G22G27
  23187216.980   121849720.80007  23187218.260    94947851.58244
  20745712.920   109019468.99508  20745711.900    84950235.99047
  22106538.020   116170657.69708  22106537.140    90522591.58645
  21838359.480   114761369.12408  21838356.920    89424446.73545
  24088884.960   126587946.71606  24088884.060    98639956.77844
  20940496.140   110043129.88008  20940493.440    85747913.22146
  20588251.780   108192043.59109  20588252.960    84305522.50448
 15 03 06 01 32  0.0000000  0  7G04G16G18G19G21G22G27
  23170741.780   121763142.53307  23170742.980    94880388.04043
  20753732.220   109061610.68708  20753731.240    84983073.65847
  22114280.540   116211344.65608  22114279.580    90554295.71345
  21826820.140   114700729.53608  21826817.540    89377195.11645
  24102954.040   126661881.15705  24102953.020    98697568.01741
  20935530.520   110017035.32008  20935527.740    85727579.80946
  20583238.200   108165697.23909  20583239.440    84284992.87548
 15 03 06 01 32 30.0000000  0  7G04G16G18G19G21G22G27
  23154307.180   121676777.35707  23154308.200    94813090.55343
  20761853.180   109104286.58308  20761852.260    85016327.59147
  22122108.020   116252478.31008  22122107.020    90586347.91245
  21815311.480   114640250.95908  21815308.760    89330068.95045
  24117024.880   126735825.35505  24117024.140    98755186.93641
  20930664.200   109991462.88308  20930661.400    85707653.24546
  20578274.180   108139610.93109  20578275.400    84264665.88148
 15 03 06 01 33  0.0000000  0  7G04G16G18G19G21G22G27
  23137912.940   121590624.41607  23137913.840    94745958.44144
  20770075.300   109147493.84008  20770074.380    85049995.56447
  22130019.980   116294055.81908  22130018.900    90618745.98644
  21803833.280   114579932.56908  21803830.560    89283067.60146
  24131097.160   126809776.89706  24131096.820    98812811.47141
  20925897.120   109966412.12108  20925894.380    85688133.18546
  20573359.540   108113784.27609  20573360.760    84244541.21348
 15 03 06 01 33 30.0000000  0  7G04G16G18G19G21G22G27
  23121558.880   121504683.09107  23121559.580    94678991.25444
  20778398.060   109191230.27808  20778397.160    85084075.89847
  22138015.780   116336074.17708  22138014.760    90651487.54944
  21792385.600   114519774.39708  21792382.880    89236191.11146
  24145170.740   126883733.74406  24145170.320    98870440.14042
  20921229.180   109941882.38808  20921226.520    85669019.11146
  20568494.240   108088217.14409  20568495.520    84224618.77448
 15 03 06 01 34  0.0000000  0  7G04G16G18G19G21G22G27
  23105245.720   121418957.61507  23105246.400    94612192.20143
  20786821.960   109235498.09309  20786821.040    85118570.28447
  22146096.000   116378535.84108  22146095.020    90684574.56845
  21780969.160   114459780.72808  21780966.460    89189442.78645
  24159246.000   126957698.70206  24159245.280    98928075.15243
  20916661.100   109917877.02908  20916658.480    85650313.64447
  20563679.240   108062914.11109  20563680.500    84204902.12048
 15 03 06 01 34 30.0000000  0  7G04G16G18G19G21G22G27
  23088973.420   121333447.47907  23088974.320    94545560.99343
  20795346.680   109280295.49908  20795345.700    85153477.34247
  22154260.060   116421438.10308  22154259.100    90718004.89844
  21769584.020   114399951.33008  21769581.340    89142822.48846
  24173322.440   127031670.02906  24173321.720    98985715.12844
  20912193.040   109894397.01508  20912190.380    85632017.54246
  20558914.500   108037875.25709  20558915.720    84185391.32847
 15 03 06 01 35  0.0000000  0  7G04G16G18G19G21G22G27
  23072742.340   121248154.42507  23072743.580    94479098.94543
  20803972.160   109325622.36608  20803971.140    85188796.96047
  22162508.000   116464780.84708  22162506.920    90751778.47545
  21758230.560   114340288.30808  21758227.920    89096331.83046
  24187400.060   127105647.97505  24187399.240    99043360.27343
  20907825.240   109871443.95808  20907822.500    85614132.05047
  20554200.480   108013102.84909  20554201.640    84166088.14748
 15 03 06 01 35 30.0000000  0  7G04G16G18G19G21G22G27
  23056552.620   121163078.04907  23056554.060    94412805.70444
  20812697.920   109371476.59208  20812696.920    85224527.51747
  22170839.300   116508561.58008  22170838.100    90785893.32645
  21746908.740   114280791.69808  21746906.160    89049970.84146
  24201478.460   127179630.97005  24201477.560    99101009.34242
  20903557.640   109849017.21708  20903554.820    85596656.68147
  20549537.200   107988597.05009  20549538.440    84146992.71348
 15 03 06 01 36  0.0000000  0  7G04G16G18G19G21G22G27
  23040403.920   121078216.43107  23040405.220    94346679.83143
  20821523.120   109417853.68008  20821522.180    85260665.48447
  22179253.100   116552776.22108  22179251.820    90820346.29345
  21735618.200   114221459.63808  21735615.640    89003738.07146
  24215557.140   127253615.63205  24215555.800    99158659.70142
  20899389.800   109827114.72608  20899386.880    85579589.80946
  20544924.240   107964356.25509  20544925.620    84128103.79248
 15 03 06 01 36 30.0000000  0  8G04G11G16G18G19G21G22G27
  23024297.020   120993573.75607  23024298.200    94280724.55744
  24677992.280   129683732.72306  24677993.020   101052262.07143
  20830448.440   109464756.75008  20830447.540    85297213.31447
  22187749.800   116597426.70708  22187748.440    90855138.89445
  21724359.840   114162296.93608  21724357.320    88957637.26646
  24229636.720   127327604.64006  24229634.880    99216313.46541
  20895322.540   109805740.87308  20895319.560    85562934.86547
  20540362.720   107940385.38409  20540364.080    84109425.17948
 15 03 06 01 37  0.0000000  0  8G04G11G16G18G19G21G22G27
  23008228.020   120909130.25507  23008229.300    94214924.49444
  24660471.480   129591658.97006  24660471.220   100980516.37841
  20839469.620   109512163.58108  20839468.760    85334153.68647
  22196325.120   116642490.87008  22196323.800    90890253.81645
  21713129.920   114103283.81508  21713127.520    88911653.01846
  24243713.360   127401576.88406  24243711.240    99273954.17143
  20891352.040   109784875.67008  20891349.080    85546676.26946
  20535848.820   107916664.94709  20535850.220    84090941.72648
 15 03 06 01 37 30.0000000  0  8G04G11G16G18G19G21G22G27
  22992203.380   120824919.91707  22992204.660    94149306.08243
  24642967.760   129499675.57806  24642966.740   100908841.06942
  20848592.860   109560106.65508  20848592.060    85371511.91446
  22204985.420   116688001.01908  22204984.100    90925716.27044
  21701935.100   114044454.88608  21701932.800    88865812.31346
  24257793.100   127475564.92406  24257791.220    99331607.20243
  20887484.720   109764553.19508  20887481.840    85530840.58647
  20531389.200   107893229.52809  20531390.660    84072680.35648
 15 03 06 01 38  0.0000000  0  8G04G11G16G18G19G21G22G27
  22976221.340   120740933.21507  22976222.640    94083861.94344
  24625479.300   129407773.31606  24625478.540   100837229.00942
  20857815.960   109608574.45608  20857815.240    85409279.02247
  22213728.400   116733945.60808  22213727.180    90961517.24444
  21690773.560   113985800.77808  21690771.300    88820107.81746
  24271873.820   127549558.80906  24271872.480    99389264.69244
  20883718.860   109744764.00808  20883716.040    85515420.45147
  20526982.180   107870070.34809  20526983.620    84054634.24248
 15 03 06 01 38 30.0000000  0  8G04G11G16G18G19G21G22G27
  22960281.200   120657167.04807  22960282.480    94018589.67144
  24608005.540   129315948.35606  24608004.620   100765677.18243
  20867137.980   109657561.80509  20867137.220    85447450.96647
  22222553.060   116780319.16808  22222551.820    90997652.48744
  21679644.820   113927318.93408  21679642.560    88774537.55346
  24285954.520   127623553.59905  24285953.500    99446922.99344
  20880053.900   109725504.56608  20880051.080    85500413.10447
  20522627.260   107847184.72109  20522628.580    84036801.28448
 15 03 06 01 39  0.0000000  0  8G04G11G16G18G19G21G22G27
  22944382.920   120573621.41407  22944384.260    93953489.21043
  24590546.420   129224200.42906  24590545.240   100694185.39541
  20876558.580   109707066.92708  20876557.700    85486026.36947
  22231458.980   116827119.48408  22231457.620    91034120.26444
  21668548.880   113869009.24708  21668546.580    88729101.43946
  24300034.980   127697547.78605  24300034.220    99504580.74144
  20876489.740   109706774.85208  20876486.900    85485818.53447
  20518324.440   107824573.00209  20518325.660    84019181.75648
 15 03 06 01 39 30.0000000  0  8G04G11G16G18G19G21G22G27
  22928527.100   120490298.72807  22928528.500    93888562.48143
  24573102.280   129132531.93906  24573101.360   100622755.42842
  20886077.780   109757090.46608  20886076.820    85525005.73447
  22240446.000   116874346.85008  22240444.580    91070920.81944
  21657486.280   113810874.78908  21657483.920    88683801.86446
  24314115.420   127771542.36105  24314114.800    99562238.81744
  20873026.900   109688577.52408  20873024.020    85471638.81447
  20514074.320   107802238.27909  20514075.500    84001778.07848
 15 03 06 01 40  0.0000000  0  8G04G11G16G18G19G21G22G27
  22912713.480   120407198.30907  22912715.040    93823808.96244
  24555673.080   129040942.27306  24555672.440   100551386.94343
  20895694.980   109807629.30408  20895694.060    85564386.64247
  22249513.780   116921998.43708  22249512.360    91108051.92645
  21646456.980   113752915.76508  21646454.660    88638639.00146
  24328195.660   127845535.84305  24328195.160    99619896.12343
  20869665.220   109670911.91508  20869662.340    85457873.41347
  20509876.860   107780180.58309  20509878.060    83984590.26148
 15 03 06 01 40 30.0000000  0  8G04G11G16G18G19G21G22G27
  22896941.920   120324319.21607  22896943.660    93759227.88443
  24538258.680   128949430.66006  24538258.460   100480079.23143
  20905409.800   109858681.08008  20905408.940    85604167.22946
  22258661.660   116970071.36708  22258660.280    91145511.34044
  21635460.900   113695131.74508  21635458.680    88593612.50346
  24342275.500   127919526.64305  24342274.920    99677551.25041
  20866404.500   109653776.88908  20866401.680    85444521.45746
  20505732.060   107758399.49609  20505733.240    83967617.98147
 15 03 06 01 41  0.0000000  0  8G04G11G16G18G19G21G22G27
  22881212.740   120241662.14007  22881214.340    93694819.82443
  24520859.200   128857997.06806  24520859.640   100408832.29943
  20915221.940   109910244.21608  20915221.040    85644346.28146
  22267889.400   117018563.62908  22267887.960    91183297.52044
  21624498.160   113637522.86408  21624496.060    88548722.47746
  24356354.680   127993513.17306  24356354.060    99735203.10044
  20863244.860   109637172.69608  20863242.040    85431583.13347
  20501640.080   107736896.15409  20501641.180    83950862.12648
 15 03 06 01 41 30.0000000  0  8G04G11G16G18G19G21G22G27
  22865526.440   120159230.69207  22865527.920    93630587.58244
  24503475.200   128766645.21305  24503475.900   100337649.19341
  20925131.700   109962320.26708  20925130.700    85684925.00646
  22277197.320   117067476.98908  22277195.720    91221411.82844
  21613569.640   113580093.41608  21613567.620    88503972.26846
  24370433.580   128067498.13705  24370432.880    99792853.68643
  20860186.940   109621102.92608  20860184.080    85419061.24646
  20497601.760   107715674.68909  20497602.840    83934325.92048
 15 03 06 01 42  0.0000000  0  8G04G11G16G18G19G21G22G27
  22849882.640   120077022.22607  22849884.120    93566529.07644
  24486106.360   128675372.13406  24486107.340   100266527.39143
  20935138.200   110014904.58208  20935137.140    85725899.76947
  22286584.380   117116806.31208  22286582.700    91259850.27044
  21602675.140   113522841.87008  21602673.080    88459360.67846
  24384511.500   128141478.28705  24384510.500    99850500.60443
  20857230.180   109605564.82708  20857227.280    85406953.64946
  20493616.640   107694733.04409  20493617.860    83918007.76148
 15 03 06 01 42 30.0000000  0  8G04G11G16G18G19G21G22G27
  22834281.980   119995040.14907  22834283.420    93502646.99144
  24468753.160   128584181.04606  24468754.240   100195469.44843
  20945241.680   110067998.58108  20945240.660    85767271.71146
  22296050.940   117166553.37308  22296049.260    91298614.21244
  21591815.220   113465771.51808  21591812.980    88414890.26546
  24398588.860   128215455.04005  24398587.560    99908144.73341
  20854375.160   109590561.72408  20854372.300    85395262.92847
  20489685.660   107674075.56509  20489686.900    83901911.01648
 15 03 06 01 43  0.0000000  0  8G04G11G16G18G19G21G22G27
  22818723.840   119913281.29007  22818725.180    93438938.82544
  24451414.880   128493068.78906  24451416.340   100124472.98442
  20955441.160   110121597.01508  20955440.240    85809036.70546
  22305595.880   117216712.50508  22305594.260    91337699.25244
  21580989.200   113408879.41608  21580986.780    88370558.76346
  24412664.920   128289424.71105  24412663.920    99965783.38743
  20851621.260   109576089.80808  20851618.340    85383986.11847
  20485808.160   107653699.22309  20485809.500    83886033.35548
 15 03 06 01 43 30.0000000  0  8G04G11G16G18G19G21G22G27
  22803208.820   119831749.42507  22803210.160    93375407.56744
  24434092.420   128402039.33806  24434094.200   100053540.97843
  20965737.000   110175702.03008  20965736.140    85851196.44746
  22315219.580   117267285.39808  22315217.940    91377106.69345
  21570197.840   113352170.36808  21570195.380    88326369.89546
  24426740.020   128363389.43505  24426739.300   100023418.22441
  20848969.100   109562152.75508  20848966.100    85373126.08947
  20481985.120   107633608.76509  20481986.460    83870378.44548
 15 03 06 01 44  0.0000000  0  8G04G11G16G18G19G21G22G27
  22787736.940   119750444.56807  22787738.320    93312053.16144
  24416785.620   128311092.25505  24416787.560    99982673.17844
  20976128.720   110230311.07408  20976127.840    85893748.93446
  22324921.500   117318269.52108  22324919.780    91416834.59144
  21559441.340   113295644.88908  21559438.900    88282324.07746
  24440813.940   128437347.70405  24440813.600   100081048.04243
  20846418.680   109548750.40708  20846415.680    85362682.71247
  20478216.540   107613804.59709  20478217.880    83854946.62748
 15 03 06 01 44 30.0000000  0  8G04G11G16G18G19G21G22G27
  22772308.580   119669368.56707  22772310.260    93248877.08343
  24399494.800   128220229.80206  24399496.900    99911871.36041
  20986616.340   110285424.14708  20986615.460    85936694.17146
  22334701.600   117369664.68008  22334699.880    91456882.76445
  21548720.280   113239305.72208  21548717.860    88238423.42646
  24454886.860   128511301.00105  24454886.340   100138673.98541
  20843970.340   109535884.53608  20843967.380    85352657.37147
  20474502.920   107594289.30009  20474504.240    83839739.90248
 15 03 06 01 45  0.0000000  0  9G04G11G16G18G19G21G22G27G32
  22756923.440   119588519.49407  22756925.220    93185877.83644
  24382219.780   128129449.40305  24382221.880    99841133.43642
  20997198.980   110341036.52108  20997198.120    85980028.46846
  22344559.160   117421467.05408  22344557.600    91497248.24844
  21538034.300   113183150.40308  21538031.860    88194666.03846
  24468958.100   128585246.31305  24468957.540   100196293.65243
  20841623.720   109523553.13208  20841620.820    85343048.49246
  20470844.000   107575061.57709  20470845.380    83824757.25748
  24487134.120   128680752.60205  24487142.280   100270746.22642
 15 03 06 01 45 30.0000000  0  9G04G11G16G18G19G21G22G27G32
  22741580.240   119507890.61507  22741582.040    93123050.16344
  24364959.300   128038744.45905  24364960.880    99770454.32443
  21007875.260   110397140.63808  21007874.400    86023745.95046
  22354492.460   117473667.46508  22354491.060    91537923.89044
  21527382.240   113127173.16008  21527379.720    88151047.40646
  24483026.000   128659175.27104  24483025.260   100253900.65743
  20839377.480   109511748.96408  20839374.520    85333850.44747
  20467238.620   107556115.24809  20467240.000    83809993.87848
  24464461.340   128561604.74105  24464468.540   100177903.83141
 15 03 06 01 46  0.0000000  0  9G04G11G16G18G19G21G22G27G32
  22726281.900   119427496.84607  22726283.520    93060405.70743
  24347716.020   127948129.82505  24347717.260    99699845.56843
  21018647.460   110453748.82408  21018646.620    86067856.21046
  22364504.000   117526278.56308  22364502.680    91578919.55644
  21516767.060   113071389.74008  21516764.460    88107579.80546
  24497093.620   128733102.29805  24497092.460   100311506.12644
  20837234.380   109500486.56209  20837231.280    85325074.56147
  20463689.800   107537466.00009  20463691.120    83795461.99448
  24441794.140   128442486.90206  24441801.020   100085085.02941
 15 03 06 01 46 30.0000000  0  9G04G11G16G18G19G21G22G27G32
  22711027.200   119347332.68307  22711028.700    92997940.17444
  24330488.780   127857599.57105  24330489.940    99629302.59343
  21029514.020   110510852.97108  21029513.240    86112352.93846
  22374592.180   117579292.34308  22374591.000    91620228.98744
  21506187.660   113015794.68108  21506185.060    88064258.98446
  24511159.580   128807020.21004  24511158.200   100369104.45443
  20835193.200   109489759.90408  20835190.000    85316716.13547
  20460196.520   107519108.66809  20460197.800    83781157.58048
  24419131.600   128323395.23605  24419138.220    99992286.63142
 15 03 06 01 47  0.0000000  0  9G04G11G16G18G19G21G22G27G32
  22695816.500   119267399.84207  22695817.900    92935654.87644
  24313277.760   127767155.72505  24313279.180    99558826.92243
  21040474.940   110568453.11808  21040474.180    86157236.15946
  22384756.860   117632708.45208  22384755.920    91661851.92744
  21495644.520   112960390.42708  21495641.980    88021086.84246
  24525224.100   128880929.65605  24525222.580   100426696.24343
  20833254.180   109479570.26208  20833250.960    85308776.16447
  20456759.320   107501045.94209  20456760.540    83767082.71848
  24396474.680   128204333.94705  24396480.660    99899511.84843
 15 03 06 01 47 30.0000000  0  9G04G11G16G18G19G21G22G27G32
  22680649.060   119187694.73507  22680650.440    92873547.04643
  24296082.580   127676794.62905  24296083.880    99488415.71541
  21051529.120   110626543.04209  21051528.320    86202501.01746
  22394997.040   117686521.45008  22394996.120    91703784.13144
  21485137.180   112905174.17108  21485134.660    87978061.19746
  24539286.440   128954826.60905  24539284.940   100484278.26943
  20831416.740   109469914.57008  20831413.540    85301252.25547
  20453377.600   107483274.80209  20453378.800    83753235.07648
  24373823.220   128085301.86305  24373829.340    99806759.91741
 15 03 06 01 48  0.0000000  0  9G04G11G16G18G19G21G22G27G32
  22665525.760   119108221.28107  22665526.920    92811619.70343
  24278904.140   127586519.85405  24278905.420    99418071.80041
  21062677.020   110685124.95309  21062676.100    86248149.23446
  22405313.060   117740732.70308  22405312.060    91746026.67244
  21474666.480   112850150.29508  21474663.900    87935185.44346
  24553346.960   129028713.86905  24553345.620   100541852.75543
  20829681.500   109460795.99908  20829678.340    85294146.87847
  20450052.200   107465799.78109  20450053.400    83739618.17548
  24351178.300   127966304.37505  24351184.760    99714034.96243
 15 03 06 01 48 30.0000000  0  9G04G11G16G18G19G21G22G27G32
  22650446.240   119028977.63407  22650447.320    92749871.45944
  24261741.980   127496329.98905  24261742.800    99347794.00842
  21073917.800   110744194.86008  21073916.800    86294177.72546
  22415704.100   117795338.24908  22415703.000    91788576.44544
  21464232.180   112795317.70508  21464229.520    87892458.75746
  24567405.060   129102587.95605  24567404.060   100599416.95142
  20828048.080   109452212.42608  20828044.920    85287458.39146
  20446782.920   107448619.83509  20446784.120    83726231.20248
  24328540.340   127847342.63506  24328547.600    99621338.01243
 15 03 06 01 49  0.0000000  0  9G04G11G16G18G19G21G22G27G32
  22635411.180   118949967.65607  22635412.180    92688305.27844
  24244596.380   127406228.52505  24244597.060    99277585.18842
  21085251.540   110803753.91308  21085250.600    86340587.36046
  22426170.480   117850339.42108  22426169.300    91831434.49544
  21453835.080   112740680.58108  21453832.460    87849884.38546
  24581461.240   129176452.39305  24581460.520   100656973.62043
  20826516.940   109444166.47308  20826513.860    85281188.82347
  20443570.640   107431739.20009  20443571.940    83713077.46048
  24305910.340   127728422.59306  24305917.400    99528673.60741
 15 03 06 01 49 30.0000000  0  9G04G11G16G18G19G21G22G27G32
  22620420.860   118871192.75107  22620421.800    92626922.28743
  24227467.780   127316216.69705  24227468.660    99207429.17042
  21096678.260   110863801.70808  21096677.360    86387377.84046
  22436712.020   117905735.43308  22436710.760    91874600.20444
  21443475.600   112686240.98008  21443473.020    87807463.92146
  24595515.360   129250307.11605  24595514.860   100714522.72744
  20825088.500   109436660.09908  20825085.460    85275339.71247
  20440415.740   107415160.10409  20440417.100    83700158.68048
  24283288.700   127609547.27405  24283295.480    99436044.11341
 15 03 06 01 50  0.0000000  0  9G04G11G16G18G19G21G22G27G32
  22605474.540   118792648.98607  22605475.440    92565719.36344
  24210355.460   127226290.75105  24210356.340    99137357.08341
  21108196.700   110924331.84808  21108195.840    86434544.16246
  22447327.500   117961520.07008  22447326.160    91918068.75444
  21433153.100   112631995.82408  21433150.520    87765194.96646
  24609566.860   129324142.18605  24609564.920   100772053.42643
  20823761.840   109429688.57408  20823758.860    85269907.36447
  20437317.540   107398879.32709  20437319.000    83687472.36248
  24260675.180   127490715.26505  24260682.100    99343448.31643
 15 03 06 01 50 30.0000000  0  9G04G11G16G18G19G21G22G27G32
  22590572.660   118714339.45907  22590573.580    92504699.00844
  24193259.940   127136453.61005  24193260.380    99067354.17543
  21119807.280   110985346.02608  21119806.440    86482087.66346
  22458017.140   118017694.26008  22458015.720    91961840.84844
  21422868.240   112577948.73008  21422865.680    87723080.35846
  24623615.820   129397969.52705  24623615.700   100829581.16841
  20822537.480   109423254.44609  20822534.520    85264893.76147
  20434276.820   107382900.62709  20434278.340    83675021.42348
  24238070.800   127371931.75505  24238077.760    99250890.34641
 15 03 06 01 51  0.0000000  0  9G04G11G16G18G19G21G22G27G32
  22575715.160   118636262.76407  22575716.060    92443860.06044
  24176181.000   127046704.03905  24176181.620    98997419.47543
  21131509.140   111046839.75208  21131508.320    86530004.83346
  22468780.320   118074254.50108  22468778.840    92005913.76344
  21412620.900   112524098.92608  21412618.300    87681119.47446
  24637662.160   129471782.54105  24637662.040   100887097.81643
  20821415.020   109417355.77309  20821412.000    85260297.40347
  20431293.560   107367223.24809  20431295.000    83662805.28648
  24215475.920   127253197.44406  24215482.640    99158370.58543
 15 03 06 01 51 30.0000000  0  9G04G11G16G18G19G21G22G27G32
  22560902.420   118558420.95707  22560903.140    92383204.13843
  24159119.200   126957044.25005  24159120.200    98927554.76642
  21143302.240   111108813.00008  21143301.480    86578295.65846
  22479616.840   118131200.65108  22479615.380    92050287.38944
  21402411.740   112470449.38108  21402409.100    87639314.63346
  24651705.740   129545581.62105  24651704.900   100944603.56641
  20820394.900   109411994.79108  20820391.800    85256120.02947
  20428368.180   107351850.10909  20428369.600    83650826.21748
  24192891.540   127134516.99806  24192898.100    99065892.74241
 15 03 06 01 52  0.0000000  0  9G04G11G16G18G19G21G22G27G32
  22546134.480   118480815.15207  22546135.200    92322732.12644
  24142074.560   126867474.80105  24142075.760    98857760.45143
  21155186.320   111171264.39808  21155185.640    86626959.06546
  22490526.480   118188531.15208  22490524.880    92094960.49844
  21392240.880   112417001.21708  21392238.320    87597666.71346
  24665746.720   129619367.50605  24665745.220   101002099.03842
  20819477.100   109407171.42509  20819473.920    85252361.57247
  20425500.960   107336782.66909  20425502.320    83639085.34648
  24170317.980   127015893.21206  24170324.380    98973459.05843
 15 03 06 01 52 30.0000000  0  9G04G11G16G18G19G21G22G27G32
  22531411.360   118403444.75807  22531412.120    92262443.55244
  24125047.180   126777995.40206  24125048.420    98788036.30443
  21167160.880   111234191.38508  21167160.220    86675993.07246
  22501508.700   118246243.27008  22501507.000    92139930.98044
  21382108.440   112363754.92208  21382105.960    87556176.09646
  24679784.720   129693138.15105  24679783.540   101059582.64642
  20818661.360   109402884.69308  20818658.240    85249021.26147
  20422691.980   107322021.23509  20422693.300    83627582.92248
  24147755.480   126897328.21606  24147761.680    98881071.23342
 15 03 06 01 53  0.0000000  0  9G04G11G16G18G19G21G22G27G32
  22516733.240   118326310.45207  22516733.960    92202338.92044
  24108037.100   126688606.64706  24108038.020    98718382.79842
  21179225.600   111297592.08008  21179224.940    86725396.19746
  22512563.140   118304335.16008  22512561.600    92185197.37544
  21372014.680   112310711.76808  21372012.160    87514843.77346
  24693819.580   129766893.39405  24693818.940   101117054.26941
  20817947.780   109399134.89408  20817944.760    85246099.35547
  20419941.560   107307567.12409  20419942.760    83616319.97148
  24125204.600   126778824.98505  24125210.920    98788731.58643
 15 03 06 01 53 30.0000000  0  9G04G11G16G18G19G21G22G27G32
  22502100.040   118249412.36707  22502100.760    92142418.39644
  24091044.520   126599309.25806  24091045.240    98648800.45643
  21191380.240   111361465.01308  21191379.460    86775167.29346
  22523689.560   118362805.14107  22523688.200    92230758.39744
  21361959.740   112257872.74908  21361957.160    87473670.51146
  24707851.540   129840632.54505  24707851.200   101174513.32444
  20817336.280   109395921.76908  20817333.340    85243595.62647
  20417249.760   107293421.45909  20417250.900    83605297.36748
  24102665.760   126660386.07405  24102672.240    98696442.04343
 15 03 06 01 54  0.0000000  0  9G04G11G16G18G19G21G22G27G32
  22487511.400   118172749.09307  22487512.220    92082680.82344
  24074068.940   126510100.89306  24074069.460    98579287.50843
  21203623.900   111425805.30208  21203622.980    86825302.56346
  22534887.160   118421648.95207  22534885.840    92276610.70844
  21351943.440   112205237.07708  21351940.960    87432655.70946
  24721880.440   129914354.16605  24721880.200   101231958.69242
  20816826.460   109393243.06408  20816823.500    85241508.33747
  20414616.420   107279583.11909  20414617.540    83594514.23948
  24080139.340   126542011.98305  24080145.520    98604203.02841
 15 03 06 01 54 30.0000000  0  9G04G11G16G18G19G21G22G27G32
  22472968.000   118096324.37307  22472969.180    92023129.14944
  24057110.940   126420985.90406  24057111.220    98509847.29244
  21215956.960   111490615.30308  21215955.980    86875803.84546
  22546156.320   118480868.47008  22546155.060    92322755.78644
  21341966.700   112152809.34808  21341964.440    87391802.94846
  24735906.220   129988059.26004  24735905.360   101289391.23443
  20816419.020   109391102.14208  20816416.000    85239840.09147
  20412042.440   107266056.84709  20412043.660    83583974.28748
  24057626.540   126423709.11105  24057632.860    98512019.67443
 15 03 06 01 55  0.0000000  0  9G04G11G16G18G19G21G22G27G32
  22458469.920   118020136.93207  22458471.280    91963762.32844
  24040170.440   126331963.02806  24040170.420    98440478.81142
  21228378.660   111555891.31208  21228377.680    86926668.25046
  22557496.360   118540459.96508  22557495.080    92369190.70544
  21332029.440   112100588.96508  21332027.280    87351111.75146
  24749928.640   130061746.44705  24749927.140   101346809.80143
  20816113.600   109389497.23308  20816110.540    85238589.52147
  20409527.680   107252842.04909  20409529.020    83573677.04048
  24035127.360   126305478.19105  24035133.740    98419892.29344
 15 03 06 01 55 30.0000000  0  9G04G11G16G18G19G21G22G27G32
  22444017.120   117944187.00807  22444018.400    91904580.61644
  24023247.440   126243032.21806  24023247.260    98371182.18443
  21240888.500   111621631.04608  21240887.600    86977894.00646
  22568906.860   118600421.43308  22568905.420    92415913.93544
  21322131.880   112048576.72108  21322129.680    87310582.72946
  24763947.780   130135415.23705  24763945.100   101404237.91341
  20815910.080   109388427.66008  20815907.040    85237756.09247
  20407072.420   107239939.57309  20407073.760    83563623.16048
  24012642.400   126187321.81405  24012648.100    98327822.95741
 15 03 06 01 56  0.0000000  0  9G04G11G16G18G19G21G22G27G32
  22429609.800   117868475.76007  22429611.040    91845584.89844
  24006342.180   126154194.82906  24006342.000    98301958.27343
  21253486.360   111687833.42808  21253485.480    87029480.25846
  22580387.480   118660751.98407  22580385.820    92462924.74844
  21312274.340   111996774.80608  21312272.040    87270217.60747
  24777963.460   130209066.42904  24777966.620   101461605.47741
  20815808.620   109387894.14008  20815805.520    85237340.36847
  20404676.940   107227351.51609  20404678.400    83553814.28948
  23990172.280   126069243.38405  23990177.840    98235814.27341
 15 03 06 01 56 30.0000000  0  9G04G11G16G18G19G21G22G27G32
  22415248.440   117793005.94107  22415249.620    91786777.25544
  23989455.240   126065453.46306  23989455.060    98232809.19444
  21266172.280   111754498.22508  21266171.300    87081426.83246
  22591938.280   118721451.66607  22591936.500    92510223.20644
  21302457.420   111945186.48908  21302455.040    87230018.92646
  24791975.880   130282702.19104  24791975.800   101518983.90344
  20815809.500   109387898.74008  20815806.400    85237343.96147
  20402342.020   107215081.15009  20402343.480    83544252.95548
  23967717.940   125951248.03705  23967723.600    98143870.35843
 15 03 06 01 57  0.0000000  0  9G04G11G16G18G19G21G22G27G32
  22400932.500   117717775.37907  22400933.640    91728156.07944
  23972586.140   125976806.57506  23972586.180    98163733.74943
  21278945.420   111821621.54508  21278944.400    87133730.69546
  22603558.500   118782516.15608  22603556.680    92557805.92744
  21292680.940   111893810.44208  21292678.500    87189985.65246
  24805984.580   130356318.62204  24805983.280   101576347.38244
  20815912.120   109388438.14308  20815909.040    85237764.27947
  20400067.320   107203127.24009  20400068.740    83534938.22048
  23945279.600   125833336.16106  23945285.380    98051991.51541
 15 03 06 01 57 30.0000000  0  9G04G11G16G18G19G21G22G27G32
  22386661.860   117642782.98807  22386662.940    91669720.48644
  23955734.860   125888252.70806  23955734.900    98094730.77543
  21291805.120   111889199.82708  21291804.160    87186389.08846
  22615247.360   118843941.94707  22615245.680    92605670.17444
  21282944.760   111842646.33208  21282942.280    87150117.52246
  24819989.120   130429913.78804  24819987.920   101633694.34243
  20816116.320   109389511.24308  20816113.200    85238600.47547
  20397852.620   107191489.15509  20397854.060    83525869.58448
  23922857.480   125715508.68005  23922863.060    97960178.30743
 15 03 06 01 58  0.0000000  0  9G04G11G16G18G19G21G22G27G32
  22372437.440   117568032.97007  22372438.360    91611473.75244
  23938901.960   125799796.04706  23938902.220    98025803.55243
  21304751.660   111957234.81308  21304750.900    87239403.33946
  22627005.280   118905731.16407  22627003.820    92653817.60144
  21273249.840   111791699.26508  21273247.340    87110418.51746
  24833990.360   130503491.05304  24833989.600   101691027.18043
  20816422.780   109391121.74308  20816419.700    85239855.41447
  20395699.000   107180172.02309  20395700.460    83517051.03648
  23900452.620   125597772.27005  23900458.220    97868436.13143
 15 03 06 01 58 30.0000000  0  9G04G11G16G18G19G21G22G27G32
  22358258.660   117493523.07807  22358259.520    91553414.14344
  23922087.140   125711434.53306  23922087.700    97956950.47743
  21317784.300   112025722.10408  21317783.700    87292770.04946
  22638831.580   118967879.09007  22638830.160    92702244.55644
  21263596.000   111740967.61808  21263593.380    87070887.36947
  24847987.700   130577048.00204  24847986.620   101748354.28941
  20816830.880   109393266.35208  20816827.760    85241526.54847
  20393606.240   107169174.34309  20393607.640    83508481.41048
  23878065.220   125480127.10805  23878070.600    97776764.95743
 15 03 06 01 59  0.0000000  0  9G04G11G16G18G19G21G22G27G32
  22344125.920   117419255.25607  22344126.800    91495543.14044
  23905290.740   125623170.08706  23905291.460    97888173.01043
  21330902.980   112094660.93308  21330902.420    87346488.58846
  22650726.040   119030385.21107  22650724.800    92750950.61944
  21253983.700   111690454.34308  21253980.940    87031526.38046
  24861981.240   130650585.54205  24861979.900   101805656.26243
  20817340.860   109395946.27008  20817337.740    85243614.80047
  20391574.720   107158498.64909  20391576.080    83500162.68648
  23855695.840   125362577.26105  23855701.140    97685168.12441
 15 03 06 01 59 30.0000000  0  9G04G11G16G18G19G21G22G27G32
  22330038.780   117345227.55107  22330039.620    91437859.24444
  23888512.440   125535000.98906  23888513.020    97819469.83543
  21344106.660   112164046.33508  21344106.020    87400555.12546
  22662687.840   119093245.15507  22662686.920    92799932.38144
  21244412.600   111640158.05508  21244409.760    86992334.46346
  24875970.720   130724100.87605  24875969.420   101862940.90143
  20817952.120   109399158.76508  20817949.040    85246118.04547
  20389604.320   107148143.86709  20389605.580    83492094.01248
  23833344.760   125245123.30605  23833349.800    97593645.89544
 15 03 06 02 00  0.0000000  0  9G04G11G16G18G19G21G22G27G32
  22315997.280   117271439.48007  22315998.140    91380362.07644
  23871752.360   125446926.87905  23871752.840    97750840.73643
  21357394.880   112233876.43108  21357394.200    87454968.17146
  22674716.600   119156456.54507  22674715.880    92849188.00544
  21234882.800   111590079.08508  21234880.060    86953311.90047
  24889955.940   130797593.16505  24889954.860   101920207.55444
  20818664.500   109402902.64708  20818661.500    85249035.36447
  20387694.900   107138110.20509  20387696.240    83484275.57648
  23811012.380   125127767.16805  23811016.840    97502199.93544
 15 03 06 02 00 30.0000000  0  9G04G11G16G18G19G21G22G27G32
  22302002.420   117197896.14907  22302003.260    91323055.61644
  23855011.340   125358952.67106  23855011.800    97682289.45041
  21370767.920   112304152.72208  21370767.300    87509728.90246
  22686812.760   119220022.01807  22686812.140    92898719.54144
  21225395.580   111540223.47608  21225392.920    86914463.38347
  24903937.200   130871065.96504  24903936.560   101977459.08643
  20819478.840   109407182.28008  20819475.920    85252370.14747
  20385847.760   107128403.51009  20385849.120    83476711.90648
  23788700.060   125010516.28105  23788704.260    97410835.97443
 15 03 06 02 01  0.0000000  0  9G04G11G16G18G19G21G22G27G32
  22288053.740   117124595.58307  22288054.600    91265938.31244
  23838289.120   125271076.78606  23838289.400    97613814.76541
  21384225.360   112374872.07308  21384224.700    87564834.87246
  22698975.420   119283937.12307  22698974.880    92948523.50644
  21215950.720   111490590.29708  21215948.140    86875788.19346
  24917914.320   130944516.80204  24917913.640   102034693.48041
  20820394.560   109411994.76508  20820391.720    85256120.13547
  20384062.680   107119022.64109  20384064.020    83469402.13848
  23766407.860   124893371.26905  23766412.080    97319554.48843
 15 03 06 02 01 30.0000000  0  9G04G11G16G18G19G21G22G27G32
  22274151.240   117051538.00407  22274152.240    91209010.36944
  23821585.720   125183299.67406  23821585.940    97545417.06342
  21397766.660   112446031.47808  21397765.820    87620283.73846
  22711204.340   119348200.15307  22711203.640    92998598.59344
  21206548.360   111441180.68008  21206545.840    86837287.19547
  24931887.160   131017945.41204  24931886.760   102091910.58341
  20821411.700   109417339.96608  20821408.900    85260285.23847
  20382339.860   107109968.73009  20382341.180    83462347.13648
  23744136.340   124776334.84305  23744140.420    97228357.58044
 15 03 06 02 02  0.0000000  0  9G04G11G16G18G19G21G22G27G32
  22260295.180   116978723.93807  22260296.180    91152272.16944
  23804901.160   125095621.58306  23804901.180    97477096.52843
  21411391.360   112517629.16808  21411390.420    87676074.11446
  22723499.020   119412809.02007  22723498.040    93048943.18944
  21197188.740   111391995.72808  21197186.300    86798961.26947
  24945855.640   131091351.47104  24945855.560   102149110.04642
  20822530.060   109423217.16108  20822527.280    85264864.87647
  20380679.380   107101242.73909  20380680.700    83455547.65248
  23721885.960   124659409.51005  23721889.860    97137247.37744
 15 03 06 02 02 30.0000000  0  9G04G11G16G18G19G21G22G27G32
  22246485.380   116906152.59207  22246486.300    91095723.11144
  23788235.380   125008041.83206  23788235.240    97408852.58443
  21425098.840   112589662.31208  21425097.920    87732203.82446
  22735858.860   119477760.60907  22735857.780    93099554.79044
  21187871.860   111343035.71608  21187869.540    86760810.62247
  24959819.620   131164734.15004  24959825.240   102206280.30243
  20823749.420   109429625.00908  20823746.640    85269858.00747
  20379081.360   107092844.85009  20379082.700    83449003.83948
  23699657.140   124542597.10305  23699660.800    97046225.02742
 15 03 06 02 03  0.0000000  0  8G04G11G16G18G19G22G27G32
  22232721.100   116833820.11908  22232721.860    91039360.18045
  23771587.620   124920556.92906  23771587.540    97340682.62041
  21438887.780   112662123.98008  21438886.980    87788667.44946
  22748282.760   119543048.78107  22748281.700    93150428.68845
  21178597.240   111294297.59608  21178594.940    86722832.86646
  20825068.820   109436558.55308  20825066.040    85275260.77247
  20377545.100   107084771.95509  20377546.520    83442713.27048
  23677449.580   124425896.33906  23677453.080    96955289.68541
 15 03 06 02 03 30.0000000  0  9G04G11G16G18G19G21G22G27G32
  22219004.980   116761740.94108  22219005.560    90983194.63144
  23754960.460   124833181.27305  23754960.300    97272597.74043
  21452760.560   112735026.36008  21452759.880    87845474.47746
  22760772.860   119608685.40307  22760771.880    93201574.09644
  21169367.820   111245796.54308  21169365.400    86685039.84247
  24987734.140   131311425.70304  24987737.160   102320600.04044
  20826490.920   109444031.42608  20826488.080    85281083.79447
  20376073.660   107077039.37509  20376075.080    83436687.86948
  23655266.400   124309324.06806  23655269.820    96864454.46443
 15 03 06 02 04  0.0000000  0  8G04G11G16G18G19G22G27G32
  22205334.760   116689903.14008  22205335.240    90927217.15944
  23738351.780   124745903.15306  23738352.080    97204588.85242
  21466714.520   112808354.73808  21466713.860    87902613.46646
  22773326.620   119674656.06007  22773325.700    93252979.82343
  21160181.520   111197521.72708  21160178.840    86647423.10046
  20828013.280   109452030.96708  20828010.320    85287317.21147
  20374664.700   107069635.47409  20374666.180    83430918.60248
  23633105.840   124192870.44606  23633109.020    96773711.68742
 15 03 06 02 04 30.0000000  0  8G04G11G16G18G19G22G27G32
  22191711.100   116618310.41508  22191711.580    90871430.64944
  23721762.440   124658726.54706  23721762.600    97136659.04241
  21480749.840   112882110.30408  21480749.120    87960085.31246
  22785944.400   119740962.85507  22785943.500    93304647.45344
  21151039.060   111149477.69708  21151036.400    86609986.20046
  20829636.440   109460559.97109  20829633.300    85293963.19647
  20373319.220   107062565.03909  20373320.700    83425409.16848
  23610969.180   124076541.84606  23610971.720    96683066.33641
 15 03 06 02 05  0.0000000  0  9G04G11G16G18G19G21G22G27G32
  22178134.300   116546963.92108  22178134.740    90815836.00945
  23705192.700   124571652.36206  23705192.940    97068809.05843
  21494866.100   112956291.45408  21494865.280    88017888.78446
  22798625.880   119807604.01407  22798625.100    93356575.61744
  21141940.840   111101666.31208  21141938.340    86572730.58947
  25029572.900   131531293.60504                                
  20831360.320   109469618.46209  20831357.120    85301021.76347
  20372037.500   107055829.86809  20372039.020    83420160.97548
  23588856.940   123960341.70306  23588859.040    96592521.11243
 15 03 06 02 05 30.0000000  0  9G04G11G16G18G19G21G22G27G32
  22164603.940   116475861.61708  22164604.300    90760431.64344
  23688642.140   124484679.17806  23688642.200    97001037.79642
  21509062.500   113030894.01108  21509061.600    88076020.62746
  22811370.160   119874575.79407  22811369.480    93408761.40944
  21132886.740   111054086.81108  21132884.280    86535655.66047
  25043509.140   131604528.67804                                
  20833184.420   109479203.70209  20833181.140    85308490.79147
  20370819.460   107049428.98009  20370820.960    83415173.26748
  23566769.260   123844270.83606  23566771.160    96502076.51943
 15 03 06 02 06  0.0000000  0  8G04G11G16G18G19G22G27G32
  22151120.380   116405005.18907  22151120.620    90705218.85845
  23672111.360   124397808.83906  23672111.140    96933346.61043
  21523338.960   113105917.31408  21523337.980    88134480.31846
  22824177.300   119941877.12007  22824176.480    93461204.00144
  21123877.260   111006742.05008  21123874.840    86498763.64447
  20835108.900   109489316.72108  20835105.540    85316371.06747
  20369665.440   107043364.72109  20369666.900    83410447.86948
  23544706.840   123728333.29306  23544708.920    96411735.89943
 15 03 06 02 06 30.0000000  0  8G04G11G16G18G19G22G27G32
  22137682.940   116334391.27507  22137683.260    90650195.01544
  23655599.500   124311037.81705  23655599.200    96865732.94142
  21537694.420   113181355.34308  21537693.340    88193263.17746
  22837046.020   120009502.33507  22837044.980    93513898.98844
  21114912.000   110959629.28208  21114909.560    86462052.39547
  20837132.920   109499952.97008  20837129.560    85324659.06247
  20368575.000   107037634.45509  20368576.360    83405982.71248
  23522669.560   123612527.89205  23522672.160    96321498.20143
 15 03 06 02 07  0.0000000  0  8G04G11G16G18G19G22G27G32
  22124294.580   116264035.18708  22124294.900    90595372.10744
  23639109.540   124224381.56706  23639108.880    96798208.58042
  21552131.140   113257220.55108  21552130.140    88252378.91146
  22849978.740   120077464.25007  22849977.480    93566856.32944
  21105993.960   110912764.66608  21105991.560    86425534.52247
  20839259.120   109511126.62908  20839255.820    85333365.81347
  20367551.180   107032254.09709  20367552.520    83401790.21548
  23500660.760   123496872.50506  23500663.580    96231377.39643
 15 03 06 02 07 30.0000000  0  8G04G11G16G18G19G22G27G32
  22110955.180   116193936.75808  22110955.680    90540749.98344
  23622641.440   124137840.21106  23622640.500    96730773.81942
  21566648.540   113333510.47508  21566647.820    88311825.58145
  22862974.920   120145760.37007  22862973.720    93620074.07644
  21097123.180   110866148.85708  21097120.820    86389210.52347
  20841487.320   109522836.37508  20841484.180    85342490.29447
  20366594.100   107027224.35009  20366595.360    83397870.92448
  23478681.000   123381369.50006  23478683.880    96141375.34944
 15 03 06 02 08  0.0000000  0  9G01G04G11G16G18G19G22G27G32
  24580748.300   129172705.13504  24580754.540   100654079.09643
  22097659.300   116124066.87508  22097659.820    90486305.92344
  23606189.660   124051384.98206  23606188.740    96663406.12943
  21581240.720   113410193.46608  21581240.220    88371578.55946
  22876028.840   120214359.71107  22876027.840    93673528.10643
  21088294.540   110819753.97008  21088292.100    86353058.66547
  20843811.820   109535052.38008  20843808.860    85352009.26447
  20365698.400   107022517.03409  20365699.640    83394202.88348
  23456725.200   123265992.36906  23456728.080    96051471.38643
 15 03 06 02 08 30.0000000  0  9G01G04G11G16G18G19G22G27G32
  24564696.820   129088352.91104  24564702.480   100588350.22144
  22084410.400   116054443.59407  22084411.020    90432054.03444
  23589757.540   123965033.84806  23589756.640    96596119.61844
  21595910.520   113487284.03008  21595910.160    88431649.10945
  22889143.480   120283277.73007  22889142.620    93727230.45744
  21079511.580   110773598.88508  21079509.100    86317093.66947
  20846235.880   109547791.59508  20846233.100    85361935.93547
  20364867.520   107018150.78309  20364868.820    83390800.61048
  23434797.200   123150761.38806  23434800.200    95961681.26043
 15 03 06 02 09  0.0000000  0  9G01G04G11G16G18G19G22G27G32
  24548670.880   129004134.39704  24548675.920   100522725.62543
  22071209.000   115985070.02308  22071209.720    90377996.73344
  23573345.840   123878790.36006  23573344.900    96528916.89343
  21610658.340   113564783.69308  21610657.860    88492038.43546
  22902318.900   120352515.05307  22902318.200    93781181.61343
  21070775.100   110727688.05808  21070772.540    86281319.00447
  20848759.900   109561055.99008  20848757.240    85372271.83147
  20364102.260   107014129.66609  20364103.720    83387667.26448
  23412898.220   123035682.29906  23412901.120    95872009.54343
 15 03 06 02 09 30.0000000  0  9G01G04G11G16G18G19G22G27G32
  24532670.140   128920048.53204                                
  22058054.900   115915945.09008  22058055.760    90324133.16544
  23556954.420   123792653.64506  23556953.580    96461797.45842
  21625483.460   113642689.08408  21625482.740    88552743.90846
  22915554.440   120422068.35407  22915553.820    93835378.98044
  21062085.060   110682021.33208  21062082.420    86245734.54847
  20851383.600   109574843.81008  20851381.000    85383015.58847
  20363402.640   107010453.33309  20363404.120    83384802.58448
  23391028.380   122920756.57606  23391031.300    95782457.24944
 15 03 06 02 10  0.0000000  0  9G01G04G11G16G18G19G22G27G32
  24516695.460   128836100.83504  24516702.200   100391787.67641
  22044949.220   115847074.44208  22044950.160    90270467.74744
  23540584.320   123706629.08506  23540583.620    96394765.36644
  21640386.120   113721002.57308  21640385.180    88613767.37746
  22928850.680   120491940.92407  22928850.080    93889825.15344
  21053442.580   110636604.99308  21053440.000    86210345.20146
  20854107.800   109589159.43608  20854105.160    85394170.62147
  20362769.840   107007128.02009  20362771.380    83382211.42948
  23369189.300   122805992.09606  23369192.240    95693030.61243
 15 03 06 02 10 30.0000000  0  9G01G04G11G16G18G19G22G27G32
  24500745.460   128752283.31904  24500751.100   100326475.43243
  22031890.280   115778449.64308  22031891.160    90216993.87844
  23524234.180   123620709.08906  23524233.600    96327814.75544
  21655364.180   113799713.30108  21655363.280    88675100.39145
  22942205.620   120562122.12007  22942204.840    93944511.78543
  21044846.380   110591431.99308  21044843.820    86175145.47247
  20856930.740   109603993.61608  20856927.920    85405729.72847
  20362202.460   107004146.42809  20362204.100    83379888.11148
  23347379.860   122691383.47106  23347382.780    95603725.42044
 15 03 06 02 11  0.0000000  0  9G01G04G11G16G18G19G22G27G32
  24484820.760   128668598.65605  24484826.160   100261266.75943
  22018878.700   115710073.72008  22018879.560    90163713.96144
  23507904.500   123534896.29606  23507903.980    96260947.71942
  21670417.720   113878821.46508  21670417.080    88736743.11046
  22955619.400   120632612.30607  22955618.560    93999439.21544
  21036297.280   110546506.02808  21036294.660    86140138.23047
  20859852.600   109619347.57608  20859849.620    85417693.85547
  20361701.100   107001511.87909  20361702.800    83377835.21248
  23325601.000   122576935.69406  23325603.780    95514545.52444
 15 03 06 02 11 30.0000000  0  9G01G04G11G16G18G19G22G27G32
  24468921.560   128585048.64704  24468927.040   100196162.94742
  22005914.820   115641948.30508  22005915.600    90110629.25644
  23491595.640   123449192.89806  23491595.120    96194165.86542
  21685546.740   113958326.16308  21685546.400    88798694.81546
  22969091.960   120703411.01307  22969091.140    94054607.03344
  21027795.740   110501829.89408  21027793.080    86105325.67147
  20862873.580   109635222.50508  20862870.520    85430063.93947
  20361266.320   106999227.05009  20361268.000    83376054.82448
  23303853.600   122462653.10006  23303856.300    95425494.35743
 15 03 06 02 12  0.0000000  0  9G01G04G11G16G18G19G22G27G32
  24453048.120   128501635.82604  24453053.980   100131166.15644
  21992999.140   115574075.95608  21992999.860    90057741.71244
  23475308.260   123363601.76206  23475307.660    96127471.53943
  21700751.420   114038227.21708  21700751.120    88860955.34945
  22982623.280   120774518.53807  22982622.480    94110015.47944
  21019342.420   110457407.14508  21019339.740    86070710.54847
  20865993.900   109651619.61908  20865990.780    85442840.91547
  20360898.740   106997295.21509  20360900.420    83374549.49248
  23282138.560   122348540.71406  23282141.120    95336575.80944
 15 03 06 02 12 30.0000000  0  9G01G04G11G16G18G19G22G27G32
  24437198.940   128418349.10604                                
  21980129.460   115506445.31608  21980130.120    90005042.54644
  23459040.100   123278111.75807  23459039.420    96060855.97343
  21716028.980   114118510.38808  21716028.520    88923513.63846
  22996210.680   120845921.06907  22996209.800    94165653.80944
  21010935.340   110413227.63708  21010932.700    86036284.95947
  20869211.260   109668526.64708  20869208.060    85456015.22947
  20360596.380   106995705.97409  20360598.020    83373311.12048
  23260454.260   122234589.91806  23260456.840    95247783.17144
 15 03 06 02 13  0.0000000  0  9G01G04G11G16G18G19G22G27G32
  24421378.100   128335209.85204  24421382.360   100001475.78643
  21967309.880   115439077.75308  21967310.500    89952548.33944
  23442795.200   123192744.35506  23442794.620    95994335.94044
  21731383.080   114199195.37208  21731382.460    88986385.03445
  23009857.880   120917638.06807  23009856.960    94221537.19544
  21002578.780   110369313.70208  21002576.200    86002066.32447
  20872529.400   109685963.66908  20872526.180    85469602.52547
  20360363.420   106994481.43309  20360364.960    83372356.92648
  23238805.300   122120824.57206  23238807.880    95159135.05743
 15 03 06 02 13 30.0000000  0  9G01G04G11G16G18G19G22G27G32
  24405581.160   128252194.49004  24405585.260    99936788.63142
  21954535.860   115371949.78208  21954536.540    89900240.84444
  23426569.280   123107476.38607  23426568.400    95927893.41043
  21746808.460   114280255.50308  21746807.680    89049548.75045
  23023560.020   120989643.28607  23023559.020    94277645.16343
  20994268.500   110325642.99308  20994265.920    85968037.20747
  20875943.700   109703905.88908  20875940.400    85483583.48447
  20360195.460   106993598.73909  20360196.880    83371669.10448
  23217187.680   122007223.60606  23217190.100    95070614.97743
 15 03 06 02 14  0.0000000  0  9G01G04G11G16G18G19G22G27G32
  24389810.200   128169316.76604  24389813.740    99872208.70142
  21941810.040   115305075.22608  21941810.660    89848130.82344
  23410364.880   123022321.54207  23410363.920    95861539.02543
  21762307.100   114361701.47908  21762306.280    89113013.13545
  23037319.200   121061948.03707  23037318.220    94333986.53344
  20986007.260   110282230.26508  20986004.740    85934209.11947
  20879456.460   109722365.88308  20879453.200    85497967.89347
  20360095.260   106993072.34809  20360096.680    83371258.92148
  23195604.500   121893803.26906  23195606.800    94982235.67444
 15 03 06 02 14 30.0000000  0  9G01G04G11G16G18G19G22G27G32
  24374064.780   128086575.25304  24374068.480    99807734.92343
  21929132.080   115238452.49308  21929132.800    89796217.01744
  23394181.860   122937279.28807  23394181.000    95795272.37043
  21777878.360   114443529.47908  21777877.620    89176775.19545
  23051134.760   121134548.74307  23051133.860    94390558.49244
  20977795.080   110239075.08908  20977792.540    85900581.70747
  20883067.300   109741341.02508  20883064.040    85512753.72847
  20360062.780   106992901.66409  20360064.160    83371125.91048
  23174055.860   121780564.64906  23174057.960    94893997.93144
 15 03 06 02 15  0.0000000  0  9G01G04G11G16G18G19G22G27G32
  24358345.600   128003972.06504  24358350.180    99743368.89143
  21916502.380   115172083.38908  21916503.200    89744500.84945
  23378020.500   122852351.25106  23378019.620    95729094.70843
  21793522.020   114525738.12108  21793521.420    89240833.85745
  23065006.500   121207445.11807  23065005.620    94447360.86644
  20969632.460   110196180.46008  20969629.900    85867157.32747
  20886776.320   109760832.22808  20886773.100    85527941.68047
  20360098.540   106993089.36609  20360099.840    83371272.17048
  23152542.600   121667512.20907  23152544.620    94805905.28544
 15 03 06 02 15 30.0000000  0  9G01G04G11G16G18G19G22G27G32
  24342652.400   127921505.72104  24342657.600    99679109.50443
  21903920.760   115105966.70108  21903921.660    89692981.37845
  23361880.540   122767536.43206  23361879.640    95663005.28544
  21809237.640   114608324.46408  21809237.080    89305186.82745
  23078933.720   121280633.06907  23078932.760    94504390.44444
  20961519.460   110153546.22808  20961516.860    85833935.85047
  20890582.940   109780836.70508  20890579.900    85543529.58947
  20360202.300   106993634.79709  20360203.640    83371697.17048
  23131064.900   121554647.03006  23131067.020    94717958.53743
 15 03 06 02 16  0.0000000  0  9G01G04G11G16G18G19G22G27G32
  24326985.000   127839174.08204  24326990.140    99614955.07643
  21891386.700   115040100.13108  21891387.680    89641656.79045
  23345761.920   122682832.88006  23345760.920    95597002.54043
  21825024.060   114691282.82908  21825023.580    89369829.68745
  23092915.680   121354108.56807  23092914.520    94561644.06343
  20953455.720   110111170.81008  20953453.120    85800916.05447
  20894486.620   109801351.12108  20894483.660    85559514.85047
  20360373.860   106994536.44809  20360375.240    83372399.75148
  23109622.840   121441969.52906  23109624.900    94630158.02644
 15 03 06 02 16 30.0000000  0  9G01G04G11G16G18G19G22G27G32
  24311343.540   127756978.07005  24311348.380    99550906.35344
  21878900.500   114974484.49708  21878901.360    89590527.74745
  23329664.660   122598241.58106  23329663.820    95531087.26644
  21840881.040   114774611.72408  21840880.620    89434761.26945
  23106951.960   121427869.63807  23106950.640    94619120.23643
  20945441.580   110069056.44608  20945439.060    85768099.68147
  20898487.240   109822374.93108  20898484.400    85575897.04147
  20360613.500   106995796.00409  20360614.960    83373381.22548
  23088217.200   121329483.06206  23088219.260    94542506.37543
 15 03 06 02 17  0.0000000  0  9G01G04G11G16G18G19G22G27G32
  24295728.280   127674918.36004  24295732.760    99486963.78341
  21866462.200   114909120.70007  21866463.080    89539594.94145
  23313589.000   122513763.81705  23313588.500    95465260.49543
  21856808.100   114858308.75308  21856807.720    89499979.70645
  23121042.260   121501914.78306  23121040.860    94676817.74444
  20937477.360   110027204.88608  20937474.940    85735488.08447
  20902584.720   109843907.32608  20902581.860    85592675.53147
  20360921.560   106997414.90109  20360923.020    83374642.69448
  23066848.580   121217190.95406  23066850.540    94455006.17943
 15 03 06 02 17 30.0000000  0  9G01G04G11G16G18G19G22G27G32
  24280139.360   127592996.99505  24280143.680    99423129.09243
  21854072.180   114844010.48508  21854073.020    89488859.72744
  23297535.360   122429401.94206  23297535.100    95399524.05143
  21872805.200   114942373.50008  21872804.780    89565484.68145
  23135186.640   121576243.98507  23135185.160    94734736.60143
  20929563.760   109985619.23608  20929561.480    85703083.69847
  20906779.220   109865949.56408  20906776.300    85609851.29947
  20361298.560   106999395.90509  20361300.040    83376186.32948
  23045517.880   121105097.71606  23045519.640    94367660.91143
 15 03 06 02 18  0.0000000  0  9G01G04G11G16G18G19G22G27G32
  24264576.560   127511212.76505  24264580.400    99359401.22744
  21841730.180   114779152.71108  21841731.040    89438321.23945
  23281503.540   122345154.62906  23281503.240    95333876.84943
  21888871.620   115026802.00908  21888871.100    89631273.10745
  23149384.340   121650853.42607  23149382.860    94792873.86043
  20921700.880   109944299.40208  20921698.580    85670886.42747
  20911070.300   109888498.90008  20911067.260    85627422.22347
  20361744.360   107001738.44809  20361745.880    83378011.68348
  23024225.300   120993204.58707  23024226.820    94280471.59544
 15 03 06 02 18 30.0000000  0  9G01G04G11G16G18G19G22G27G32
  24249040.040   127429566.35106  24249043.600    99295780.75843
  21829436.260   114714548.02208  21829437.180    89387979.95544
  23265493.720   122261023.15906  23265493.360    95268319.90343
  21905006.820   115111592.12208  21905006.220    89697343.31345
  23163635.140   121725741.51507  23163633.720    94851228.19743
  20913889.020   109903247.19708  20913886.620    85638897.69747
  20915457.760   109911554.71908  20915454.640    85645387.80047
  20362259.280   107004444.08709  20362260.840    83380119.97148
  23002971.420   120881514.92207  23002972.920    94193440.81743
 15 03 06 02 19  0.0000000  0  9G01G04G11G16G18G19G22G27G32
  24233529.800   127348058.99805  24233533.260    99232268.63343
  21817190.680   114650197.56707  21817191.560    89337836.78644
  23249506.200   122177008.73906  23249506.020    95202854.17242
  21921210.340   115196741.91508  21921209.700    89763693.76445
  23177938.720   121800907.00206  23177937.500    94909798.68144
  20906128.460   109862464.74208  20906125.920    85607119.15947
  20919941.480   109935116.49308  20919938.340    85663747.62447
  20362843.620   107007514.58609  20362845.120    83382512.55948
  22981756.920   120770032.31906  22981758.400    94106571.37943
 15 03 06 02 19 30.0000000  0  9G01G04G11G16G18G19G22G27G32
  24218045.760   127266690.62305  24218049.520    99168864.80743
  21804993.520   114586101.21307  21804994.280    89287891.61545
  23233541.160   122093111.73806  23233540.720    95137479.91442
  21937481.680   115282248.98308  21937481.140    89830322.64245
  23192294.620   121876347.44206  23192293.340    94968583.44043
  20898419.420   109821953.29308  20898416.860    85575551.80047
  20924521.300   109959183.40208  20924518.100    85682501.06847
  20363497.540   107010950.71909  20363498.880    83385190.05848
  22960582.280   120658759.34506  22960583.860    94019865.29443
 15 03 06 02 20  0.0000000  0  9G01G04G11G16G18G19G22G27G32
  24202587.940   127185459.87705  24202591.720    99105568.24243
  21792844.500   114522257.57708  21792845.200    89238143.37445
  23217598.260   122009331.12506  23217597.500    95072196.37142
  21953820.120   115368108.92408  21953819.620    89897226.46245
  23206702.140   121952059.24206  23206701.020    95027579.66244
  20890761.880   109781712.48808  20890759.380    85544195.34547
  20929196.580   109983752.39808  20929193.400    85701645.74247
  20364220.840   107014751.77009  20364222.220    83388151.91248
  22939447.720   120547697.12107  22939449.380    93933323.40943
 15 03 06 02 20 30.0000000  0  9G01G04G11G16G18G19G22G27G32
  24187157.500   127104372.83805  24187160.960    99042383.63543
  21780744.680   114458672.72808  21780745.360    89188596.77544
  23201678.720   121925673.17807  23201677.780    95007008.37143
  21970226.460   115454325.12008  21970225.840    89964407.90745
  23221162.040   122028046.16907  23221160.940    95086790.25343
  20883157.220   109741749.59408  20883154.580    85513055.42347
  20933968.280   110008828.09808  20933965.100    85721185.25747
  20365014.840   107018924.52909  20365016.280    83391403.40848
  22918354.840   120436854.22407  22918356.380    93846952.41943
 15 03 06 02 21  0.0000000  0 10G01G04G11G14G16G18G19G22G27G32
  24171751.820   127023416.67805  24171755.160    98979300.95843
  21768691.680   114395333.75608  21768692.300    89139241.76144
  23185780.100   121842125.42407  23185778.940    94941906.28043
  24613631.460   129345509.69304                                
  21986697.720   115540882.09408  21986696.920    90031854.87545
  23235671.400   122104293.10307  23235670.380    95146203.43343
  20875603.100   109702052.70908  20875600.420    85482122.78647
  20938833.700   110034396.42008  20938830.540    85741108.62347
  20365877.240   107023456.78909  20365878.760    83394935.03948
  22897301.700   120326220.33807  22897303.380    93760744.31743
 15 03 06 02 21 30.0000000  0 10G01G04G11G14G16G18G19G22G27G32
  24156373.240   126942603.27905  24156376.640    98916329.51941
  21756687.700   114332252.52608  21756688.240    89090087.57444
  23169904.880   121758700.21507  23169903.580    94876899.63143
  24599570.840   129271620.38404                                
  22003235.740   115627789.31108  22003234.780    90099574.75145
  23250231.900   122180809.15207  23250231.040    95205826.31643
  20868102.080   109662634.94508  20868099.480    85451407.64947
  20943794.860   110060467.78408  20943791.740    85761423.98147
  20366810.500   107028361.25309  20366812.000    83398756.69448
  22876291.240   120215809.96407  22876292.840    93674710.38044
 15 03 06 02 22  0.0000000  0 10G01G04G11G14G16G18G19G22G27G32
  24141021.640   126861931.24605  24141024.420    98853468.32944
  21744732.440   114269427.52108  21744733.000    89041133.04944
  23154052.740   121675396.08907  23154051.420    94811987.35644
  24585524.200   129197804.12004                                
  22019839.500   115715042.15708  22019838.600    90167563.95945
  23264842.920   122257590.85607  23264841.940    95265656.22244
  20860654.140   109623496.12208  20860651.620    85420909.87547
  20948851.160   110087039.21608  20948848.140    85782128.99146
  20367814.460   107033637.25909  20367815.940    83402867.85948
  22855323.460   120105624.25607  22855325.080    93588851.48844
 15 03 06 02 22 30.0000000  0 10G01G04G11G14G16G18G19G22G27G32
  24125697.240   126781401.77105  24125700.140    98790718.18643
  21732826.140   114206859.85708  21732826.700    88992379.04645
  23138223.880   121592214.53207  23138222.360    94747170.62842
  24571492.040   129124064.65804                                
  22036508.520   115802638.25108  22036507.760    90235820.63445
  23279504.460   122334637.16707  23279503.120    95325692.31142
  20853259.720   109584638.39308  20853257.280    85390631.12747
  20954002.540   110114110.31608  20953999.660    85803223.35547
  20368889.500   107039286.53809  20368890.960    83407269.88648
  22834399.100   119995666.81207  22834400.820    93503170.44643
 15 03 06 02 23  0.0000000  0 10G01G04G11G14G16G18G19G22G27G32
  24110397.580   126701001.15506  24110401.300    98728068.44144
  21720966.280   114144536.21408  21720966.940    88943815.19944
  23122415.900   121509142.51407  23122414.160    94682439.18943
  24557472.140   129050390.82904                                
  22053239.880   115890562.22508  22053239.280    90304332.79745
  23294213.420   122411932.08607  23294211.680    95385922.09543
  20845916.480   109546049.22508  20845914.020    85360561.64847
  20959246.260   110141666.58508  20959243.540    85824695.78046
  20370033.100   107045296.18909  20370034.500    83411952.72748
  22813516.160   119885926.67107  22813517.940    93417658.75843
 15 03 06 02 23 30.0000000  0 10G01G04G11G14G16G18G19G22G27G32
  24095125.780   126620746.37906  24095129.440    98665532.34043
  21709156.020   114082473.00508  21709156.740    88895454.30644
  23106632.040   121426197.26507  23106630.360    94617806.54543
  24543468.560   128976802.36104                                
  22070036.280   115978828.23108  22070035.860    90373111.48745
  23308972.480   122489490.31107  23308970.620    95446357.07142
  20838627.780   109507746.72908  20838625.280    85330715.54947
  20964585.220   110169723.16608  20964582.540    85846558.05346
  20371248.660   107051683.88109  20371250.020    83416930.14548
  22792678.280   119776423.28707  22792680.040    93332331.56744
 15 03 06 02 24  0.0000000  0 10G01G04G11G14G16G18G19G22G27G32
  24079880.760   126540632.06306  24079884.180    98603105.69341
  21697394.280   114020665.00908  21697395.040    88847292.24844
  23090871.260   121343373.78107  23090869.540    94553268.78544
  24529480.920   128903296.54604                                
  22086896.100   116067427.76208  22086895.840    90442150.04945
  23323779.980   122567303.91507  23323778.180    95506991.07743
  20831392.840   109469726.71108  20831390.260    85301089.56747
  20970018.100   110198272.97308  20970015.400    85868804.66246
  20372535.260   107058444.89409  20372536.600    83422198.47148
  22771885.020   119667153.75807  22771886.820    93247186.57244
 15 03 06 02 24 30.0000000  0 10G01G04G11G14G16G18G19G22G27G32
  24064663.160   126460662.48406  24064666.500    98540791.85943
  21685681.980   113959116.51808  21685682.780    88799332.41945
  23075134.440   121260676.62507  23075132.940    94488829.48243
  24515510.460   128829880.54204                                
  22103819.660   116156361.70908  22103819.380    90511449.21045
  23338636.340   122645374.99507  23338634.640    95567825.65843
  20824212.700   109431994.71008  20824210.100    85271688.01047
  20975545.400   110227318.87308  20975542.560    85891437.83146
  20373893.840   107065584.15909  20373895.220    83427761.52148
  22751137.540   119558124.94407  22751139.200    93162229.15944
 15 03 06 02 25  0.0000000  0 10G01G04G11G14G16G18G19G22G27G32
  24049472.040   126380831.72406  24049474.880    98478586.11543
  21674017.920   113897821.52108  21674018.700    88751570.09845
  23059420.440   121178100.04607  23059419.400    94424484.09443
  24501556.340   128756550.87604                                
  22120805.380   116245622.17308  22120805.020    90581002.79045
  23353540.020   122723695.18407  23353538.580    95628854.38543
  20817086.420   109394545.95308  20817083.840    85242507.16047
  20981165.760   110256853.86908  20981162.800    85914452.12246
  20375323.400   107073096.51609  20375324.820    83433615.30148
  22730435.180   119449333.36807  22730436.820    93077456.60343
 15 03 06 02 25 30.0000000  0 10G01G04G11G14G16G18G19G22G27G32
  24034308.520   126301147.05906  24034311.180    98416494.25341
  21662403.460   113836787.20608  21662404.200    88704010.91644
  23043731.000   121095651.79007  23043730.200    94360238.70143
  24487620.520   128683317.68204                                
  22137854.040   116335213.28608  22137853.600    90650814.02444
  23368491.840   122802269.59706  23368491.000    95690081.19442
  20810015.600   109357388.71908  20810013.100    85213553.46847
  20986880.220   110286883.25708  20986877.160    85937851.64546
  20376825.440   107080989.79309  20376826.900    83439765.90248
  22709779.880   119340788.93407  22709781.280    92992876.57644
 15 03 06 02 26  0.0000000  0 10G01G04G11G14G16G18G19G22G27G32
  24019171.520   126221602.54906  24019174.380    98354511.56944
  21650837.500   113776007.69708  21650838.160    88656650.28545
  23028064.960   121013326.41207  23028064.060    94296089.08143
  24473702.560   128610177.97204                                
  22154963.860   116425125.94708  22154963.420    90720875.81445
  23383490.400   122881089.87606  23383490.220    95751499.58643
  20802999.460   109320518.43908  20802996.920    85184823.38847
  20992687.280   110317399.50808  20992684.160    85961630.54846
  20378399.000   107089258.83809  20378400.440    83446209.30648
  22689170.900   119232488.26807  22689172.260    92908486.56544
 15 03 06 02 26 30.0000000  0 10G01G04G11G14G16G18G19G22G27G32
  24004061.120   126142197.80406  24004064.260    98292637.82642
  21639319.980   113715482.58408  21639320.600    88609487.89845
  23012422.160   120931123.67606  23012421.400    94232035.03043
  24459802.760   128537133.74304                                
  22172134.260   116515356.99208  22172133.800    90791185.69444
  23398535.340   122960153.25106  23398535.680    95813107.37743
  20796037.980   109283935.36808  20796035.400    85156317.09847
  20998586.720   110348401.01208  20998583.520    85985787.57646
  20380044.080   107097903.83609  20380045.540    83452945.66648
  22668608.720   119124433.43607  22668610.100    92824288.06244
 15 03 06 02 27  0.0000000  0 10G01G04G11G14G16G18G19G22G27G32
  23988979.000   126062941.74006  23988982.440    98230879.94643
  21627852.500   113655220.61008  21627853.040    88562530.54644
  22996804.440   120849052.97906  22996804.060    94168083.84944
  24445923.280   128464196.73104  24445920.560   100101981.98041
  22189366.520   116605912.98308  22189366.000    90861748.77544
  23413628.100   123039466.71606  23413628.700    95874910.10444
  20789133.120   109247650.28608  20789130.580    85128043.01047
  21004579.800   110379894.96208  21004576.620    86010328.31746
  20381762.520   107106934.40209  20381764.020    83459982.46448
  22648095.400   119016635.97607  22648096.860    92740290.12144
 15 03 06 02 27 30.0000000  0  9G01G04G11G16G18G19G22G27G32
  23973920.580   125983810.34905  23973924.300    98169219.16143
  21616430.520   113595197.83607  21616431.140    88515759.57044
  22981207.400   120767090.70005  22981207.320    94104217.16544
  22206655.580   116696767.09908  22206655.000    90932544.16845
  23428763.480   123119003.64806  23428764.080    95936886.91043
  20782280.580   109211640.04508  20782278.060    85099983.08247
  21010661.700   110411855.93108  21010658.580    86035232.96946
  20383549.920   107116327.24409  20383551.500    83467301.55048
  22627627.000   118909074.48107  22627628.540    92656476.05744
 15 03 06 02 28  0.0000000  0  9G01G04G11G16G18G19G22G27G32
  23958890.900   125904830.06705  23958894.480    98107676.15343
  21605059.100   113535440.64707  21605059.680    88469195.54745
  22965636.180   120685264.19306  22965636.040    94040456.30043
  22224005.880   116787942.83408  22224005.200    91003590.15445
  23443946.040   123198788.08806  23443946.380    95999056.62543
  20775485.620   109175932.17108  20775483.080    85072158.77347
  21016837.180   110444308.61008  21016834.140    86060520.77546
  20385411.420   107126109.35409  20385413.020    83474923.96548
  22607209.040   118801777.80506  22607210.660    92572868.31944
 15 03 06 02 28 30.0000000  0  9G01G04G11G16G18G19G22G27G32
  23943887.980   125825989.80006  23943891.380    98046242.21043
  21593736.080   113475937.80408  21593736.520    88422829.72245
  22950088.700   120603561.84506  22950088.540    93976792.17744
  22241414.620   116879425.88108  22241413.800    91074875.61945
  23459173.240   123278806.79406  23459173.380    96061408.82743
  20768746.340   109140517.22008  20768743.820    85044562.71447
  21023103.920   110477240.42708  21023100.860    86086181.93846
  20387345.000   107136270.33309  20387346.620    83482841.61348
  22586839.840   118694737.51507  22586841.520    92489460.37044
 15 03 06 02 29  0.0000000  0 10G01G04G11G14G16G18G19G22G27G32
  23928912.620   125747293.80706  23928915.780    97984920.78241
  21582462.340   113416693.70408  21582462.740    88376665.50045
  22934565.700   120521988.67806  22934565.740    93913228.67243
  24390598.320   128173460.01004                                
  22258882.020   116971217.52708  22258881.280    91146401.54844
  23474445.380   123359061.83206  23474445.340    96123945.20643
  20762063.860   109105400.25708  20762061.280    85017198.85047
  21029462.380   110510653.98908  21029459.240    86112218.47646
  20389351.560   107146815.07109  20389353.220    83491058.28448
  22566520.660   118587960.22807  22566522.280    92406257.37044
 15 03 06 02 29 30.0000000  0 10G01G04G11G14G16G18G19G22G27G32
  23913964.480   125668740.75106  23913967.140    97923710.65142
  21571237.560   113357706.93208  21571237.880    88330701.80645
  22919067.240   120440543.94707  22919067.140    93849765.29944
  24376821.560   128101060.29605                                
  22276407.300   117063313.99208  22276406.680    91218165.00344
  23489761.780   123439549.37206  23489761.380    96186662.78641
  20755437.980   109070581.13308  20755435.420    84990067.06747
  21035911.960   110544546.24908  21035908.680    86138628.02946
  20391431.000   107157742.92809  20391432.700    83499573.48748
  22546251.900   118481447.40707  22546253.360    92323260.42345
 15 03 06 02 30  0.0000000  0  9G01G04G11G16G18G19G22G27G32
  23899043.340   125590329.78905  23899046.000    97862611.29443
  21560061.580   113298976.45808  21560061.900    88284937.81545
  22903593.200   120359227.06606  22903592.920    93786401.51443
  22293989.880   117155711.73007  22293989.600    91290163.21245
  23505121.860   123520266.37006  23505120.820    96249559.17242
  20748868.780   109036060.04008  20748866.220    84963167.51147
  21042452.140   110578914.86608  21042448.820    86165408.76646
  20393583.340   107169053.61109  20393585.020    83508387.00048
  22526033.680   118375200.53706  22526035.240    92240470.72944
 15 03 06 02 30 30.0000000  0 10G01G04G11G14G16G18G19G22G27G32
  23884149.620   125512063.17505  23884152.320    97801624.36942
  21548934.820   113240504.61608  21548935.200    88239375.36245
  22888144.080   120278040.64106  22888143.700    93723139.41144
  24349335.300   127956619.04004                                
  22311629.760   117248410.20107  22311629.720    91362395.77445
  23520525.380   123601212.36106  23520524.000    96312633.94842
  20742356.960   109001840.68108  20742354.480    84936503.08347
  21049083.060   110613760.41008  21049079.780    86192561.14046
  20395809.120   107180749.99609  20395810.740    83517501.06048
  22505866.980   118269224.49107  22505868.440    92157892.06744
 15 03 06 02 31  0.0000000  0 10G01G04G11G14G16G18G19G22G27G32
  23869283.340   125433940.84305  23869286.180    97740749.89644
  21537857.160   113182291.28608  21537857.600    88194014.34945
  22872719.940   120196985.08206  22872719.460    93659979.25844
  24335627.620   127884584.03304                                
  22329326.200   117341405.81307  22329326.220    91434859.84644
  23535972.000   123682385.71706  23535970.480    96375885.90243
  20735902.840   108967924.22508  20735900.400    84910074.67447
  21055804.400   110649081.14108  21055801.180    86220083.79346
  20398108.440   107192832.74909  20398110.000    83526916.18648
  22485752.400   118163521.77807  22485753.640    92075526.37843
 15 03 06 02 31 30.0000000  0 10G01G04G11G14G16G18G19G22G27G32
  23854444.100   125355961.26305  23854447.340    97679986.64343
  21526828.420   113124334.91608  21526828.960    88148853.56445
  22857320.400   120116059.33506  22857319.760    93596920.28843
  24321943.700   127812675.26804  24321948.120    99594311.15943
  22347078.520   117434694.76607  22347078.580    91507552.51245
  23551461.240   123763782.48806  23551459.520    96439311.94743
  20729506.240   108934310.15408  20729503.860    84883881.89847
  21062615.500   110684873.89708  21062612.340    86247974.25246
  20400481.060   107205300.83608  20400482.540    83536631.57648
  22465690.040   118058093.26307  22465691.120    91993374.34544
 15 03 06 02 32  0.0000000  0 10G01G04G11G14G16G18G19G22G27G32
  23839632.680   125278127.02305  23839635.840    97619336.68444
  21515849.200   113066638.21008  21515849.680    88103895.11545
  22841946.020   120035266.25806  22841945.160    93533964.64944
  24308284.940   127740898.31004  24308288.760    99538358.97641
  22364886.560   117528276.49307  22364886.580    91580473.29744
  23566993.180   123845402.99706  23566991.380    96502912.31143
  20723168.000   108901002.54908  20723165.680    84857927.92647
  21069516.600   110721139.60308  21069513.440    86276233.24846
  20402927.600   107218157.60608  20402929.080    83546649.82648
  22445680.820   117952944.32007  22445681.920    91911440.16444
 15 03 06 02 32 30.0000000  0 10G01G04G11G14G16G18G19G22G27G32
  23824848.380   125200435.17605  23824851.560    97558797.64844
  21504918.680   113009197.89008  21504919.100    88059136.45045
  22826596.480   119954603.62807  22826595.220    93471110.66743
  24294651.160   127669252.62805  24294653.400    99482531.28441
  22382749.160   117622145.12608  22382749.020    91653617.65844
  23582566.660   123927241.92406  23582565.180    96566682.92243
  20716887.740   108867999.46308  20716885.480    84832211.23547
  21076506.840   110757873.83608  21076503.620    86304857.32746
  20405447.680   107231400.56309  20405449.160    83556969.00848
  22425724.680   117848074.36707  22425725.840    91829723.38544
 15 03 06 02 33  0.0000000  0 10G01G04G11G14G16G18G19G22G27G32
  23810090.100   125122880.68205  23810093.320    97498365.63643
  21494035.940   112952009.11808  21494036.340    88014573.78545
  22811270.860   119874066.60207  22811269.500    93408354.55743
  24281041.960   127597735.89605                                
  22400664.720   117716292.42907  22400664.580    91726979.15644
  23598180.180   124009292.01205  23598178.920    96630618.03243
  20710664.780   108835297.26408  20710662.500    84806728.99447
  21083584.920   110795069.76708  21083581.720    86333841.16846
  20408040.440   107245025.36209  20408041.900    83567585.72648
  22405821.160   117743480.93107  22405822.260    91748222.06644
 15 03 06 02 33 30.0000000  0 10G01G04G11G14G16G18G19G22G27G32
  23795361.560   125045482.87205  23795364.940    97438055.72043
  21483204.720   112895090.91708  21483205.100    87970221.96745
  22795972.880   119793674.99307  22795971.580    93345711.75943
  24267461.680   127526370.51804  24267462.140    99371204.65344
  22418636.700   117810735.72407  22418636.520    91800571.30345
  23613837.100   124091570.15205  23613836.040    96694730.83843
  20704502.900   108802916.32408  20704500.620    84781497.10547
  21090754.200   110832744.68308  21090750.980    86363198.24547
  20410709.600   107259051.83508  20410711.080    83578515.43948
  22385974.360   117639185.82707  22385975.420    91666953.21944
 15 03 06 02 34  0.0000000  0 10G01G04G11G14G16G18G19G22G27G32
  23780658.700   124968220.93605  23780662.660    97377851.62844
  21472420.940   112838422.55908  21472421.420    87926064.81545
  22780698.600   119713408.60207  22780697.460    93283166.55243
  24253906.820   127455138.69104  24253906.920    99315699.25941
  22436660.440   117905450.80707  22436660.200    91874375.22945
  23629533.040   124174053.28605  23629532.200    96759003.41644
  20698398.460   108770837.02108  20698396.200    84756500.24747
  21098010.480   110870876.40508  21098007.180    86392911.27446
  20413451.320   107273459.83608  20413452.800    83589742.44948
  22366180.860   117535170.76807  22366181.940    91585902.57544
 15 03 06 02 34 30.0000000  0 10G01G04G11G14G16G18G19G22G27G32
  23765983.840   124891105.41105  23765988.260    97317761.69544
  21461686.840   112782014.58808  21461687.400    87882110.56245
  22765450.300   119633278.48607  22765449.300    93220727.52344
  24240379.780   127384053.65505  24240381.300    99260308.37844
  22454737.460   118000445.54707  22454737.140    91948397.06245
  23645269.640   124256749.97105  23645268.900    96823442.40043
  20692353.780   108739071.41108  20692351.380    84731747.82447
  21105355.420   110909473.73708  21105352.120    86422987.11946
  20416267.760   107288260.47309  20416269.300    83601275.40448
  22346443.040   117431448.78907  22346444.220    91505080.31844
 15 03 06 02 35  0.0000000  0 10G01G04G11G14G16G18G19G22G27G32
  23751336.340   124814133.17005  23751341.100    97257783.38644
  21451001.780   112725864.09508  21451002.280    87838356.94945
  22750227.400   119553281.82507  22750226.460    93158392.44844
  24226880.620   127313115.05904  24226882.060    99205031.59541
  22472866.560   118095714.03807  22472866.080    92022632.22744
  23661045.940   124339654.73506  23661045.060    96888043.47843
  20686368.320   108707617.50708  20686365.820    84707238.28847
  21112787.980   110948531.55108  21112784.620    86453421.78546
  20419158.480   107303451.26409  20419160.000    83613112.38248
  22326760.960   117328019.56707  22326762.140    91424486.17544
 15 03 06 02 35 30.0000000  0 10G01G04G11G14G16G18G19G22G27G32
  23736716.300   124737304.97405  23736721.000    97197917.33043
  21440365.760   112669971.53008  21440366.200    87794804.32845
  22735030.180   119473420.17007  22735029.380    93096162.58743
  24213409.680   127242326.33105  24213410.280    99149871.59241
  22491047.300   118191253.65708  22491046.780    92097078.65545
  23676861.620   124422766.09806  23676860.740    96952805.58343
  20680442.480   108676477.26708  20680439.960    84682973.16947
  21120307.920   110988049.16908  21120304.540    86484214.72847
  20422123.720   107319033.56909  20422125.200    83625254.43448
  22307135.320   117224886.24007  22307136.400    91344122.59344
 15 03 06 02 36  0.0000000  0 10G01G04G11G14G16G18G19G22G27G32
  23722123.500   124660620.49305  23722128.140    97138163.22443
  21429778.740   112614336.48208  21429779.160    87751452.37045
  22719858.720   119393693.06307  22719857.820    93034037.61044
  24199968.020   127171690.02105  24199967.720    99094830.31341
  22509279.000   118287061.67708  22509278.620    92171734.21844
  23692716.100   124506081.31906  23692715.320    97017726.54743
  20674576.460   108645651.36308  20674573.920    84658952.98847
  21127914.960   111028024.61508  21127911.660    86515364.42646
  20425163.480   107335007.47109  20425164.900    83637701.62248
  22287566.400   117122050.78707  22287567.440    91263991.14344
 15 03 06 02 36 30.0000000  0 10G01G04G11G14G16G18G19G22G27G32
  23707558.540   124584080.84405  23707562.880    97078521.99044
  21419240.920   112558960.16208  21419241.360    87708302.02045
  22704713.040   119314102.66607  22704712.400    92972019.14743
  24186556.120   127101209.85005  24186555.980    99039910.84341
  22527561.360   118383136.31407  22527561.160    92246597.55144
  23708609.320   124589599.32506  23708608.520    97082805.49443
  20668770.820   108615142.45408  20668768.300    84635179.81847
  21135608.960   111068456.98108  21135605.680    86546870.16446
  20428278.120   107351374.72309  20428279.480    83650455.31948
  22268054.860   117019517.01607  22268055.900    91184094.74344
 15 03 06 02 37  0.0000000  0 10G01G04G11G14G16G18G19G22G27G32
  23693021.520   124507687.81505  23693025.460    97018994.99343
  21408752.620   112503844.39808  21408753.100    87665354.66645
  22689593.560   119234650.76807  22689593.300    92910108.57743
  24173174.800   127030890.56505  24173175.020    98985116.53343
  22545894.100   118479476.14308  22545894.060    92321667.52144
  23724541.040   124673319.86706  23724540.180    97148042.26242
  20663026.000   108584953.28908  20663023.500    84611655.79347
  21143389.980   111109346.28308  21143386.720    86578731.96246
  20431467.980   107368137.59509  20431469.340    83663517.29148
  22248601.560   116917289.22107  22248602.660    91104436.81144
 15 03 06 02 37 30.0000000  0 10G01G04G11G14G16G18G19G22G27G32
  23678511.860   124431439.11105  23678515.580    96959580.50444
  21398313.500   112448986.63408  21398313.940    87622608.37345
  22674500.320   119155336.04007  22674500.060    92848304.93043
  24159824.120   126960732.52305  24159823.900    98930447.89041
  22564276.480   118576075.90208  22564276.320    92396940.02844
  23740510.380   124757238.61606  23740509.220    97213433.47443
  20657341.860   108555082.90509  20657339.360    84588380.17447
  21151257.080   111150688.24908  21151253.920    86610946.48146
  20434732.820   107385294.45009  20434734.180    83676886.25948
  22229206.580   116815367.63708  22229207.720    91025017.42644
 15 03 06 02 38  0.0000000  0 10G01G04G11G14G16G18G19G22G27G32
  23664030.020   124355336.29905  23664033.800    96900279.64944
  21387923.820   112394388.57308  21387924.220    87580064.45445
  22659433.700   119076160.52207  22659433.360    92786609.74444
  24146504.920   126890740.62205  24146504.860    98875908.81441
  22582708.200   118672934.14708  22582707.860    92472413.95444
  23756517.020   124841354.28806  23756515.540    97278978.19443
  20651718.960   108525534.17208  20651716.360    84565355.18547
  21159210.360   111192482.98908  21159207.180    86643513.80646
  20438072.960   107402847.33009  20438074.400    83690563.82048
  22209870.620   116713756.28707  22209871.700    90945839.80644
 15 03 06 02 38 30.0000000  0 10G01G04G11G14G16G18G19G22G27G32
  23649576.520   124279382.18405  23649580.160    96841094.64743
  21377584.040   112340052.84108  21377584.420    87537724.92945
  22644394.220   118997127.40807  22644393.840    92725025.54243
  24133218.220   126820920.41505  24133217.520    98821503.50141
  22601189.300   118770051.32208  22601188.620    92548089.64044
  23772561.380   124925668.01806  23772559.460    97344677.16642
  20646158.040   108496311.11708  20646155.400    84542583.97547
  21167250.000   111234731.79208  21167246.920    86676434.95446
  20441489.120   107420799.62709  20441490.700    83704552.62448
  22190594.640   116612460.45207  22190595.700    90866908.02744
 15 03 06 02 39  0.0000000  0 10G01G04G11G14G16G18G19G22G27G32
  23635149.960   124203570.07405  23635153.500    96782020.34243
  21367292.960   112285972.88808  21367293.240    87495584.71145
  22629380.520   118918230.41807  22629380.220    92663547.40143
  24119963.800   126751267.75305  24119963.080    98767228.68343
  22619717.900   118867418.23508  22619717.020    92623959.90244
  23788641.680   125010170.69906  23788639.800    97410523.42742
  20640658.040   108467408.36708  20640655.460    84520062.35647
  21175374.380   111277425.66308  21175371.300    86709702.90746
  20444980.180   107439145.09309  20444981.760    83718847.78448
  22171377.860   116511476.04908  22171379.020    90788218.94344
 15 03 06 02 39 30.0000000  0 10G01G04G11G14G16G18G19G22G27G32
  23620751.080   124127903.73006  23620754.540    96723059.63341
  21357051.220   112232152.20208  21357051.520    87453646.53745
  22614393.460   118839473.93207  22614393.320    92602178.75444
  24106742.480   126681789.30005  24106742.000    98713089.63343
  22638293.940   118965035.20908  22638292.900    92700025.04444
  23804758.260   125094863.91706  23804756.280    97476518.14743
  20635219.880   108438830.82709  20635217.260    84497794.14147
  21183583.840   111320566.66108  21183580.740    86743319.27046
  20448546.880   107457888.05709  20448548.420    83733452.67548
  22152221.540   116410809.17807  22152222.700    90709777.26344
 15 03 06 02 40  0.0000000  0 10G01G04G11G14G16G18G19G22G27G32
  23606379.700   124052382.64305  23606383.340    96664212.03143
  21346858.860   112178590.59408  21346859.100    87411910.23045
  22599433.280   118760857.93207  22599433.000    92540919.56944
  24093554.940   126612487.37605  24093554.480    98659088.18143
  22656916.760   119062898.93007  22656915.680    92776282.45544
  23820910.580   125179745.03906  23820908.540    97542659.27543
  20629843.800   108410579.24909  20629841.140    84475779.91847
  21191877.980   111364152.44808  21191874.820    86777282.22146
  20452189.200   107477028.47309  20452190.700    83748367.28248
  22133126.120   116310462.03207  22133127.260    90631584.73444
 15 03 06 02 40 30.0000000  0  9G04G11G14G16G18G19G22G27G32
  21336715.620   112125287.06708  21336715.800    87370375.03045
  22584499.880   118682382.38807  22584499.580    92479769.83843
  24080401.340   126543364.06405  24080401.180    98605225.90544
  22675585.600   119161005.42907  22675584.760    92852729.03845
  23837098.060   125264810.97606  23837095.860    97608944.37141
  20624529.880   108382654.21408  20624527.240    84454020.15247
  21200256.280   111408180.44708  21200253.100    86811589.75646
  20455907.140   107496566.12209  20455908.580    83763591.42348
  22114091.860   116210436.10007  22114092.960    90553642.48444
 15 03 06 02 41  0.0000000  0 10G01G04G11G14G16G18G19G22G27G32
  23577720.280   123901760.56405  23577723.680    96546839.31344
  21326622.360   112072246.32808  21326622.500    87329044.59645
  22569594.240   118604052.58907  22569594.020    92418733.67043
  24067283.100   126474426.94805  24067283.560    98551508.73943
  22694300.880   119259356.45807  22694300.440    92929366.16544
  23853321.200   125350064.56705  23853319.000    97675375.71442
  20619279.140   108355061.78308  20619276.560    84432519.55547
  21208719.300   111452653.81708  21208716.120    86846244.32846
  20459701.660   107516506.33008  20459703.100    83779129.23348
  22095120.200   116110738.87807  22095121.160    90475956.39144
 15 03 06 02 41 30.0000000  0  9G01G04G11G16G18G19G22G27G32
  23563432.220   123826676.73605  23563436.440    96488332.52742
  21316578.020   112019462.67308  21316578.120    87287914.48845
  22554715.240   118525862.76406  22554714.980    92357806.54844
  22713061.240   119357943.90107  22713061.120    93006187.54244
  23869578.560   125435497.69705  23869576.480    97741946.98041
  20614090.860   108327797.41608  20614088.260    84411274.59247
  21217265.520   111497564.68008  21217262.340    86881239.79746
  20463571.700   107536843.79008  20463573.240    83794976.60248
  22076210.420   116011366.86207  22076211.420    90398523.69645
 15 03 06 02 42  0.0000000  0  9G04G11G14G16G18G19G22G27G32
  21306583.920   111966943.38108  21306584.000    87246990.38745
  22539864.600   118447821.64307  22539864.220    92296995.31843
  24041152.140   126337109.66604  24041152.620    98444507.52843
  22731867.600   119456772.28907  22731867.560    93083196.64345
  23885870.920   125521115.41205  23885868.940    97808662.04841
  20608966.560   108300869.30108  20608964.020    84390291.64747
  21225896.040   111542918.48408  21225892.880    86916580.43246
  20467518.840   107557586.20909  20467520.400    83811139.52048
  22057364.340   115912329.82507  22057365.320    90321352.04045
 15 03 06 02 42 30.0000000  0 10G01G04G11G14G16G18G19G22G27G32
  23534940.740   123676938.62805  23534944.080    96371660.78844
  21296637.380   111914673.75808  21296637.340    87206260.82745
  22525039.540   118369914.73907  22525038.920    92236288.65343
  24028140.360   126268730.70305  24028141.060    98391225.30643
  22750716.420   119555823.46707  22750716.340    93160379.33044
  23902195.420   125606900.84706  23902193.140    97875507.88643
  20603903.880   108274264.35908  20603901.260    84369560.51747
  21234607.600   111588698.60608  21234604.500    86952253.24646
  20471540.340   107578719.30808  20471541.980    83827606.86848
  22038579.640   115813615.58407  22038580.560    90244431.88944
 15 03 06 02 43  0.0000000  0 10G01G04G11G14G16G18G19G22G27G32
  23520736.200   123602296.05405  23520740.360    96313497.78442
  21286741.700   111862671.94008  21286741.640    87165739.94645
  22510243.480   118292160.93507  22510242.740    92175701.29644
  24015167.200   126200554.61804  24015168.220    98338101.13543
  22769610.780   119655112.88007  22769610.520    93237747.66344
  23918555.080   125692870.32105  23918552.780    97942497.06543
  20598906.340   108248002.19908  20598903.660    84349096.50047
  21243403.400   111634921.59608  21243400.460    86988271.15646
  20475639.820   107600262.06508  20475641.460    83844393.42247
  22019860.360   115715245.09007  22019861.320    90167779.59744
 15 03 06 02 43 30.0000000  0  9G01G04G11G16G18G19G22G27G32
  23506557.800   123527788.89205  23506561.460    96255440.29843
  21276893.380   111810918.82908  21276893.340    87125412.84545
  22495472.980   118214541.65907  22495472.300    92115218.78644
  22788546.500   119754619.09407  22788545.920    93315284.91344
  23934945.660   125779002.52805  23934943.440    98009613.07243
  20593970.580   108222064.81508  20593967.920    84328885.54647
  21252279.580   111681566.72208  21252276.700    87024618.01246
  20479813.660   107622195.77208  20479815.280    83861484.61947
  22001203.220   115617201.47307  22001204.220    90091382.02945
 15 03 06 02 44  0.0000000  0  9G01G04G11G16G18G19G22G27G32
  23492409.120   123453436.75105  23492412.300    96197503.62243
  21267096.120   111759434.30408  21267096.240    87085295.05745
  22480732.020   118137077.01807  22480731.220    92054856.76844
  22807526.540   119854358.69507  22807525.780    93393004.05744
  23951370.460   125865314.72305  23951368.080    98076869.31741
  20589100.660   108196473.05808  20589098.060    84308943.91747
  21261239.420   111728651.44908  21261236.560    87061307.41446
  20484065.680   107644540.50008  20484067.320    83878896.09647
  21982612.460   115519506.96907  21982613.380    90015256.48444
 15 03 06 02 44 30.0000000  0  9G01G04G11G16G18G19G22G27G32
  23478288.000   123379229.80405  23478291.100    96139680.07844
  21257348.100   111708208.27808  21257348.320    87045378.69645
  22466018.740   118059758.05807  22466017.980    91994608.22744
  22826548.420   119954318.94507  22826547.620    93470895.10944
  23967827.400   125951795.35406  23967824.780    98144256.80242
  20584294.900   108171218.73908  20584292.400    84289265.23147
  21270280.760   111776164.17908  21270277.860    87098330.31246
  20488394.180   107667286.99008  20488395.800    83896620.62148
  21964086.660   115422154.19707  21964087.620    89939397.22745
 15 03 06 02 45  0.0000000  0  9G01G04G11G16G18G19G22G27G32
  23464195.060   123305170.53205  23464198.280    96081971.57344
  21247649.800   111657243.55208  21247650.140    87005665.92845
  22451333.720   117982587.89907  22451332.980    91934475.67044
  22845612.040   120054499.23307  22845611.320    93548957.63644
  23984316.600   126038444.84306  23984313.360    98211775.88043
  20579554.040   108146305.54608  20579551.560    84269852.35847
  21279403.720   111824105.53208  21279400.740    87135687.21246
  20492799.720   107690438.16408  20492801.260    83914660.48948
  21945626.960   115325148.27607  21945627.840    89863808.24645
 15 03 06 02 45 30.0000000  0  9G01G04G11G16G18G19G22G27G32
  23450129.960   123231257.68805  23450133.240    96024377.20042
  21238000.960   111606538.41908  21238001.280    86966155.45345
  22436676.840   117905565.61607  22436676.140    91874458.33444
  22864716.620   120154895.39307  22864716.180    93627188.37744
  24000837.120   126125259.27206  24000833.860    98279423.46944
  20574878.100   108121733.17908  20574875.540    84250705.05447
  21288607.680   111872472.36608  21288604.620    87173375.65446
  20497282.100   107713993.00908  20497283.620    83933014.90447
  21927233.380   115228490.12807  21927234.220    89788490.25444
 15 03 06 02 46  0.0000000  0 10G01G04G11G14G16G18G19G22G27G32
  23436094.540   123157501.02106  23436097.860    95966904.49144
  21228403.400   111556102.81608  21228403.640    86926855.00945
  22422050.160   117828701.87807  22422049.480    91814564.51644
  23938132.680   125795730.56205  23938132.280    98022644.09341
  22883863.520   120255514.25606  22883863.500    93705592.65844
  24017390.360   126212246.45205  24017387.400    98347205.70341
  20570269.120   108097512.47608  20570266.460    84231831.77747
  21297894.060   111921272.21208  21297890.940    87211401.51946
  20501843.200   107737961.72008  20501844.760    83951691.81147
  21908908.340   115132191.85807  21908909.240    89713452.69245
 15 03 06 02 46 30.0000000  0 10G01G04G11G14G16G18G19G22G27G32
  23422085.500   123083882.71206  23422088.780    95909539.64643
  21218853.680   111505918.71708  21218853.980    86887750.54145
  22407450.340   117751979.43307  22407449.760    91754780.80744
  23925433.300   125728995.73705  23925432.560    97970642.93543
  22903048.920   120356335.29607  22903049.260    93784154.46844
  24033972.580   126299386.76905  24033970.140    98415107.22242
  20565723.960   108073627.32308  20565721.260    84213219.97247
  21307258.960   111970485.25408  21307255.980    87249749.33846
  20506479.780   107762326.95508  20506481.360    83970677.70648
  21890648.840   115036238.19507  21890649.820    89638683.64344
 15 03 06 02 47  0.0000000  0 10G01G04G11G14G16G18G19G22G27G32
  23408104.720   123010413.23506  23408108.000    95852290.72244
  21209353.820   111455996.75008  21209354.120    86848850.33145
  22392879.400   117675408.99707  22392878.860    91695115.54044
  23912775.660   125662480.43005  23912775.360    97918812.88943
  22922274.440   120457366.40107  22922274.980    93862879.95544
  24050585.360   126386688.20305  24050583.120    98483134.32044
  20561244.780   108050089.09708  20561242.160    84194878.49748
  21316704.220   112020120.68508  21316701.380    87288426.28746
  20511193.860   107787099.58308  20511195.420    83989981.04748
  21872457.380   114940642.07907  21872458.440    89564193.20045
 15 03 06 02 47 30.0000000  0 10G01G04G11G14G16G18G19G22G27G32
  23394151.980   122937091.12606  23394155.360    95795156.66044
  21199903.500   111406335.41208  21199903.840    86810153.20045
  22378337.220   117598990.15507  22378336.860    91635568.42844
  23900160.040   125596186.47605  23900160.140    97867155.28144
  22941539.160   120558602.87807  22941539.660    93941765.46843
  24067228.220   126474147.41406  24067226.320    98551284.37343
  20556831.660   108026897.84308  20556829.100    84176807.39448
  21326229.200   112070174.81908  21326226.380    87327429.50246
  20515985.280   107812278.54208  20515986.800    84009601.01148
  21854334.120   114845404.38007  21854335.200    89489982.04145
 15 03 06 02 48  0.0000000  0 10G01G04G11G14G16G18G19G22G27G32
  23380227.040   122863915.32706  23380230.300    95738136.59044
  21190502.620   111356933.64308  21190502.940    86771658.33645
  22363823.760   117522722.08307  22363823.260    91576138.77244
  23887586.920   125530115.28605  23887587.660    97815671.30441
  22960842.280   120660040.42507  22960842.520    94020807.69944
  24083900.460   126561760.99205  24083898.800    98619554.65042
  20552484.560   108004053.54708  20552482.000    84159006.63747
  21335833.300   112120644.35908  21335830.460    87366756.42446
  20520853.840   107837863.05808  20520855.380    84029536.98748
  21836279.400   114750526.28107  21836280.480    89416051.10144
 15 03 06 02 48 30.0000000  0 10G01G04G11G14G16G18G19G22G27G32
  23366329.840   122790885.11406  23366333.080    95681229.96942
  21181150.920   111307790.50408  21181151.340    86733364.99145
  22349339.100   117446604.79707  22349338.500    91516826.62944
  23875056.740   125464269.14205  23875057.680    97764362.58241
  22980183.080   120761676.01707  22980183.100    94100004.20244
  24100601.620   126649526.20405  24100600.100    98687943.16241
  20548203.620   107981556.86108  20548201.040    84141476.74847
  21345515.900   112171526.73608  21345513.080    87406405.03046
  20525799.500   107863852.84708  20525801.100    84049788.74847
  21818293.440   114656009.58607  21818294.540    89342401.77645
 15 03 06 02 49  0.0000000  0 10G01G04G11G14G16G18G19G22G27G32
  23352460.780   122718003.33405  23352464.160    95624439.02344
  21171849.060   111258909.07308  21171849.560    86695275.57545
  22334883.820   117370641.97207  22334883.200    91457634.84044
  23862570.400   125398653.77605  23862571.400    97713233.70744
  22999561.500   120863509.46807  22999561.220    94179354.88644
  24117331.740   126737443.76705  24117330.160    98756450.32143
  20543989.560   107959411.91308  20543986.980    84124220.94647
  21355277.200   112222823.10308  21355274.480    87446376.22746
  20530822.920   107890251.14508  20530824.460    84070358.84848
  21800377.400   114561859.66907  21800378.400    89269038.23144
 15 03 06 02 49 30.0000000  0 10G01G04G11G14G16G18G19G22G27G32
  23338619.920   122645269.80005  23338623.160    95567763.56244
  21162597.000   111210289.01208  21162597.440    86657389.82745
  22320458.020   117294834.08107  22320457.420    91398563.77644
  23850128.440   125333271.55005  23850129.300    97662286.53643
  23018976.920   120965537.14807  23018976.360    94258856.95243
  24134090.460   126825511.60105  24134088.940    98825074.60141
  20539842.560   107937619.69808  20539840.000    84107239.99647
  21365116.800   112274530.96208  21365114.120    87486668.06946
  20535924.120   107917058.03208  20535925.580    84091247.32347
  21782531.540   114468078.63707  21782532.480    89195962.13944
 15 03 06 02 50  0.0000000  0 10G01G04G11G14G16G18G19G22G27G32
  23324807.080   122572683.23205  23324810.420    95511202.66843
  21153394.340   111161929.10408  21153394.780    86619706.79845
  22306061.600   117219180.35107  22306060.900    91339612.85744
  23837731.200   125268124.29405  23837731.980    97611522.49243
  23038428.620   121067755.80207  23038428.040    94338507.80244
  24150877.040   126913726.19105  24150875.660    98893813.20841
  20535762.700   107916180.08108  20535760.140    84090533.80347
  21375034.040   112326647.17208  21375031.440    87527278.10346
  20541102.940   107944272.69908  20541104.380    84112453.55047
  21764756.060   114374667.46507  21764756.820    89123174.24145
 15 03 06 02 50 30.0000000  0 10G01G04G11G14G16G18G19G22G27G32
  23311022.080   122500243.38506  23311025.520    95454756.05944
  21144241.140   111113828.86508  21144241.560    86582226.10645
  22291694.740   117143681.53507  22291693.980    91280782.63843
  23825379.320   125203214.48006  23825380.000    97560943.43643
  23057915.860   121170161.63407  23057915.300    94418304.49744
  24167691.080   127002085.20106  24167690.000    98962664.34041
  20531750.220   107895094.27009  20531747.680    84074103.30547
  21385028.520   112379169.52308  21385026.120    87568204.61446
  20546359.320   107971895.11309  20546360.800    84133977.50247
  21747051.320   114281628.39908  21747052.020    89050676.30344
 15 03 06 02 51  0.0000000  0 10G01G04G11G14G16G18G19G22G27G32
  23297265.080   122427950.30106  23297268.540    95398423.80443
  21135137.400   111065988.58108  21135137.760    86544947.95345
  22277357.420   117068337.96107  22277356.620    91222073.37944
  23813073.140   125138544.89406  23813073.880    97510551.61342
  23077438.180   121272752.12607  23077437.680    94498245.09343
  24184532.340   127090586.84106  24184531.280    99031626.69941
  20527805.240   107874363.36008  20527802.740    84057949.34348
  21395100.020   112432096.19008  21395097.820    87609446.16746
  20551693.380   107999925.71609  20551694.840    84155819.51848
  21729417.860   114188963.68908  21729418.440    88978470.05445
 15 03 06 02 51 30.0000000  0 10G01G04G11G14G16G18G19G22G27G32
  23283536.360   122355805.90006  23283540.100    95342207.41644
  21126083.460   111018409.89208  21126083.720    86507873.65245
  22263050.140   116993152.34207  22263049.360    91163487.20444
  23800813.580   125074120.11406  23800814.260    97460350.49043
  23096995.320   121375525.79307  23096995.060    94578328.42544
  24201400.640   127179230.51305  24201399.400    99100699.69543
  20523928.520   107853990.55908  20523925.900    84042074.41948
  21405248.520   112485426.70208  21405246.400    87651002.41246
  20557105.520   108028366.61209  20557107.000    84177981.24748
  21711856.460   114096677.67308  21711857.000    88906558.91345
 15 03 06 02 52  0.0000000  0 10G01G04G11G14G16G18G19G22G27G32
  23269835.920   122283809.65206  23269839.740    95286106.48343
  21117079.240   110971092.29608  21117079.420    86471002.79745
  22248772.880   116918124.65908  22248772.100    91105024.09244
  23788601.000   125009942.62806  23788601.660    97410342.07342
  23116586.600   121478479.19507  23116586.660    94658551.79243
  24218295.540   127268013.82206  24218293.740    99169881.52542
  20520120.000   107833976.36508  20520117.380    84026478.94748
  21415473.460   112539158.94608  21415471.280    87692871.68946
  20562595.700   108057217.62609  20562597.160    84200462.54548
  21694367.420   114004772.11908  21694367.980    88834944.22844
 15 03 06 02 52 30.0000000  0 10G01G04G11G14G16G18G19G22G27G32
  23256163.380   122211959.90706  23256167.140    95230119.71344
  21108124.340   110924034.22308  21108124.640    86434334.18345
  22234525.580   116843254.13208  22234524.760    91046683.43044
  23776435.660   124946013.39306  23776436.340    97360527.09542
  23136211.340   121581608.64607  23136211.740    94738912.38044
  24235216.240   127356932.93005  24235214.160    99239169.07841
  20516379.600   107814320.70108  20516377.100    84011162.84748
  21425774.140   112593289.05108  21425771.820    87735050.98646
  20568163.640   108086477.39309  20568165.160    84223262.35548
  21676950.860   113913247.72208  21676951.460    88763626.55844
 15 03 06 02 53  0.0000000  0 10G01G04G11G14G16G18G19G22G27G32
  23242519.300   122140259.86606  23242523.140    95174249.61544
  21099219.460   110877239.11808  21099219.900    86397870.46445
  22220308.840   116768544.68508  22220307.880    90988468.31344
  23764318.680   124882338.68805  23764319.420    97310910.45242
  23155869.660   121684914.31207  23155870.340    94819410.25643
  24252162.980   127445989.30905  24252161.180    99308563.66743
  20512708.280   107795027.84209  20512705.780    83996129.44748
  21436150.860   112647818.40808  21436148.480    87777541.39946
  20573810.020   108116149.44709  20573811.580    84246383.41948
  21659607.860   113822110.08408  21659608.460    88692610.24045
 15 03 06 02 53 30.0000000  0 10G01G04G11G14G16G18G19G22G27G32
  23228903.240   122068707.47706  23228907.200    95118494.53945
  21090364.240   110830704.51808  21090364.720    86361609.74746
  22206122.400   116693994.85507  22206121.360    90930377.55744
  23752250.340   124818919.28005  23752250.900    97261492.73244
  23175560.540   121788390.85007  23175561.300    94900041.26444
  24269134.940   127535178.78205  24269133.560    99378061.93843
  20509105.880   107776096.92109  20509103.340    83981378.08648
  21446602.720   112702742.74308  21446600.300    87820339.58546
  20579534.520   108146232.01809  20579536.120    84269824.37848
  21642338.420   113731359.41808  21642339.080    88621895.48745
 15 03 06 02 54  0.0000000  0 10G01G04G11G14G16G18G19G22G27G32
  23215315.580   121997303.76806  23215319.640    95062855.32044
  21081558.880   110784431.26908  21081559.240    86325552.66045
  22191966.620   116619606.28607  22191965.600    90872412.44543
  23740231.180   124755758.68005  23740231.780    97212276.71743
  23195283.640   121892036.25607  23195284.240    94980803.85043
  24286131.920   127624500.36005  24286131.060    99447663.12242
  20505572.800   107757530.34208  20505570.180    83966910.61748
  21457129.480   112758060.86708  21457126.980    87863444.61846
  20585337.380   108176726.28709  20585338.960    84293586.13647
  21625143.300   113640998.95208  21625144.020    88551484.74044
 15 03 06 02 54 30.0000000  0 10G01G04G11G14G16G18G19G22G27G32
  23201755.680   121926046.70106  23201759.860    95007330.34744
  21072802.960   110738417.76608  21072803.100    86289697.98845
  22177841.340   116545377.83807  22177840.400    90814572.10444
  23728261.540   124692857.85305  23728261.880    97163263.09343
  23215038.160   121995846.23707  23215038.460    95061694.70544
  24303153.260   127713949.73905  24303152.700    99517363.90641
  20502108.880   107739327.15709  20502106.180    83952726.31547
  21467730.300   112813768.66808  21467727.800    87906853.29446
  20591218.260   108207630.56509  20591219.880    84317667.37947
  21608022.540   113551028.98208  21608023.320    88481378.30144
 15 03 06 02 55  0.0000000  0 10G01G04G11G14G16G18G19G22G27G32
  23188223.720   121854936.16506  23188227.920    94951919.59344
  21064096.380   110692663.85108  21064096.420    86254045.60545
  22163746.700   116471310.12308  22163745.820    90756857.01844
  23716341.900   124630219.37205  23716342.160    97114453.94742
  23234823.360   122099817.29507  23234823.420    95142711.04544
  24320198.700   127803524.86405  24320198.400    99587162.69143
  20498714.340   107721488.53409  20498711.560    83938826.08248
  21478405.000   112869864.70808  21478402.480    87950564.48846
  20597177.180   108238944.93509  20597178.840    84342068.17648
  21590976.500   113461451.68708  21590977.320    88411577.83645
 15 03 06 02 55 30.0000000  0 10G01G04G11G14G16G18G19G22G27G32
  23174719.880   121783972.86006  23174724.200    94896623.57344
  21055439.280   110647169.95008  21055439.220    86218595.79845
  22149682.860   116397404.51007  22149682.080    90699268.24544
  23704472.940   124567846.81805  23704472.940    97065851.98143
  23254638.800   122203946.95507  23254638.480    95223851.00544
  24337267.880   127893224.37105  24337267.820    99657058.40641
  20495389.420   107704016.28208  20495386.660    83925211.34248
  21489153.280   112926347.19808  21489150.760    87994576.82246
  20603214.340   108270670.33009  20603216.040    84366789.25548
  21574005.880   113372270.08508  21574006.560    88342085.68945
 15 03 06 02 56  0.0000000  0 10G01G04G11G14G16G18G19G22G27G32
  23161244.280   121713158.44006  23161248.480    94841443.51844
  21046831.880   110601937.69208  21046831.780    86183349.89146
  22135650.360   116323663.23308  22135649.560    90641807.54044
  23692655.440   124505744.64205  23692655.160    97017460.63342
  23274484.260   122308234.68907  23274483.600    95305114.12143
  24354360.780   127983048.15805  24354360.760    99727050.97641
  20492134.780   107686913.26808  20492132.080    83911884.31748
  21499975.020   112983215.80708  21499972.540    88038890.02646
  20609330.100   108302808.56109  20609331.720    84391832.02247
  21557111.220   113283487.94308  21557111.800    88272904.83445
 15 03 06 02 56 30.0000000  0 10G01G04G11G14G16G18G19G22G27G32
  23147797.020   121642492.38606  23147801.220    94786379.10345
  21038274.240   110556966.79008  21038274.100    86148307.63046
  22121649.260   116250086.66208  22121648.440    90584475.16944
  23680889.740   124443914.95905  23680889.340    96969281.67743
  23294358.980   122412676.68307  23294358.260    95386497.41544
  24371476.740   128072993.33505  24371476.560    99797138.17841
  20488950.540   107670180.27008  20488947.920    83898845.61448
  21510869.780   113040467.85508  21510867.300    88083502.01046
  20615524.380   108335359.42309  20615525.920    84417196.31648
  21540292.900   113195107.12708  21540293.360    88204036.69045
 15 03 06 02 57  0.0000000  0 10G01G04G11G14G16G18G19G22G27G32
  23134377.920   121571974.94206  23134382.000    94731430.48244
  21029766.340   110512257.23208  21029766.140    86113469.02845
  22107679.660   116176675.65807  22107678.800    90527271.81244
  23669176.460   124382360.76106  23669176.240    96921317.45343
  23314262.520   122517270.53107  23314262.000    95467999.03344
  24388615.520   128163058.21105  24388615.720    99867318.57841
  20485836.980   107653818.54108  20485834.420    83886096.21348
  21521837.080   113098101.54208  21521834.540    88128411.37846
  20621797.200   108368323.30909  20621798.720    84442882.45547
  21523551.440   113107130.05808  21523551.820    88135483.17345
 15 03 06 02 57 30.0000000  0 10G01G04G11G14G16G18G19G22G27G32
  23120987.200   121501606.02607  23120991.100    94676597.61844
  21021308.040   110467808.95208  21021307.980    86078834.01646
  22093741.660   116103430.85008  22093740.700    90470197.94444
  23657515.940   124321084.81405  23657516.180    96873569.97243
  23334194.300   122622013.22206  23334193.900    95549616.65544
  24405776.660   128253240.93105  24405776.780    99937590.80941
  20482794.360   107637829.34409  20482791.780    83873637.10048
  21532876.600   113156114.54808  21532874.040    88173616.31246
  20628148.620   108401700.27309  20628150.180    84468890.47247
  21506887.240   113019558.93608  21506887.580    88067245.96645
 15 03 06 02 58  0.0000000  0 10G01G04G11G14G16G18G19G22G27G32
  23107624.480   121431384.30006  23107628.380    94621879.43544
  21012899.240   110423620.75708  21012899.300    86044401.64245
  22079835.080   116030351.36608  22079834.020    90413252.91044
  23645908.660   124260088.60806  23645908.800    96826040.48543
  23354153.700   122726900.65907  23354153.560    95631347.07643
  24422959.600   128343538.03404  24422959.700   100007952.14744
  20479822.540   107622212.32009  20479819.980    83861467.99448
  21543987.680   113214503.73408  21543985.180    88219114.38546
  20634578.420   108435489.17609  20634580.000    84495219.48047
  21490300.360   112932394.52208  21490300.760    87999325.68645
 15 03 06 02 58 30.0000000  0 10G01G04G11G14G16G18G19G22G27G32
  23094290.240   121361312.07606  23094294.100    94567277.73444
  21004540.280   110379694.74608  21004540.420    86010173.59646
  22065960.560   115957440.60507  22065959.480    90356439.33444
  23634355.580   124199377.20206  23634355.620    96778732.93142
  23374140.480   122831931.88906  23374140.360    95713189.54043
  24440164.320   128433949.81604  24440164.140   100078402.88043
  20476922.300   107606971.22209  20476919.700    83849591.80248
  21555170.360   113273269.32908  21555167.900    88264905.75446
  20641087.100   108469692.53909  20641088.700    84521871.44447
  21473791.760   112845641.40908  21473792.200    87931725.88645
 15 03 06 02 59  0.0000000  0 10G01G04G11G14G16G18G19G22G27G32
  23080984.220   121291388.50306  23080988.120    94512791.87044
  20996231.120   110336030.20708  20996231.320    85976149.28446
  22052117.980   115884698.60907  22052117.220    90299757.28444
  23622857.060   124138952.31306  23622856.940    96731648.63743
  23394153.920   122937103.62207  23394153.980    95795141.46843
  24457390.380   128524473.58504  24457390.120   100148940.93144
  20474093.720   107592106.62909  20474091.100    83838009.00648
  21566424.080   113332408.28208  21566421.620    88310988.04846
  20647674.520   108504309.56709  20647676.160    84548845.74647
  21457361.620   112759300.82208  21457362.080    87864447.52945
 15 03 06 02 59 30.0000000  0 10G01G04G11G14G16G18G19G22G27G32
  23067706.160   121221612.15206  23067709.940    94458420.73744
  20987971.440   110292625.61308  20987971.620    85942327.52346
  22038307.520   115812124.89607  22038306.840    90243206.34444
  23611413.360   124078815.71806  23611413.200    96684789.00041
  23414193.380   123042411.57507  23414193.560    95877199.55343
  24474637.040   128615084.70605  24474637.780   100219546.29742
  20471336.720   107577618.10209  20471334.020    83826719.24148
  21577748.180   113391917.12608  21577745.680    88357358.58046
  20654340.480   108539339.06909  20654342.080    84576141.45247
  21441010.120   112673373.62708  21441010.780    87797491.29845
 15 03 06 03 00  0.0000000  0 10G01G04G11G14G16G18G19G22G27G32
  23054456.160   121151983.42906  23054459.940    94404164.62644
  20979761.360   110249481.21808  20979761.540    85908708.51946
  22024529.340   115739720.20307  22024528.680    90186787.11744
  23600025.040   124018969.92106  23600024.960    96638155.90543
  23434258.180   123147852.90506  23434258.320    95959361.56343
  24491904.300   128705823.96105  24491904.140   100290252.23041
  20468651.500   107563507.19409  20468648.840    83815723.73248
  21589142.400   113451794.19508  21589139.780    88404016.03746
  20661085.020   108574781.51109  20661086.540    84603758.92748
  21424737.780   112587862.41508  21424738.640    87730859.21445
 15 03 06 03 00 30.0000000  0 10G01G04G11G14G16G18G19G22G27G32
  23041234.600   121082503.75706  23041238.220    94350024.67344
  20971601.080   110206598.78008  20971601.320    85875293.63746
  22010783.780   115667486.65507  22010783.100    90130501.25344
  23588692.800   123959419.41305  23588692.820    96591752.90342
  23454348.040   123253426.12906  23454348.300    96041626.35044
  24509191.740   128796669.44804  24509191.120   100361040.89941
  20466038.580   107549776.27209  20466035.920    83805024.31548
  21600606.580   113512038.64208  21600603.900    88450959.74946
  20667908.400   108610638.43109  20667909.820    84631699.38047
  21408545.360   112502770.68208  21408546.260    87664553.97945
 15 03 06 03 01  0.0000000  0 10G01G04G11G14G16G18G19G22G27G32
  23028041.480   121013173.38306  23028045.140    94296001.03644
  20963490.640   110163978.26708  20963490.880    85842082.87246
  21997070.980   115595425.14507  21997070.220    90074349.43944
  23577417.320   123900167.21905  23577417.720    96545582.41044
  23474462.540   123359128.70006  23474462.860    96123991.91043
  24526498.940   128887619.45904  24526498.140   100431911.04741
  20463498.280   107536426.87909  20463495.520    83794622.18748
  21612140.480   113572649.09108  21612137.740    88498188.67546
  20674810.600   108646910.14909  20674812.100    84659963.05047
  21392433.220   112418100.85908  21392434.140    87598577.51945
 15 03 06 03 01 30.0000000  0 10G01G04G11G14G16G18G19G22G27G32
  23014876.440   120943990.53906  23014880.000    94242092.36744
  20955429.720   110121617.95708  20955429.960    85809074.85745
  21983390.860   115523535.10907  21983390.040    90018331.24744
  23566198.720   123841213.86705  23566199.780    96499644.73442
  23494600.840   123464956.46706  23494601.140    96206455.00343
  24543825.340   128978670.40204  24543824.620   100502859.79241
  20461030.480   107523458.43209  20461027.640    83784516.89548
  21623743.160   113633621.36508  21623740.320    88545699.53446
  20681791.480   108683595.04009  20681793.060    84688548.66547
  21376401.460   112333853.34408  21376402.340    87532930.12145
 15 03 06 03 02  0.0000000  0 10G01G04G11G14G16G18G19G22G27G32
  23001739.700   120874956.99506  23001743.420    94188300.03645
  20947418.720   110079519.61508  20947418.860    85776270.96245
  21969743.800   115451819.02808  21969742.860    89962448.59544
  23555037.980   123782564.27605  23555039.560    96453943.80444
  23514762.780   123570908.02206  23514763.160    96289014.60043
  24561170.940   129069822.06104  24561171.440   100573884.10243
  20458635.640   107510873.54209  20458632.740    83774710.48448
  21635414.560   113694955.01508  21635411.600    88593491.98246
  20688851.340   108720694.96709  20688853.000    84717457.69147
  21360450.820   112250032.05808  21360451.660    87467614.84745
 15 03 06 03 02 30.0000000  0 10G01G04G11G14G16G18G19G22G27G32
  22988630.980   120806070.28806  22988634.740    94134622.13644
  20939457.100   110037680.82308  20939457.160    85743669.30646
  21956129.440   115380275.19107  21956128.520    89906700.16744
  23543935.080   123724218.50005  23543936.380    96408479.58341
  23534947.320   123676978.34806  23534947.800    96371666.74143
  24578534.900   129161070.12204  24578534.340   100644986.52543
  20456313.560   107498671.17609  20456310.680    83765202.14848
  21647153.840   113756645.16708  21647150.900    88641562.23246
  20695989.720   108758207.54109  20695991.440    84746688.25847
  21344581.180   112166636.52108  21344582.040    87402631.33645
 15 03 06 03 03  0.0000000  0 10G01G04G11G14G16G18G19G22G27G32
  22975550.680   120737332.27006  22975554.400    94081060.07444
  20931545.140   109996103.15308  20931545.220    85711271.12846
  21942548.260   115308906.05207  21942547.400    89851087.85944
  23532890.800   123666181.16306  23532891.980    96363255.64443
  23555154.280   123783165.69106  23555154.660    96454410.04643
  24595917.280   129252414.64804  24595916.800   100716163.94443
  20454064.880   107486854.35409  20454062.040    83755994.23048
  21658961.080   113818692.46908  21658958.240    88689910.77346
  20703206.980   108796134.60609  20703208.720    84776241.80547
  21328793.320   112083670.69608  21328794.160    87337982.65845
 15 03 06 03 03 30.0000000  0 10G01G04G11G14G16G18G19G22G27G32
  22962498.660   120668742.75307  22962502.280    94027613.74344
  20923682.860   109954786.65308  20923682.920    85679076.45746
  21929000.340   115237711.72508  21928999.600    89795611.77844
  23521905.900   123608454.73006  23521906.920    96318274.05644
  23575383.000   123889467.24206  23575383.320    96537242.35143
  24613317.560   129343853.54005  24613316.940   100787415.13241
  20451889.720   107475424.01008  20451886.960    83747087.46948
  21670835.660   113881093.82108  21670833.000    88738535.19746
  20710503.180   108834476.01009  20710504.820    84806118.21747
  21313087.660   112001136.46808  21313088.280    87273670.29345
 15 03 06 03 04  0.0000000  0 10G01G04G11G14G16G18G19G22G27G32
  22949474.920   120600301.97306  22949478.380    93974283.27944
  20915870.360   109913731.63308  20915870.340    85647085.52445
  21915486.160   115166694.44508  21915485.480    89740273.66544
  23510980.700   123551042.13505  23510981.300    96273536.99443
  23595633.060   123995881.17406  23595633.380    96620162.22144
  24630735.320   129435384.67804  24630735.300   100858738.00941
  20449788.340   107464381.37808  20449785.660    83738482.82148
  21682777.220   113943847.55508  21682774.760    88787434.20946
  20717878.240   108873232.07209  20717879.820    84836317.73447
  21297464.620   111919036.29208  21297465.020    87209696.15645
 15 03 06 03 04 30.0000000  0 10G01G04G11G14G16G18G19G22G27G32
  22936479.660   120532011.62807  22936483.120    93921070.06044
  20908107.880   109872939.52008  20908107.820    85615299.47645
  21902006.080   115095856.29908  21902005.280    89685075.12244
  23500116.060   123493947.56506  23500116.320    96229047.72544
  23615904.060   124102405.82206  23615904.560    96703168.37043
  24648170.620   129527007.94004  24648170.680   100930132.82241
  20447761.300   107453729.42909  20447758.680    83730182.60548
  21694785.900   114006953.55708  21694783.500    88836607.71546
  20725332.480   108912404.47309  20725334.100    84866841.67747
  21281924.860   111837373.75808  21281925.040    87146063.04445
 15 03 06 03 05  0.0000000  0 10G01G04G11G14G16G18G19G22G27G32
  22923512.480   120463868.60107  22923515.640    93867971.61444
  20900394.860   109832407.39508  20900394.760    85583716.00645
  21888559.640   115025194.71208  21888558.740    89630014.17944
  23489311.880   123437170.84806  23489311.660    96184806.12543
  23636194.960   124209035.11106  23636195.480    96786256.04443
  24665622.600   129618718.65604  24665622.220   101001595.67541
  20445808.340   107443466.30609  20445805.760    83722185.35948
  21706860.600   114070406.27908  21706858.260    88886051.39646
  20732865.340   108951990.13509  20732867.020    84897687.64147
  21266468.100   111756147.83108  21266468.120    87082770.13645
 15 03 06 03 05 30.0000000  0 10G01G04G11G14G16G18G19G22G27G32
  22910573.340   120395872.84807  22910576.380    93814987.92144
  20892731.300   109792135.03108  20892731.140    85552334.94546
  21875146.980   114954710.56608  21875145.980    89575091.47644
  23478568.600   123380714.48606  23478568.300    96140814.21843
  23656505.160   124315766.08506  23656505.540    96869422.96544
  24683090.860   129710514.68304  24683090.100   101073125.04042
  20443929.480   107433592.71409  20443926.960    83714491.65448
  21719000.860   114134203.61908  21718998.520    88935763.60346
  20740476.880   108991988.98709  20740478.540    84928855.55747
  21251094.740   111675360.56008  21251094.740    87019819.03245
 15 03 06 03 06  0.0000000  0 10G01G04G11G14G16G18G19G22G27G32
  22897662.800   120328027.60507  22897665.860    93762121.54444
  20885117.860   109752125.77208  20885117.680    85521158.89945
  21861768.980   114884407.85208  21861767.820    89520310.16444
  23467887.420   123324584.17006  23467887.080    96097076.30943
  23676834.920   124422599.38706  23676835.460    96952669.58343
  24700575.580   129802397.25404  24700576.080   101144721.85143
  20442125.640   107424113.10609  20442123.080    83707104.94048
  21731206.860   114198346.43208  21731204.520    88985744.99946
  20748167.720   109032404.17509  20748169.300    84960347.90747
  21235805.700   111595017.05008  21235805.900    86957213.72745
 15 03 06 03 06 30.0000000  0 10G01G04G11G14G16G18G19G22G27G32
  22884780.340   120260330.19907  22884783.400    93709370.34644
  20877553.900   109712376.86508  20877553.760    85490185.74146
  21848425.160   114814284.88808  21848423.860    89465668.90944
  23457268.360   123268780.26506  23457268.080    96053592.76644
  23697183.280   124529529.14306  23697183.560    97035991.38344
  24718075.780   129894361.85904  24718076.240   101216382.64244
  20440396.400   107415025.92009  20440393.820    83700024.02448
  21743477.800   114262830.29108  21743475.320    89035992.17146
  20755937.280   109073233.12109  20755938.780    84992162.66047
  21220600.900   111515116.81608  21220601.420    86894953.82545
 15 03 06 03 07  0.0000000  0 10G01G04G11G14G16G18G19G22G27G32
  22871926.220   120192781.65007  22871929.380    93656735.17044
  20870039.600   109672889.18808  20870039.600    85459416.13546
  21835115.740   114744343.24508  21835114.420    89411168.94545
  23446712.080   123213306.23206  23446711.940    96010366.26943
  23717549.760   124636553.84206  23717549.580    97119387.19143
  24735591.360   129986407.62104  24735591.880   101288106.58941
  20438742.280   107406333.47609  20438739.620    83693250.68548
  21755813.320   114327653.84208  21755810.760    89086504.02846
  20763785.660   109114476.70409  20763787.200    85024300.50347
  21205481.080   111435662.59008  21205481.840    86833041.45145
 15 03 06 03 07 30.0000000  0 10G01G04G11G14G16G18G19G22G27G32
  22859100.760   120125383.78407  22859104.100    93604217.38344
  20862575.320   109633664.61008  20862575.400    85428851.53546
  21821841.260   114674585.70008  21821840.220    89356812.43845
  23436219.380   123158166.41906  23436219.240    95967400.25543
  23737934.000   124743672.54306  23737933.580    97202856.19443
  24753122.420   130078534.78004  24753123.840   101359910.00743
  20437163.780   107398038.35009  20437161.120    83686786.94648
  21768213.360   114392816.90208  21768210.920    89137280.42445
  20771713.200   109156136.61308  20771714.840    85056762.75547
  21190447.060   111356658.37908  21190447.920    86771479.75045
 15 03 06 03 08  0.0000000  0 10G01G04G11G14G16G18G19G22G27G32
  22846302.500   120058128.76807  22846305.900    93551810.90844
  20855159.580   109594695.35908  20855159.740    85398485.88546
  21808600.520   114605005.46508  21808599.680    89302594.10644
  23425789.280   123103355.81606  23425789.240    95924690.69043
  23758334.020   124850874.28606  23758333.360    97286389.94243
  24770667.120   130170733.17404                                
  20435659.640   107390133.84709  20435656.920    83680627.58748
  21780676.140   114458309.33708  21780673.740    89188313.49346
  20779718.500   109198205.12408  20779720.240    85089543.41147
  21175497.640   111278098.21608  21175498.540    86710264.06145
 15 03 06 03 08 30.0000000  0  9G01G04G11G14G16G19G22G27G32
  22833533.280   119991026.22907  22833536.540    93499523.24845
  20847794.320   109555991.17908  20847794.560    85368326.79646
  21795395.400   114535612.51908  21795394.680    89248521.70144
  23415424.140   123048886.23506  23415424.000    95882246.88943
  23778751.240   124958166.14306  23778750.420    97369993.88843
  20434231.900   107382630.80209  20434229.140    83674781.05248
  21793203.000   114524138.69108  21793200.600    89239609.09546
  20787803.420   109240691.69709  20787805.240    85122649.82347
  21160634.960   111199993.68308  21160635.760    86649403.41946
 15 03 06 03 09  0.0000000  0 10G01G04G11G14G16G18G19G22G27G32
  22820792.600   119924073.19907  22820795.700    93447352.07445
  20840479.000   109517549.01008  20840479.260    85338371.86946
  21782225.640   114466405.40208  21782224.920    89194594.10245
  23405123.900   122994757.41806  23405123.520    95840068.61343
  23799184.420   125065542.38306  23799183.440    97453663.57043
  24805800.500   130355364.06604                                
  20432880.120   107375527.11609  20432877.340    83669245.70848
  21805792.980   114590299.69508  21805790.600    89291163.11846
  20795967.380   109283593.20509  20795969.140    85156079.56147
  21145858.760   111122343.69408  21145859.380    86588896.95345
 15 03 06 03 09 30.0000000  0  9G01G04G11G14G16G19G22G27G32
  22808080.400   119857269.72207  22808083.420    93395297.41145
  20833213.560   109479369.00708  20833213.840    85308621.22646
  21769091.340   114397384.68408  21769090.580    89140811.75344
  23394888.940   122940972.36606  23394888.480    95798158.20344
  23819633.000   125173000.24306  23819632.160    97537396.86843
  20431604.540   107368824.27309  20431601.780    83664022.71448
  21818445.740   114656790.44708  21818443.380    89342974.08445
  20804210.280   109326909.70809  20804211.960    85189832.67047
  21131169.440   111045150.38408  21131169.820    86528746.34646
 15 03 06 03 10  0.0000000  0  9G01G04G11G14G16G19G22G27G32
  22795396.200   119790613.83507  22795399.160    93343357.75544
  20825997.520   109441448.76608  20825997.880    85279072.99846
  21755992.280   114328549.09808  21755991.620    89087173.65644
  23384719.460   122887531.27006  23384718.940    95756515.79342
  23840096.060   125280534.75406  23840095.660    97621189.92643
  20430405.020   107362521.04709  20430402.300    83659111.10448
  21831160.540   114723606.83608  21831158.020    89395038.81545
  20812531.680   109370639.11208  20812533.360    85223907.51547
  21116566.860   110968413.56308  21116567.180    86468951.44546
 15 03 06 03 10 30.0000000  0  9G01G04G11G14G16G19G22G27G32
  22782740.740   119724108.94207  22782743.640    93291535.78244
  20818831.700   109403791.93808  20818832.040    85249730.03646
  21742929.300   114259902.80308  21742928.620    89033683.05245
  23374616.440   122834440.19606  23374615.980    95715146.14744
  23860573.560   125388145.99406  23860573.780    97705042.72342
  20429282.380   107356621.68409  20429279.680    83654514.19148
  21843937.500   114790749.97008  21843934.900    89447358.12945
  20820932.240   109414784.46909  20820933.900    85258306.48747
  21102052.080   110892138.49408  21102052.440    86409516.33745
 15 03 06 03 11  0.0000000  0  9G01G04G11G14G16G19G22G27G32
  22770113.380   119657752.60007  22770116.420    93239829.55444
  20811715.500   109366396.05708  20811715.820    85220590.40346
  21729902.120   114191444.69408  21729901.440    88980339.06844
  23364580.200   122781699.31506  23364579.960    95674049.37744
  23881064.780   125495829.78905  23881065.360    97788952.11142
  20428236.420   107351125.13209  20428233.780    83650231.16648
  21856775.780   114858215.33708  21856773.080    89499928.54145
  20829411.520   109459343.38909  20829413.180    85293027.71147
  21087625.020   110816324.58108  21087625.560    86350440.57046
 15 03 06 03 11 30.0000000  0 10G01G04G11G14G16G18G19G22G27G32
  22757515.120   119591548.95907  22757518.280    93188242.30744
  20804649.740   109329265.22008  20804650.080    85191657.28746
  21716911.640   114123179.19008  21716911.000    88927145.19045
  23354611.860   122729315.34706  23354611.640    95633230.73443
  23901570.040   125603586.49906  23901570.840    97872918.26143
  24893870.580   130818166.45504                                
  20427268.080   107346036.37209  20427265.400    83646265.88948
  21869675.700   114926004.98208  21869673.040    89552751.63346
  20837970.280   109504319.74709  20837971.920    85328074.22547
  21073286.840   110740977.75408  21073287.580    86291728.77746
 15 03 06 03 12  0.0000000  0 11G01G03G04G11G14G16G18G19G22G27G32
  22744945.900   119525497.70607  22744949.200    93136773.85244
  24635084.520   129458237.36105  24635090.080   100876571.56543
  20797634.380   109292399.11208  20797634.680    85162930.46046
  21703958.040   114055107.46308  21703957.420    88874102.30445
  23344711.860   122677290.53306  23344711.620    95592691.95643
  23922088.700   125711413.15506  23922089.900    97956938.93843
  24911523.040   130910930.66904  24911522.140   102008525.84041
  20426377.480   107341356.10609  20426374.820    83642618.93348
  21882636.860   114994116.18708  21882634.120    89605825.31045
  20846608.400   109549713.14809  20846610.020    85363445.69647
  21059037.920   110666099.67308  21059038.800    86233382.23745
 15 03 06 03 12 30.0000000  0 10G01G03G04G11G14G16G19G22G27G32
  22732400.720   119459572.57107  22732404.120    93085403.64644
  24614562.280   129350391.91805  24614568.340   100792536.54841
  20790664.360   109255771.41808  20790664.560    85134389.40846
  21691036.360   113987203.86008  21691035.780    88821190.40545
  23334875.660   122625601.17906  23334875.440    95552414.56043
  23942615.460   125819281.15306  23942616.580    98040991.80543
  20425559.800   107337058.95509  20425557.060    83639270.49248
  21895653.840   115062520.53008  21895651.020    89659127.38445
  20855320.820   109595496.99809  20855322.420    85399121.42147
  21044873.640   110591665.76908  21044874.620    86175381.80946
 15 03 06 03 13  0.0000000  0 10G01G03G04G11G14G16G19G22G27G32
  22719887.040   119393813.76606  22719890.620    93034163.03944
  24594063.640   129242671.56805  24594070.220   100708598.97344
  20783747.400   109219422.52708  20783747.600    85106065.60046
  21678154.460   113919509.42308  21678153.920    88768441.50245
  23325111.380   122574289.78806  23325111.140    95512431.65044
  23963157.340   125927228.10806  23963158.420    98125106.21943
  20424822.840   107333186.19409  20424820.100    83636252.76048
  21908733.840   115131256.14108  21908730.940    89712687.58745
  20864115.180   109641711.45109  20864116.720    85435132.66947
  21030801.920   110517718.11608  21030802.940    86117760.28846
 15 03 06 03 13 30.0000000  0 10G01G03G04G11G14G16G19G22G27G32
  22707401.480   119328201.82706  22707405.000    92983036.88344
  24573585.440   129135058.81505  24573591.700   100624745.18945
  20776879.780   109183332.74808  20776879.960    85077943.69946
  21665308.880   113852005.29508  21665308.220    88715840.88845
  23315415.720   122523339.49206  23315415.500    95472730.10644
  23983709.940   126035231.06806  23983711.080    98209264.22843
  20424163.140   107329719.50709  20424160.420    83633551.43748
  21921872.780   115200301.23508  21921869.640    89766488.96545
  20872987.660   109688336.69308  20872989.220    85471464.01847
  21016819.400   110444238.98608  21016820.320    86060503.84746
 15 03 06 03 14  0.0000000  0 10G01G03G04G11G14G16G19G22G27G32
  22694944.220   119262738.36507  22694947.700    92932026.42044
  24553128.380   129027557.13805  24553134.620   100540977.99341
  20770061.760   109147503.70908  20770061.920    85050024.98646
  21652500.160   113784694.53108  21652499.320    88663390.96345
  23305789.520   122472754.16906  23305789.280    95433313.04143
  24004273.120   126143289.27006  24004273.840    98293465.27742
  20423581.160   107326661.15609  20423578.480    83631168.30648
  21935070.460   115269655.46708  21935067.140    89820531.22145
  20881938.560   109735374.16908  20881940.280    85508116.58447
  21002926.720   110371231.76608  21002927.440    86003615.13146
 15 03 06 03 14 30.0000000  0 10G01G03G04G11G14G16G19G22G27G32
  22682515.120   119197423.14806  22682518.520    92881131.48144
  24532692.780   128920168.29205  24532698.940   100457298.75543
  20763293.300   109111935.29508  20763293.520    85022309.33546
  21639728.360   113717577.58308  21639727.260    88611092.03844
  23296233.220   122422536.25106  23296233.040    95394182.19843
  24024846.160   126251398.99406  24024846.260    98377706.49841
  20423077.120   107324012.22409  20423074.460    83629104.19548
  21948326.520   115339316.44608  21948323.140    89874812.50245
  20890967.800   109782823.37708  20890969.640    85545089.98047
  20989124.080   110298697.94608  20989124.640    85947095.30645
 15 03 06 03 15  0.0000000  0 10G01G03G04G11G14G16G19G22G27G32
  22670114.540   119132258.03107  22670117.780    92830353.49644
  24512279.060   128812895.66305  24512285.420   100373710.07943
  20756574.760   109076629.31308  20756575.020    84994798.18646
  21626993.840   113650657.15808  21626992.640    88558946.25744
  23286747.780   122372690.16106  23286747.520    95355341.15244
  24045428.860   126359560.16806  24045428.800    98461987.85241
  20422651.520   107321775.48409  20422648.840    83627361.27048
  21961640.900   115409283.74608  21961637.520    89929332.46545
  20900075.680   109830685.91908  20900077.540    85582385.46247
  20975412.140   110226641.07608  20975412.560    85890947.11646
 15 03 06 03 15 30.0000000  0 10G01G03G04G11G14G16G19G22G27G32
  22657742.340   119067241.36907  22657745.520    92779691.20044
  24491887.560   128705739.66205  24491893.920   100290212.22444
  20749905.880   109041584.13608  20749906.100    84967490.27246
  21614296.580   113583932.59808  21614295.300    88506953.09545
  23277333.320   122323216.72206  23277333.120    95316790.41043
  24066020.360   126467768.27206  24066020.040    98546305.68342
  20422304.200   107319950.09409  20422301.520    83625938.89648
  21975012.820   115479553.64608  21975009.460    89984088.23045
  20909261.880   109878959.96208  20909263.780    85620001.58547
  20961790.880   110155061.47808  20961791.300    85835170.82946
 15 03 06 03 16  0.0000000  0 10G01G03G04G11G14G16G19G22G27G32
  22645398.300   119002373.15806  22645401.660    92729144.56145
  24471518.720   128598701.99405  24471524.980   100206806.52343
  20743286.680   109006799.64508  20743286.820    84940385.49046
  21601636.700   113517404.51108  21601635.380    88455113.02644
  23267990.280   122274118.13706  23267989.960    95278531.82844
  24086620.220   126576020.22305  24086619.240    98630657.73443
  20422035.340   107318537.12609  20422032.620    83624837.87748
  21988441.880   115550123.71008  21988438.540    90039077.88845
  20918526.320   109927645.05508  20918528.180    85657938.00447
  20948260.720   110083960.50408  20948261.240    85779767.49746
 15 03 06 03 16 30.0000000  0 10G01G03G04G11G14G16G19G22G27G32
  22633083.120   118937656.51407  22633086.480    92678716.01345
  24451173.340   128491787.78005  24451179.680   100123497.12841
  20736717.680   108972278.95508  20736717.740    84913486.25346
  21589015.080   113451077.24808  21589013.800    88403429.43444
  23258719.580   122225399.98806  23258719.260    95240569.64043
  24107228.140   126684316.50905  24107227.420    98715044.35443
  20421845.660   107317540.44309  20421842.980    83624061.23248
  22001928.280   115620995.06508  22001924.940    90094302.31045
  20927869.560   109976744.11209  20927871.380    85696197.00047
  20934822.600   110013343.12708  20934823.160    85724740.99245
 15 03 06 03 17  0.0000000  0 10G01G03G04G11G14G16G19G22G27G32
  22620796.440   118873089.76907  22620799.880    92628404.29945
  24430851.400   128384997.01705  24430857.620   100040283.90342
  20730198.480   108938020.28808  20730198.520    84886791.19445
  21576431.380   113384949.64808  21576430.120    88351901.42944
  23249521.340   122177062.94006  23249520.820    95202904.42244
  24127843.460   126792652.16105  24127843.160    98799461.62042
  20421735.000   107316959.18809  20421732.360    83623608.29948
  22015471.260   115692163.59208  22015467.800    90149758.30645
  20937291.300   110026255.04108  20937293.040    85734776.93247
  20921476.480   109943209.24508  20921477.140    85670091.23946
 15 03 06 03 17 30.0000000  0 10G01G03G04G11G14G16G19G22G27G32
  22608538.000   118808670.58507  22608541.320    92578207.53744
  24410552.960   128278329.36905  24410558.880    99957166.61643
  20723728.700   108904021.28608  20723728.680    84860298.46746
  21563885.480   113319020.93408  21563884.340    88300528.41844
  23240395.700   122129107.39406  23240395.080    95165536.44343
  24148465.440   126901022.45105  24148465.700    98883905.83441
  20421703.180   107316792.06009  20421700.560    83623478.07148
  22029069.900   115763624.89108  22029066.440    90205442.43545
  20946790.920   110076175.24808  20946792.640    85773675.78047
  20908222.280   109873558.14308  20908222.960    85615817.67746
 15 03 06 03 18  0.0000000  0 10G01G03G04G11G14G16G19G22G27G32
  22596308.120   118744401.66207  22596311.320    92528127.87744
  24390278.460   128171789.10305  24390284.420    99874148.56043
  20717308.880   108870284.84108  20717308.780    84834010.34346
  21551378.040   113253294.25608  21551376.980    88249312.83545
  23231343.480   122081538.04006  23231342.860    95128469.48044
  24169094.140   127009427.61305  24169094.740    98968377.32241
  20421750.880   107317042.67809  20421748.180    83623673.35148
  22042724.400   115835379.74108  22042720.960    90261355.28945
  20956368.760   110126507.09708  20956370.500    85812895.39147
  20895060.860   109804394.17308  20895061.400    85561923.69546
 15 03 06 03 18 30.0000000  0 10G01G03G04G11G14G16G19G22G27G32
  22584106.340   118680280.92007  22584109.400    92478163.67044
  24370028.400   128065376.13005  24370034.100    99791229.71943
  20710938.580   108836808.91708  20710938.420    84807925.21446
  21538908.900   113187768.32508  21538907.720    88198253.66445
  23222364.920   122034355.27606  23222364.280    95091703.70043
  24189728.580   127117862.57905  24189729.200    99052871.94543
  20421877.800   107317709.84909  20421875.100    83624193.22948
  22056433.920   115907423.64208  22056430.380    90317493.40145
  20966024.440   110177248.12508  20966026.160    85852433.84447
  20881992.100   109735716.88408  20881992.500    85508408.95346
 15 03 06 03 19  0.0000000  0 10G01G03G04G11G14G16G19G22G27G32
  22571933.220   118616310.58007  22571936.300    92428316.68044
  24349803.340   127959094.41105  24349808.920    99708413.14143
  20704618.240   108803595.42708  20704618.020    84782044.57446
  21526478.560   113122446.51108  21526477.340    88147353.56344
  23213460.700   121987563.65406  23213459.920    95055242.70543
  24210368.600   127226326.72705  24210369.260    99137389.30943
  20422084.600   107318796.66709  20422081.900    83625040.09648
  22070198.340   115979756.58308  22070194.840    90373856.72645
  20975758.360   110228400.11508  20975760.060    85892292.52547
  20869016.660   109667530.08408  20869016.880    85455276.40046
 15 03 06 03 19 30.0000000  0 10G01G03G04G11G14G16G19G22G27G32
  22559788.280   118552488.76507  22559791.400    92378585.41745
  24329603.360   127852943.86705  24329608.660    99625698.78143
  20698347.560   108770642.74208  20698347.340    84756367.15946
  21514086.860   113057327.96608  21514085.680    88096611.85545
  23204631.020   121941163.70106  23204630.320    95019086.90943
  24231013.400   127334815.43405  24231013.980    99221925.82741
  20422371.080   107320302.17409  20422368.360    83626213.21448
  22084017.000   116052374.32608  22084013.620    90430441.98045
  20985570.080   110279960.87508  20985571.720    85932469.72447
  20856134.420   109599833.42708  20856134.560    85402525.77746
 15 03 06 03 20  0.0000000  0 10G01G03G04G11G14G16G19G22G27G32
  22547671.740   118488816.07807  22547674.800    92328970.36744
  24309428.820   127746926.92105  24309434.160    99543088.46543
  20692126.640   108737951.30309  20692126.400    84730893.31746
  21501734.020   112992413.99008  21501732.940    88046029.53944
  23195876.440   121895158.39306  23195875.780    94983238.66443
  24251662.500   127443326.27805  24251662.900    99306479.57942
  20422737.540   107322227.76909  20422734.780    83627713.67248
  22097889.600   116125275.49408  22097886.320    90487248.08345
  20995459.620   110331930.58308  20995461.240    85972965.58847
  20843345.860   109532629.08108  20843345.960    85350158.77246
 15 03 06 03 20 30.0000000  0 10G01G03G04G11G14G16G19G22G27G32
  22535583.580   118425292.61007  22535586.560    92279471.60644
  24289280.200   127641045.48405  24289285.580    99460583.82843
  20685955.400   108705521.06008  20685955.160    84705623.00646
  21489420.380   112927705.66408  21489419.380    87995607.47345
  23187197.460   121849549.93506  23187196.820    94947699.59843
  24272315.360   127551856.74906  24272315.800    99391048.61841
  20423184.000   107324574.00509  20423181.260    83629541.90448
  22111815.700   116198458.22708  22111812.560    90544273.56445
  21005426.920   110384308.91408  21005428.500    86013779.86647
  20830651.260   109465918.62608  20830651.460    85298176.61346
 15 03 06 03 21  0.0000000  0 10G01G03G04G11G14G16G19G22G27G32
  22523523.700   118361918.25907  22523526.520    92230089.03545
  24269157.560   127535301.23305  24269162.920    99378185.98444
  20679833.840   108673352.01908  20679833.700    84680556.22046
  21477146.060   112863203.70308  21477145.060    87945346.22244
  23178594.540   121804340.68906  23178593.900    94912471.64744
  24292971.540   127660404.35205  24292972.040    99475630.98143
  20423710.780   107327342.25009  20423708.020    83631698.97648
  22125794.980   116271919.93908  22125791.900    90601516.46745
  21015471.840   110437095.31708  21015473.460    86054912.11047
  20818050.820   109399703.52608  20818051.200    85246580.44646
 15 03 06 03 21 30.0000000  0 10G01G03G04G11G14G16G19G22G27G32
  22511492.300   118298693.50107  22511495.240    92180823.02344
  24249061.500   127429696.55205  24249066.780    99295896.96343
  20673762.100   108641444.74909  20673762.060    84655693.43646
  21464911.400   112798909.93108  21464910.440    87895247.18345
  23170067.980   121759533.47406  23170067.480    94877556.97542
  24313630.620   127768966.70305  24313631.100    99560224.87841
  20424318.100   107330533.48409  20424315.340    83634185.64948
  22139827.020   116345658.99108  22139824.040    90658975.45645
  21025594.360   110490289.82808  21025596.040    86096362.36247
  20805545.040   109333985.64708  20805545.520    85195371.72046
 15 03 06 03 22  0.0000000  0 10G01G03G04G11G14G16G19G22G27G32
  22499489.640   118235619.23307  22499492.720    92131674.29244
  24228992.280   127324234.02305  24228997.820    99213718.64544
  20667740.340   108609800.13208  20667740.280    84631035.30646
  21452716.640   112734825.90908  21452715.720    87845311.59545
  23161618.440   121715131.32006  23161617.980    94842957.89143
  24334292.060   127877541.59005  24334292.340    99644828.53843
  20425006.220   107334149.39209  20425003.520    83637003.23648
  22153911.560   116419673.59808  22153908.560    90716649.17645
  21035794.680   110543892.88008  21035796.360    86138130.96147
  20793134.420   109268767.46508  20793134.940    85144552.38146
 15 03 06 03 22 30.0000000  0 10G01G03G04G11G14G16G19G22G27G32
  22487515.540   118172695.38907  22487518.700    92082642.74345
  24208950.460   127218915.22705  24208956.260    99131652.41743
  20661768.500   108578418.05308  20661768.400    84606581.74746
  21440561.960   112670952.60308  21440561.160    87795540.19245
  23153246.420   121671136.64606  23153245.980    94808676.33844
  24354955.140   127986126.25105  24354955.280    99729439.76442
  20425775.320   107338190.75109  20425772.580    83640152.33948
  22168048.260   116493962.27408  22168045.360    90774536.46045
  21046072.660   110597903.97108  21046074.340    86180217.51247
  20780819.180   109204050.31608  20780819.660    85094123.44246
 15 03 06 03 23  0.0000000  0 10G01G03G04G11G14G16G19G22G27G32
  22475569.840   118109920.62907  22475573.020    92033727.37544
  24188936.180   127113740.80305  24188942.220    99049698.61544
  20655846.260   108547296.98208  20655846.200    84582331.56946
  21428447.240   112607289.25108  21428446.500    87745932.40644
  23144952.060   121627550.11606  23144951.760    94774712.86343
  24375619.380   128094717.08905  24375619.700    99814055.86741
  20426625.220   107342656.93709  20426622.440    83643632.48448
  22182236.260   116568521.15408  22182233.500    90832634.27645
  21056427.920   110652321.20408  21056429.620    86222620.54247
  20768599.300   109139834.28908  20768599.680    85044085.00345
 15 03 06 03 23 30.0000000  0 10G01G03G04G11G14G16G19G22G27G32
  22463652.620   118047295.35007  22463655.740    91984928.48444
  24168949.620   127008712.70705  24168956.040    98967858.82244
  20649973.820   108516437.57708  20649973.840    84558285.29046
  21416372.820   112543837.62508  21416372.060    87696489.60145
  23136735.940   121584374.28706  23136735.680    94741069.37443
  24396284.200   128203311.22805  24396284.720    99898674.48643
  20427556.180   107347549.21509  20427553.360    83647444.64448
  22196475.300   116643348.22908  22196472.660    90890941.08045
  21066860.420   110707144.50308  21066862.140    86265339.98547
  20756475.140   109076121.09908  20756475.400    84994438.37346
 15 03 06 03 24  0.0000000  0 10G01G03G04G11G14G16G19G22G27G32
  22451763.920   117984820.44007  22451767.080    91936246.76944
  24148991.420   126903833.75005  24148997.960    98886135.21742
  20644151.320   108485840.45908  20644151.400    84534443.38646
  21404339.080   112480599.56108  21404338.280    87647213.20645
  23128598.580   121541612.22406  23128598.400    94707748.32943
  24416949.060   128311906.61705  24416950.260    99983294.07342
  20428568.500   107352868.95809  20428565.680    83651589.90348
  22210765.280   116718442.54408  22210762.680    90949456.11445
  21077370.280   110762374.19808  21077372.020    86308376.10347
  20744447.080   109012913.18308  20744447.340    84945185.46646
 15 03 06 03 24 30.0000000  0 10G01G03G04G11G14G16G19G22G27G32
  22439903.540   117922493.76207  22439906.700    91887680.53344
  24129061.560   126799103.46605  24129068.000    98804527.49644
  20638378.360   108455503.44108  20638378.440    84510804.16246
  21392345.660   112417573.52708  21392344.800    87598102.02045
  23120539.960   121499264.19806  23120540.060    94674749.86343
  24437613.500   128420499.20305  24437615.260   100067911.53141
  20429661.880   107358614.84809  20429659.060    83656067.21448
  22225105.320   116793799.46908  22225102.640    91008175.80845
  21087957.000   110818007.61108  21087958.700    86351726.80447
  20732515.040   108950209.66608  20732515.340    84896325.60346
 15 03 06 03 25  0.0000000  0 10G01G03G04G11G14G16G19G22G27G32
  22428071.800   117860317.07807  22428074.920    91839231.20244
  24109160.680   126694525.41405  24109166.740    98723038.33844
  20632655.320   108425428.57908  20632655.400    84487369.21046
  21380393.200   112354762.66008  21380392.300    87549158.49045
  23112560.840   121457333.98306  23112561.220    94642076.98943
  24458277.320   128529087.44605  24458279.160   100152525.52542
  20430836.940   107364789.80409  20430834.180    83660878.86148
  22239495.100   116869418.80908  22239492.480    91067099.95145
  21098620.800   110874046.03508  21098622.420    86395393.09947
  20720679.560   108888013.79408  20720679.860    84847861.30546
 15 03 06 03 25 30.0000000  0 10G01G03G04G11G14G16G19G22G27G32
  22416268.620   117798290.84107  22416271.680    91790899.08945
  24089289.320   126590101.79205  24089295.180    98641669.51243
  20626982.220   108395616.12408  20626982.280    84464138.72646
  21368481.880   112292168.11708  21368480.880    87500383.51745
  23104661.800   121415824.29506  23104662.180    94609731.79643
  24478940.040   128637669.51105  24478941.500   100237134.75143
  20432093.820   107371394.76109  20432091.080    83666025.58148
  22253934.420   116945298.35508  22253932.000    91126226.87045
  21109361.640   110930489.24908  21109363.200    86439374.80947
  20708940.900   108826327.11308  20708941.260    84799793.77846
 15 03 06 03 26  0.0000000  0 10G01G03G04G11G14G16G19G22G27G32
  22404493.280   117736410.25207  22404496.200    91742680.46745
  24069446.800   126485829.54705  24069452.360    98560418.64543
  20621358.140   108366061.20608  20621358.140    84441108.93646
  21356610.960   112229785.97208  21356609.920    87451774.06445
  23096842.220   121374732.09906  23096842.360    94577711.94044
  24499600.060   128746237.69305  24499601.180   100321733.08641
  20433431.680   107378425.26209  20433428.920    83671503.89648
  22268422.160   117021431.55608  22268419.880    91185551.43045
  21120178.520   110987331.89308  21120179.960    86483667.77147
  20697298.460   108765146.28008  20697298.900    84752120.40846
 15 03 06 03 26 30.0000000  0 10G01G03G04G11G14G16G19G22G27G32
  22392747.680   117674685.76207  22392750.400    91694583.47844
  24049635.480   126381720.84705  24049640.700    98479295.20341
  20615785.060   108336774.37808  20615785.060    84418288.03746
  21344782.760   112167627.97008  21344781.660    87403339.26345
  23089104.580   121334070.36906  23089104.580    94546027.49944
  24520258.680   128854799.63105                                
  20434852.740   107385892.98809  20434849.960    83677322.89548
  22282959.680   117097826.52908  22282957.440    91245079.97645
  21131073.260   111044583.89908  21131074.700    86528279.70947
  20685754.500   108704483.01508  20685754.980    84704850.34246
 15 03 06 03 27  0.0000000  0 10G01G03G04G11G14G16G19G22G27G32
  22381028.840   117613102.69707  22381031.600    91646596.71544
  24029853.020   126277762.72906  24029857.800    98398289.10543
  20610260.000   108307740.79608  20610260.180    84395664.47346
  21332994.520   112105679.96408  21332993.380    87355068.09845
  23081446.420   121293826.57106  23081446.460    94514668.71244
  24540912.900   128963337.89005  24540914.420   100490941.73441
  20436354.280   107393783.63209  20436351.500    83683471.44648
  22297543.800   117174466.34508  22297541.560    91304799.31145
  21142042.940   111102229.88508  21142044.440    86573198.64747
  20674306.480   108644323.82108  20674306.940    84657973.07446
 15 03 06 03 27 30.0000000  0 10G01G03G04G11G14G16G19G22G27G32
  22369339.620   117551675.93407  22369342.520    91598731.71944
  24010102.300   126173971.78706  24010106.840    98317413.26244
  20604786.040   108278975.57008  20604786.320    84373250.02346
  21321249.200   112043957.94408  21321248.180    87306973.02545
  23073870.940   121254017.50506  23073870.940    94483648.65444
  24561565.060   129071864.73005  24561566.620   100575507.91443
  20437939.220   107402112.69509  20437936.520    83689961.62548
  22312176.960   117251363.73908  22312174.660    91364719.35245
  21153090.280   111160284.13308  21153091.840    86618435.71147
  20662957.500   108584684.89308  20662957.960    84611501.19546
 15 03 06 03 28  0.0000000  0 10G01G03G04G11G14G16G19G22G27G32
  22357678.800   117490398.40207  22357681.740    91550983.02444
  23990382.340   126070342.72506  23990387.000    98236663.58243
  20599361.880   108250471.49308  20599362.160    84351039.06646
  21309545.780   111982456.16408  21309544.760    87259049.56545
  23066377.260   121214638.20306  23066377.480    94452963.53943
  24582213.240   129180370.26104  24582214.860   100660057.52344
  20439606.400   107410874.06309  20439603.780    83696788.65848
  22326857.320   117328509.38608  22326855.020    91424832.84345
  21164213.860   111218738.93308  21164215.440    86663984.89547
  20651706.500   108525560.44508  20651706.980    84565430.20446
 15 03 06 03 28 30.0000000  0 10G01G03G04G11G14G16G19G22G27G32
  22346046.420   117429270.57107  22346049.520    91503350.96644
  23970693.660   125966877.68406  23970698.400    98156041.65543
  20593987.540   108222228.82208  20593987.760    84329031.79346
  21297884.520   111921175.78708  21297883.360    87211298.61645
  23058965.760   121175691.14807  23058966.060    94422615.20443
  24602856.880   129288852.28105  24602858.220   100744588.72741
  20441355.960   107420068.53909  20441353.460    83703953.17848
  22341584.600   117405901.48908  22341582.300    91485138.37245
  21175413.680   111277594.11308  21175415.220    86709846.06747
  20640553.760   108466951.96208  20640554.200    84519761.28146
 15 03 06 03 29  0.0000000  0 10G01G03G04G11G14G16G19G22G27G32
  22334442.880   117368294.49707  22334446.000    91455837.16545
  23951036.660   125863580.43505  23951041.740    98075550.50144
  20588663.360   108194249.78408  20588663.600    84307229.95946
  21286265.980   111860119.83508  21286264.740    87163722.55945
  23051637.420   121137180.50606  23051637.780    94392606.94043
  24623495.920   129397310.02605  24623497.820   100829101.09644
  20443188.560   107429698.85109  20443186.060    83711457.31548
  22356358.720   117483539.89308  22356356.360    91545635.84445
  21186689.840   111336851.00008  21186691.460    86756020.25047
  20629499.860   108408862.80508  20629500.200    84474497.01746
 15 03 06 03 29 30.0000000  0 10G01G03G04G11G14G16G19G22G27G32
  22322867.700   117307466.39307  22322870.700    91408438.66445
  23931411.040   125760448.84206  23931416.480    97995188.41543
  20583388.560   108166530.57808  20583388.860    84285630.59246
  21274689.560   111799285.43908  21274688.240    87116319.14645
  23044391.900   121099104.37206  23044391.980    94362937.23344
  24644129.060   129505737.24105  24644130.640   100913589.64442
  20445103.500   107439761.78409  20445100.940    83719298.55148
  22371178.540   117561418.78508  22371176.160    91606320.67545
  21198041.560   111396505.13508  21198043.400    86802503.97947
  20618544.200   108351290.27608  20618544.480    84429635.32346
 15 03 06 03 30  0.0000000  0 10G01G03G04G11G14G16G19G22G27G32
  22311321.500   117246790.85207  22311324.480    91361159.03645
  23911818.060   125657489.22405  23911823.780    97914960.30343
  20578164.020   108139075.57108  20578164.280    84264237.08546
  21263156.400   111738678.26708  21263155.000    87069092.77445
  23037230.260   121061469.37906  23037230.100    94333611.28744
  24664756.740   129614135.74004  24664757.820   100998055.86843
  20447101.780   107450262.72709  20447099.240    83727481.10648
  22386044.680   117639540.64408  22386042.160    91667194.84045
  21209469.660   111456560.42408  21209471.580    86849300.29647
  20607687.940   108294240.14408  20607688.160    84385180.69346
 15 03 06 03 30 30.0000000  0 10G01G03G04G11G14G16G19G22G27G32
  22299803.500   117186262.82008  22299806.360    91313994.35945
  23892257.220   125554698.12305  23892262.920    97834863.51843
  20572988.860   108111879.78008  20572989.040    84243045.56946
  21251665.660   111678294.16008  21251664.220    87022040.22145
  23030151.920   121024272.75306  23030151.740    94304626.93043
  24685377.540   129722497.96804  24685378.840   101082493.79443
  20449182.540   107461197.05609  20449179.960    83736001.35648
  22400955.660   117717897.93208  22400952.920    91728252.47545
  21220972.980   111517011.05208  21220974.920    86896404.66747
  20596930.340   108237708.39408  20596930.500    84341129.99546
 15 03 06 03 31  0.0000000  0 10G01G03G04G11G14G16G19G22G27G32
  22288314.560   117125887.33608  22288317.300    91266948.54845
  23872729.880   125452082.37806  23872735.360    97754903.40443
  20567864.000   108084948.45908  20567864.140    84222060.12646
  21240218.520   111618139.32708  21240217.160    86975166.33245
  23023158.260   120987521.14006  23023158.080    94275989.31343
  24705991.800   129830825.84504  24705993.480   101166904.97943
  20451346.880   107472570.55809  20451344.280    83744863.81948
  22415911.860   117796493.58507  22415909.080    91789495.83745
  21232552.340   111577861.38008  21232554.360    86943820.49747
  20586272.600   108181701.32708  20586272.760    84297488.14746
 15 03 06 03 31 30.0000000  0 10G01G03G04G11G14G16G19G22G27G32
  22276854.380   117065663.12708  22276857.100    91220020.59945
  23853235.960   125349642.23605  23853240.900    97675080.09243
  20562789.160   108058279.98708  20562789.320    84201279.51146
  21228814.920   111558213.29908  21228813.720    86928470.74045
  23016249.400   120951215.09306  23016249.100    94247698.90843
  24726598.620   129939115.72205  24726600.820   101251286.40944
  20453594.640   107484382.31409  20453591.940    83754067.77548
  22430912.740   117875323.95408  22430909.860    91850922.08744
  21244207.380   111639109.36208  21244209.440    86991546.17947
  20575714.580   108126218.53308  20575714.820    84254254.81846
 15 03 06 03 32  0.0000000  0 10G01G03G04G11G14G16G19G22G27G32
  22265422.240   117005586.99708  22265425.120    91173208.04645
  23833775.240   125247376.42605  23833779.860    97595392.56144
  20557763.740   108031871.32408  20557763.920    84180701.33646
  21217454.480   111498514.05208  21217453.380    86881951.85245
  23009425.120   120915353.55906  23009424.860    94219754.88843
  24747197.200   130047361.94105  24747199.700   101335633.95643
  20455925.220   107496629.58909  20455922.480    83763611.10248
  22445957.360   117954383.77408  22445954.240    91912527.14545
  21255937.420   111700751.01508  21255939.460    87039578.62346
  20565255.880   108071257.95408  20565256.180    84211428.41546
 15 03 06 03 32 30.0000000  0 10G01G03G04G11G14G16G19G22G27G32
  22254018.900   116945661.98308  22254021.580    91126513.26144
  23814348.440   125145289.35905  23814352.900    97515844.37144
  20552788.360   108005725.59408  20552788.560    84160328.05046
  21206138.020   111439045.52208  21206136.860    86835612.75645
  23002686.440   120879941.58006  23002686.160    94192161.12843
  24767787.640   130155564.42205  24767790.480   101419947.44541
  20458339.440   107509316.34109  20458336.700    83773496.88048
  22461045.780   118033673.93008  22461042.540    91974311.68244
  21267742.840   111762788.64308  21267744.820    87087919.60947
  20554897.260   108016823.61708  20554897.660    84169012.06446
 15 03 06 03 33  0.0000000  0 10G01G03G04G11G14G16G19G22G27G32
  22242644.220   116885888.14307  22242646.940    91079936.26945
  23794956.020   125043382.87505  23794960.660    97436436.87943
  20547863.040   107979842.64408  20547863.180    84140159.52846
  21194865.620   111379808.63908  21194864.340    86789454.15045
  22996033.640   120844980.77006  22996033.480    94164918.97943
  24788369.300   130263720.79505  24788372.140   101504224.94243
  20460837.360   107522442.79409  20460834.600    83783725.27748
  22476177.580   118113192.50607  22476174.320    92036274.20545
  21279623.460   111825221.45208  21279625.440    87136568.54347
  20544639.000   107962916.59308  20544639.440    84127006.61246
 15 03 06 03 33 30.0000000  0 10G01G03G04G11G14G16G19G22G27G32
  22231298.060   116826264.60507  22231300.900    91033476.37645
  23775598.200   124941657.74605  23775602.740    97357170.70444
  20542987.540   107954221.42708  20542987.500    84120194.95046
  21183637.300   111320803.60808  21183636.040    86743476.21445
  22989466.940   120810472.50006  22989466.760    94138029.39944
  24808941.520   130371827.15404  24808944.140   101588463.54244
  20463418.880   107536008.75509  20463416.120    83794296.14848
  22491352.260   118192936.08807  22491348.980    92098412.05345
  21291578.940   111888047.79408  21291580.920    87185524.11846
  20534481.200   107909537.03008  20534481.560    84085412.17046
 15 03 06 03 34  0.0000000  0 10G01G03G04G11G14G16G19G22G27G32
  22219980.320   116766789.92107  22219983.220    90987132.48345
  23756274.800   124840114.01205  23756279.420    97278045.86844
  20538161.600   107928860.67608  20538161.480    84100433.33446
  21172453.000   111262029.97808  21172451.720    86697678.59745
  22982986.360   120776416.87706  22982986.300    94111492.59044
  24829503.760   130479880.04705  24829505.800   101672660.30743
  20466083.800   107550013.06209  20466081.040    83805208.59148
  22506569.180   118272900.80108  22506565.760    92160722.21945
  21303608.960   111951265.35308  21303610.800    87234784.54846
  20524423.700   107856684.36708  20524423.960    84044228.29946
 15 03 06 03 34 30.0000000  0 10G01G03G04G11G14G16G19G22G27G32
  22208694.440   116707482.79407  22208697.460    90940919.15845
  23736990.040   124738772.19106  23736994.820    97199078.35244
  20533388.740   107903779.12008  20533388.560    84080889.27246
  21161316.500   111203507.40708  21161315.200    86652076.60345
  22976595.880   120742834.55706  22976595.840    94085324.54444
  24850058.660   130587894.78405                                
  20468835.840   107564475.07909  20468833.080    83816477.68748
  22521831.280   118353103.46007  22521827.840    92223217.78744
  21315716.740   112014892.05108  21315718.560    87284363.78147
  20514470.240   107804378.26608  20514470.440    84003470.31746
 15 03 06 03 35  0.0000000  0 10G01G03G04G11G14G16G19G22G27G32
  22197431.420   116648295.81107  22197434.500    90894799.45945
  23717735.060   124637586.41406  23717739.980    97120232.43642
  20528659.980   107878929.14709  20528659.760    84061525.66546
  21150218.940   111145189.65608  21150217.700    86606634.21445
  22970286.740   120709679.93206  22970286.800    94059489.81043
  24870596.900   130695822.02705  24870599.560   101840949.50141
  20471666.020   107579347.81009  20471663.240    83828066.82448
  22537129.180   118433494.64808  22537125.760    92285860.25144
  21327893.220   112078879.53808  21327895.000    87334224.15446
  20504611.840   107752572.21108  20504612.100    83963101.97946
 15 03 06 03 35 30.0000000  0 10G01G03G04G11G14G16G19G22G27G32
  22186202.320   116589286.89407  22186205.480    90848818.50745
  23698521.160   124536616.10206  23698525.880    97041554.44744
  20523986.340   107854368.77209  20523986.060    84042387.72146
  21139171.580   111087135.32708  21139170.360    86561397.06945
  22964070.360   120677012.79406  22964070.320    94034034.93443
  24891128.780   130803716.50505  24891132.400   101925025.90143
  20474585.420   107594689.53609  20474582.660    83840021.40648
  22552473.700   118514130.18508  22552470.160    92348693.14144
  21340149.200   112143284.89608  21340150.980    87384410.12547
  20494859.800   107701325.00808  20494860.120    83923169.10746
 15 03 06 03 36  0.0000000  0 10G01G03G04G11G14G16G19G22G27G32
  22174997.440   116530404.69707  22175000.620    90802936.28245
  23679338.720   124435811.61305  23679343.220    96963005.61744
  20519358.000   107830046.69409  20519357.760    84023435.45946
  21128164.820   111029294.26608  21128163.640    86516326.12445
  22957937.340   120644783.49906  22957937.180    94008921.20643
  24911644.080   130911524.28305  24911647.280   102009031.84043
  20477584.380   107610449.14409  20477581.660    83852301.61348
  22567854.380   118594955.86308  22567850.840    92411674.17645
  21352474.800   112208055.88508  21352476.540    87434881.01746
  20485204.440   107650586.06908  20485204.820    83883632.28646
 15 03 06 03 36 30.0000000  0 10G01G03G04G11G14G16G19G22G27G32
  22163823.760   116471686.43407  22163826.840    90757181.80345
  23660195.160   124335211.78406  23660199.360    96884616.31444
  20514782.060   107806000.07008  20514781.920    84004697.83546
  21117205.880   110971704.63108  21117204.660    86471451.08545
  22951895.080   120613031.04806  22951894.780    93984179.05744
  24932149.520   131019279.96305  24932152.200   102092997.12141
  20480670.020   107626664.45109  20480667.340    83864936.91248
  22583277.960   118676007.07108  22583274.460    92474830.94144
  21364876.920   112273228.87208  21364878.520    87485665.13846
  20475653.100   107600393.69408  20475653.480    83844521.35346
 15 03 06 03 37  0.0000000  0 10G01G03G04G11G14G16G19G22G27G32
  22152681.360   116413132.67107  22152684.460    90711555.51745
  23641090.880   124234818.69506  23641094.960    96806388.02944
  20510258.620   107782229.23209  20510258.560    83986175.11546
  21106295.020   110914368.03508  21106293.900    86426773.23846
  22945944.060   120581757.60207  22945943.560    93959810.16244
  24952644.660   131126981.56005                                
  20483842.580   107643336.49009  20483839.940    83877928.10248
  22598744.200   118757282.17708  22598740.580    92538162.20344
  21377355.420   112338803.42808  21377356.900    87536762.17846
  20466206.000   107550749.00008  20466206.360    83805837.18646
 15 03 06 03 37 30.0000000  0  9G01G03G04G11G14G19G22G27G32
  22141564.120   116354711.27307  22141567.240    90666032.37645
  23622020.160   124134601.83706  23622024.140    96728297.10444
  20505781.520   107758702.13609  20505781.440    83967842.32146
  21095426.440   110857253.48808  21095425.440    86382268.39645
  22940078.360   120550932.80607  22940077.820    93935790.86244
  20487096.040   107660433.59809  20487093.400    83891250.51448
  22614246.620   118838747.08508  22614242.880    92601641.34245
  21389903.960   112404746.50808  21389905.440    87588146.39346
  20456857.160   107501620.80108  20456857.500    83767555.49746
 15 03 06 03 38  0.0000000  0  9G01G03G04G11G14G19G22G27G32
  22130478.200   116296454.26507  22130481.360    90620637.31645
  23602989.360   124034594.72106  23602993.160    96650369.62043
  20501356.920   107735450.80909  20501356.840    83949724.41446
  21084606.400   110800393.79908  21084605.440    86337962.15945
  22934304.340   120520590.17106  22934303.900    93912147.25244
  20490436.540   107677988.13609  20490433.940    83904929.37348
  22629790.640   118920431.13807  22629786.860    92665291.24144
  21402528.440   112471089.14708  21402529.960    87639841.94346
  20447612.860   107453041.79208  20447613.160    83729701.73646
 15 03 06 03 38 30.0000000  0 10G01G03G04G11G14G19G22G27G28G32
  22119419.100   116238338.75407  22119422.380    90575352.51845
  23583994.520   123934776.01806  23583997.960    96572588.90144
  20496980.420   107712452.20909  20496980.340    83931803.44146
  21073830.700   110743766.91108  21073829.680    86293837.32645
  22928617.940   120490708.51807  22928617.620    93888862.88444
  20493859.780   107695977.52309  20493857.260    83918947.06748
  22645371.580   119002309.61207  22645367.780    92729092.64744
  21415224.440   112537807.50308  21415226.080    87691830.26546
  24725648.260   129934157.90904                                
  20438468.880   107404989.85608  20438469.200    83692258.67546
 15 03 06 03 39  0.0000000  0 10G01G03G04G11G14G19G22G27G28G32
  22108389.220   116180376.29407  22108392.420    90530186.97745
  23565038.080   123835158.95206  23565041.460    96494965.34244
  20492654.220   107689717.99809  20492654.240    83914088.47446
  21063101.740   110687385.62708  21063100.680    86249903.86245
  22923021.880   120461301.25607  22923021.620    93865948.11944
  20497368.000   107714413.36209  20497365.540    83933312.64948
  22660991.260   119084391.63107  22660987.500    92793052.65844
  21427993.960   112604912.16008  21427995.680    87744119.58346
  24712537.820   129865265.70804                                
  20429427.540   107357477.24908  20429427.860    83655235.88346
 15 03 06 03 39 30.0000000  0 10G01G03G04G11G14G19G22G27G28G32
  22097388.580   116122567.16708  22097391.680    90485140.93345
  23546120.280   123735745.19706  23546123.700    96417500.20344
  20488378.420   107667248.48909  20488378.440    83896579.77346
  21052419.740   110631251.10208  21052418.540    86206162.67145
  22917516.460   120432370.28607  22917516.280    93843404.52943
  20500961.380   107733296.28609  20500958.860    83948026.61048
  22676649.260   119166675.42607  22676645.740    92857169.89145
  21440836.880   112672402.42508  21440838.700    87796709.37746
  24699497.440   129796738.49805  24699496.020   101140309.34741
  20420489.080   107310504.99808  20420489.360    83618634.15046
 15 03 06 03 40  0.0000000  0 10G01G03G04G11G14G19G22G27G28G32
  22086416.420   116064907.52008  22086419.320    90440211.35444
  23527240.700   123636532.46906  23527244.040    96340191.66344
  20484152.160   107645039.44009  20484152.100    83879274.02346
  21041784.220   110575360.78408  21041782.900    86162611.78246
  22912101.220   120403913.07606  22912101.020    93821230.10043
  20504639.220   107752623.10309  20504636.620    83963086.46348
  22692344.600   119249155.04407  22692341.180    92921439.70144
  21453752.300   112740273.34408  21453754.120    87849595.79846
  24686526.400   129728574.52404  24686525.460   101087194.65442
  20411652.780   107264069.83908  20411653.060    83582450.92146
 15 03 06 03 40 30.0000000  0  9G01G03G04G11G14G19G22G27G32
  22075473.780   116007403.03608  22075476.460    90395402.69445
  23508400.740   123537528.06306  23508404.200    96263045.49643
  20479976.620   107623096.84209  20479976.480    83862175.89946
  21031196.320   110519721.06408  21031194.960    86119256.16345
  22906777.480   120375937.31606  22906777.420    93799430.81943
  20508402.540   107772399.50209  20508399.940    83978496.63648
  22708077.860   119331833.76007  22708074.440    92985864.66444
  21466741.080   112808529.68108  21466742.880    87902782.53547
  20402919.840   107218178.10608  20402920.140    83546691.14746
 15 03 06 03 41  0.0000000  0 10G01G03G04G11G14G19G22G27G28G32
  22064559.480   115950048.02608  22064562.060    90350710.48745
  23489599.440   123438727.66006  23489603.240    96186058.28444
  20475850.660   107601414.86308  20475850.580    83845280.85846
  21020655.140   110464327.31508  21020653.880    86076092.21546
  22901544.580   120348438.43107  22901544.520    93778003.12644
  20512250.420   107792620.34209  20512247.820    83994253.12948
  22723847.580   119414703.87807  22723844.060    93050438.78144
  21479801.860   112877164.61408  21479803.660    87956264.28746
  24660795.160   129593348.47704  24660795.920   100981819.10441
  20394289.300   107172824.79308  20394289.700    83511350.91846
 15 03 06 03 41 30.0000000  0 10G01G03G04G11G14G19G22G27G28G32
  22053675.000   115892849.46408  22053677.460    90306140.18745
  23470838.500   123340139.77906  23470842.560    96109236.66144
  20471775.500   107580000.27508  20471775.580    83828594.17546
  21010162.420   110409187.68908  21010161.200    86033126.26445
  22896404.120   120321425.17307  22896403.960    93756953.86743
  20516184.220   107813292.53509  20516181.600    84010361.32348
  22739654.520   119497769.98707  22739651.160    93115165.60944
  21492935.820   112946184.08508  21492937.560    88010045.67446
  24648036.080   129526298.36304  24648034.780   100929581.33443
  20385762.680   107128017.38308  20385763.080    83476436.06646
 15 03 06 03 42  0.0000000  0 10G01G03G04G11G14G19G22G27G28G32
  22042818.700   115835798.94908  22042821.080    90261685.25245
  23452116.820   123241757.63806  23452121.060    96032575.33444
  20467749.640   107558844.83208  20467749.800    83812109.41846
  20999716.740   110354294.69508  20999715.440    85990352.50245
  22891354.860   120294890.69407  22891354.400    93736277.66443
  20520202.360   107834407.82709  20520199.700    84026814.79348
  22755496.760   119581021.77207  22755493.600    93180037.13244
  21506141.180   113015578.62208  21506142.860    88064119.32546
  24635346.760   129459617.62805  24635346.420   100877622.36544
  20377338.540   107083748.12108  20377338.820    83441940.55346
 15 03 06 03 42 30.0000000  0 10G01G03G04G11G14G19G22G27G28G32
  22031991.860   115778903.55508  22031994.360    90217351.19345
  23433435.980   123143589.66306  23433440.360    95956080.91444
  20463774.560   107537955.59809  20463774.680    83795832.09746
  20989319.440   110299656.21708  20989318.080    85947777.07646
  22886398.280   120268843.37006  22886397.680    93715981.05643
  20524306.260   107855973.87309  20524303.620    84043619.49648
  22771375.240   119664464.11007  22771372.200    93245057.10744
  21519419.060   113085354.19008  21519420.700    88118489.89146
  24622729.660   129393315.38905  24622729.980   100825958.26943
  20369018.320   107040024.63408  20369018.440    83407870.32446
 15 03 06 03 43  0.0000000  0 10G01G03G04G11G14G19G22G27G28G32
  22021193.820   115722159.80008  22021196.420    90173135.29945
  23414795.600   123045633.84706  23414799.740    95879751.81444
  20459849.460   107517328.72508  20459849.560    83779759.21346
  20978970.060   110245269.89808  20978968.680    85905398.12745
  22881533.900   120243281.10306  22881533.380    93696062.42644
  20528495.260   107877986.94309  20528492.560    84060772.52548
  22787288.780   119748090.99007  22787285.900    93310220.89544
  21532768.500   113155506.14408  21532770.280    88173153.72546
  24610184.460   129327389.80005  24610185.060   100774587.72343
  20360801.360   106996843.81808  20360801.360    83374222.94746
 15 03 06 03 43 30.0000000  0 10G01G03G04G11G14G19G22G27G28G32
  22010424.580   115665567.86608  22010427.420    90129037.71945
  23396196.000   122947891.95306  23396199.800    95803589.38144
  20455974.320   107496964.81108  20455974.420    83763891.23646
  20968668.820   110191136.70808  20968667.460    85863216.43146
  22876762.140   120218205.51107  22876761.740    93676523.01843
  20532769.440   107900447.61609  20532766.700    84078274.34248
  22803237.080   119831900.63907  22803234.420    93375527.11344
  21546189.520   113226033.65708  21546191.300    88228110.22146
  24597711.220   129261842.85205  24597711.260   100723512.19144
  20352687.800   106954206.58308  20352687.760    83340999.14846
 15 03 06 03 44  0.0000000  0 10G01G03G04G11G14G19G22G27G28G32
  21999684.340   115609127.82308  21999687.280    90085058.47346
  23377637.320   122850365.35806  23377640.780    95727594.72344
  20452149.120   107476863.35109  20452149.220    83748227.76146
  20958415.960   110137258.19808  20958414.700    85821233.17746
  22872083.320   120193618.38006  22872082.980    93657364.21444
  20537128.840   107923356.30209  20537126.080    84096125.26448
  22819219.780   119915890.97207  22819217.320    93440974.12045
  21559681.800   113296935.53608  21559683.500    88283358.42446
  24585310.420   129196676.29505  24585310.380   100672733.07443
  20344677.700   106912113.20508  20344677.640    83308199.13046
 15 03 06 03 44 30.0000000  0 10G01G03G04G11G14G19G22G27G28G32
  21988973.460   115552841.77408  21988976.380    90041199.24245
  23359120.340   122753057.69006  23359123.540    95651770.64444
  20448374.380   107457026.98308  20448374.460    83732770.85746
  20948212.180   110083637.33008  20948211.040    85779450.69245
  22867498.040   120169523.10706  22867497.800    93638588.70543
  20541573.900   107946715.25009  20541571.140    84114327.03248
  22835236.900   120000061.90007  22835234.540    93506561.84244
  21573245.520   113368212.82708  21573247.100    88338899.16046
  24572982.740   129131894.15405  24572982.500   100622253.46741
  20336771.560   106870566.41408  20336771.480    83275825.02546
 15 03 06 03 45  0.0000000  0 10G01G03G04G11G14G19G22G27G28G32
  21978291.560   115496707.94808  21978294.380    89997458.61945
  23340644.820   122655968.54206  23340647.900    95576116.87644
  20444649.660   107437453.47008  20444649.720    83717518.77146
  20938057.300   110030273.27508  20938056.200    85737868.30845
  22863006.300   120145919.18806  22863006.160    93620196.05144
  20546104.280   107970522.64509  20546101.520    84132878.23848
  22851287.660   120084409.31307  22851285.260    93572287.10144
  21586880.020   113439862.61408  21586881.600    88394730.14046
  24560728.260   129067496.35905  24560727.880   100572073.33841
  20328969.140   106829564.81408  20328969.120    83243875.75346
 15 03 06 03 45 30.0000000  0 10G01G03G04G11G14G19G22G27G28G32
  21967638.780   115440727.14808  21967641.480    89953837.24745
  23322211.240   122559100.30806  23322214.460    95500635.22543
  20440975.100   107418143.69608  20440975.140    83702472.19946
  20927951.640   109977167.71808  20927950.520    85696487.35445
  22858608.620   120122808.71407  22858608.400    93602187.89844
  20550720.140   107994779.41808  20550717.440    84151779.61248
  22867371.800   120168932.11007  22867369.340    93638149.01444
  21600585.320   113511884.40708  21600587.020    88450850.99746
  24548547.340   129003485.67804  24548546.900   100522194.91944
  20321270.700   106789109.65708  20321270.780    83212352.27046
 15 03 06 03 46  0.0000000  0 10G01G03G04G11G14G19G22G27G28G32
  21957015.180   115384899.57208  21957017.780    89910335.27945
  23303820.100   122462454.43306  23303823.240    95425326.81944
  20437350.780   107399097.79208  20437350.840    83687631.24246
  20917895.420   109924321.92008  20917894.340    85655308.81845
  22854305.160   120100193.35907  22854304.880    93584565.56144
  20555421.620   108019485.92008  20555418.920    84171031.42148
  22883488.960   120253628.18407  22883486.320    93704145.94744
  21614361.220   113584277.24408  21614362.960    88507260.99446
  24536440.420   128939863.86504                                
  20313676.340   106749201.41208  20313676.500    83181254.95946
 15 03 06 03 46 30.0000000  0 10G01G03G04G11G14G19G22G27G28G32
  21946420.920   115329225.89508  21946423.420    89866953.19945
  23285471.700   122366033.03806  23285474.720    95350193.35644
  20433776.860   107380316.53909  20433776.920    83672996.51046
  20907888.880   109871737.68308  20907887.920    85614334.10545
  22850096.220   120078075.03307  22850095.760    93567330.51644
  20560208.720   108044642.36908  20560206.040    84190633.84248
  22899638.800   120338495.92207  22899636.020    93770276.65244
  21628207.660   113657040.56008  21628209.420    88563959.66146
  24524407.940   128876633.33404  24524407.580   100423351.89541
  20306186.280   106709841.12308  20306186.480    83150584.61246
 15 03 06 03 47  0.0000000  0 10G01G03G04G11G14G19G22G27G28G32
  21935855.980   115273706.61108  21935858.400    89823691.44845
  23267166.380   122269838.06606  23267169.460    95275236.31144
  20430253.380   107361800.18309  20430253.360    83658568.17646
  20897932.340   109819416.37708  20897931.460    85573564.28345
  22845982.100   120056455.48007  22845981.580    93550484.13144
  20565081.700   108070250.26408  20565079.020    84210588.04348
  22915821.020   120423533.85407  22915818.200    93836539.95944
  21642124.460   113730173.64008  21642126.180    88620946.45846
  24512450.520   128813796.61304  24512451.020   100374388.22043
  20298800.720   106671029.63308  20298800.880    83120341.89946
 15 03 06 03 47 30.0000000  0 10G01G03G04G11G14G19G22G27G28G32
  21925319.860   115218339.38108  21925322.340    89780548.16445
  23248903.940   122173868.51706  23248907.100    95200454.91944
  20426779.860   107343546.25209  20426779.780    83644344.34846
  20888025.760   109767356.90108  20888024.760    85532998.44945
  22841962.760   120035333.57707  22841962.020    93534025.51744
  20570040.080   108096306.68209  20570037.400    84230891.73548
  22932034.820   120508737.48107  22932031.980    93902932.38744
  21656110.860   113803672.90508  21656112.660    88678218.60446
  24500567.980   128751352.63705                                
  20291519.240   106632764.92408  20291519.360    83090525.25946
 15 03 06 03 48  0.0000000  0 10G01G03G04G11G14G19G22G27G28G32
  21914813.100   115163126.32608  21914815.740    89737525.01046
  23230685.020   122078127.92906  23230688.140    95125851.93044
  20423356.680   107325557.16508  20423356.560    83630326.87146
  20878169.660   109715562.08108  20878168.460    85492638.84945
  22838038.800   120014712.96007  22838037.940    93517957.50243
  20575084.300   108122814.00309  20575081.500    84251546.78047
  22948280.040   120594106.52207  22948277.240    93969453.71244
  21670167.100   113877539.18608  21670168.980    88735776.72946
  24488761.040   128689305.41305  24488760.060   100277384.13841
  20284342.240   106595049.26908  20284342.340    83061136.45146
 15 03 06 03 48 30.0000000  0 10G01G03G04G11G14G19G22G27G28G32
  21904335.420   115108065.93508  21904338.080    89694620.84145
  23212509.600   121982616.09906  23212512.700    95051427.19944
  20419983.480   107307830.94709  20419983.380    83616514.23646
  20868363.820   109664031.54208  20868362.600    85452485.18046
  22834210.120   119994593.07407  22834209.340    93502279.68543
  20580214.020   108149770.58308  20580211.200    84272551.90948
  22964555.980   120679637.43807  22964553.260    94036101.15044
  21684292.680   113951769.68908  21684294.540    88793618.66546
  24477029.740   128627655.05606  24477028.760   100229344.83742
  20277269.460   106557881.53008  20277269.580    83032174.59346
 15 03 06 03 49  0.0000000  0 10G01G03G04G11G14G19G22G27G28G32
  21893887.220   115053160.63308  21893889.860    89651837.50545
  23194378.460   121887336.89306  23194381.460    94977183.72943
  20416660.780   107290370.15409  20416660.720    83602908.43446
  20858608.820   109612768.30808  20858607.680    85412539.82446
  22830477.400   119974977.45306  22830476.820    93486994.79643
  20585429.660   108177179.00308  20585426.940    84293909.11148
  22980862.760   120765330.67307  22980860.040    94102875.11444
  21698487.680   114026365.56108  21698489.720    88851745.29946
  24465374.740   128566405.52606  24465374.120   100181617.88743
  20270301.400   106521264.27208  20270301.520    83003641.67746
 15 03 06 03 49 30.0000000  0 10G01G03G04G11G14G19G22G27G28G32
  21883468.500   114998409.99808  21883471.180    89609174.68745
  23176291.680   121792291.14806  23176294.680    94903122.17344
  20413388.460   107273174.44608  20413388.520    83589509.18446
  20848904.840   109561773.74908  20848903.820    85372803.81446
  22826840.740   119955866.50307  22826840.180    93472103.17044
  20590731.180   108205038.71608  20590728.560    84315617.96448
  22997199.940   120851183.39607  22997197.180    94169773.32644
  21712751.960   114101325.03708  21712754.120    88910155.26646
  24453796.060   128505558.20605  24453795.740   100134204.38943
  20263438.000   106485197.33508  20263438.180    82975537.58246
 15 03 06 03 50  0.0000000  0 10G01G03G04G11G14G19G22G27G28G32
  21873079.080   114943813.71408  21873081.920    89566632.12545
  23158249.600   121697479.90506  23158252.560    94829243.34443
  20410166.460   107256243.28908  20410166.680    83576316.09046
  20839251.960   109511047.90808  20839250.960    85333277.19345
  22823300.420   119937261.88007  22823299.820    93457606.07443
  20596118.520   108233349.51208  20596115.960    84337678.31748
  23013567.080   120937193.18707  23013564.480    94236793.93044
  21727085.100   114176646.55908  21727087.320    88968847.34446
  24442294.020   128445114.23105  24442293.660   100087105.21343
  20256679.280   106449680.44708  20256679.520    82947862.10446
 15 03 06 03 50 30.0000000  0 10G01G03G04G11G14G19G22G27G28G32
  21862719.360   114889373.38508  21862722.320    89524211.10045
  23140252.640   121602906.12507  23140255.680    94755549.54944
  20406995.140   107239578.15808  20406995.420    83563330.26946
  20829650.840   109460593.65908  20829649.760    85293962.19545
  22819856.840   119919165.80806  22819856.100    93443505.26544
  20601591.980   108262112.76008  20601589.400    84360091.23547
  23029964.040   121023359.38107  23029961.500    94303936.40044
  21741487.320   114252330.29708  21741489.400    89027821.66746
  24430869.340   128385077.24806  24430868.820   100040323.17241
  20250025.640   106414715.49808  20250025.980    82920616.70046
 15 03 06 03 51  0.0000000  0 10G01G03G04G11G14G19G22G27G28G32
  21852388.760   114835086.20508  21852391.740    89481909.40345
  23122300.640   121508568.27807  23122303.700    94682039.58744
  20403873.900   107223176.14108  20403874.120    83550549.48746
  20820101.060   109410409.17108  20820099.920    85254857.41046
  22816509.620   119901576.68706  22816508.860    93429799.47744
  20607150.940   108291325.45508  20607148.420    84382854.36848
  23046389.740   121109677.16907  23046387.180    94371197.00444
  21755957.720   114328372.15308  21755959.580    89087075.04946
  24419521.840   128325445.69606  24419521.220    99993856.99543
  20243476.540   106380299.75108  20243476.940    82893799.24447
 15 03 06 03 51 30.0000000  0 10G01G03G04G11G14G19G22G27G28G32
  21842088.040   114780955.59808  21842090.920    89439729.70345
  23104394.540   121414471.06606  23104397.520    94608717.14844
  20400803.440   107207040.74408  20400803.620    83537976.45246
  20810603.600   109360498.89108  20810602.280    85215966.28046
  22813259.700   119884499.03807  22813259.140    93416492.21244
  20612796.080   108320990.93709  20612793.620    84405970.31747
  23062844.520   121196147.96107  23062841.980    94438576.86044
  21770496.660   114404774.07008  21770498.320    89146608.99846
  24408252.340   128266224.51806  24408251.700    99947710.65843
  20237032.600   106346436.64908  20237032.980    82867412.42246
 15 03 06 03 52  0.0000000  0 10G01G03G04G11G14G19G22G27G28G32
  21831816.700   114726979.54708  21831819.640    89397670.45345
  23086534.140   121320613.74906  23086537.080    94535581.64444
  20397783.300   107191169.77508  20397783.440    83525609.47646
  20801158.100   109310861.59408  20801156.580    85177287.87146
  22810107.000   119867931.77707  22810106.560    93403582.66843
  20618527.020   108351107.11408  20618524.520    84429437.45848
  23079327.540   121282767.43807  23079325.200    94506072.53644
  21785103.400   114481532.73908  21785105.020    89206420.92946
  24397060.700   128207413.32705  24397060.220    99901883.77644
  20230693.460   106313124.35708  20230693.760    82841454.80846
 15 03 06 03 52 30.0000000  0 10G01G03G04G11G14G19G22G27G28G32
  21821575.040   114673159.65208  21821578.040    89355732.86845
  23068719.820   121226999.23406  23068722.880    94462635.30143
  20394813.820   107175564.81608  20394813.880    83513449.77146
  20791764.980   109261500.04008  20791763.340    85138824.32746
  22807051.860   119851877.16507  22807051.440    93391072.60644
  20624344.100   108381675.91008  20624341.520    84453257.29147
  23095838.680   121369535.06806  23095836.520    94573683.66244
  21799777.980   114558648.21408  21799779.680    89266510.88746
  24385947.820   128149015.40306  24385947.440    99856378.92542
  20224459.400   106280364.35308  20224459.640    82815927.54246
 15 03 06 03 53  0.0000000  0 10G01G03G04G11G14G19G22G27G28G32
  21811362.980   114619495.01108  21811365.980    89313916.27845
  23050951.740   121133627.89706  23050954.980    94389878.47344
  20391894.800   107160225.08908  20391894.840    83501496.74146
  20782424.240   109212414.32508  20782422.620    85100575.72146
  22804094.360   119836335.77307  22804094.100    93378962.43743
  20630247.020   108412695.93008  20630244.420    84477428.72348
  23112377.520   121456448.00507  23112375.460    94641408.01044
  21814520.060   114636118.39108  21814521.860    89326877.25146
  24374913.720   128091031.31305  24374913.600    99811196.46841
  20218330.320   106248155.82508  20218330.480    82790830.00746
 15 03 06 03 53 30.0000000  0 10G01G03G04G11G14G19G22G27G28G32
  21801180.520   114565985.75208  21801183.460    89272220.75345
  23033230.280   121040501.11207  23033233.700    94317312.20644
  20389026.120   107145150.26308  20389026.240    83489750.12846
  20773136.140   109163605.47608  20773134.620    85062542.86346
  22801234.860   119821308.54707  22801234.560    93367252.92444
  20636235.800   108444167.08908  20636233.180    84501951.69647
  23128943.720   121543503.56707  23128941.560    94709243.51144
  21829329.340   114713941.82208  21829331.240    89387518.86146
  24363958.460   128033462.70405  24363958.560    99766337.85844
  20212306.280   106216498.92908  20212306.360    82766162.31246
 15 03 06 03 54  0.0000000  0 10G01G03G04G11G14G19G22G27G28G32
  21791027.520   114512631.08308  21791030.400    89230645.68446
  23015555.460   120947619.34807  23015559.060    94244936.84945
  20386207.720   107130339.63608  20386207.880    83478209.38646
  20763900.700   109115073.44208  20763899.380    85024725.70046
  22798473.120   119806795.51107  22798472.800    93355944.09744
  20642310.220   108476088.25608  20642307.620    84526825.32448
  23145536.620   121630699.34607  23145534.300    94777188.26544
  21844205.440   114792116.31608  21844207.400    89448434.05346
  24353082.540   127976310.43005  24353082.620    99721803.57444
  20206387.020   106185392.84808  20206387.100    82741923.81347
 15 03 06 03 54 30.0000000  0 10G01G03G04G11G14G19G22G27G28G32
  21780903.960   114459431.18208  21780906.880    89189191.20445
  22997927.560   120854983.96707  22997931.340    94172753.48244
  20383439.660   107115793.36408  20383439.820    83466874.63746
  20754718.260   109066819.88108  20754717.040    84987125.53646
  22795809.580   119792798.36907  22795809.220    93345037.25244
  20648470.280   108508459.58708  20648467.740    84552049.73048
  23162155.900   121718033.46107  23162153.480    94845240.81644
  21859148.020   114870640.54508  21859150.020    89509621.74346
  24342286.300   127919575.82206  24342286.080    99677594.79941
  20200572.520   106154837.56708  20200572.680    82718114.52447
 15 03 06 03 55  0.0000000  0 10G01G03G04G11G14G19G22G27G28G32
  21770810.440   114406389.48408  21770813.480    89147860.01346
  22980347.260   120762599.61806  22980351.120    94100765.71444
  20380722.600   107101514.91309  20380722.740    83455748.56946
  20745589.640   109018849.07608  20745588.460    84949745.70146
  22793244.840   119779320.53007  22793244.480    93334535.05245
  20654716.600   108541284.23308  20654714.080    84577627.37048
  23178801.740   121805507.04907  23178799.260    94913402.01944
  21874157.540   114949516.46508  21874159.580    89571083.48746
  24331570.540   127863263.87905  24331570.420    99633715.36743
  20194863.480   106124836.50708  20194863.620    82694737.07646
 15 03 06 03 55 30.0000000  0 10G01G03G04G11G14G19G22G27G28G32
  21760746.680   114353503.73508  21760749.700    89106650.33845
  22962814.540   120670465.31207  22962818.480    94028972.80044
  20378056.020   107087501.76208  20378056.140    83444829.23046
  20736514.620   108971159.68208  20736513.440    84912585.13246
  22790778.660   119766360.76906  22790778.440    93324436.53344
  20661048.660   108574559.61708  20661046.160    84603556.23447
  23195473.280   121893115.57707  23195470.760    94981668.40944
  21889233.380   115028740.35008  21889235.400    89632816.37046
  24320935.000   127807373.67905  24320934.880    99590164.56542
  20189259.500   106095387.31408  20189259.600    82671789.66246
 15 03 06 03 56  0.0000000  0 10G01G03G04G11G14G19G22G27G28G32
  21750712.780   114300774.69008  21750715.640    89065562.75845
  22945329.860   120578582.93007  22945333.700    93957376.16544
  20375440.080   107073754.56809  20375440.160    83434117.13746
  20727493.420   108923753.12208  20727492.300    84875644.97146
  22788411.320   119753920.62606  22788411.200    93314742.92344
  20667466.680   108608286.41108  20667464.180    84629836.84547
  23212170.220   121980857.77407  23212167.640    95050038.93244
  21904375.280   115108311.44508  21904377.260    89694819.79046
  24310380.220   127751907.74305  24310380.040    99546944.34044
  20183760.660   106066490.48908  20183760.700    82649272.67446
 15 03 06 03 56 30.0000000  0 10G01G03G04G11G14G19G22G27G28G32
  21740708.840   114248203.16308  21740711.520    89024597.94845
  22927893.520   120486954.50007  22927897.280    93885977.44544
  20372874.880   107060274.04309  20372874.920    83423612.83746
  20718526.520   108876631.65708  20718525.380    84838926.94746
  22786143.300   119742002.23707  22786143.240    93305455.87744
  20673970.680   108642465.12008  20673968.120    84656469.60347
  23228892.240   122068732.28307  23228889.440    95118512.55444
  21919583.140   115188228.98408  21919585.060    89757093.19546
  24299906.580   127696868.24705  24299906.540    99504056.43742
  20178367.060   106038146.87208  20178367.060    82627186.75346
 15 03 06 03 57  0.0000000  0 10G01G03G04G11G14G19G22G27G28G32
  21730734.380   114195786.94008  21730737.000    88983754.13046
  22910505.360   120395579.03407  22910509.080    93814775.82045
  20370359.940   107047058.00708  20370359.940    83413314.62546
  20709613.640   108829793.90708  20709612.360    84802430.00746
  22783974.280   119730603.77907  22783974.020    93296573.97444
  20680560.140   108677092.92408  20680557.560    84683452.29347
  23245638.640   122156734.96507  23245635.520    95187086.07243
  21934856.280   115268489.28508  21934858.160    89819633.66546
  24289513.880   127642254.25506  24289514.160    99461500.10044
  20173078.200   106010353.96908  20173078.280    82605529.95647
 15 03 06 03 57 30.0000000  0 10G01G03G04G11G14G19G22G27G28G32
  21720789.860   114143528.55308  21720792.560    88943033.31945
  22893166.060   120304460.16607  22893169.660    93743774.15244
  20367895.720   107034108.78008  20367895.760    83403224.32846
  20700755.360   108783243.43208  20700754.020    84766156.91746
  22781904.880   119719728.67007  22781904.540    93288099.89443
  20687235.500   108712172.22508  20687232.920    84710786.80947
  23262409.480   122244865.95607  23262406.100    95255759.56045
  21950194.820   115349093.29208  21950196.600    89882441.97445
  24279202.940   127588069.37706  24279203.060    99419278.14041
  20167894.580   105983114.02508  20167894.720    82584304.03546
 15 03 06 03 58  0.0000000  0 10G01G03G04G11G14G19G22G27G28G32
  21710875.300   114091427.13308  21710877.980    88902434.80445
  22875875.620   120213598.13307  22875879.160    93672972.63244
  20365482.100   107021425.61008  20365482.260    83393341.34546
  20691951.740   108736980.30608  20691950.420    84730107.73346
  22779935.040   119709376.67007  22779934.580    93280033.40744
  20693996.580   108747701.87408  20693994.060    84738472.24247
  23279204.220   122333122.57407  23279200.740    95324530.91243
  21965598.280   115430038.54008  21965599.980    89945516.16646
  24268973.880   127534314.23206  24268973.500    99377391.01443
  20162815.980   105956425.98608  20162816.140    82563508.17146
 15 03 06 03 58 30.0000000  0 10G01G03G04G11G14G19G22G27G28G32
  21700990.840   114039484.14808  21700993.480    88861959.74645
  22858634.540   120122995.62507  22858638.080    93602373.30644
  20363119.380   107009009.79808  20363119.560    83383666.68646
  20683203.240   108691006.91208  20683201.980    84694284.31946
  22778065.180   119699549.92207  22778064.640    93272376.19643
  20700843.620   108783683.17008  20700841.120    84766509.60147
  23296022.700   122421503.83907  23296019.140    95393399.41144
  21981066.640   115511324.90208  21981068.280    90008856.17745
  24258827.020   127480991.84405  24258826.420    99335841.08744
  20157842.640   105930291.01308  20157842.780    82543143.26546
 15 03 06 03 59  0.0000000  0 10G01G03G04G11G14G19G22G27G28G32
  21691136.700   113987700.36108  21691139.340    88821608.74445
  22841443.200   120032654.46307  22841446.680    93531977.63444
  20360807.720   106996861.69109  20360807.780    83374200.63446
  20674510.200   108645324.90508  20674509.060    84658687.96646
  22776295.420   119690249.79907  22776294.840    93265129.36244
  20707776.600   108820116.19708  20707774.060    84794898.96347
  23312864.660   122510008.58407  23312861.140    95462364.14844
  21996599.660   115592951.50208  21996601.340    90072461.30546
  24248762.840   127428104.26305  24248762.420    99294630.03443
  20152974.640   105904709.51608  20152974.740    82523209.64846
 15 03 06 03 59 30.0000000  0 10G01G03G04G11G14G19G22G27G28G32
  21681312.360   113936073.35008  21681315.000    88781379.92545
  22824301.340   119942573.37007  22824304.740    93461784.62844
  20358546.620   106984979.13608  20358546.580    83364941.50346
  20665872.320   108599932.56308  20665871.180    84623317.32046
  22774625.420   119681474.55807  22774624.920    93258291.51944
  20714795.000   108856997.98808  20714792.400    84823638.01547
  23329729.300   122598632.42107  23329725.880    95531421.67144
  22012196.660   115674914.39308  22012198.360    90136328.48045
  24238781.220   127375650.31205  24238780.740    99253756.81941
  20148211.440   105879678.82108  20148211.520    82503705.21346
 15 03 06 04 00  0.0000000  0 10G01G03G04G11G14G19G22G27G28G32
  21671518.240   113884605.63808  21671521.000    88741275.22045
  22807209.640   119852755.94407  22807212.880    93391797.05744
  20356336.480   106973364.44309  20356336.360    83355891.09346
  20657290.360   108554833.93208  20657289.140    84588175.52846
  22773056.000   119673227.36507  22773055.560    93251865.14644
  20721899.180   108894330.70908  20721896.580    84852728.43847
  23346616.560   122687375.34607  23346613.340    95600571.96543
  22027857.820   115757214.45508  22027859.540    90200458.38245
  24228882.920   127323633.80106  24228882.320    99213224.45443
  20143553.460   105855201.13108  20143553.560    82484631.70146
 15 03 06 04 00 30.0000000  0 10G01G03G04G11G14G19G22G27G28G32
  21661754.060   113833295.28808  21661756.920    88701293.13945
  22790168.000   119763201.36107  22790171.140    93322014.33344
  20354176.900   106962015.59008  20354176.700    83347047.82846
  20648764.040   108510027.69508  20648762.800    84553261.58546
  22771586.860   119665507.05907  22771586.560    93245849.33944
  20729088.740   108932112.40908  20729086.180    84882168.71247
  23363525.760   122776233.60707  23363522.600    95669812.15844
  22043582.480   115839848.03208  22043584.240    90264848.16946
  24219067.740   127272054.21406  24219067.100    99173032.54641
  20139000.280   105831274.12708  20139000.460    82465987.28946
 15 03 06 04 01  0.0000000  0 10G01G03G04G11G14G19G22G27G28G32
  21652020.300   113782144.18108  21652023.200    88661435.15445
  22773176.980   119673912.54107  22773179.860    93252438.65644
  20352068.100   106950934.24908  20352067.980    83338413.02446
  20640293.940   108465516.83808  20640292.700    84518577.80946
  22770218.340   119658315.75807  22770218.020    93240245.75744
  20736363.960   108970344.30608  20736361.500    84911959.79247
  23380456.800   122865206.85507  23380453.780    95739141.94744
  22059370.600   115922815.38408  22059372.440    90329498.03645
  24209336.220   127220914.27906  24209335.360    99133183.22043
  20134552.220   105807899.18508  20134552.400    82447773.06146
 15 03 06 04 01 30.0000000  0 10G01G03G04G11G14G19G22G27G28G32
  21642317.720   113731156.25008  21642320.580    88621704.30845
  22756237.380   119584894.51507  22756240.120    93183074.00644
  20350011.040   106940124.49708  20350010.940    83329989.84646
  20631880.920   108421306.25308  20631879.640    84484128.01746
  22768951.460   119651658.18307  22768951.120    93235058.02143
  20743725.540   109009029.76108  20743723.100    84942104.29247
  23397409.960   122954296.85307  23397407.220    95808562.74144
  22075222.560   116006118.74508  22075224.580    90394409.72445
  24199689.180   127170219.24406  24199688.360    99093680.61543
  20130209.900   105785079.92908  20130210.080    82429991.83746
 15 03 06 04 02  0.0000000  0 10G01G03G04G11G14G19G22G27G28G32
  21632645.060   113680325.63508  21632647.820    88582096.04646
  22739348.360   119496142.41807  22739350.960    93113916.58144
  20348004.420   106929580.00508  20348004.380    83321773.36346
  20623524.120   108377390.87008  20623522.740    84449908.23446
  22767785.120   119645528.89107  22767784.900    93230281.97644
  20751172.300   109048162.58708  20751169.840    84972597.39947
  23414383.780   123043495.69906  23414381.280    95878068.31144
  22091137.060   116089750.61108  22091139.180    90459577.39545
  24190125.880   127119964.87706  24190125.200    99054521.37043
  20125972.100   105762809.97208  20125972.200    82412638.63146
 15 03 06 04 02 30.0000000  0 10G01G03G04G11G14G19G22G27G28G32
  21623002.640   113629654.08208  21623005.320    88542611.72545
  22722510.480   119407659.08007  22722513.080    93044968.56844
  20346048.780   106919302.83809  20346048.720    83313765.17946
  20615224.040   108333773.64008  20615222.740    84415920.80246
  22766719.720   119639929.95807  22766719.500    93225919.18144
  20758704.380   109087743.82608  20758701.900    85003439.91347
  23431378.200   123132803.09506  23431375.980    95947658.46244
  22107114.160   116173710.95408  22107116.360    90525001.03345
  24180647.060   127070153.63606  24180646.160    99015707.43742
  20121839.000   105741090.59708  20121839.100    82395714.46047
 15 03 06 04 03  0.0000000  0 10G01G03G04G11G14G19G22G27G28G32
  21613390.720   113579142.84908  21613393.280    88503252.33545
  22705724.240   119319446.76107  22705726.840    92976231.75044
  20344144.200   106909293.77409  20344144.080    83305965.91046
  20606981.060   108290456.50808  20606979.820    84382167.19946
  22765755.520   119634863.17107  22765755.320    93221971.06643
  20766321.920   109127774.12508  20766319.420    85034632.34347
  23448393.120   123222218.08906  23448390.980    96017332.49744
  22123153.780   116257999.40008  22123155.960    90590680.32346
  24171252.960   127020788.04306  24171252.060    98977240.76143
  20117810.820   105719922.57908  20117810.920    82379219.91446
 15 03 06 04 03 30.0000000  0 10G01G03G04G11G14G19G22G27G28G32
  21603809.240   113528792.41808  21603811.980    88464018.24345
  22688989.700   119231506.93507  22688992.480    92907707.24744
  20342290.720   106899553.40509  20342290.560    83298376.01546
  20598795.420   108247440.78508  20598794.200    84348648.46846
  22764892.780   119630329.59407  22764892.520    93218438.41944
  20774024.960   109168253.68708  20774022.440    85066174.84747
  23465428.340   123311739.32306  23465426.220    96087089.26244
  22139255.560   116342614.59108  22139257.660    90656614.22445
  24161944.020   126971869.59906  24161943.380    98939122.48041
  20113887.560   105699305.83208  20113887.640    82363154.92546
