     2.11           OBSERVATION DATA    G                   RINEX VERSION / TYPE
SPIDER V4,0,0,3554                      2015 03 13 06:14    PGM / RUN BY / DATE 
ADJF                                                        MARKER NAME         
ADJF                                                        MARKER NUMBER       
                                                            OBSERVER / AGENCY   
496631              LEICA GRX1200+GNSS  8.20/4.007          REC # / TYPE / VERS 
103293              LEIAT504                                ANT # / TYPE        
  5273000.2084   285396.0090  3566759.2257                  APPROX POSITION XYZ 
        0.0480        0.0000        0.0000                  ANTENNA: DELTA H/E/N
     1     1                                                WAVELENGTH FACT L1/2
     4    C1    L1    P2    L2                              # / TYPES OF OBSERV 
    30.000                                                  INTERVAL            
  2015    03    06    00    00    0.0000000     GPS         TIME OF FIRST OBS   
  2015    03    06    23    59   30.0000000     GPS         TIME OF LAST OBS    
    16                                                      LEAP SECONDS        
    30                                                      # OF SATELLITES     
   G 1   833   833   833   833                              PRN / # OF OBS      
   G 2   933   933   933   933                              PRN / # OF OBS      
   G 3   853   853   853   853                              PRN / # OF OBS      
   G 4   851   851   851   851                              PRN / # OF OBS      
   G 5   667   666   666   666                              PRN / # OF OBS      
   G 6   761   761   761   761                              PRN / # OF OBS      
   G 7   658   658   658   658                              PRN / # OF OBS      
   G 9   798   798   798   798                              PRN / # OF OBS      
   G10   780   780   779   779                              PRN / # OF OBS      
   G11   797   797   797   797                              PRN / # OF OBS      
   G12   828   827   827   827                              PRN / # OF OBS      
   G13   821   821   821   821                              PRN / # OF OBS      
   G14   926   926   924   924                              PRN / # OF OBS      
   G15   727   727   727   727                              PRN / # OF OBS      
   G16   686   685   685   685                              PRN / # OF OBS      
   G17   936   936   936   936                              PRN / # OF OBS      
   G18   929   929   928   928                              PRN / # OF OBS      
   G19   787   787   787   787                              PRN / # OF OBS      
   G20   787   787   787   787                              PRN / # OF OBS      
   G21   652   636   631   627                              PRN / # OF OBS      
   G22   730   730   729   729                              PRN / # OF OBS      
   G23   740   740   740   740                              PRN / # OF OBS      
   G24   823   804   800   800                              PRN / # OF OBS      
   G25   862   862   862   862                              PRN / # OF OBS      
   G27   830   830   830   830                              PRN / # OF OBS      
   G28   897   897   897   897                              PRN / # OF OBS      
   G29   757   757   756   756                              PRN / # OF OBS      
   G30   705   705   705   705                              PRN / # OF OBS      
   G31   815   813   813   813                              PRN / # OF OBS      
   G32   754   753   753   753                              PRN / # OF OBS      
BIT 2 OF LLI FLAGS DATA COLLECTED UNDER A/S CONDITION       COMMENT             
SNR is mapped to RINEX snr flag value [2-9]                 COMMENT             
Lx:     = 25dBHz -> 1; 26-27dBHz -> 2; 28-31dBHz -> 3       COMMENT             
       32-35dBHz -> 4; 36-38dBHz -> 5; 39-41dBHz -> 6       COMMENT             
       42-44dBHz -> 7; 45-48dBHz -> 8; >=49dBHz -> 9        COMMENT             
                                                            END OF HEADER       
 15 03 06 00 00  0.0000000  0  7G16G18G19G21G22G27G31
  21117490.860   110973180.50809  21117488.180    86472606.05349
  22119411.620   116238398.99509  22119409.300    90575416.89747
  24376559.380   128099691.76606  24376557.240    99817935.35046
  21863756.860   114895182.03609  21863754.020    89528867.47848
  22953246.880   120620130.88508  22953245.760    93989711.72147
  22250002.360   116924651.23708  22250002.580    91110137.82848
  23652402.440   124294199.87408  23652403.200    96852619.90446
 15 03 06 00 00 30.0000000  0  7G16G18G19G21G22G27G31
  21106897.020   110917509.34009  21106894.280    86429225.91649
  22111782.500   116198307.32109  22111780.060    90544176.65647
  24362118.940   128023806.69207  24362116.780    99758804.21045
  21874456.620   114951409.45009  21874453.780    89572681.03948
  22936540.260   120532338.24408  22936539.080    93921302.19847
  22239358.800   116868718.96708  22239358.940    91066554.24748
  23670614.140   124389901.30808  23670615.040    96927192.05546
 15 03 06 00 01  0.0000000  0  7G16G18G19G21G22G27G31
  21096371.360   110862196.76809  21096368.600    86386125.20849
  22104230.100   116158618.97309  22104227.660    90513250.68947
  24347692.100   127947993.17006  24347689.880    99699728.80245
  21885199.620   115007864.11409  21885196.760    89616671.68348
  22919862.080   120444695.01808  22919860.840    93853009.00246
  22228734.880   116812890.21708  22228735.040    91023051.35148
  23688835.700   124485654.86308  23688836.680    97001804.82146
 15 03 06 00 01 30.0000000  0  7G16G18G19G21G22G27G31
  21085915.400   110807250.47709  21085912.640    86343309.91749
  22096755.840   116119341.28209  22096753.460    90482644.72547
  24333279.760   127872256.47206  24333277.540    99640713.26045
  21895986.720   115064550.70209  21895983.860    89660843.05248
  22903213.980   120357210.05408  22903212.620    93784839.27447
  22218131.720   116757170.52608  22218131.960    90979633.44148
  23707067.760   124581463.32708  23707068.740    97076460.37246
 15 03 06 00 02  0.0000000  0  7G16G18G19G21G22G27G31
  21075528.060   110752664.62109  21075525.280    86300775.47749
  22089358.620   116080468.59209  22089356.300    90452354.33747
  24318880.580   127796588.94006  24318878.380    99581751.61545
  21906815.980   115121458.99709  21906813.160    89705187.17648
  22886595.100   120269878.50908  22886593.680    93716789.23747
  22207547.980   116701552.29208  22207548.120    90936294.56248
  23725308.260   124677315.80408  23725309.220    97151150.20746
 15 03 06 00 02 30.0000000  0  7G16G18G19G21G22G27G31
  21065211.100   110698448.61509  21065208.300    86258529.23649
  22082040.060   116042009.31009  22082037.820    90422386.08447
  24304495.940   127720997.62206  24304493.680    99522849.31845
  21917688.300   115178593.80009  21917685.500    89749707.79548
  22870006.980   120182708.84308  22870005.520    93648864.99147
  22196984.860   116646042.48308  22196984.900    90893040.17948
  23743557.860   124773216.29708  23743559.040    97225877.44846
 15 03 06 00 03  0.0000000  0  7G16G18G19G21G22G27G31
  21054964.880   110644604.37809  21054962.100    86216572.68649
  22074800.320   116003964.57909  22074798.180    90392740.86247
  24290125.660   127645481.77706  24290123.500    99464005.87845
  21928603.420   115235953.34309  21928600.620    89794403.54148
  22853450.260   120095704.18908  22853448.720    93581069.23847
  22186442.240   116590640.84608  22186442.300    90849870.09548
  23761815.900   124869161.85408  23761817.420    97300639.77246
 15 03 06 00 03 30.0000000  0  7G16G18G19G21G22G27G31
  21044787.440   110591121.65409  21044784.740    86174897.83949
  22067637.660   115966324.90209  22067635.640    90363411.26647
  24275767.600   127570029.43706  24275765.260    99405211.95146
  21939558.740   115293523.91909  21939555.920    89839263.73248
  22836923.320   120008855.26908  22836921.640    93513394.78747
  22175917.920   116535335.53108  22175918.040    90806775.07348
  23780079.720   124965137.40208  23780081.560    97375425.46946
 15 03 06 00 04  0.0000000  0  7G16G18G19G21G22G27G31
  21034681.180   110538012.83409  21034678.500    86133514.34049
  22060554.220   115929101.56009  22060552.240    90334406.08047
  24261423.680   127494650.78007  24261421.200    99346475.38646
  21950555.840   115351314.03609  21950552.960    89884294.99048
  22820428.560   119922174.82808  22820426.760    93445851.63947
  22165413.880   116480136.75208  22165414.060    90763763.06048
  23798350.580   125061150.22407  23798352.500    97450240.18246
 15 03 06 00 04 30.0000000  0  7G16G18G19G21G22G27G31
  21024646.160   110485278.35109  21024643.460    86092422.52949
  22053549.980   115892294.60509  22053548.080    90305725.35347
  24247093.420   127419344.09607  24247090.740    99287794.92346
  21961593.900   115409319.43009  21961591.000    89929493.99248
  22803966.160   119835664.24308  22803964.280    93378440.84547
  22154929.780   116425042.75208  22154929.920    90720832.68348
  23816627.720   125157195.55308  23816629.480    97525080.22746
 15 03 06 00 05  0.0000000  0  7G16G18G19G21G22G27G31
  21014683.140   110432922.12209  21014680.440    86051625.46849
  22046625.540   115855906.94509  22046623.720    90277371.35947
  24232777.040   127344110.98707  24232774.300    99229171.81145
  21972673.000   115467540.44409  21972670.080    89974861.01848
  22787536.900   119749328.07208  22787534.940    93311166.11447
  22144466.060   116370055.49808  22144466.200    90677985.48448
  23834910.980   125253272.53408  23834912.600    97599944.95846
 15 03 06 00 05 30.0000000  0  7G16G18G19G21G22G27G31
  21004792.520   110380946.54009  21004789.820    86011125.01049
  22039781.360   115819940.88109  22039779.500    90249345.87348
  24218474.580   127268951.42306  24218471.680    99170605.97546
  21983792.760   115525975.06109  21983789.860    90020394.48648
  22771141.320   119663169.21708  22771139.340    93244029.64447
  22134022.740   116315175.33108  22134022.840    90635221.73248
  23853199.780   125349378.26208  23853201.360    97674832.07446
 15 03 06 00 06  0.0000000  0  7G16G18G19G21G22G27G31
  20994974.180   110329350.74909  20994971.440    85970920.49749
  22033017.220   115784395.24309  22033015.300    90221648.00047
  24204185.460   127193862.52906  24204182.520    99112095.23646
  21994952.420   115584619.19709  21994949.500    90066091.21748
  22754779.420   119577187.61208  22754777.360    93177031.58447
  22123599.200   116260399.38808  22123599.360    90592539.20348
  23871492.780   125445506.93107  23871494.760    97749737.01246
 15 03 06 00 06 30.0000000  0  7G16G18G19G21G22G27G31
  20985228.760   110278138.22409  20985226.000    85931014.63249
  22026333.700   115749273.31809  22026331.780    90194280.28747
  24189910.120   127118846.00106  24189907.160    99053640.84645
  22006151.800   115643472.07909  22006148.840    90111950.59748
  22738451.780   119491386.75008  22738449.600    93110174.01847
  22113195.800   116205729.38608  22113195.960    90549939.21648
  23889789.900   125541657.31407  23889792.120    97824658.84047
 15 03 06 00 07  0.0000000  0  7G16G18G19G21G22G27G31
  20975556.620   110227310.81709  20975553.880    85891408.85849
  22019731.000   115714575.80909  22019729.060    90167243.28348
  24175648.380   127043901.00306  24175645.520    98995242.22446
  22017390.540   115702531.90609  22017387.560    90157971.24248
  22722159.040   119405769.28708  22722156.860    93043459.41947
  22102812.460   116151164.88408  22102812.700    90507421.43848
  23908090.620   125637826.15508  23908093.000    97899595.06147
 15 03 06 00 07 30.0000000  0  7G16G18G19G21G22G27G31
  20965958.420   110176872.00109  20965955.700    85852105.88049
  22013209.680   115680305.72309  22013207.580    90140539.33848
  24161400.640   126969028.98906  24161397.860    98936900.42646
  22028668.300   115761796.84309  22028665.320    90204151.70648
  22705901.980   119320339.05908  22705899.660    92976890.63147
  22092449.540   116096707.50008  22092449.780    90464987.13048
  23926394.600   125734011.86807  23926396.840    97974544.44146
 15 03 06 00 08  0.0000000  0  7G16G18G19G21G22G27G31
  20956434.160   110126821.74009  20956431.420    85813105.66949
  22006769.660   115646462.85909  22006767.460    90114168.29748
  24147166.460   126894227.93707  24147163.580    98878613.95145
  22039984.660   115821264.78209  22039981.700    90250490.35648
  22689680.760   119235097.14708  22689678.400    92910468.59347
  22082106.720   116042355.37208  22082106.940    90422634.83748
  23944700.800   125830209.68307  23944703.080    98049503.22246
 15 03 06 00 08 30.0000000  0  7G16G18G19G21G22G27G31
  20946984.180   110077161.65709  20946981.420    85774409.50149
  22000411.180   115613048.41309  22000408.880    90088131.08447
  24132945.840   126819497.81906  24132943.040    98820382.75846
  22051339.020   115880932.68809  22051336.120    90296984.82448
  22673495.820   119150046.07408  22673493.460    92844195.29047
  22071783.860   115988108.20408  22071784.060    90380364.33948
  23963008.620   125926416.36307  23963011.120    98124468.88946
 15 03 06 00 09  0.0000000  0  7G16G18G19G21G22G27G31
  20937609.680   110027898.41909  20937607.000    85736022.56049
  21994135.200   115580067.64009  21994132.800    90062431.79447
  24118739.360   126744842.47107  24118736.440    98762209.83745
  22062731.920   115940802.98708  22062729.060    90343636.99948
  22657348.580   119065192.99008  22657346.220    92778076.56547
  22061481.740   115933970.42108  22061481.920    90338179.07048
  23981318.500   126022633.15107  23981321.240    98199442.41846
 15 03 06 00 09 30.0000000  0  7G16G18G19G21G22G27G31
  20928310.240   109979029.66609  20928307.620    85697943.01449
  21987941.240   115547518.25509  21987938.880    90037068.65847
  24104546.320   126670257.26407  24104543.420    98704091.54546
  22074162.180   116000869.46909  22074159.300    90390442.05048
  22641238.480   118980535.31408  22641236.020    92712109.75047
  22051199.620   115879937.87608  22051199.780    90296075.80648
  23999629.020   126118853.10808  23999631.960    98274418.42846
 15 03 06 00 10  0.0000000  0  7G16G18G19G21G22G27G31
  20919086.660   109930559.41009  20919084.020    85660173.98449
  21981829.940   115515403.51209  21981827.660    90012044.20148
  24090367.120   126595744.51807  24090364.180    98646029.70846
  22085629.840   116061132.44709  22085626.900    90437400.20948
  22625166.580   118896078.25008  22625164.000    92646299.22247
  22040937.940   115826012.68808  22040938.080    90254056.19048
  24017940.020   126215075.29307  24017943.060    98349396.17146
 15 03 06 00 10 30.0000000  0  7G16G18G19G21G22G27G31
  20909939.600   109882491.21509  20909936.980    85622718.24949
  21975801.900   115483726.52309  21975799.720    89987360.85748
  24076201.900   126521305.60307  24076199.040    98588025.42046
  22097134.880   116121591.78809  22097131.920    90484511.38148
  22609133.720   118811825.88008  22609131.060    92580648.19647
  22030697.060   115772196.52708  22030697.200    90212121.54148
  24036251.120   126311298.35607  24036254.320    98424374.58146
 15 03 06 00 11  0.0000000  0  7G16G18G19G21G22G27G31
  20900868.960   109834824.58509  20900866.400    85585575.41849
  21969856.900   115452486.03909  21969854.900    89963017.63547
  24062050.240   126446938.15407  24062047.400    98530076.79646
  22108676.500   116182243.25309  22108673.500    90531772.25348
  22593139.900   118727778.55308  22593137.200    92515156.92247
  22020476.540   115718487.03209  22020476.660    90170269.99548
  24054561.380   126407516.96707  24054564.520    98499349.52446
 15 03 06 00 11 30.0000000  0  7G16G18G19G21G22G27G31
  20891875.680   109787564.45109  20891873.080    85548749.34049
  21963995.920   115421686.84609  21963994.060    89939018.28348
  24047912.480   126372644.61706  24047909.640    98472185.79546
  22120254.920   116243087.87709  22120251.860    90579183.65448
  22577186.220   118643942.07108  22577183.560    92449829.94147
  22010276.880   115664887.28108  22010277.040    90128503.97648
  24072870.800   126503731.26207  24072874.300    98574321.03246
 15 03 06 00 12  0.0000000  0  7G16G18G19G21G22G27G31
  20882959.740   109740710.85709  20882957.080    85512240.04049
  21958218.780   115391328.01509  21958216.940    89915362.06347
  24033788.400   126298423.09007  24033785.820    98414350.89746
  22131869.340   116304121.70609  22131866.240    90626742.47448
  22561272.800   118560317.05008  22561270.080    92384667.72847
  22000097.740   115611395.59708  22000097.960    90086822.16448
  24091178.480   126599936.39207  24091182.180    98649285.42246
 15 03 06 00 12 30.0000000  0  7G16G18G19G21G22G27G31
  20874120.960   109694262.79709  20874118.280    85476046.74449
  21952525.200   115361407.82709  21952523.260    89892047.63747
  24019677.620   126224270.61707  24019675.020    98356569.77946
  22143518.800   116365339.68209  22143515.660    90674444.78748
  22545399.480   118476902.46608  22545396.580    92319669.47247
  21989938.540   115558008.89809  21989938.720    90045222.15448
  24109483.240   126696126.19807  24109487.060    98724237.82746
 15 03 06 00 13  0.0000000  0  7G16G18G19G21G22G27G31
  20865360.540   109648226.55209  20865357.860    85440174.35049
  21946916.220   115331932.14909  21946914.140    89869079.60748
  24005580.800   126150191.24107  24005578.180    98298845.66046
  22155203.820   116426744.69009  22155200.660    90722292.84348
  22529567.600   118393705.97908  22529564.660    92254841.17447
  21979800.160   115504731.50709  21979800.240    90003707.32648
  24127785.480   126792302.45407  24127789.320    98799179.67746
 15 03 06 00 13 30.0000000  0  7G16G18G19G21G22G27G31
  20856678.700   109602603.34609  20856676.000    85404623.79549
  21941392.020   115302901.65609  21941389.700    89846458.45848
  23991497.900   126076184.73207  23991495.220    98241178.27746
  22166923.840   116488333.71309  22166920.720    90770284.28648
  22513777.660   118310729.97008  22513774.800    92190184.66647
  21969682.600   115451563.26209  21969682.560    89962277.52948
  24146084.300   126888461.53107  24146088.500    98874108.10945
 15 03 06 00 14  0.0000000  0  7G16G18G19G21G22G27G31
  20848075.780   109557394.77309  20848073.040    85369396.33549
  21935952.640   115274317.04109  21935950.140    89824184.75047
  23977428.620   126002250.16407  23977425.760    98183567.00346
  22178678.580   116550105.30509  22178675.500    90818417.98148
  22498030.020   118227975.93108  22498027.160    92125701.11847
  21959585.780   115398503.81309  21959585.680    89920932.51448
  24164379.520   126984600.44507  24164383.580    98949020.83845
 15 03 06 00 14 30.0000000  0  7G16G18G19G21G22G27G31
  20839552.420   109512604.20809  20839549.680    85334494.59749
  21930598.600   115246181.04209  21930595.960    89802260.61047
  23963373.180   125928388.70607  23963370.280    98126012.67446
  22190467.820   116612058.38408  22190464.720    90866693.10848
  22482325.420   118145448.02508  22482322.520    92061393.76147
  21949509.840   115345554.53308  21949509.840    89879673.34248
  24182670.540   127080717.44007  24182674.920    99023916.45946
 15 03 06 00 15  0.0000000  0  7G16G18G19G21G22G27G31
  20831109.100   109468234.07009  20831106.360    85299920.46449
  21925330.220   115218495.40809  21925327.540    89780687.40547
  23949331.760   125854600.80907  23949328.880    98068515.66846
  22202291.420   116674192.10808  22202288.360    90915108.99248
  22466664.520   118063149.53708  22466661.440    91997265.16947
  21939454.960   115292716.22808  21939455.180    89838500.66448
  24200956.820   127176810.22007  24200961.660    99098793.17346
 15 03 06 00 15 30.0000000  0  7G16G18G19G21G22G27G31
  20822745.640   109424283.65709  20822742.920    85265673.38049
  21920147.140   115191258.34909  21920144.540    89759463.73348
  23935303.740   125780883.83607  23935300.960    98011073.92446
  22214148.440   116736501.27108  22214145.420    90963661.57948
  22451047.200   117981080.27408  22451044.040    91933315.19047
  21929420.740   115239986.26709  21929421.060    89797412.38948
  24219237.560   127272873.21907  24219242.640    99173646.69145
 15 03 06 00 16  0.0000000  0  7G16G18G19G21G22G27G31
  20814462.960   109380757.81209  20814460.260    85231757.13149
  21915050.360   115164474.64709  21915047.820    89738593.33048
  23921289.800   125707240.75407  23921287.080    97953689.76846
  22226039.060   116798986.98009  22226036.040    91012351.73748
  22435474.460   117899245.68508  22435471.360    91869548.08147
  21919407.800   115187367.77609  21919408.040    89756410.97748
  24237512.500   127368906.48307  24237517.780    99248477.03445
 15 03 06 00 16 30.0000000  0  7G16G18G19G21G22G27G31
  20806260.880   109337655.68009  20806258.260    85198171.05449
  21910039.560   115138142.78109  21910037.060    89718074.99748
  23907289.360   125633668.80207  23907286.680    97896361.01146
  22237962.520   116861645.20109  22237959.460    91061176.31748
  22419946.440   117817645.94908  22419943.380    91805963.96148
  21909415.680   115134858.38409  21909415.700    89715494.56848
  24255780.880   127464905.00107  24255786.100    99323280.34145
 15 03 06 00 17  0.0000000  0  7G16G18G19G21G22G27G31
  20798140.320   109294981.99109  20798137.760    85164918.83949
  21905115.440   115112266.47409  21905112.920    89697911.66548
  23893302.940   125560170.22907  23893300.240    97839089.43246
  22249919.060   116924477.23208  22249915.980    91110136.35148
  22404464.140   117736286.30708  22404461.080    91742566.93447
  21899444.780   115082460.84009  21899444.600    89674665.32648
  24274042.680   127560868.43807  24274048.080    99398056.30246
 15 03 06 00 17 30.0000000  0  7G16G18G19G21G22G27G31
  20790100.660   109252733.41909  20790098.080    85131997.87049
  21900277.200   115086841.66109  21900274.760    89678100.13948
  23879329.680   125486740.24407  23879327.020    97781871.31546
  22261907.280   116987475.58208  22261904.180    91159225.96548
  22389027.040   117655164.29808  22389023.960    91679355.06147
  21889494.180   115030170.31309  21889493.980    89633919.46448
  24292296.320   127656788.74507  24292302.020    99472798.61845
 15 03 06 00 18  0.0000000  0  7G16G18G19G21G22G27G31
  20782143.560   109210918.62609  20782140.980    85099414.91049
  21895526.460   115061876.65109  21895524.040    89658646.90148
  23865370.760   125413385.69507  23865368.080    97724711.97246
  22273928.000   117050644.94808  22273924.920    91208448.83948
  22373636.980   117574289.50708  22373633.960    91616335.83547
  21879565.300   114977993.88009  21879565.200    89593262.51448
  24310542.360   127752669.96007  24310548.400    99547510.48745
 15 03 06 00 18 30.0000000  0  7G16G18G19G21G22G27G31
  20774269.280   109169539.02109  20774266.720    85067171.06649
  21890863.260   115037371.74809  21890860.960    89639552.19448
  23851426.020   125340105.62107  23851423.480    97667610.66446
  22285980.880   117113983.33308  22285977.860    91257803.42548
  22358294.320   117493663.79508  22358291.240    91553510.69147
  21869658.060   114925930.96709  21869658.100    89552694.02748
  24328780.280   127848508.72207  24328786.740    99622189.28546
 15 03 06 00 19  0.0000000  0  7G16G18G19G21G22G27G31
  20766477.440   109128592.45509  20766474.840    85035264.64949
  21886287.040   115013323.90409  21886284.820    89620813.62448
  23837494.700   125266896.02907  23837492.160    97610564.28346
  22298064.820   117177484.88508  22298061.820    91307285.14948
  22342998.840   117413285.63608  22342995.740    91490878.43548
  21859771.720   114873977.79709  21859771.780    89512211.05248
  24347008.900   127944297.92607  24347015.280    99696829.45545
 15 03 06 00 19 30.0000000  0  7G16G18G19G21G22G27G31
  20758768.900   109088083.64809  20758766.240    85003699.34349
  21881798.580   114989737.20609  21881796.460    89602434.38748
  23823577.300   125193759.84807  23823574.600    97553575.10046
  22310179.980   117241150.59108  22310177.060    91356894.77648
  22327751.480   117333160.40509  22327748.280    91428443.26448
  21849906.820   114822137.47109  21849906.840    89471816.00148
  24365228.120   128040038.19607  24365234.740    99771431.49545
 15 03 06 00 20  0.0000000  0  7G16G18G19G21G22G27G31
  20751143.820   109048013.53809  20751141.140    84972475.88349
  21877397.920   114966611.93109  21877395.920    89584414.70448
  23809673.660   125120695.99507  23809671.000    97496642.26846
  22322325.880   117304977.62308  22322322.960    91406630.12048
  22312552.580   117253289.85908  22312549.300    91366206.54648
  21840063.240   114770409.30609  21840063.200    89431508.35448
  24383437.460   128135725.47607  24383444.080    99845992.31445
 15 03 06 00 20 30.0000000  0  7G16G18G19G21G22G27G31
  20743602.860   109008385.51509  20743600.200    84941596.90649
  21873085.640   114943950.93809  21873083.660    89566756.80148
  23795784.200   125047706.28807  23795781.500    97439767.20846
  22334502.520   117368966.19608  22334499.580    91456491.33348
  22297402.980   117173678.33209  22297399.680    91304171.66448
  21830241.400   114718795.41009  21830241.380    89391289.73948
  24401636.380   128231359.01607  24401643.200    99920511.23446
 15 03 06 00 21  0.0000000  0  7G16G18G19G21G22G27G31
  20736145.560   108969197.08109  20736142.880    84911060.46649
  21868861.060   114921750.62109  21868859.060    89549457.87048
  23781907.900   124974786.04107  23781905.060    97382946.28046
  22346708.720   117433110.08708  22346705.780    91506473.58148
  22282302.320   117094324.23509  22282299.120    91242337.37648
  21820440.500   114667291.41709  21820440.520    89351156.76448
  24419823.740   128326931.23207  24419830.780    99994982.41146
 15 03 06 00 21 30.0000000  0  7G16G18G19G21G22G27G31
  20728773.080   108930454.45809  20728770.380    84880871.40949
  21864725.220   114900016.46409  21864723.100    89532522.18248
  23768045.720   124901939.69707  23768042.940    97326182.94046
  22358944.920   117497411.86508  22358942.020    91556578.85948
  22267251.940   117015234.31409  22267248.720    91180708.94048
  21810661.380   114615901.83409  21810661.480    89311112.93948
  24437999.700   128422443.89807  24438006.880   100069407.15545
 15 03 06 00 22  0.0000000  0  7G16G18G19G21G22G27G31
  20721485.520   108892158.16209  20721482.820    84851030.14549
  21860678.080   114878748.38909  21860675.860    89515949.68348
  23754197.400   124829165.98207  23754194.400    97269476.17546
  22371210.620   117561868.48208  22371207.680    91606804.79448
  22252252.120   116936409.95709  22252248.880    91119287.43948
  21800903.880   114564625.82009  21800904.020    89271157.62248
  24456163.700   128517893.45607  24456171.180   100143782.78146
 15 03 06 00 22 30.0000000  0  7G16G18G19G21G22G27G31
  20714283.460   108854311.04109  20714280.760    84821538.88349
  21856720.060   114857948.52009  21856717.680    89499742.00748
  23740363.040   124756466.29407  23740360.080    97212827.13846
  22383505.660   117626479.21708  22383502.660    91657150.81947
  22237303.560   116857854.99609  22237300.280    91058075.84448
  21791168.240   114513464.66809  21791168.300    89231291.79748
  24474315.320   128613277.82507  24474322.920   100218107.68645
 15 03 06 00 23  0.0000000  0  7G16G18G19G21G22G27G31
  20707167.340   108816915.63109  20707164.640    84792399.59849
  21852851.360   114837618.06009  21852848.860    89483900.10248
  23726542.740   124683840.43007  23726539.800    97156235.61346
  22395829.820   117691243.04908  22395826.800    91707616.12947
  22222406.820   116779572.42709  22222403.540    90997076.50448
  21781454.640   114462419.35809  21781454.620    89191516.23748
  24492453.780   128708594.63306  24492461.760   100292379.81546
 15 03 06 00 23 30.0000000  0  7G16G18G19G21G22G27G31
  20700137.260   108779972.29509  20700134.560    84763612.59149
  21849071.940   114817756.81309  21849069.340    89468423.82748
  23712736.320   124611287.36107  23712733.420    97099700.80547
  22408182.520   117756156.94108  22408179.500    91758198.38547
  22207562.140   116701563.34409  22207558.900    90936290.27748
  21771762.860   114411488.76509  21771762.820    89151830.07248
  24510578.880   128803840.26707  24510587.020   100366596.58846
 15 03 06 00 24  0.0000000  0  7G16G18G19G21G22G27G31
  20693192.960   108743479.73909  20693190.260    84735176.83149
  21845381.360   114798362.80809  21845378.780    89453311.62548
  23698943.240   124538804.64907  23698940.380    97043220.81246
  22420562.920   117821216.19308  22420559.880    91808893.90448
  22192769.480   116623827.60409  22192766.200    90875717.03048
  21762092.420   114360670.12409  21762092.340    89112231.13048
  24528689.520   128899009.24907  24528697.900   100440753.77946
 15 03 06 00 24 30.0000000  0  7G16G18G19G21G22G27G31
  20686335.860   108707445.37009  20686333.140    84707098.10249
  21841780.960   114779442.83609  21841778.420    89438568.80648
  23685164.560   124466397.29607  23685161.680    96986799.54846
  22432971.620   117886424.46208  22432968.660    91859705.54047
  22178030.360   116546373.25809  22178027.060    90815363.06048
  21752444.420   114309969.54709  21752444.400    89072724.19948
  24546785.900   128994104.56507  24546794.960   100514853.52446
 15 03 06 00 25  0.0000000  0  7G16G18G19G21G22G27G31
  20679566.240   108671870.81609  20679563.520    84679377.66649
  21838270.740   114760996.83909  21838268.240    89424195.31248
  23671400.080   124394064.82607  23671397.080    96930436.61346
  22445408.260   117951779.51808  22445405.280    91910631.55547
  22163345.200   116469202.28709  22163341.880    90755229.89948
  21742818.780   114259386.60609  21742818.820    89033308.92948
  24564867.440   129089122.44806  24564876.660   100588892.99945
 15 03 06 00 25 30.0000000  0  7G16G18G19G21G22G27G31
  20672884.080   108636755.71809  20672881.360    84652015.25249
  21834850.520   114743024.01609  21834848.180    89410190.52948
  23657649.480   124321805.58407  23657646.460    96874130.77346
  22457872.080   118017277.48608  22457869.100    91961668.92347
  22148714.060   116392315.37109  22148710.660    90695318.07248
  21733215.260   114208919.82609  21733215.300    88993984.17348
  24582933.360   129184058.31106  24582942.700   100662868.66345
 15 03 06 00 26  0.0000000  0  7G16G18G19G21G22G27G31
  20666288.940   108602098.12109  20666286.240    84625009.32649
  21831519.900   114725521.88709  21831517.640    89396552.51948
  23643912.140   124249615.83707  23643909.280    96817879.07646
  22470362.280   118082913.81508  22470359.320    92012814.11247
  22134136.700   116315711.04809  22134133.220    90635626.45148
  21723633.240   114158566.05809  21723633.280    88954747.48548
  24600982.880   129278906.32507  24600992.020   100736775.93845
 15 03 06 00 26 30.0000000  0  7G16G18G19G21G22G27G31
  20659782.120   108567904.59809  20659779.440    84598365.02749
  21828279.840   114708495.48809  21828277.620    89383285.21348
  23630188.980   124177500.31007  23630186.080    96761685.18846
  22482879.260   118148690.91708  22482876.260    92064068.99747
  22119614.640   116239397.51509  22119611.140    90576161.41848
  21714073.680   114108330.09709  21714073.640    88915602.58948
  24619015.940   129373668.36206  24619025.080   100810616.28946
 15 03 06 00 27  0.0000000  0  7G16G18G19G21G22G27G31
  20653364.760   108534181.24909  20653362.080    84572087.08849
  21825131.460   114691950.58909  21825129.260    89370393.09548
  23616480.860   124105463.49307  23616477.840    96705552.62546
  22495423.520   118214611.50108  22495420.540    92115435.68047
  22105149.200   116163381.49609  22105145.740    90516928.21348
  21704537.460   114058216.94609  21704537.420    88876553.39348
  24637032.540   129468346.05006  24637042.160   100884390.72046
 15 03 06 00 27 30.0000000  0  7G16G18G19G21G22G27G31
  20647035.580   108500921.24909  20647032.900    84546170.20549
  21822073.340   114675879.80509  21822071.080    89357870.42248
  23602786.040   124033496.75007  23602782.820    96649474.67646
  22507993.240   118280665.94708  22507990.340    92166906.67247
  22090739.320   116087657.16209  22090735.740    90457922.29348
  21695023.040   114008218.48909  21695023.000    88837593.56248
  24655031.200   129562928.36507  24655040.760   100958090.89145
 15 03 06 00 28  0.0000000  0  7G16G18G19G21G22G27G31
  20640795.500   108468129.46809  20640792.840    84520618.16649
  21819106.080   114660286.42809  21819103.720    89345719.75548
  23589105.160   123961603.27107  23589101.900    96593453.80446
  22520588.680   118346855.48808  22520585.840    92218482.93047
  22076385.980   116012229.81509  22076382.320    90399147.79148
  21685531.100   113958338.03409  21685531.020    88798725.68448
  24673011.900   129657415.67307  24673021.260   101031717.07545
 15 03 06 00 28 30.0000000  0  6G16G18G19G21G22G27
  20634642.440   108435794.74309  20634639.760    84495422.27049
  21816227.440   114645158.83609  21816225.020    89333932.03448
  23575435.920   123889770.88107  23575432.820    96537480.55446
  22533207.180   118413165.95408  22533204.280    92270153.41047
  22062087.160   115937089.13709  22062083.460    90340596.66348
  21676059.260   113908563.27109  21676059.200    88759940.15448
 15 03 06 00 29  0.0000000  0  6G16G18G19G21G22G27
  20628582.320   108403948.42709  20628579.600    84470606.95349
  21813443.160   114630527.29909  21813440.740    89322530.84048
  23561783.860   123818028.81807  23561780.840    96481577.68546
  22545853.900   118479624.70608  22545850.920    92321939.44747
  22047849.020   115862267.39109  22047845.280    90282294.04848
  21666613.260   113858924.13809  21666613.220    88721260.31448
 15 03 06 00 29 30.0000000  0  6G16G18G19G21G22G27
  20622611.920   108372573.70809  20622609.220    84446159.12049
  21810749.760   114616373.57509  21810747.380    89311501.98548
  23548145.440   123746358.44307  23548142.340    96425730.66446
  22558525.000   118546211.71708  22558521.980    92373825.42347
  22033668.480   115787748.25209  22033664.720    90224227.23948
  21657189.620   113809402.47509  21657189.520    88682672.01248
 15 03 06 00 30  0.0000000  0  6G16G18G19G21G22G27
  20616732.560   108341677.32109  20616729.860    84422084.00949
  21808148.520   114602704.31109  21808146.160    89300850.61648
  23534521.580   123674764.70407  23534518.360    96369943.35946
  22571221.120   118612930.26808  22571218.140    92425813.89447
  22019547.100   115713540.17309  22019543.360    90166402.81248
  21647789.360   113760003.71209  21647789.200    88644179.47748
 15 03 06 00 30 30.0000000  0  6G16G18G19G21G22G27
  20610943.680   108311256.53809  20610940.960    84398379.50349
  21805638.720   114589515.49409  21805636.380    89290573.62848
  23520911.640   123603244.07107  23520908.360    96314213.01646
  22583941.300   118679775.08908  22583938.260    92477900.75947
  22005484.520   115639641.01909  22005480.820    90108819.10548
  21638411.760   113710724.17109  21638411.600    88605779.84148
 15 03 06 00 31  0.0000000  0  6G16G18G19G21G22G27
  20605245.520   108281312.53109  20605242.780    84375046.50449
  21803220.360   114576807.08709  21803218.060    89280670.97948
  23507315.480   123531795.59707  23507311.960    96258538.89746
  22596684.880   118746742.95908  22596681.840    92530083.50147
  21991480.960   115566052.03709  21991477.300    90051477.08248
  21629056.780   113661563.31409  21629056.620    88567472.67548
 15 03 06 00 31 30.0000000  0  6G16G18G19G21G22G27
  20599638.980   108251850.02309  20599636.260    84352088.71349
  21800894.400   114564583.89509  21800892.040    89271146.43748
  23493733.720   123460422.92207  23493730.240    96202923.86046
  22609452.380   118813836.69508  22609449.380    92582364.33947
  21977537.660   115492779.71209  21977533.960    89994381.81748
  21619725.140   113612525.41209  21619725.060    88529261.33948
 15 03 06 00 32  0.0000000  0  6G16G18G19G21G22G27
  20594124.560   108222871.69409  20594121.880    84329508.19049
  21798660.940   114552846.88409  21798658.580    89262000.72048
  23480166.420   123389126.70707  23480162.900    96147368.38546
  22622243.540   118881054.66308  22622240.540    92634741.96247
  21963655.240   115419827.43609  21963651.520    89937535.92448
  21610417.100   113563611.37109  21610417.040    88491146.50048
 15 03 06 00 32 30.0000000  0  6G16G18G19G21G22G27
  20588702.280   108194377.54709  20588699.600    84307304.95849
  21796519.780   114541594.98309  21796517.420    89253233.01948
  23466613.320   123317905.39507  23466609.880    96091871.29246
  22635057.720   118948393.86708  22635054.840    92687214.06347
  21949833.840   115347195.85409  21949830.120    89880939.93048
  21601132.400   113514819.92509  21601132.300    88453127.20248
 15 03 06 00 33  0.0000000  0  6G16G18G19G21G22G27
  20583372.300   108166368.38409  20583369.600    84285479.63049
  21794470.920   114530828.34509  21794468.560    89244843.44048
  23453074.420   123246758.60307  23453071.260    96036432.27746
  22647894.520   119015851.75708  22647891.660    92739778.63747
  21936073.880   115274886.74209  21936070.120    89824595.20648
  21591871.040   113466151.05509  21591870.880    88415203.40948
 15 03 06 00 33 30.0000000  0  6G16G18G19G21G22G27
  20578134.760   108138845.00709  20578132.100    84264032.84149
  21792514.260   114520546.60109  21792512.000    89236831.70548
  23439549.660   123175685.50408  23439546.580    95981050.67747
  22660753.600   119083426.70708  22660750.720    92792434.43347
  21922375.520   115202901.58209  21922371.760    89768502.91848
  21582632.880   113417604.20409  21582632.740    88377374.70748
 15 03 06 00 34  0.0000000  0  6G16G18G19G21G22G27
  20572990.020   108111809.35009  20572987.420    84242966.09349
  21790650.200   114510751.42509  21790648.000    89229199.11148
  23426039.220   123104687.01907  23426036.000    95925727.20946
  22673634.720   119151117.48408  22673631.880    92845180.48447
  21908739.540   115131244.03909  21908735.760    89712665.91548
  21573418.240   113369181.00209  21573418.160    88339642.34349
 15 03 06 00 34 30.0000000  0  6G16G18G19G21G22G27
  20567939.000   108085266.11309  20567936.420    84222283.04749
  21788879.200   114501445.17509  21788877.060    89221947.49548
  23412543.420   123033765.60907  23412540.120    95870463.80346
  22686538.120   119218925.14308  22686535.300    92898017.61147
  21895166.820   115059919.08209  21895163.040    89657088.07248
  21564227.600   113320883.92109  21564227.520    88302008.25849
 15 03 06 00 35  0.0000000  0  6G16G18G19G21G22G27
  20562981.780   108059215.72209  20562979.200    84201984.03949
  21787201.340   114492628.09509  21787199.220    89215077.05848
  23399062.040   122962920.75007  23399058.740    95815260.06047
  22699463.320   119286847.28608  22699460.420    92950943.94647
  21881657.660   114988928.11909  21881653.840    89601770.48148
  21555060.960   113272712.89209  21555060.880    88264472.40048
 15 03 06 00 35 30.0000000  0  6G16G18G19G21G22G27
  20558118.520   108033659.03209  20558115.960    84182069.73349
  21785616.680   114484300.47409  21785614.500    89208588.01748
  23385595.020   122892151.67307  23385591.560    95760115.35946
  22712409.760   119354881.08508  22712406.760    93003957.28347
  21868212.400   114918272.94109  21868208.560    89546714.54548
  21545918.240   113224667.71009  21545918.140    88227034.60048
 15 03 06 00 36  0.0000000  0  6G16G18G19G21G22G27
  20553349.260   108008596.21709  20553346.700    84162540.25749
  21784124.920   114476460.80709  21784122.600    89202479.19248
  23372142.260   122821457.35207  23372138.640    95705028.89446
  22725377.020   119423024.28808  22725373.920    93057055.87147
  21854831.260   114847954.70409  21854827.420    89491921.15548
  21536799.300   113176747.41809  21536799.180    88189694.10848
 15 03 06 00 36 30.0000000  0  6G16G18G19G21G22G27
  20548674.500   107984030.06209  20548671.940    84143397.79849
  21782726.480   114469111.38809  21782724.080    89196752.38848
  23358704.020   122750839.18707  23358700.420    95650001.79547
  22738365.000   119491276.64708  22738361.920    93110239.52347
  21841514.980   114777977.29909  21841511.140    89437393.35148
  21527704.540   113128954.03409  21527704.400    88152452.51949
 15 03 06 00 37  0.0000000  0  6G16G18G19G21G22G27
  20544094.420   107959961.50009  20544091.840    84124643.07549
  21781421.240   114462251.90609  21781418.780    89191407.35648
  23345280.260   122680296.69208  23345276.760    95595033.64847
  22751373.420   119559636.21308  22751370.360    93163506.71647
  21828263.920   114708342.58709  21828260.000    89383132.57848
  21518633.900   113081287.49109  21518633.840    88115309.76849
 15 03 06 00 37 30.0000000  0  6G16G18G19G21G22G27
  20539609.380   107936392.42909  20539606.780    84106277.55749
  21780209.340   114455883.04809  21780206.780    89186444.61148
  23331871.000   122609830.52607  23331867.620    95540124.98247
  22764401.920   119628101.30608  22764398.820    93216856.11747
  21815078.500   114639053.05809  21815074.600    89329140.77448
  21509587.520   113033748.47309  21509587.500    88078266.37748
 15 03 06 00 38  0.0000000  0  6G16G18G19G21G22G27
  20535220.440   107913328.29409  20535217.840    84088305.49149
  21779091.680   114450009.84109  21779089.120    89181868.09548
  23318477.060   122539444.91207  23318473.680    95485279.08246
  22777450.940   119696674.35108  22777447.860    93270289.64347
  21801960.020   114570115.39309  21801956.180    89275423.14648
  21500566.320   112986341.90209  21500566.280    88041326.19848
 15 03 06 00 38 30.0000000  0  6G16G18G19G21G22G27
  20530926.660   107890764.25709  20530924.040    84070723.11249
  21778067.140   114444626.00209  21778064.580    89177672.90648
  23305097.200   122469133.54408  23305093.760    95430491.04247
  22790519.140   119765348.22108  22790516.060    93323801.74447
  21788907.800   114501525.70009  21788903.960    89221976.66548
  21491569.180   112939061.74609  21491569.080    88004484.52049
 15 03 06 00 39  0.0000000  0  6G16G18G19G21G22G27
  20526728.760   107868704.02809  20526726.100    84053533.31749
  21777136.200   114439734.25009  21777133.700    89173861.15748
  23291732.000   122398898.91208  23291728.520    95375762.77847
  22803606.560   119834123.07508  22803603.540    93377392.52547
  21775922.660   114433288.43709  21775918.780    89168804.80648
  21482596.640   112891910.78509  21482596.540    87967743.51449
 15 03 06 00 39 30.0000000  0  6G16G18G19G21G22G27
  20522626.960   107847148.89209  20522624.260    84036737.10749
  21776298.980   114435335.02609  21776296.580    89170433.20848
  23278381.520   122328741.19308  23278377.900    95321094.44646
  22816712.940   119902997.73208  22816709.980    93431061.08747
  21763005.020   114365405.99609  21763001.140    89115909.44148
  21473648.780   112844889.58409  21473648.720    87931103.63449
 15 03 06 00 40  0.0000000  0  6G16G18G19G21G22G27
  20518622.040   107826102.81109  20518619.340    84020337.55849
  21775556.080   114431431.20709  21775553.720    89167391.28448
  23265046.020   122258662.68607  23265042.400    95266487.85046
  22829838.520   119971973.16308  22829835.600    93484808.16547
  21750155.840   114297883.43309  21750152.000    89063294.48948
  21464726.180   112798001.09109  21464726.160    87894567.15449
 15 03 06 00 40 30.0000000  0  6G16G18G19G21G22G27
  20514713.980   107805565.69409  20514711.280    84004334.59749
  21774907.260   114428021.69309  21774904.920    89164734.52048
  23251725.300   122188662.56607  23251721.960    95211942.35947
  22842982.700   120041046.30808  22842979.760    93538631.37747
  21737375.300   114230721.70709  21737371.540    89010960.70748
  21455828.800   112751244.80709  21455828.720    87858133.67649
 15 03 06 00 41  0.0000000  0  6G16G18G19G21G22G27
  20510902.920   107785538.30209  20510900.220    83988728.83549
  21774352.400   114425105.76609  21774350.040    89162462.38348
  23238419.340   122118740.15207  23238416.160    95157457.40646
  22856145.120   120110215.31608  22856142.280    93592529.29947
  21724663.760   114163922.33109  21724660.040    88958909.28748
  21446956.480   112704620.39909  21446956.380    87821802.97149
 15 03 06 00 41 30.0000000  0  6G16G18G19G21G22G27
  20507188.860   107766020.79009  20507186.140    83973520.38249
  21773891.400   114422683.05809  21773888.980    89160574.57348
  23225128.140   122048894.64508  23225124.900    95103032.37746
  22869325.200   120179477.19808  22869322.460    93646499.59147
  21712021.520   114097486.84909  21712017.780    88907141.41148
  21438109.120   112658127.40209  21438109.040    87785574.66949
 15 03 06 00 42  0.0000000  0  6G16G18G19G21G22G27
  20503571.800   107747012.91209  20503569.080    83958709.03449
  21773524.040   114420752.46809  21773521.620    89159070.22348
  23211851.440   121979124.61608  23211847.960    95048666.13747
  22882522.520   120248829.47508  22882519.800    93700540.31447
  21699448.660   114031415.98909  21699444.900    88855657.65148
  21429286.620   112611764.88609  21429286.540    87749448.03749
 15 03 06 00 42 30.0000000  0  6G16G18G19G21G22G27
  20500052.740   107728520.02709  20500050.000    83944298.99249
  21773251.160   114419318.24509  21773248.720    89157952.66248
  23198589.980   121909434.48508  23198586.240    94994362.14347
  22895737.440   120318274.36908  22895734.600    93754653.21247
  21686946.300   113965715.77309  21686942.520    88804462.71648
  21420489.880   112565537.37709  21420489.760    87713426.60149
 15 03 06 00 43  0.0000000  0  6G16G18G19G21G22G27
  20496631.960   107710543.93509  20496629.280    83930291.64349
  21773072.760   114418380.74209  21773070.320    89157222.15248
  23185343.640   121839824.48808  23185339.940    94940120.61547
  22908969.740   120387810.53008  22908966.880    93808837.21847
  21674515.000   113900388.89809  21674511.220    88753558.69148
  21411718.960   112519445.86609  21411718.860    87677511.13649
 15 03 06 00 43 30.0000000  0  6G16G18G19G21G22G27
  20493309.520   107693084.49709  20493306.860    83916686.88349
  21772988.700   114417939.05109  21772986.260    89156877.98548
  23172112.280   121770293.69507  23172108.700    94885940.81547
  22922218.940   120457435.62308  22922216.120    93863090.52447
  21662154.960   113835436.64109  21662151.160    88702946.56948
  21402973.760   112473489.59009  21402973.680    87641701.04949
 15 03 06 00 44  0.0000000  0  6G16G18G19G21G22G27
  20490085.540   107676142.57309  20490082.920    83903485.37349
  21772998.940   114417992.87009  21772996.480    89156919.93348
  23158895.960   121700842.16907  23158892.680    94831822.79247
  22935484.720   120527147.66508  22935481.900    93917411.58347
  21649866.680   113770861.15209  21649862.780    88652628.04148
  21394254.400   112427669.15209  21394254.340    87605996.81749
 15 03 06 00 44 30.0000000  0  6G16G18G19G21G22G27
  20486959.880   107659717.25009  20486957.320    83890686.41249
  21773103.120   114418540.44209  21773100.660    89157346.61848
  23145694.440   121631467.76308  23145691.120    94777764.84847
  22948766.400   120596943.29808  22948763.580    93971797.78146
  21637650.020   113706662.16509  21637646.080    88602602.88348
  21385560.600   112381982.78809  21385560.500    87570397.05349
 15 03 06 00 45  0.0000000  0  6G16G18G19G21G22G27
  20483933.000   107643811.10109  20483930.500    83878292.00649
  21773301.560   114419583.18109  21773299.060    89158159.15648
  23132507.940   121562171.90708  23132504.400    94723768.08946
  22962064.000   120666822.33708  22962061.080    94026248.96446
  21625505.680   113642843.10909  21625501.680    88552873.78148
  21376892.620   112336432.24809  21376892.520    87534903.12449
 15 03 06 00 45 30.0000000  0  6G16G18G19G21G22G27
  20481005.920   107628429.23409  20481003.440    83866306.13149
  21773594.960   114421124.92909  21773592.440    89159360.52948
  23119337.100   121492958.52608  23119333.360    94669835.61147
  22975377.900   120736787.24408  22975375.040    94080767.06547
  21613434.840   113579410.44309  21613430.840    88503445.75948
  21368251.360   112291022.27009  21368251.280    87499518.73449
 15 03 06 00 46  0.0000000  0  6G16G18G19G21G22G27
  20478178.420   107613570.64209  20478175.940    83854728.01249
  21773982.920   114423163.78009  21773980.380    89160949.26048
  23106181.620   121423825.96708  23106177.840    94615966.11447
  22988707.440   120806834.32808  22988704.600    94135349.20846
  21601437.520   113516364.14609  21601433.500    88454318.81448
  21359636.540   112245751.24309  21359636.480    87464242.62149
 15 03 06 00 46 30.0000000  0  6G16G18G19G21G22G27
  20475450.500   107599235.07609  20475447.980    83843557.42749
  21774465.180   114425698.29509  21774462.640    89162924.20848
  23093041.300   121354773.10408  23093037.500    94562158.69647
  23002052.040   120876960.49908  23002049.160    94189992.96346
  21589513.880   113453705.02909  21589509.840    88405493.54748
  21351048.060   112200618.46009  21351048.000    87429074.21949
 15 03 06 00 47  0.0000000  0  6G16G18G19G21G22G27
  20472822.400   107585424.25709  20472819.860    83832795.75049
  21775041.920   114428729.47009  21775039.460    89165286.18048
  23079916.320   121285800.77608  23079912.540    94508414.05647
  23015411.620   120947165.49708  23015408.660    94244698.15547
  21577664.380   113391435.69109  21577660.340    88356972.02048
  21342486.140   112155625.16709  21342486.040    87394014.52249
 15 03 06 00 47 30.0000000  0  6G16G18G19G21G22G27
  20470294.820   107572141.46709  20470292.220    83822445.50749
  21775713.560   114432259.29309  21775711.180    89168036.68748
  23066807.060   121216911.33708  23066803.400    94454733.98747
  23028786.320   121017449.92008  23028783.360    94299465.21747
  21565889.960   113329561.06109  21565885.900    88308758.04548
  21333951.240   112110774.18809  21333951.160    87359065.70549
 15 03 06 00 48  0.0000000  0  6G16G18G19G21G22G27
  20467867.400   107559385.09909  20467864.760    83812505.48049
  21776479.580   114436285.24709  21776477.300    89171173.81048
  23053713.000   121148102.23108  23053709.460    94401116.54147
  23042175.300   121087809.61908  23042172.500    94354290.94446
  21554190.440   113268080.12309  21554186.440    88260850.85648
  21325443.060   112066063.41909  21325442.980    87324226.15749
 15 03 06 00 48 30.0000000  0  7G04G16G18G19G21G22G27
  24595301.640   129249169.41207  24595306.280   100713653.92044
  20465540.700   107547158.29509  20465538.060    83802978.08849
  21777340.400   114440809.22309  21777338.180    89174698.99248
  23040634.640   121079375.53708  23040631.140    94347563.28147
  23055578.680   121158245.05608  23055575.920    94409175.68046
  21542566.620   113206996.98409  21542562.700    88213253.62648
  21316962.080   112021495.59409  21316962.000    87289497.98449
 15 03 06 00 49  0.0000000  0  7G04G16G18G19G21G22G27
  24576604.180   129150915.23107  24576609.700   100637092.47245
  20463316.040   107535467.59609  20463313.400    83793868.44449
  21778297.000   114445836.20509  21778294.820    89178616.12648
  23027573.180   121010737.22508  23027569.700    94294078.88447
  23068997.360   121228760.61108  23068994.500    94464122.85546
  21531020.040   113146319.58509  21531016.100    88165972.55748
  21308509.440   111977076.79509  21308509.340    87254885.93149
 15 03 06 00 49 30.0000000  0  7G04G16G18G19G21G22G27
  24557933.560   129052801.89506  24557939.420   100560640.89344
  20461190.480   107524297.77109  20461187.900    83785164.68149
  21779346.480   114451350.97109  21779344.260    89182913.35648
  23014525.640   120942171.57908  23014521.960    94240651.12547
  23082427.940   121299338.75408  23082425.080    94519118.80947
  21519548.060   113086034.02109  21519544.120    88118996.81948
  21300082.280   111932791.72809  21300082.160    87220378.09549
 15 03 06 00 50  0.0000000  0  7G04G16G18G19G21G22G27
  24539292.560   128954845.85306  24539298.500   100484311.93345
  20459167.180   107513665.29509  20459164.640    83776879.62849
  21780491.640   114457368.52009  21780489.380    89187602.37048
  23001494.800   120873694.03408  23001491.100    94187292.01847
  23095873.060   121369993.36308  23095870.260    94574174.32447
  21508153.920   113026157.70009  21508150.000    88072339.97548
  21291683.600   111888656.36909  21291683.480    87185986.90649
 15 03 06 00 50 30.0000000  0  7G04G16G18G19G21G22G27
  24520680.220   128857041.17406  24520686.480   100408100.96844
  20457245.060   107503564.51009  20457242.540    83769008.87849
  21781731.200   114463882.03109  21781728.840    89192677.83748
  22988479.500   120805298.17408  22988475.780    94133996.56247
  23109331.160   121440716.27608  23109328.420    94629283.06746
  21496836.820   112966685.94609  21496832.880    88025998.37348
  21283312.260   111844664.61809  21283312.160    87151707.62349
 15 03 06 00 51  0.0000000  0  7G04G16G18G19G21G22G27
  24502096.960   128759388.84506  24502103.560   100332008.60245
  20455424.300   107493996.40909  20455421.760    83761553.20749
  21783065.120   114470891.49509  21783062.680    89198139.76948
  22975479.700   120736984.10508  22975476.020    94080764.84947
  23122802.080   121511506.49908  23122799.300    94684444.26746
  21485597.120   112907620.75009  21485593.100    87979973.57248
  21274968.420   111800817.33209  21274968.320    87117540.91349
 15 03 06 00 51 30.0000000  0  7G04G16G18G19G21G22G27
  24483542.920   128661888.56707  24483549.580   100256034.73645
  20453704.780   107484960.26809  20453702.260    83754512.05249
  21784493.020   114478395.02609  21784490.520    89203986.68648
  22962495.300   120668750.68808  22962491.640    94027595.97247
  23136285.220   121582360.79708  23136282.400    94739655.40246
  21474434.920   112848962.84609  21474430.840    87934266.14748
  21266651.880   111757113.45909  21266651.780    87083485.95249
 15 03 06 00 52  0.0000000  0  7G04G16G18G19G21G22G27
  24465019.020   128564546.03907  24465025.840   100180183.82845
  20452087.640   107476461.97709  20452085.120    83747889.99349
  21786015.760   114486397.13409  21786013.220    89210222.09748
  22949527.240   120600602.94408  22949523.740    93974493.84247
  23149781.280   121653282.77608  23149778.460    94794919.26846
  21463351.500   112790719.01809  21463347.380    87888881.36848
  21258363.680   111713558.66409  21258363.600    87049547.15249
 15 03 06 00 52 30.0000000  0  7G04G16G18G19G21G22G27
  24446524.820   128467359.72606  24446531.480   100104454.68145
  20450572.500   107468499.76809  20450569.960    83741685.67049
  21787632.960   114494895.74509  21787630.420    89216844.40048
  22936575.100   120532538.72108  22936571.460    93921456.81747
  23163289.440   121724268.39708  23163286.700    94850232.72946
  21452346.700   112732888.53509  21452342.580    87843818.68148
  21250103.460   111670151.02209  21250103.380    87015723.02249
 15 03 06 00 53  0.0000000  0  7G04G16G18G19G21G22G27
  24428060.720   128370332.02606  24428067.180   100028849.14445
  20449159.840   107461076.02709  20449157.220    83735900.92449
  21789344.740   114503891.35709  21789342.180    89223853.97448
  22923639.140   120464559.74008  22923635.340    93868486.19747
  23176809.700   121795317.77208  23176807.000    94905595.87046
  21441421.280   112675475.08409  21441417.140    87799080.95348
  21241871.620   111626892.57909  21241871.540    86982015.14449
 15 03 06 00 53 30.0000000  0  7G04G16G18G19G21G22G27
  24409626.520   128273462.92206  24409633.000    99953367.20944
  20447849.660   107454190.70909  20447846.960    83730535.73349
  21791150.900   114513382.99909  21791148.360    89231250.06548
  22910719.140   120396665.03908  22910715.260    93815581.26446
  23190341.720   121866428.90708  23190338.940    94961007.12946
  21430575.500   112618480.00209  21430571.340    87754669.21948
  21233668.180   111583783.24309  21233668.080    86948423.45649
 15 03 06 00 54  0.0000000  0  7G04G16G18G19G21G22G27
  24391222.920   128176754.52306  24391229.240    99878010.51444
  20446642.180   107447845.22209  20446639.460    83725591.19449
  21793051.660   114523371.65209  21793049.100    89239033.44948
  22897815.440   120328856.11608  22897811.580    93762743.17347
  23203885.380   121937601.28408  23203882.560    95016466.12046
  21419809.800   112561905.95009  21419805.680    87710585.56948
  21225493.440   111540824.65709  21225493.360    86914949.24149
 15 03 06 00 54 30.0000000  0  7G04G16G18G19G21G22G27
  24372849.660   128080204.16606  24372855.840    99802776.85944
  20445537.040   107442037.49309  20445534.320    83721065.67449
  21795046.260   114533853.38309  21795043.640    89247201.03248
  22884927.520   120261129.78708  22884923.620    93709969.42447
  23217439.720   122008829.92908  23217436.900    95071968.95046
  21409123.940   112505751.56409  21409119.880    87666828.92148
  21217346.840   111498014.14609  21217346.780    86881590.40149
 15 03 06 00 55  0.0000000  0  7G04G16G18G19G21G22G27
  24354507.620   127983816.80707  24354513.400    99727670.25244
  20444535.120   107436772.32309  20444532.400    83716962.93549
  21797135.440   114544832.20009  21797132.840    89255755.96348
  22872056.140   120193490.19408  22872052.300    93657263.28347
  23231005.300   122080117.63008  23231002.460    95127517.79446
  21398519.040   112450022.70909  21398515.060    87623403.86448
  21209229.320   111455356.36109  21209229.320    86848350.57549
 15 03 06 00 55 30.0000000  0  7G04G16G18G19G21G22G27
  24336196.200   127887590.39406  24336201.860    99652689.03744
  20443635.920   107432047.04309  20443633.220    83713280.89449
  21799318.600   114556304.90209  21799316.040    89264695.74248
  22859200.740   120125934.47208  22859196.960    93604622.48347
  23244581.360   122151460.34108  23244578.620    95183109.50446
  21387994.940   112394718.37909  21387991.000    87580309.60348
  21201140.440   111412849.03109  21201140.400    86815227.99249
 15 03 06 00 56  0.0000000  0  7G04G16G18G19G21G22G27
  24317916.400   127791531.05507  24317922.040    99577838.04845
  20442840.640   107427867.80809  20442837.940    83710024.34149
  21801596.640   114568276.25109  21801594.100    89274024.07248
  22846362.400   120058468.43708  22846358.720    93552051.59047
  23258168.600   122222861.46208  23258165.860    95238746.73346
  21377552.980   112339845.71909  21377549.060    87537551.71148
  21193081.300   111370498.09009  21193081.240    86782227.25749
 15 03 06 00 56 30.0000000  0  7G04G16G18G19G21G22G27
  24299667.740   127695635.99906  24299673.560    99503115.03945
  20442148.620   107424231.22809  20442145.940    83707190.62849
  21803968.720   114580741.68109  21803966.220    89283737.40548
  22833540.400   119991088.69108  22833536.700    93499547.92147
  23271766.040   122294316.31308  23271763.260    95294425.82346
  21367192.760   112285402.67409  21367188.840    87495128.58248
  21185051.360   111328300.58109  21185051.300    86749346.08849
 15 03 06 00 57  0.0000000  0  7G04G16G18G19G21G22G27
  24281450.800   127599908.80106  24281456.980    99428522.88045
  20441560.600   107421141.13609  20441557.920    83704782.75849
  21806435.320   114593703.71509  21806432.840    89293837.70148
  22820735.340   119923797.88508  22820731.620    93447113.56247
  23285373.920   122365825.99508  23285371.140    95350147.65146
  21356915.200   112231393.81809  21356911.260    87453043.78148
  21177051.240   111286259.65609  21177051.200    86716586.92949
 15 03 06 00 57 30.0000000  0  7G04G16G18G19G21G22G27
  24263265.540   127504346.78006  24263271.840    99354059.40745
  20441075.980   107418594.49909  20441073.300    83702798.35349
  21808995.600   114607158.21109  21808993.140    89304321.73248
  22807946.640   119856592.69708  22807942.780    93394745.90447
  23298991.260   122437385.54708  23298988.440    95405908.32746
  21346719.960   112177817.43109  21346716.000    87411295.97048
  21169080.380   111244372.48309  21169080.320    86683947.57849
 15 03 06 00 58  0.0000000  0  7G04G16G18G19G21G22G27
  24245111.780   127408949.02307  24245117.540    99279723.88844
  20440694.600   107416590.39409  20440691.920    83701236.71349
  21811649.320   114621103.63009  21811646.860    89315188.30748
  22795174.020   119789472.33408  22795170.140    93342444.34747
  23312617.600   122508992.29408  23312614.720    95461705.79146
  21336607.180   112124674.18209  21336603.160    87369885.67348
  21161138.680   111202638.51809  21161138.580    86651427.61149
 15 03 06 00 58 30.0000000  0  7G04G16G18G19G21G22G27
  24226990.500   127313720.88107  24226995.580    99205520.52244
  20440417.340   107415133.39609  20440414.700    83700101.37549
  21814397.080   114635543.31409  21814394.660    89326440.01148
  22782418.220   119722440.39408  22782414.340    93290211.67547
  23326253.400   122580649.00708  23326250.460    95517542.17446
  21326577.880   112071969.73209  21326573.840    87328817.28448
  21153226.980   111161062.29609  21153226.880    86619030.55949
 15 03 06 00 59  0.0000000  0  7G04G16G18G19G21G22G27
  24208902.000   127218664.69607  24208906.580    99131451.10345
  20440244.640   107414225.77509  20440242.020    83699394.12849
  21817239.180   114650478.52709  21817236.700    89338077.84548
  22769679.700   119655499.32508  22769675.900    93238049.83147
  23339898.800   122652356.13108  23339895.940    95573417.84446
  21316632.660   112019707.34809  21316628.600    87288093.36349
  21145345.800   111119646.35809  21145345.680    86586758.39849
 15 03 06 00 59 30.0000000  0  7G04G16G18G19G21G22G27
  24190845.960   127123779.84607  24190850.360    99057515.24045
  20440176.280   107413866.50709  20440173.680    83699114.16849
  21820175.100   114665907.02009  21820172.640    89350100.05748
  22756958.240   119588648.09508  22756954.640    93185957.99247
  23353553.280   122724110.75008  23353550.360    95629330.53046
  21306771.660   111967887.65809  21306767.620    87247714.40448
  21137494.980   111078390.03309  21137494.940    86554610.62749
 15 03 06 01 00  0.0000000  0  7G04G16G18G19G21G22G27
  24172822.400   127029067.42507  24172827.000    98983713.74645
  20440212.480   107414056.80409  20440209.860    83699262.44449
  21823204.960   114681829.19609  21823202.500    89362506.95648
  22744253.920   119521886.83708  22744250.380    93133936.27447
  23367216.620   122795912.01008  23367213.720    95685279.56246
  21296995.320   111916512.76809  21296991.260    87207682.04348
  21129674.700   111037294.30009  21129674.680    86522587.98649
 15 03 06 01 00 30.0000000  0  7G04G16G18G19G21G22G27
  24154831.500   126934525.94206  24154835.980    98910045.39445
  20440352.840   107414794.59809  20440350.240    83699837.33449
  21826328.140   114698241.64209  21826325.700    89375295.87948
  22731566.460   119455213.96608  22731562.940    93081983.41247
  23380888.120   122867756.29808  23380885.160    95741262.10646
  21287303.480   111865581.90009  21287299.400    87167995.67148
  21121884.680   110996357.55009  21121884.620    86490689.22849
 15 03 06 01 01  0.0000000  0  7G04G16G18G19G21G22G27
  24136873.860   126840159.50707  24136877.900    98836513.45144
  20440598.120   107416083.69009  20440595.560    83700841.81549
  21829545.140   114715147.08509  21829542.700    89388468.96448
  22718896.500   119388632.73508  22718892.820    93030101.95247
  23394568.120   122939645.48008  23394565.200    95797279.64546
  21277697.020   111815099.59909  21277692.880    87128658.83748
  21114125.680   110955583.75909  21114125.640    86458917.45449
 15 03 06 01 01 30.0000000  0  7G04G16G18G19G21G22G27
  24118949.400   126745967.01407  24118953.340    98763117.05944
  20440948.020   107417922.42409  20440945.480    83702274.58549
  21832855.440   114732542.82909  21832852.980    89402024.09648
  22706243.640   119322141.31508  22706239.820    92978290.47247
  23408256.020   123011576.15607  23408253.220    95853329.51046
  21268175.940   111765066.07009  21268171.760    87089671.69048
  21106397.440   110914971.59709  21106397.400    86427271.62449
 15 03 06 01 02  0.0000000  0  7G04G16G18G19G21G22G27
  24101058.520   126651950.37507  24101062.320    98689857.67245
  20441402.840   107420312.34109  20441400.260    83704136.85549
  21836259.200   114750429.68009  21836256.760    89415961.91448
  22693608.160   119255741.58208  22693604.280    92926550.46147
  23421951.800   123083548.24708  23421949.100    95909411.65246
  21258740.780   111715484.10309  21258736.620    87051036.42248
  21098700.360   110874523.15509  21098700.280    86395753.37449
 15 03 06 01 02 30.0000000  0  7G04G16G18G19G21G22G27
  24083201.360   126558111.29907  24083204.920    98616736.61345
  20441962.880   107423255.11609  20441960.260    83706429.91349
  21839756.520   114768808.07109  21839754.020    89430282.74448
  22680990.320   119189434.51208  22680986.420    92874882.62447
  23435655.520   123155561.67408  23435652.920    95965525.99446
  21249392.060   111666356.35909  21249387.900    87012755.07749
  21091034.760   110834240.03509  21091034.620    86364363.92949
 15 03 06 01 03  0.0000000  0  7G04G16G18G19G21G22G27
  24065377.660   126464448.53407  24065381.180    98543752.91144
  20442627.780   107426748.95309  20442625.120    83709152.36849
  21843346.860   114787675.22709  21843344.240    89444984.43048
  22668389.720   119123218.34308  22668385.900    92823285.63447
  23449366.500   123227613.17408  23449363.840    96021670.01646
  21240129.720   111617682.67309  21240125.580    86974827.54848
  21083400.380   110794121.10709  21083400.180    86333102.44049
 15 03 06 01 03 30.0000000  0  7G04G16G18G19G21G22G27
  24047588.140   126370966.21206  24047591.800    98470909.75345
  20443398.220   107430797.54009  20443395.600    83712307.10649
  21847030.680   114807033.71409  21847028.000    89460068.97448
  22655807.160   119057097.04008  22655803.540    92771762.57847
  23463085.040   123299704.50908  23463082.380    96077845.07946
  21230954.620   111569467.49609  21230950.560    86937257.30349
  21075798.000   110754170.34109  21075797.800    86301971.98749
 15 03 06 01 04  0.0000000  0  7G04G16G18G19G21G22G27
  24029832.860   126277662.97507  24029836.860    98398206.12845
  20444273.840   107435398.77809  20444271.220    83715892.47649
  21850807.460   114826880.70309  21850804.740    89475534.17048
  22643242.320   118991068.61308  22643238.740    92720311.87247
  23476810.460   123371832.13307  23476807.840    96134048.40246
  21221866.740   111521710.51409  21221862.700    86900044.08749
  21068227.320   110714386.25709  21068227.120    86270971.41049
 15 03 06 01 04 30.0000000  0  7G04G16G18G19G21G22G27
  24012111.440   126184536.76807  24012115.300    98325640.39345
  20445254.200   107440550.61809  20445251.600    83719906.89249
  21854676.460   114847212.59609  21854673.760    89491377.21848
  22630694.800   118925130.56108  22630691.180    92668931.59947
  23490542.080   123443992.31007  23490539.440    96190277.11046
  21212865.800   111474410.36809  21212861.780    86863186.85349
  21060687.980   110674766.89709  21060687.800    86240099.19249
 15 03 06 01 05  0.0000000  0  7G04G16G18G19G21G22G27
  23994424.840   126091594.06207  23994428.900    98253217.65245
  20446340.440   107446258.86609  20446337.820    83724354.86549
  21858638.600   114868033.97409  21858635.960    89507601.67448
  22618165.600   118859288.70308  22618161.880    92617626.27147
  23504280.780   123516189.45508  23504278.120    96246534.62646
  21203953.240   111427574.54909  21203949.180    86826691.42449
  21053181.220   110635318.73609  21053181.040    86209360.37149
 15 03 06 01 05 30.0000000  0  7G04G16G18G19G21G22G27
  23976772.760   125998832.73307  23976776.760    98180936.27945
  20447532.000   107452520.64009  20447529.400    83729234.15849
  21862693.320   114889341.99709  21862690.760    89524205.33548
  22605654.220   118793540.71308  22605650.260    92566394.08947
  23518025.740   123588419.47907  23518022.920    96302817.74546
  21195128.800   111381201.72509  21195124.720    86790556.77649
  21045706.640   110596039.71909  21045706.460    86178753.35149
 15 03 06 01 06  0.0000000  0  7G04G16G18G19G21G22G27
  23959155.900   125906256.81706  23959160.040    98108799.38044
  20448829.620   107459339.68909  20448827.040    83734547.69749
  21866841.040   114911138.73309  21866838.520    89541189.81348
  22593161.320   118727890.13008  22593157.280    92515237.80847
  23531777.280   123660684.18907  23531774.460    96359127.89946
  21186393.360   111335296.64909  21186389.240    86754786.60149
  21038265.020   110556933.83109  21038264.820    86148281.24149
 15 03 06 01 06 30.0000000  0  7G04G16G18G19G21G22G27
  23941573.680   125813863.14906  23941577.520    98036804.47645
  20450232.620   107466712.51709  20450230.080    83740292.74749
  21871080.760   114933419.04809  21871078.380    89558551.10248
  22580686.240   118662333.36608  22580682.200    92464154.63547
  23545534.460   123732978.55807  23545531.720    96415461.15946
  21177746.460   111289856.83109  21177742.300    86719378.96949
  21030855.760   110517997.96209  21030855.560    86117941.60949
 15 03 06 01 07  0.0000000  0  7G04G16G18G19G21G22G27
  23924026.500   125721653.65107  23924030.140    97964953.13044
  20451741.280   107474640.49009  20451738.720    83746470.38049
  21875412.700   114956183.85909  21875410.460    89576289.92848
  22568229.360   118596872.16108  22568225.360    92413145.94147
  23559297.320   123805302.66507  23559294.620    96471817.61446
  21169188.560   111244884.83609  21169184.400    86684335.87949
  21023479.240   110479234.22209  21023479.080    86087736.10949
 15 03 06 01 07 30.0000000  0  7G04G16G18G19G21G22G27
  23906514.940   125629630.97707  23906518.640    97893247.31945
  20453355.960   107483125.57009  20453353.380    83753082.12449
  21879837.100   114979434.31209  21879834.880    89594407.16748
  22555791.080   118531508.59308  22555787.240    92362213.31948
  23573065.980   123877657.25707  23573063.320    96528197.79946
  21160720.380   111200384.26809  21160716.200    86649660.13449
  21016136.000   110440645.31709  21016135.880    86057666.84349
 15 03 06 01 08  0.0000000  0  7G04G16G18G19G21G22G27
  23889038.460   125537791.52607  23889042.320    97821684.27246
  20455075.740   107492162.97509  20455073.120    83760124.23549
  21884352.900   115003164.81709  21884350.600    89612898.46448
  22543370.580   118466238.55608  22543366.800    92311353.56247
  23586839.340   123950036.47107  23586836.600    96584597.17246
  21152341.320   111156352.06609  21152337.100    86615349.33549
  21008825.280   110402227.34709  21008825.200    86027730.75549
 15 03 06 01 08 30.0000000  0  7G04G16G18G19G21G22G27
  23871597.740   125446139.04407  23871601.560    97750266.91746
  20456901.280   107501756.15209  20456898.640    83767599.43349
  21888960.540   115027377.89209  21888958.180    89631765.80648
  22530968.620   118401065.81708  22530964.860    92260569.63047
  23600617.780   124022442.62708  23600615.040    96641017.54446
  21144052.300   111112793.13009  21144048.060    86581407.32749
  21001547.940   110363984.63809  21001547.840    85997931.24549
 15 03 06 01 09  0.0000000  0  7G04G16G18G19G21G22G27
  23854193.460   125354678.48007  23854197.380    97678999.18945
  20458833.580   107511910.47609  20458830.940    83775511.88049
  21893660.620   115052076.72509  21893658.160    89651011.65948
  22518586.020   118335994.75708  22518582.140    92209864.92647
  23614401.880   124094878.55407  23614399.180    96697461.11746
  21135854.340   111069712.80109  21135850.120    86547838.26049
  20994304.900   110325922.18309  20994304.840    85968272.20149
 15 03 06 01 09 30.0000000  0  7G04G16G18G19G21G22G27
  23836824.420   125263403.69807  23836827.960    97607876.19145
  20460871.260   107522618.58009  20460868.620    83783855.84749
  21898451.720   115077253.83109  21898449.180    89670630.18748
  22506221.580   118271019.12308  22506217.560    92159234.56647
  23628190.100   124167336.21807  23628187.380    96753921.61445
  21127746.440   111027105.63809  21127742.220    86514637.88849
  20987095.020   110288033.97609  20987094.980    85938748.93449
 15 03 06 01 10  0.0000000  0  7G04G16G18G19G21G22G27
  23819491.980   125172321.49507  23819495.400    97536903.29345
  20463015.540   107533886.81109  20463012.900    83792636.27749
  21903334.740   115102913.93209  21903332.100    89690625.08048
  22493876.440   118206145.26308  22493872.500    92108683.52748
  23641983.420   124239820.49607  23641980.660    96810402.86146
  21119730.040   110984979.27909  21119725.820    86481812.17549
  20979919.580   110250326.87609  20979919.520    85909366.78849
 15 03 06 01 10 30.0000000  0  7G04G16G18G19G21G22G27
  23802195.800   125081430.36207  23802198.960    97466079.27944
  20465265.920   107545712.61609  20465263.300    83801851.18249
  21908309.020   115129054.02409  21908306.380    89710993.98747
  22481550.360   118141371.42608  22481546.500    92058210.43048
  23655781.120   124312328.13307  23655778.360    96866902.31446
  21111805.000   110943332.96809  21111800.780    86449360.52449
  20972778.380   110212799.42309  20972778.240    85880124.62549
 15 03 06 01 11  0.0000000  0  7G04G16G18G19G21G22G27
  23784935.880   124990729.45607  23784938.600    97395403.42545
  20467622.100   107558094.33909  20467619.500    83811499.26549
  21913374.180   115155671.64309  21913371.540    89731734.99348
  22469243.100   118076696.47408  22469239.240    92007814.38847
  23669582.860   124384856.64807  23669580.120    96923418.03046
  21103971.280   110902166.44409  21103967.040    86417282.72849
  20965671.260   110175451.11809  20965671.060    85851022.05449
 15 03 06 01 11 30.0000000  0  7G04G16G18G19G21G22G27
  23767712.560   124900220.85107  23767715.100    97324877.44444
  20470084.380   107571033.75309  20470081.840    83821581.90549
  21918530.400   115182767.83309  21918527.780    89752848.90547
  22456955.060   118012122.37508  22456951.180    91957496.92547
  23683388.620   124457406.19107  23683385.900    96979950.14246
  21096229.400   110861482.64609  21096225.140    86385581.08149
  20958598.680   110138284.33109  20958598.460    85822060.92149
 15 03 06 01 12  0.0000000  0  7G04G16G18G19G21G22G27
  23750526.020   124809906.26307  23750528.800    97254502.75646
  20472652.940   107584531.69709  20472650.440    83832099.78249
  21923777.520   115210341.66109  21923774.940    89774335.02147
  22444686.360   117947650.15308  22444682.420    91907258.85247
  23697198.300   124529976.44907  23697195.480    97036498.38545
  21088579.720   110821283.30809  21088575.460    86354256.95049
  20951560.900   110101300.47409  20951560.680    85793242.35149
 15 03 06 01 12 30.0000000  0  7G04G16G18G19G21G22G27
  23733376.000   124719783.92407  23733378.900    97184278.09745
  20475327.200   107598585.10209  20475324.760    83843050.47249
  21929114.820   115238389.48009  21929112.280    89796190.46847
  22432436.700   117883277.61608  22432432.720    91857098.44247
  23711011.100   124602563.18207  23711008.400    97093059.46745
  21081021.960   110781567.03509  21081017.700    86323309.21749
  20944557.580   110064497.73109  20944557.300    85764564.89049
 15 03 06 01 13  0.0000000  0  7G04G16G18G19G21G22G27
  23716263.800   124629861.15707  23716266.860    97114208.77745
  20478108.620   107613201.62309  20478106.240    83854439.95349
  21934543.600   115266918.19509  21934541.120    89818420.63448
  22420207.460   117819012.62008  22420203.560    91807021.83448
  23724828.340   124675173.42907  23724825.680    97149638.85746
  21073557.840   110742342.83309  21073553.600    86292744.92049
  20937590.360   110027884.73309  20937590.040    85736035.28249
 15 03 06 01 13 30.0000000  0  7G04G16G18G19G21G22G27
  23699188.440   124540132.81207  23699191.640    97044290.96645
  20480996.080   107628375.26209  20480993.700    83866263.56049
  21940062.480   115295920.36009  21940060.060    89841019.73448
  22407997.600   117754849.58108  22407993.720    91757024.68547
  23738648.600   124747799.50907  23738645.940    97206230.60045
  21066186.460   110703606.02509  21066182.240    86262560.41549
  20930658.180   109991456.07809  20930657.860    85707649.32849
 15 03 06 01 14  0.0000000  0  7G04G16G18G19G21G22G27
  23682150.260   124450598.36907  23682153.420    96974524.24945
  20483989.320   107644104.63709  20483986.920    83878520.20149
  21945671.020   115325393.73109  21945668.660    89863985.99948
  22395807.020   117690787.70508  22395803.180    91707106.35348
  23752471.460   124820439.25407  23752468.760    97262832.99145
  21058907.800   110665356.38509  21058903.620    86232755.51749
  20923761.020   109955211.46509  20923760.740    85679406.77749
 15 03 06 01 14 30.0000000  0  7G04G16G18G19G21G22G27
  23665149.860   124361262.16407  23665152.820    96904912.04345
  20487088.940   107660392.95909  20487086.440    83891212.38549
  21951369.700   115355340.53909  21951367.360    89887321.17448
  22383636.500   117626831.11208  22383632.580    91657270.05148
  23766297.420   124893095.30107  23766294.820    97319448.07646
  21051722.740   110627598.74509  21051718.580    86203333.99849
  20916899.740   109919155.28209  20916899.500    85651311.05249
 15 03 06 01 15  0.0000000  0  7G04G16G18G19G21G22G27
  23648187.080   124272123.25407  23648189.720    96835453.48945
  20490294.640   107677238.76309  20490292.080    83904338.98049
  21957158.120   115385758.72809  21957155.740    89911023.67148
  22371485.900   117562979.07908  22371481.940    91607515.24047
  23780125.940   124965765.01907  23780123.500    97376073.82245
  21044631.320   110590333.17009  21044627.220    86174295.91049
  20910074.260   109883287.24509  20910074.040    85623361.94249
 15 03 06 01 15 30.0000000  0  7G04G16G18G19G21G22G27
  23631262.120   124183183.68107  23631264.740    96766150.38645
  20493606.480   107694642.43909  20493603.880    83917900.27249
  21963036.240   115416648.25209  21963033.800    89935093.43047
  22359355.360   117499232.76808  22359351.400    91557842.79648
  23793957.080   125038448.57107  23793954.680    97432710.31345
  21037633.980   110553561.76709  21037629.840    86145642.88549
  20903284.920   109847609.23009  20903284.700    85595560.89149
 15 03 06 01 16  0.0000000  0  7G04G16G18G19G21G22G27
  23614375.020   124094443.15607  23614377.760    96697002.45745
  20497024.400   107712603.77509  20497021.800    83931896.09949
  21969003.640   115448006.85409  21969001.140    89959528.70948
  22347244.860   117435591.91408  22347240.960    91508252.54048
  23807790.540   125111143.83807  23807788.140    97489355.96846
  21030730.700   110517284.80409  21030726.540    86117375.13849
  20896531.780   109812121.29509  20896531.580    85567907.95749
 15 03 06 01 16 30.0000000  0  7G04G16G18G19G21G22G27
  23597525.960   124005901.71508  23597528.480    96628009.56245
  20500548.340   107731122.21009  20500545.740    83946326.04449
  21975060.000   115479833.05709  21975057.440    89984328.35748
  22335154.420   117372056.64808  22335150.640    91458744.57048
  23821626.060   125183849.71607  23821623.540    97546009.89445
  21023921.640   110481503.13109  21023917.480    86089493.33749
  20889814.920   109776824.04709  20889814.740    85540403.62049
 15 03 06 01 17  0.0000000  0  7G04G16G18G19G21G22G27
  23580715.160   123917561.24007  23580717.400    96559173.33045
  20504178.420   107750198.43309  20504175.800    83961190.61949
  21981205.340   115512127.02809  21981202.800    90009492.49547
  22323084.500   117308628.70908  22323080.700    91409320.20848
  23835463.600   125256566.22207  23835461.020    97602672.09245
  21017207.260   110446219.04909  21017203.120    86061999.26449
  20883134.780   109741719.58709  20883134.620    85513049.49649
 15 03 06 01 17 30.0000000  0  7G04G16G18G19G21G22G27
  23563942.740   123829422.96807  23563944.680    96490494.46645
  20507914.740   107769832.91109  20507912.120    83976490.20049
  21987439.620   115544888.43309  21987437.120    90035020.86947
  22311035.300   117245309.75408  22311031.420    91359980.77147
  23849303.060   125329293.07007  23849300.500    97659342.34945
  21010587.920   110411434.40809  21010583.740    86034894.37049
  20876491.640   109706809.66209  20876491.500    85485846.96349
 15 03 06 01 18  0.0000000  0  7G04G16G18G19G21G22G27
  23547209.180   123741489.21907  23547210.860    96421974.91645
  20511757.580   107790027.08509  20511754.960    83992225.90449
  21993762.860   115578117.55409  21993760.440    90060913.69248
  22299007.080   117182101.47008  22299003.180    91310727.57548
  23863144.580   125402030.63007  23863142.080    97716020.95745
  21004064.180   110377152.13109  21004060.000    86008180.92149
  20869886.060   109672096.91509  20869885.900    85458798.07149
 15 03 06 01 18 30.0000000  0  7G04G16G18G19G21G22G27
  23530514.000   123653756.96407  23530515.700    96353612.39245
  20515706.100   107810776.54209  20515703.460    84008394.30849
  22000174.160   115611809.50509  22000171.760    90087167.17048
  22286999.340   117119000.69608  22286995.440    91261558.14948
  23876987.380   125474774.54607  23876984.780    97772704.50645
  20997635.520   110343369.40809  20997631.320    85981856.74249
  20863317.460   109637578.48709  20863317.280    85431900.60749
 15 03 06 01 19  0.0000000  0  7G04G16G18G19G21G22G27
  23513857.660   123566228.36307  23513859.380    96285408.54946
  20519760.640   107832083.13909  20519757.980    84024996.83749
  22006673.700   115645965.03109  22006671.340    90113781.87047
  22275012.580   117056009.92108  22275008.720    91212474.44048
  23890831.400   125547525.31507  23890828.700    97829393.41345
  20991302.500   110310089.27309  20991298.280    85955924.18249
  20856786.320   109603256.97009  20856786.120    85405156.57249
 15 03 06 01 19 30.0000000  0  7G04G16G18G19G21G22G27
  23497240.160   123478903.72808  23497241.920    96217363.62946
  20523921.000   107853945.90209  20523918.340    84042032.75049
  22013261.060   115680581.87809  22013258.660    90140756.04547
  22263046.760   116993128.87608  22263042.960    91163476.24448
  23904676.460   125620281.42307  23904673.700    97886086.45745
  20985065.160   110277311.95409  20985060.880    85930383.43249
  20850292.680   109569132.75909  20850292.500    85378566.28649
 15 03 06 01 20  0.0000000  0  7G04G16G18G19G21G22G27
  23480662.100   123391786.19407  23480663.820    96149480.05545
  20528187.620   107876367.02909  20528184.980    84059503.74149
  22019936.580   115715662.05109  22019934.140    90168091.24947
  22251102.480   116930361.08508  22251098.720    91114566.29948
  23918522.780   125693044.39407  23918520.120    97942784.86245
  20978924.240   110245041.36209  20978919.980    85905237.53049
  20843837.340   109535209.78909  20843837.160    85352132.80549
 15 03 06 01 20 30.0000000  0  7G04G16G18G19G21G22G27
  23464123.120   123304874.92807  23464124.780    96081757.21245
  20532560.160   107899344.73709  20532557.500    84077408.43949
  22026699.720   115751202.56009  22026697.240    90195785.15647
  22239179.480   116867705.52608  22239175.740    91065743.81248
  23932370.060   125765812.27607  23932367.360    97999487.09145
  20972879.680   110213276.99209  20972875.380    85880486.08649
  20837420.180   109501487.49609  20837420.020    85325855.69949
 15 03 06 01 21  0.0000000  0  7G04G16G18G19G21G22G27
  23447623.260   123218169.22607  23447624.860    96014194.53645
  20537038.240   107922877.20109  20537035.580    84095745.41149
  22033550.000   115787200.88309  22033547.460    90223835.80147
  22227277.700   116805161.28908  22227273.900    91017008.05348
  23946217.760   125838582.23607  23946214.920    98056190.95645
  20966931.320   110182018.04209  20966927.000    85856128.47649
  20831041.120   109467965.37009  20831040.960    85299734.56649
 15 03 06 01 21 30.0000000  0  7G04G16G18G19G21G22G27
  23431163.140   123131672.14408  23431164.420    95946794.40745
  20541622.260   107946966.45909  20541619.640    84114516.25249
  22040487.600   115823658.04109  22040485.040    90252243.98047
  22215397.720   116742731.38908  22215393.740    90968361.39248
  23960066.240   125911356.43507  23960063.420    98112898.11845
  20961079.900   110151268.57709  20961075.600    85832167.86949
  20824700.820   109434646.97409  20824700.700    85273772.17849
 15 03 06 01 22  0.0000000  0  7G04G16G18G19G21G22G27
  23414742.380   123045380.92208  23414743.600    95879554.68045
  20546311.560   107971609.04209  20546308.980    84133718.24449
  22047511.700   115860569.77209  22047509.120    90281006.37147
  22203539.060   116680413.51608  22203535.060    90919802.01348
  23973914.600   125984130.34707  23973911.900    98169605.04446
  20955325.040   110121026.50509  20955320.740    85808602.62249
  20818398.860   109401530.12109  20818398.780    85247966.83849
 15 03 06 01 22 30.0000000  0  7G04G16G18G19G21G22G27
  23398361.100   122959296.67507  23398362.260    95812476.24546
  20551106.120   107996804.77409  20551103.560    84153351.27649
  22054622.060   115897934.97709  22054619.460    90310122.12347
  22191701.820   116618208.67808  22191697.940    90871330.74148
  23987762.860   126056903.55507  23987760.420    98226311.40945
  20949666.940   110091293.00509  20949662.660    85785433.68749
  20812135.500   109368616.28409  20812135.480    85222319.70449
 15 03 06 01 23  0.0000000  0  7G04G16G18G19G21G22G27
  23382020.260   122873425.11808  23382021.400    95745563.53645
  20556006.900   108022558.48709  20556004.340    84173419.09149
  22061819.400   115935757.31409  22061816.800    90339594.07847
  22179887.180   116556122.42808  22179883.360    90822951.86448
  24001611.780   126129680.40907  24001609.500    98283020.62245
  20944106.720   110062073.80909  20944102.420    85762665.49749
  20805911.960   109335911.61809  20805911.940    85196835.54949
 15 03 06 01 23 30.0000000  0  7G04G16G18G19G21G22G27
  23365719.360   122787763.98607  23365720.640    95678814.78645
  20561013.140   108048866.49509  20561010.620    84193918.82249
  22069103.060   115974033.22709  22069100.480    90369419.46047
  22168094.700   116494152.64808  22168090.880    90774663.73048
  24015460.660   126202456.55707  24015458.140    98339729.30645
  20938644.020   110033367.19809  20938639.720    85740296.72449
  20799727.900   109303414.18709  20799727.860    85171512.87549
 15 03 06 01 24  0.0000000  0  7G04G16G18G19G21G22G27
  23349458.660   122702315.17507  23349460.040    95612231.48546
  20566125.100   108075729.95509  20566122.620    84214851.38449
  22076472.960   116012762.52809  22076470.380    90399598.14947
  22156324.820   116432301.24108  22156320.880    90726467.83648
  24029309.580   126275232.93107  24029306.980    98396438.14545
  20933279.240   110005175.17609  20933274.900    85718328.93249
  20793583.800   109271126.61609  20793583.740    85146353.74149
 15 03 06 01 24 30.0000000  0  7G04G16G18G19G21G22G27
  23333237.640   122617074.32507  23333238.920    95545810.20545
  20571341.680   108103143.23609  20571339.220    84236212.36649
  22083927.920   116051938.73409  22083925.360    90430125.06647
  22144576.600   116370563.97508  22144572.600    90678360.88048
  24043157.480   126348003.70407  24043154.660    98453142.64245
  20928011.640   109977494.04509  20928007.340    85696759.23349
  20787478.840   109239044.80509  20787478.780    85121354.92649
 15 03 06 01 25  0.0000000  0  7G04G16G18G19G21G22G27
  23317057.640   122532048.12708  23317058.620    95479556.15846
  20576664.000   108131112.13509  20576661.520    84258006.29149
  22091468.800   116091566.49409  22091466.240    90461003.83247
  22132851.320   116308947.66208  22132847.380    90630348.17148
  24057005.240   126420773.89507  24057002.500    98509846.64945
  20922842.600   109950330.67209  20922838.300    85675592.97449
  20781414.420   109207175.94009  20781414.320    85096522.04049
 15 03 06 01 25 30.0000000  0  7G04G16G18G19G21G22G27
  23300917.900   122447233.20508  23300918.660    95413466.74645
  20582091.160   108159631.88009  20582088.680    84280229.46049
  22099094.660   116131640.67209  22099092.100    90492230.47947
  22121148.460   116247448.94908  22121144.640    90582427.11448
  24070852.060   126493539.20707  24070849.360    98566546.88645
  20917771.520   109923682.02709  20917767.220    85654827.81749
  20775389.960   109175517.17809  20775389.840    85071852.87949
 15 03 06 01 26  0.0000000  0  7G04G16G18G19G21G22G27
  23284818.400   122362630.08708  23284819.060    95347542.41845
  20587623.040   108188702.00609  20587620.560    84302881.49849
  22106805.200   116172159.77509  22106802.660    90523803.81047
  22109468.200   116186068.72908  22109464.420    90534598.38148
  24084697.740   126566298.43707  24084694.980    98623242.38345
  20912798.540   109897548.98009  20912794.280    85634464.42049
  20769405.760   109144069.76609  20769405.580    85047348.40849
 15 03 06 01 26 30.0000000  0  7G04G16G18G19G21G22G27
  23268760.040   122278243.81807  23268760.860    95281787.02446
  20593260.380   108218326.27809  20593257.900    84325965.32849
  22114601.060   116213127.18009  22114598.540    90555726.46047
  22097811.500   116124812.10808  22097807.640    90486865.94348
  24098542.920   126639055.34106  24098540.060    98679936.04446
  20907924.640   109871936.68609  20907920.440    85614506.79249
  20763462.800   109112839.18809  20763462.600    85023012.88849
 15 03 06 01 27  0.0000000  0  7G04G16G18G19G21G22G27
  23252742.640   122194073.20007  23252743.760    95216199.69745
  20599002.720   108248502.32309  20599000.240    84349479.11949
  22122481.580   116254539.46109  22122479.100    90587995.77747
  22086178.040   116063677.89408  22086174.140    90439228.90248
  24112387.200   126711807.33707  24112384.460    98736625.88244
  20903149.700   109846844.21809  20903145.520    85594954.23249
  20757561.000   109081824.75109  20757560.760    84998845.79549
 15 03 06 01 27 30.0000000  0  7G04G16G18G19G21G22G27
  23236766.080   122110116.98508  23236767.320    95150779.41745
  20604849.520   108279227.48309  20604847.060    84373420.79049
  22130446.160   116296393.37709  22130443.640    90620609.21548
  22074567.620   116002664.85708  22074563.700    90391686.28748
  24126230.020   126784551.55507  24126227.220    98793309.68145
  20898473.480   109822270.42409  20898469.280    85575805.83749
  20751700.140   109051025.56109  20751699.880    84974846.43049
 15 03 06 01 28  0.0000000  0  7G04G16G18G19G21G22G27
  23220830.200   122026373.67808  23220831.400    95085525.03846
  20610800.320   108310499.11909  20610797.860    84397788.28649
  22138494.060   116338685.36409  22138491.500    90653564.01447
  22062980.100   115941771.95208  22062976.180    90344237.27548
  24140070.920   126857285.53907  24140068.000    98849985.50045
  20893895.720   109798214.00409  20893891.460    85557060.58349
  20745880.100   109020440.85309  20745879.820    84951014.19049
 15 03 06 01 28 30.0000000  0  7G04G16G18G19G21G22G27
  23204935.980   121942848.84108  23204936.940    95020440.86245
  20616856.040   108342322.12409  20616853.580    84422585.41749
  22146626.080   116381419.34909  22146623.440    90686863.22747
  22051416.560   115881005.07108  22051412.620    90296886.46048
  24153910.640   126930013.54307  24153907.740    98906656.67645
  20889417.560   109774680.98009  20889413.240    85538723.17049
  20740102.040   108990076.79609  20740101.740    84927353.88649
 15 03 06 01 29  0.0000000  0  7G04G16G18G19G21G22G27
  23189083.260   121859541.90408  23189084.100    94955526.49446
  20623016.220   108374694.05209  20623013.760    84447810.28149
  22154841.680   116424592.61109  22154839.040    90720504.73047
  22039876.820   115820363.50708  22039872.940    90249633.30748
  24167748.700   127002733.50207  24167745.940    98963321.53045
  20885038.820   109751670.59609  20885034.480    85520793.01549
  20734365.940   108959933.31009  20734365.660    84903865.45449
 15 03 06 01 29 30.0000000  0  7G04G16G18G19G21G22G27
  23173271.360   121776450.18508  23173272.220    94890779.83146
  20629280.120   108407611.06309  20629277.640    84473459.89049
  22163139.980   116468200.69509  22163137.380    90754485.05947
  22028360.500   115759845.06208  22028356.640    90202476.08448
  24181584.580   127075441.52907  24181581.860    99019977.13346
  20880759.160   109729180.83409  20880754.820    85503268.53749
  20728671.420   108930008.43509  20728671.160    84880547.36949
 15 03 06 01 30  0.0000000  0  7G04G16G18G19G21G22G27
  23157501.320   121693578.82208  23157502.280    94826204.88046
  20635648.520   108441077.10209  20635646.000    84499537.30749
  22171521.600   116512246.61309  22171519.020    90788806.55147
  22016868.620   115699454.79708  22016864.680    90155418.73248
  24195418.940   127148141.42606  24195416.360    99076626.37745
  20876579.480   109707216.53309  20876575.160    85486153.50849
  20723019.520   108900307.82809  20723019.340    84857404.04149
 15 03 06 01 30 30.0000000  0  7G04G16G18G19G21G22G27
  23141772.600   121610924.46608  23141773.680    94761799.01546
  20642120.500   108475087.64709  20642118.000    84526039.01649
  22179985.560   116556725.01309  22179983.020    90823465.04747
  22005400.560   115639189.70808  22005396.640    90108458.93148
  24209250.820   127220828.53006  24209248.180    99133265.69245
  20872499.220   109685774.80809  20872494.920    85469445.68349
  20717409.820   108870828.81909  20717409.680    84834433.38049
 15 03 06 01 31  0.0000000  0  7G04G16G18G19G21G22G27
  23126086.220   121528492.14008  23126087.080    94697566.14546
  20648696.680   108509645.84309  20648694.220    84552967.46449
  22188532.260   116601638.39809  22188529.780    90858462.48547
  21993957.300   115579055.12309  21993953.420    90061600.81548
  24223080.900   127293506.24907  24223078.360    99189897.63944
  20868519.360   109664860.59209  20868515.080    85453148.89749
  20711843.280   108841576.68509  20711843.180    84811639.50549
 15 03 06 01 31 30.0000000  0  7G04G16G18G19G21G22G27
  23110441.420   121446278.54508  23110442.220    94633503.71645
  20655376.300   108544747.50909  20655373.880    84580319.39549
  22197160.880   116646981.93409  22197158.380    90893795.11147
  21982538.380   115519048.27008  21982534.500    90014842.23948
  24236908.420   127366170.48807  24236905.780    99246519.11245
  20864639.260   109644470.70509  20864634.980    85437260.68449
  20706319.520   108812549.20109  20706319.400    84789020.68149
 15 03 06 01 32  0.0000000  0  7G04G16G18G19G21G22G27
  23094838.380   121364284.67608  23094838.960    94569612.48346
  20662159.340   108580392.72709  20662156.960    84608094.87149
  22205871.180   116692754.73209  22205868.680    90929462.22947
  21971143.940   115459170.32308  21971140.080    89968184.11048
  24250733.380   127438821.13006  24250730.800    99303129.99244
  20860859.200   109624606.36109  20860854.900    85421781.98449
  20700838.800   108783747.97009  20700838.700    84766578.16349
 15 03 06 01 32 30.0000000  0  7G04G16G18G19G21G22G27
  23079277.300   121282511.57908  23079277.920    94505893.28946
  20669045.660   108616580.62509  20669043.340    84636293.22149
  22214662.880   116738955.51708  22214660.380    90965462.83847
  21959774.320   115399422.39608  21959770.380    89921627.29448
  24264555.700   127511457.82306  24264553.000    99359729.99545
  20857179.300   109605268.44009  20857175.000    85406713.49149
  20695401.420   108755174.51109  20695401.340    84744313.13449
 15 03 06 01 33  0.0000000  0  7G04G16G18G19G21G22G27
  23063758.680   121200961.50808  23063759.480    94442347.89446
  20676035.400   108653311.89109  20676033.100    84664914.96649
  22223536.140   116785584.62709  22223533.560    91001797.20947
  21948429.900   115339806.86908  21948425.880    89875173.64148
  24278375.480   127584081.49906  24278372.900    99416319.82646
  20853600.120   109586459.60709  20853595.780    85392057.26549
  20690007.940   108726831.80009  20690007.920    84722227.90149
 15 03 06 01 33 30.0000000  0  7G04G16G18G19G21G22G27
  23048282.280   121119632.96008  23048283.220    94378975.11046
  20683128.040   108690583.82709  20683125.720    84693958.01949
  22232490.140   116832638.16408  22232487.540    91038462.30647
  21937110.520   115280322.98908  21937106.520    89828822.58048
  24292192.300   127656689.54906  24292189.860    99472897.51145
  20850121.300   109568178.26309  20850116.960    85377812.07349
  20684658.220   108698719.02609  20684658.240    84700321.84349
 15 03 06 01 34  0.0000000  0  7G04G16G18G19G21G22G27
  23032848.580   121038528.66108  23032849.560    94315777.07646
  20690323.800   108728397.50709  20690321.420    84723423.20349
  22241525.100   116880117.12309  22241522.460    91075458.89547
  21925816.700   115220973.58309  21925812.740    89782576.30248
  24306006.460   127729283.40706  24306004.040    99529464.16245
  20846743.200   109550426.19409  20846738.840    85363979.30249
  20679352.900   108670839.46309  20679352.940    84678597.50649
 15 03 06 01 34 30.0000000  0  7G04G16G18G19G21G22G27
  23017456.800   120957644.49208  23017457.700    94252750.54746
  20697621.660   108766747.87309  20697619.280    84753306.58949
  22250639.780   116928015.18208  22250637.160    91112782.06247
  21914547.740   115161754.87509  21914543.820    89736431.86448
  24319817.020   127801858.00606  24319814.580    99586015.75945
  20843465.320   109533200.71309  20843460.900    85350556.86349
  20674091.340   108643189.79709  20674091.400    84657052.31649
 15 03 06 01 35  0.0000000  0  7G04G16G18G19G21G22G27
  23002108.140   120876986.97408  23002108.840    94189900.63946
  20705022.600   108805639.93009  20705020.240    84783612.08249
  22259835.060   116976337.06208  22259832.540    91150435.48347
  21903304.980   115102673.84009  21903301.000    89690394.70948
  24333624.800   127874418.58806  24333622.540    99642556.42845
  20840288.820   109516508.14009  20840284.360    85337549.68449
  20668874.920   108615777.25909  20668874.960    84635691.90549
 15 03 06 01 35 30.0000000  0  7G04G16G18G19G21G22G27
  22986802.060   120796553.25408  22986802.580    94127225.10146
  20712525.800   108845069.51809  20712523.460    84814336.41149
  22269110.100   117025077.82308  22269107.640    91188415.28747
  21892087.960   115043728.16509  21892083.980    89644463.01848
  24347429.120   127946961.26806  24347427.000    99699083.18444
  20837213.140   109500345.34609  20837208.660    85324955.30549
  20663703.240   108588599.79209  20663703.240    84614514.65449
 15 03 06 01 36  0.0000000  0  8G04G11G16G18G19G21G22G27
  22971538.460   120716343.33008  22971538.980    94064723.96046
  24679142.400   129689763.99306  24679142.300   101056963.21444
  20720130.860   108885034.44309  20720128.560    84845477.89249
  22278464.460   117074235.35108  22278462.020    91226719.86047
  21880896.740   114984917.99109  21880892.800    89598636.91548
  24361229.940   128019484.87206  24361227.820    99755595.07144
  20834238.220   109484712.13509  20834233.720    85312773.59549
  20658576.380   108561657.97209  20658576.400    84593521.03049
 15 03 06 01 36 30.0000000  0  8G04G11G16G18G19G21G22G27
  22956316.360   120636351.18808  22956316.880    94002392.51546
  24662365.080   129601598.81506  24662365.600   100988263.21944
  20727836.500   108925527.92309  20727834.220    84877031.24049
  22287896.580   117123801.39508  22287894.200    91265342.75747
  21869730.280   114926237.99009  21869726.380    89552912.25348
  24375025.820   128091982.17406  24375023.560    99812086.46945
  20831362.980   109469602.63109  20831358.420    85300999.97249
  20653493.400   108534946.65009  20653493.400    84572707.01549
 15 03 06 01 37  0.0000000  0  8G04G11G16G18G19G21G22G27
  22941139.160   120556594.51908  22941139.600    93940244.55346
  24645604.560   129513520.90206  24645604.920   100919631.20444
  20735645.740   108966565.58609  20735643.420    84909008.61949
  22297409.380   117173791.24608  22297406.960    91304295.88247
  21858591.960   114867705.92309  21858588.060    89507302.85048
  24388819.800   128164469.71906  24388817.420    99868570.23745
  20828590.680   109455034.23309  20828586.120    85289647.97549
  20648457.760   108508484.06809  20648457.740    84552086.81549
 15 03 06 01 37 30.0000000  0  8G04G11G16G18G19G21G22G27
  22926004.820   120477062.81708  22926005.160    93878271.87146
  24628858.520   129425519.71806  24628858.640   100851059.00044
  20743556.300   109008135.74309  20743553.920    84941400.93149
  22307000.500   117224192.72808  22306998.020    91343569.76447
  21847479.940   114809311.95309  21847476.020    89461801.05348
  24402609.620   128236935.74906  24402607.520    99925037.26545
  20825919.380   109440996.41209  20825914.800    85278709.42649
  20643467.620   108482260.44209  20643467.560    84531652.82149
 15 03 06 01 38  0.0000000  0  8G04G11G16G18G19G21G22G27
  22910913.300   120397756.56308  22910913.600    93816474.88346
  24612127.260   129337596.42706  24612127.140   100782547.50844
  20751568.000   109050237.36109  20751565.600    84974207.36649
  22316669.680   117275004.46208  22316667.120    91383163.32347
  21836394.340   114751056.92908  21836390.420    89416407.53448
  24416395.400   128309380.65606  24416393.220    99981487.80445
  20823349.120   109427489.84409  20823344.620    85268184.83849
  20638523.280   108456277.38409  20638523.160    84511406.28249
 15 03 06 01 38 30.0000000  0  9G04G11G16G18G19G21G22G27G32
  22895864.900   120318677.48008  22895865.280    93754854.90746
  24595410.720   129249751.75106  24595410.680   100714097.28244
  20759680.840   109092870.32409  20759678.400    85007427.83849
  22326416.740   117326225.72908  22326414.120    91423076.00047
  21825335.600   114692943.08709  21825331.720    89371124.02948
  24430177.320   128381804.44106  24430174.940   100037921.94044
  20820880.160   109414515.59509  20820875.740    85258075.03949
  20633625.100   108430537.13009  20633624.960    84491348.93749
  24511603.260                                                  
 15 03 06 01 39  0.0000000  0  9G04G11G16G18G19G21G22G27G32
  22880859.840   120239826.10908  22880860.260    93693412.38546
  24578709.220   129161986.07706  24578709.660   100645708.59644
  20767894.640   109136033.82909  20767892.160    85041061.72649
  22336241.440   117377854.96008  22336238.740    91463306.57447
  21814303.880   114634971.04609  21814300.040    89325951.01248
  24443954.980   128454206.42206  24443952.600   100094339.02344
  20818512.600   109402074.22709  20818508.240    85248380.48249
  20628773.360   108405040.86709  20628773.180    84471481.72449
  24489048.540   128690814.85105  24489049.600   100278564.24253
 15 03 06 01 39 30.0000000  0  9G04G11G16G18G19G21G22G27G32
  22865898.640   120161204.65108  22865898.800    93632148.98146
  24562023.160   129074301.51406  24562023.500   100577383.10044
  20776209.500   109179728.60309  20776207.020    85075109.58649
  22346143.760   117429892.19408  22346141.080    91503855.07547
  21803299.700   114577143.66609  21803295.840    89280890.72248
  24457728.700   128526587.65706  24457726.480   100150739.98444
  20816246.900   109390168.05909  20816242.600    85239102.96249
  20623968.620   108379791.62309  20623968.400    84451806.98749
  24466496.140   128572301.32905  24466500.920   100186228.74944
 15 03 06 01 40  0.0000000  0  9G04G11G16G18G19G21G22G27G32
  22850980.420   120082808.60008  22850980.280    93571061.22046
  24545351.760   128986693.84806  24545352.140   100509117.46644
  20784624.220   109223948.18909  20784621.740    85109566.38449
  22356122.500   117482330.94508  22356119.900    91544716.43347
  21792322.400   114519457.59709  21792318.520    89235940.54448
  24471497.420   128598943.07406  24471495.020   100207120.83244
  20814082.200   109378792.66809  20814077.940    85230239.03149
  20619210.200   108354785.97809  20619209.960    84432322.06549
  24443945.780   128453799.65106  24443951.140   100093889.33145
 15 03 06 01 40 30.0000000  0  9G04G11G16G18G19G21G22G27G32
  22836105.920   120004642.63008  22836105.800    93510152.76746
  24528695.940   128899167.72706  24528696.060   100440915.40943
  20793139.480   109268696.09309  20793136.980    85144434.86849
  22366178.160   117535173.90008  22366175.580    91585892.77447
  21781372.940   114461917.96409  21781369.100    89191104.47948
  24485262.120   128671276.93206  24485259.700   100263484.86744
  20812019.360   109367952.41509  20812015.100    85221792.09949
  20614499.140   108330029.24309  20614498.880    84413031.10749
  24421399.460   128335317.56706  24421404.760   100001565.43445
 15 03 06 01 41  0.0000000  0  9G04G11G16G18G19G21G22G27G32
  22821274.860   119926705.31808  22821274.820    93449422.47346
  24512055.340   128811721.24106  24512055.440   100372775.44744
  20801754.620   109313968.98909  20801752.140    85179712.42649
  22376309.980   117588416.99008  22376307.480    91627380.89147
  21770451.040   114404522.94509  21770447.140    89146381.08648
  24499022.100   128743585.74406  24499019.520   100319829.36744
  20810058.000   109357645.34109  20810053.700    85213760.62149
  20609835.300   108305520.71709  20609835.080    84393933.54849
  24398856.820   128216854.57406  24398862.000    99909255.94345
 15 03 06 01 41 30.0000000  0  9G04G11G16G18G19G21G22G27G32
  22806487.640   119848998.08108  22806487.800    93388871.46546
  24495430.240   128724355.83306  24495430.360   100304698.59844
  20810469.580   109359766.58109  20810467.160    85215398.83749
  22386517.900   117642059.82408  22386515.400    91669180.49647
  21759557.080   114347274.69709  21759553.160    89101772.06348
  24512777.400   128815870.27606  24512774.680   100376154.98444
  20808198.380   109347872.79109  20808194.020    85206145.65349
  20605219.100   108281262.54309  20605218.900    84375031.07349
  24376318.740   128098414.42707  24376324.100    99816964.20345
 15 03 06 01 42  0.0000000  0  9G04G11G16G18G19G21G22G27G32
  22791744.100   119771520.32308  22791744.240    93328499.26946
  24478820.460   128637070.70506  24478820.280   100236684.31944
  20819284.000   109406086.68909  20819281.620    85251492.41549
  22396801.340   117696099.45108  22396798.780    91711289.30547
  21748691.180   114290173.88609  21748687.280    89057277.93348
  24526527.820   128888129.63806  24526525.300   100432460.94944
  20806440.380   109338634.09109  20806435.920    85198946.68549
  20600650.600   108257255.02909  20600650.440    84356323.92349
  24353785.580   127979999.36605  24353790.920    99724691.98143
 15 03 06 01 42 30.0000000  0  9G04G11G16G18G19G21G22G27G32
  22777044.440   119694273.52008  22777044.340    93268307.01846
  24462226.200   128549867.04106  24462226.140   100168733.53544
  20828197.800   109452929.01609  20828195.480    85287992.91049
  22407160.260   117750535.55408  22407157.620    91753707.04347
  21737853.560   114233221.88209  21737849.740    89012899.75848
  24540273.420   128960363.30406  24540271.000   100488746.89145
  20804784.140   109329930.41809  20804779.620    85192164.61249
  20596130.240   108233500.65009  20596130.140    84337814.01449
  24331258.040   127861614.35007  24331263.520    99632443.55545
 15 03 06 01 43  0.0000000  0  9G04G11G16G18G19G21G22G27G32
  22762388.320   119617256.32908  22762388.160    93208293.69646
  24445647.180   128462743.69206  24445647.060   100100845.29745
  20837210.440   109500290.75909  20837208.160    85324898.14949
  22417593.920   117805364.65208  22417591.280    91796431.01847
  21727044.140   114176417.91209  21727040.280    88968636.92748
  24554013.960   129032569.98706  24554011.480   100545011.81944
  20803229.360   109321760.01009  20803224.780    85185798.07249
  20591657.920   108209998.75209  20591657.860    84319500.84849
  24308736.180   127743259.08507  24308741.280    99540218.37046
 15 03 06 01 43 30.0000000  0  9G04G11G16G18G19G21G22G27G32
  22747776.700   119540473.07808  22747776.740    93148462.67146
  24429084.240   128375705.02606  24429084.020   100033023.08744
  20846322.440   109548174.75509  20846320.220    85362210.33649
  22428102.740   117860588.83208  22428100.040    91839462.84847
  21716263.900   114119767.24509  21716260.040    88924493.55648
  24567749.880   129104752.46906  24567747.100   100601257.89845
  20801776.820   109314126.84209  20801772.200    85179850.16249
  20587234.660   108186754.64009  20587234.680    84301388.55149
  24286221.320   127624939.86706  24286226.420    99448020.91645
 15 03 06 01 44  0.0000000  0  9G04G11G16G18G19G21G22G27G32
  22733209.500   119463922.34808  22733209.700    93088812.83646
  24412536.960   128288749.24706  24412536.900    99965265.46844
  20855533.140   109596577.39209  20855530.960    85399926.66449
  22438685.960   117916204.21008  22438683.300    91882799.50447
  21705512.640   114063269.10009  21705508.760    88880469.03648
  24581480.660   129176908.07106  24581477.760   100657483.02244
  20800426.160   109307029.28909  20800421.540    85174319.61549
  20582860.360   108163767.59009  20582860.420    84283476.56949
  24263713.460   127506658.86706  24263718.660    99355853.79844
 15 03 06 01 44 30.0000000  0  9G04G11G16G18G19G21G22G27G32
  22718685.820   119387599.23508  22718685.960    93029340.36046
  24396004.660   128201871.91306  24396004.500    99897568.95944
  20864841.280   109645492.25809  20864839.160    85438042.12749
  22449342.320   117972203.86508  22449339.680    91926435.60547
  21694789.680   114006919.51009  21694785.720    88836560.27248
  24595205.400   129249031.66406  24595202.680   100713683.22445
  20799176.460   109300462.29109  20799171.900    85169202.48949
  20578534.260   108141033.62409  20578534.300    84265761.79049
  24241212.260   127388412.87307  24241217.360    99263713.83345
 15 03 06 01 45  0.0000000  0  9G04G11G16G18G19G21G22G27G32
  22704207.360   119311513.56508  22704207.280    92970052.89146
  24379489.040   128115082.35906  24379488.680    99829940.81743
  20874248.380   109694926.81509  20874246.260    85476562.54749
  22460073.340   118028595.90008  22460070.780    91970377.44947
  21684096.780   113950728.01209  21684092.840    88792774.69848
  24608925.620   129321132.39006  24608923.220   100769865.56745
  20798029.580   109294435.65909  20798025.080    85164506.42449
  20574258.360   108118563.59909  20574258.400    84248252.67949
  24218720.060   127270214.52106  24218725.240    99171611.30945
 15 03 06 01 45 30.0000000  0  9G04G11G16G18G19G21G22G27G32
  22689772.880   119235659.40108  22689772.420    92910945.82146
  24362989.020   128028374.51806  24362988.700    99762376.37245
  20883753.180   109744874.60309  20883751.020    85515482.88549
  22470877.360   118085371.92808  22470874.900    92014618.50247
  21673433.040   113894689.70109  21673429.160    88749108.49048
  24622640.220   129393202.87406  24622637.760   100826024.38444
  20796984.300   109288942.84109  20796979.860    85160226.31249
  20570031.700   108096352.27809  20570031.720    84230945.15449
  24196236.000   127152060.39006  24196241.700    99079543.72946
 15 03 06 01 46  0.0000000  0  9G04G11G16G18G19G21G22G27G32
  22675382.740   119160039.10208  22675381.960    92852020.98246
  24346505.140   127941751.10506  24346504.780    99694877.69044
  20893355.680   109795335.74009  20893353.440    85554803.23349
  22481754.520   118142532.10808  22481752.120    92059158.90347
  21662799.100   113838807.87509  21662795.140    88705564.21148
  24636349.480   129465245.26106  24636346.880   100882161.29944
  20796041.000   109283985.75609  20796036.560    85156363.65649
  20565854.900   108074403.05609  20565854.900    84213841.86249
  24173760.900   127033954.43007  24173766.840    98987513.58545
 15 03 06 01 46 30.0000000  0  9G04G11G16G18G19G21G22G27G32
  22661037.340   119084654.07108  22661036.460    92793279.45346
  24330037.340   127855212.85707  24330037.040    99627445.37344
  20903055.680   109846309.36309  20903053.360    85594522.92149
  22492704.660   118200075.40008  22492702.200    92103997.82947
  21652195.180   113783084.06209  21652191.180    88662143.06548
  24650053.320   129537259.44206  24650051.040   100938276.21444
  20795199.800   109279565.22809  20795195.400    85152919.09349
  20561728.400   108052717.95009  20561728.340    84196944.37349
  24151295.560   126915899.75607  24151301.160    98895523.12745
 15 03 06 01 47  0.0000000  0  9G04G11G16G18G19G21G22G27G32
  22646736.500   119009503.22208  22646735.740    92734720.42446
  24313585.560   127768759.08106  24313585.040    99560078.93445
  20912852.720   109897793.10609  20912850.360    85634640.10949
  22503727.140   118257998.74308  22503724.620    92149132.90747
  21641621.320   113727518.09709  21641617.340    88618844.92148
  24663751.460   129609243.64606  24663749.300   100994367.81244
  20794460.440   109275679.72009  20794456.020    85149891.43949
  20557652.180   108031297.12509  20557652.080    84180252.82149
  24128840.480   126797898.55207  24128846.080    98803574.41945
 15 03 06 01 47 30.0000000  0  9G04G11G16G18G19G21G22G27G32
  22632480.180   118934586.17808  22632479.700    92676343.55347
  24297149.800   127682389.41006  24297149.360    99492778.02445
  20922746.320   109949784.25109  20922743.940    85675152.67549
  22514821.500   118316299.94808  22514818.940    92194562.41547
  21631077.620   113672110.48009  21631073.660    88575670.16048
  24677443.740   129681197.23906  24677441.480   101050435.51244
  20793822.880   109272329.30409  20793818.440    85147280.74049
  20553626.360   108010141.02209  20553626.200    84163767.54449
  24106395.820   126679952.87806  24106401.540    98711669.02345
 15 03 06 01 48  0.0000000  0  9G04G11G16G18G19G21G22G27G32
  22618268.140   118859901.91308  22618267.980    92618148.08446
  24280729.880   127596102.38406  24280729.300    99425541.46544
  20932736.020   110002280.34709  20932733.640    85716058.70049
  22525987.100   118374975.46708  22525984.520    92240283.59546
  21620563.980   113616860.67709  21620560.020    88532618.35948
  24691129.980   129753118.25906  24691127.760   101106477.84244
  20793286.760   109269512.08509  20793282.300    85145085.50649
  20549650.840   107989249.42109  20549650.680    84147488.36849
  24083961.940   126562063.49306  24083967.820    98619807.32845
 15 03 06 01 48 30.0000000  0  9G04G11G16G18G19G21G22G27G32
  22604100.860   118785453.04808  22604100.940    92560136.04646
  24264326.280   127509901.22406  24264325.540    99358371.85045
  20942822.020   110055282.35409  20942819.620    85757358.94849
  22537224.060   118434025.96908  22537221.460    92286296.96947
  21610081.020   113561772.31909  21610077.040    88489692.36848
  24704810.260   129825008.11606  24704808.020   101162495.87244
  20792852.560   109267230.48509  20792848.080    85143307.64649
  20545726.360   107968626.10809  20545726.180    84131418.25649
  24061540.100   126444236.20207  24061546.020    98527994.15345
 15 03 06 01 49  0.0000000  0  9G04G11G16G18G19G21G22G27G32
  22589978.860   118711242.01508  22589978.880    92502309.32146
  24247939.500   127423787.96107  24247938.760    99291270.71144
  20953004.280   110108790.24409  20953001.860    85799053.39249
  22548532.340   118493451.37708  22548529.780    92332602.47747
  21599629.320   113506848.20709  21599625.280    88446894.36548
  24718484.940   129896869.00506  24718482.380   101218491.38944
  20792520.480   109265485.59009  20792516.000    85141947.99849
  20541853.500   107948274.12509  20541853.340    84115559.57049
  24039130.740   126326475.01906  24039136.380    98436232.28545
 15 03 06 01 49 30.0000000  0  9G04G11G16G18G19G21G22G27G32
  22575901.380   118637265.04108  22575901.220    92444664.98146
  24231568.640   127337758.65606  24231567.840    99224234.98944
  20963281.780   110162798.81109  20963279.380    85841137.96549
  22559910.840   118553245.80608  22559908.280    92379195.53546
  21589208.340   113452085.37409  21589204.260    88404222.03648
  24732153.140   129968696.05206  24732150.480   101274460.48544
  20792289.940   109264274.13909  20792285.440    85141004.01649
  20538031.740   107928190.78509  20538031.620    84099910.21549
  24016733.940   126208779.34007  24016739.400    98344521.64745
 15 03 06 01 50  0.0000000  0  9G04G11G16G18G19G21G22G27G32
  22561868.880   118563523.98208  22561868.420    92387204.45246
  24215214.140   127251815.43806  24215213.280    99157266.36144
  20973654.480   110217307.77509  20973652.120    85883612.46449
  22571359.480   118613408.89408  22571356.880    92426075.86546
  21578818.520   113397486.62809  21578814.520    88361677.56448
  24745815.020   130040490.20406  24745812.480   101330403.98544
  20792161.120   109263597.11109  20792156.600    85140476.46749
  20534261.640   107908378.90709  20534261.560    84084472.38249
  23994350.360   126091153.24806  23994355.860    98252865.20246
 15 03 06 01 50 30.0000000  0  9G04G11G16G18G19G21G22G27G32
  22547881.860   118490020.89208  22547881.180    92329929.36846
  24198876.440   127165960.28206  24198875.340    99090366.32144
  20984122.620   110272318.13809  20984120.320    85926477.66349
  22582878.260   118673940.59608  22582875.700    92473243.42347
  21568460.440   113343054.71609  21568456.480    88319263.10148
  24759470.980   130112252.78506  24759468.560   101386322.84245
  20792134.300   109263456.01909  20792129.760    85140366.53949
  20530543.780   107888841.50309  20530543.740    84069248.43449
  23971980.820   125973601.01907  23971986.440    98161266.26945
 15 03 06 01 51  0.0000000  0  9G04G11G16G18G19G21G22G27G32
  22533939.820   118416754.13708  22533939.200    92272838.45846
  24182555.120   127080191.54807  24182553.780    99023533.63544
  20994685.320   110327825.48609  20994683.040    85969730.12149
  22594466.520   118734837.26108  22594464.020    92520695.36647
  21558134.000   113288788.72009  21558130.020    88276977.91548
  24773120.620   130183982.04806  24773118.380   101442215.74444
  20792209.040   109263848.58109  20792204.480    85140672.44149
  20526878.020   107869577.84309  20526878.000    84054237.78849
  23949625.720   125856124.01207  23949630.860    98069726.03344
 15 03 06 01 51 30.0000000  0  9G04G11G16G18G19G21G22G27G32
  22520042.920   118343725.18708  22520042.380    92215932.84447
  24166250.580   126994510.98706  24166249.320    98956769.63844
  21005342.540   110383829.53109  21005340.280    86013369.61949
  22606124.100   118796098.22108  22606121.600    92568431.17746
  21547839.560   113234691.15209  21547835.600    88234823.97148
  24786764.000   130255678.13206  24786761.620   101498082.81744
  20792385.600   109264776.42809  20792381.080    85141395.45249
  20523264.840   107850590.51709  20523264.860    84039442.46949
  23927285.520   125738725.86107  23927290.520    97978247.25045
 15 03 06 01 52  0.0000000  0  9G04G11G16G18G19G21G22G27G32
  22506190.940   118270933.14008  22506190.700    92159211.85046
  24149962.560   126908917.20607  24149961.640    98890073.27944
  21016093.740   110440327.25509  21016091.420    86057393.80549
  22617850.340   118857720.07508  22617847.800    92616448.20646
  21537577.020   113180761.29509  21537573.100    88192800.71748
  24800400.780   130327340.09606  24800398.700   101553923.26645
  20792663.620   109266237.44409  20792659.120    85142533.91749
  20519704.200   107831879.28809  20519704.240    84024862.28949
  23904960.400   125621407.75107  23904965.220    97886830.79745
 15 03 06 01 52 30.0000000  0  9G04G11G16G18G19G21G22G27G32
  22492384.360   118198380.09208  22492384.280    92102677.07347
  24133691.460   126823412.62107  24133690.640    98823446.44044
  21026938.960   110497319.15009  21026936.600    86101803.05249
  22629645.240   118919702.80308  22629642.760    92664746.42846
  21527347.040   113127002.49309  21527343.140    88150910.73848
  24814031.240   130398968.81506  24814029.200   101609737.85344
  20793043.380   109268233.29609  20793038.940    85144089.12549
  20516196.740   107813447.44809  20516196.760    84010499.80849
  23882651.560   125504174.61207  23882656.260    97795480.53944
 15 03 06 01 53  0.0000000  0  9G04G11G16G18G19G21G22G27G32
  22478623.240   118126065.52308  22478623.020    92046328.11946
  24117437.200   126737996.66806  24117436.340    98756888.64445
  21037877.680   110554802.40409  21037875.300    86146595.18749
  22641508.240   118982043.38908  22641505.740    92713323.51146
  21517149.680   113073414.87509  21517145.700    88109154.16648
  24827655.060   130470563.23206  24827653.160   101665525.72844
  20793524.740   109270763.00109  20793520.320    85146060.33849
  20512742.480   107795295.33409  20512742.500    83996355.30749
  23860359.220   125387028.33707  23860364.020    97704197.95546
 15 03 06 01 53 30.0000000  0  9G04G11G16G18G19G21G22G27G32
  22464907.380   118053988.19408  22464906.780    91990164.00246
  24101199.720   126652668.63606  24101198.700    98690399.34344
  21048909.400   110612774.53909  21048907.000    86191768.25349
  22653438.820   119044738.94108  22653436.320    92762177.17646
  21506984.840   113019998.22309  21506980.840    88067530.79848
  24841272.260   130542121.33406  24841270.180   101721285.23945
  20794107.360   109273824.92109  20794102.980    85148446.25249
  20509341.480   107777423.02909  20509341.500    83982428.82649
  23838083.780   125269970.61107  23838088.360    97612984.40545
 15 03 06 01 54  0.0000000  0  9G04G11G16G18G19G21G22G27G32
  22451236.560   117982147.10108  22451235.620    91934183.97946
  24084978.600   126567426.69806  24084977.620    98623977.13144
  21060033.360   110671231.39909  21060030.980    86237319.03849
  22665436.240   119107785.66708  22665433.720    92811304.49946
  21496852.460   112966752.31709  21496848.480    88026040.49648
  24854882.440   130613642.55806  24854880.120   101777016.05544
  20794790.940   109277417.12709  20794786.560    85151245.39049
  20505993.660   107759830.05609  20505993.660    83968720.02249
  23815825.260   125153002.37107  23815829.540    97521840.55345
 15 03 06 01 54 30.0000000  0  9G04G11G16G18G19G21G22G27G32
  22437611.720   117910548.34108  22437610.740    91878392.78747
  24068775.140   126482277.58506  24068774.080    98557627.26744
  21071250.540   110730178.03809  21071248.160    86283251.46649
  22677501.320   119171187.86508  22677498.780    92860708.80546
  21486753.900   112913684.22309  21486749.980    87984688.74148
  24868486.100   130685130.48406  24868483.820   101832720.93645
  20795576.500   109281545.29609  20795572.080    85154462.15349
  20502700.400   107742523.83209  20502700.400    83955234.64849
  23793585.540   125036132.55607  23793589.880    97430773.46545
 15 03 06 01 55  0.0000000  0  9G04G11G16G18G19G21G22G27G32
  22424031.980   117839187.59508  22424031.480    91822787.08847
  24052588.560   126397217.10307  24052587.300    98491346.44845
  21082559.700   110789608.08809  21082557.380    86329560.57649
  22689632.760   119234938.94108  22689630.200    92910384.96647
  21476688.580   112860790.54909  21476684.640    87943472.89748
  24882082.740   130756581.06806  24882080.640   101888396.67544
  20796463.180   109286204.67609  20796458.660    85158092.85149
  20499461.100   107725501.08009  20499461.080    83941970.16649
  23771364.220   124919359.45307  23771368.580    97339781.77145
 15 03 06 01 55 30.0000000  0  9G04G11G16G18G19G21G22G27G32
  22410498.040   117768067.21908  22410497.960    91767368.67547
  24036419.340   126312247.20507  24036418.120    98425136.18145
  21093960.900   110849521.60709  21093958.620    86376246.41449
  22701830.580   119299039.02308  22701828.020    92960333.07446
  21466657.000   112808074.19309  21466653.040    87902395.22148
  24895672.500   130827995.99606  24895670.360   101944044.64244
  20797451.200   109291396.50109  20797446.580    85162138.43749
  20496276.340   107708764.93709  20496276.300    83928929.01449
  23749162.100   124802687.69507  23749166.440    97248869.00745
 15 03 06 01 56  0.0000000  0  9G04G11G16G18G19G21G22G27G32
  22397009.860   117697186.43108  22397009.800    91712136.95147
  24020267.240   126227367.43307  24020266.040    98358996.17245
  21105453.560   110909915.94809  21105451.360    86423306.91749
  22714094.320   119363485.39608  22714091.760    93010551.02146
  21456659.260   112755535.64609  21456655.200    87861456.08648
  24909255.340   130899374.44406  24909253.680   101999664.15944
  20798540.300   109297119.60309  20798535.600    85166598.00349
  20493146.200   107692315.89909  20493146.160    83916111.57749
  23726979.600   124686119.33407  23726983.620    97158036.79545
 15 03 06 01 56 30.0000000  0  9G04G11G16G18G19G21G22G27G32
  22383566.940   117626542.81108  22383566.680    91657090.02547
  24004131.780   126142575.23106  24004130.820    98292924.39945
  21117036.740   110970786.04609  21117034.600    86470738.14649
  22726422.980   119428272.99408  22726420.380    93061034.86346
  21446695.040   112703173.13809  21446690.940    87820654.14249
  24922830.960   130970713.73906  24922828.820   102055253.24144
  20799729.900   109303370.82209  20799725.140    85171469.10049
  20490070.400   107676152.35309  20490070.360    83903516.60649
  23704816.800   124569654.39507  23704820.800    97067285.28546
 15 03 06 01 57  0.0000000  0  9G04G11G16G18G19G21G22G27G32
  22370170.380   117556143.04008  22370169.840    91602233.11246
  23988014.340   126057877.85407  23988013.560    98226926.53844
  21128711.440   111032137.07409  21128709.320    86518544.11949
  22738817.480   119493406.45208  22738814.900    93111788.21046
  21436765.740   112650994.26209  21436761.680    87779995.28149
  24936399.920   131042018.95805  24936397.280   102110815.81045
  20801020.980   109310155.57509  20801016.260    85176755.93049
  20487050.400   107660282.14309  20487050.360    83891150.20949
  23682675.580   124453302.19507  23682679.440    96976621.62246
 15 03 06 01 57 30.0000000  0  9G04G11G16G18G19G21G22G27G32
  22356819.260   117485982.93008  22356818.620    91547562.93647
  23971914.140   125973270.96107  23971913.260    98160999.15545
  21140476.520   111093962.87909  21140474.380    86566720.05549
  22751276.560   119558879.30708  22751273.980    93162806.00846
  21426870.760   112598995.87809  21426866.700    87739477.06848
  24949961.400   131113285.54206  24949959.420   102166348.10945
  20802412.760   109317469.75709  20802408.100    85182455.29949
  20484085.600   107644701.98009  20484085.560    83879009.82049
  23660555.220   124337060.64507  23660559.120    96886044.11245
 15 03 06 01 58  0.0000000  0  9G04G11G16G18G19G21G22G27G32
  22343513.500   117416062.05508  22343513.060    91493079.19747
  23955831.060   125888754.05407  23955830.060    98095141.89144
  21152331.440   111156260.76209  21152329.260    86615263.84149
  22763799.760   119624689.12808  22763797.240    93214086.38846
  21417010.220   112547178.52709  21417006.160    87699099.91549
  24963515.540   131184512.33506  24963513.400   102221849.50644
  20803905.080   109325312.30309  20803900.500    85188566.38049
  20481176.140   107629412.57709  20481176.100    83867095.99649
  23638456.440   124220932.20107  23638460.300    96795554.70346
 15 03 06 01 58 30.0000000  0  9G04G11G16G18G19G21G22G27G32
  22330253.820   117346382.88608  22330253.700    91438783.80047
  23939765.600   125804329.77107  23939764.380    98029356.82344
  21164276.340   111219031.43809  21164274.120    86664176.04249
  22776387.140   119690836.04608  22776384.560    93265629.44146
  21407184.800   112495545.49909  21407180.720    87658866.39549
  24977062.520   131255702.05606  24977060.260   102277322.00244
  20805498.200   109333684.66009  20805493.740    85195090.30549
  20478322.680   107614417.47809  20478322.640    83855411.50749
  23616380.180   124104921.94607  23616384.000    96705157.33145
 15 03 06 01 59  0.0000000  0  9G04G11G16G18G19G21G22G27G32
  22317040.900   117276948.49108  22317040.920    91384679.13247
  23923718.340   125720001.22307  23923717.020    97963646.31545
  21176311.280   111282275.52509  21176309.080    86713457.12849
  22789038.780   119757320.70808  22789036.160    93317435.67146
  21397395.220   112444101.03009  21397391.200    87618779.80249
  24990602.600   131326856.93106  24990600.240   102332767.38544
  20807192.600   109342589.09709  20807188.220    85202028.83349
  20475525.960   107599720.62909  20475525.920    83843959.41549
  23594327.480   123989035.29207  23594331.120    96614856.19845
 15 03 06 01 59 30.0000000  0  9G04G11G16G18G19G21G22G27G32
  22303873.340   117207751.78208  22303873.360    91330759.66947
  23907688.020   125635761.59607  23907686.580    97898005.12144
  21188434.460   111345983.27109  21188432.280    86763099.50149
  22801752.860   119824133.76708  22801750.180    93369497.78346
  21387640.280   112392838.69209  21387636.280    87578835.13249
  25004134.800   131397969.17706  25004132.640   102388179.46844
  20808986.760   109352017.65209  20808982.380    85209375.76449
  20472784.880   107585316.10909  20472784.860    83832735.10349
  23572297.460   123873268.07207  23572301.220    96524648.23246
 15 03 06 02 00  0.0000000  0  9G04G11G16G18G19G21G22G27G32
  22290751.360   117138794.58108  22290751.180    91277026.83247
  23891675.040   125551612.91307  23891673.360    97832434.77644
  21200646.040   111410155.39909  21200643.880    86813103.73649
  22814529.480   119891275.26408  22814526.820    93421815.82446
  21377920.560   112341761.37109  21377916.560    87539034.63449
  25017659.560   131469040.55805  25017656.700   102443559.76844
  20810880.920   109361971.48309  20810876.480    85217132.00349
  20470099.940   107571206.76209  20470099.980    83821740.80549
  23550290.900   123757624.62107  23550294.880    96434536.71646
 15 03 06 02 00 30.0000000  0  9G04G11G16G18G19G21G22G27G32
  22277675.920   117070082.42008  22277675.500    91223484.93447
  23875680.380   125467560.52307  23875678.700    97766939.48344
  21212946.440   111474794.19609  21212944.260    86863471.61349
  22827369.200   119958748.33808  22827366.520    93474392.25046
  21368237.320   112290875.65209  21368233.280    87499383.43048
  25031176.900   131540075.62104  25031174.160   102498911.70644
  20812875.980   109372455.31809  20812871.440    85225301.23649
  20467472.440   107557399.17209  20467472.460    83810981.64449
  23528309.600   123642113.05908  23528313.560    96344527.93246
 15 03 06 02 01  0.0000000  0  9G04G11G16G18G19G21G22G27G32
  22264646.920   117001615.07808  22264646.320    91170133.80747
  23859704.040   125383604.63407  23859702.500    97701519.36544
  21225335.400   111539898.53409  21225333.240    86914202.25449
  22840271.560   120026550.42108  22840268.800    93527225.03846
  21358590.700   112240182.52909  21358586.720    87459882.30848
  25044687.220   131611073.66406  25044684.800   102554234.85544
  20814971.640   109383467.97309  20814967.060    85233882.54249
  20464902.540   107543894.26609  20464902.540    83800458.34349
  23506353.780   123526735.82807  23506357.600    96254623.85445
 15 03 06 02 01 30.0000000  0  9G04G11G16G18G19G21G22G27G32
  22251662.940   116933384.85908  22251662.280    91116967.45247
  23843744.560   125299737.77606  23843743.300    97636168.63245
  21237810.940   111605457.81809  21237808.800    86965287.38649
  22853234.680   120094671.99008  22853231.940    93580306.76946
  21348979.480   112189675.37209  21348975.500    87420526.08949
  25058189.280   131682026.83506  25058187.120   102609523.00344
  20817166.400   109395001.36209  20817161.780    85242869.60249
  20462388.980   107530685.54809  20462388.980    83790165.82949
  23484422.660   123411488.29407  23484426.520    96164820.95845
 15 03 06 02 02  0.0000000  0  9G04G11G16G18G19G21G22G27G32
  22238725.500   116865398.66208  22238724.760    91063991.23846
  23827803.200   125215966.61907  23827802.260    97570892.51045
  21250373.980   111671476.95209  21250371.880    87016730.85049
  22866259.420   120163117.41608  22866256.660    93633640.87246
  21339405.120   112139361.82309  21339401.100    87381320.73348
  25071684.160   131752941.46806  25071681.980   102664781.14543
  20819461.300   109407061.08309  20819456.720    85252266.79549
  20459933.260   107517780.66609  20459933.260    83780110.07249
  23462517.920   123296379.48007  23462521.740    96075126.20646
 15 03 06 02 02 30.0000000  0  8G04G11G16G18G19G22G27G32
  22225833.900   116797652.86508  22225833.160    91011202.34247
  23811879.460   125132287.63107  23811878.740    97505688.17845
  21263023.500   111737950.58109  21263021.420    87068528.46549
  22879344.660   120231880.86908  22879341.920    93687222.77946
  21329867.120   112089239.44209  21329863.100    87342264.34648
  20821855.540   109419642.91709  20821851.000    85262070.83249
  20457534.900   107505177.24909  20457534.900    83770289.22849
  23440639.340   123181408.49508  23440643.140    95985538.90446
 15 03 06 02 03  0.0000000  0  8G04G11G16G18G19G22G27G32
  22212989.640   116730155.47208  22212989.000    90958607.01147
  23795974.960   125048709.27407  23795974.300    97440562.24545
  21275760.520   111804883.95709  21275758.460    87120684.31849
  22892491.540   120300968.24008  22892488.820    93741057.08146
  21320367.240   112039317.28209  21320363.260    87303363.96349
  20824350.420   109432753.77409  20824345.920    85272287.08449
  20455195.640   107492884.43909  20455195.620    83760710.40749
  23418788.960   123066586.18307  23418792.780    95896067.47646
 15 03 06 02 03 30.0000000  0  8G04G11G16G18G19G22G27G32
  22200190.920   116662897.80208  22200190.360    90906198.48947
  23780088.040   124965222.93007  23780087.140    97375507.99845
  21288583.000   111872266.48909  21288580.940    87173190.16149
  22905697.920   120370368.34808  22905695.280    93795135.08446
  21310904.000   111989587.55509  21310900.020    87264613.53649
  20826944.160   109446384.16409  20826939.720    85282908.17149
  20452914.100   107480894.75209  20452914.060    83751367.79249
  23396965.700   122951906.35308  23396969.460    95806707.02545
 15 03 06 02 04  0.0000000  0  8G04G11G16G18G19G22G27G32
  22187438.740   116595884.98508  22187438.300    90853980.76747
  23764219.660   124881833.92007  23764218.500    97310529.59845
  21301491.480   111940100.79709  21301489.380    87226048.04249
  22918964.340   120440083.96608  22918961.680    93849458.93446
  21301478.580   111940056.67509  21301474.600    87226018.05349
  20829637.620   109460538.41809  20829633.180    85293937.46649
  20450691.340   107469213.89109  20450691.260    83742265.81849
  23375170.940   122837376.48907  23375174.640    95717463.48046
 15 03 06 02 04 30.0000000  0  8G04G11G16G18G19G22G27G32
  22174732.400   116529113.08808  22174731.980    90801950.76447
  23748369.200   124798538.58907  23748367.760    97245624.19645
  21314484.740   112008380.73109  21314482.620    87279253.16749
  22932289.760   120510109.68308  22932287.100    93904024.43846
  21292090.460   111890721.72209  21292086.480    87187575.24749
  20832429.840   109475211.65409  20832425.360    85305371.16749
  20448526.840   107457839.34309  20448526.760    83733402.53249
  23353404.500   122722995.40307  23353408.080    95628335.75246
 15 03 06 02 05  0.0000000  0  8G04G11G16G18G19G22G27G32
  22162072.700   116462585.91608  22162072.080    90750111.45847
  23732537.180   124715340.58407  23732535.800    97180794.66946
  21327563.060   112077107.62209  21327560.940    87332806.57249
  22945674.360   120580446.49708  22945671.820    93958832.33446
  21282740.520   111841587.33709  21282736.500    87149288.72649
  20835321.340   109490406.51009  20835316.820    85317211.32149
  20446421.540   107446775.85909  20446421.460    83724781.63549
  23331667.640   122608769.61607  23331671.280    95539329.05946
 15 03 06 02 05 30.0000000  0  8G04G11G16G18G19G22G27G32
  22149459.480   116396302.64008  22149458.540    90698462.17947
  23716723.600   124632239.66007  23716722.160    97116040.74845
  21340725.880   112146278.81609  21340723.780    87386706.17548
  22959117.700   120651091.95108  22959115.220    94013880.73046
  21273428.840   111792654.17809  21273424.820    87111158.99849
  20838311.780   109506121.44909  20838307.280    85329456.73449
  20444375.540   107436023.99809  20444375.460    83716403.55249
  23309960.820   122494701.25408  23309964.320    95450445.02146
 15 03 06 02 06  0.0000000  0  9G01G04G11G16G18G19G22G27G32
  24577862.280   129157545.88206  24577868.340   100642246.42545
  22136892.600   116330262.98208  22136891.420    90647002.74247
  23700928.460   124549235.78907  23700927.040    97051362.49945
  21353972.800   112215891.92409  21353970.740    87440950.13749
  22972619.260   120722043.15408  22972616.800    94069167.36846
  21264155.640   111743923.26809  21264151.620    87073186.87049
  20841401.000   109522355.46509  20841396.480    85342106.62349
  20442388.980   107425584.44209  20442388.900    83708268.82849
  23288284.440   122380792.49607  23288288.000    95361685.32846
 15 03 06 02 06 30.0000000  0  9G01G04G11G16G18G19G22G27G32
  24562531.700   129076982.30706  24562537.080   100579469.96645
  22124372.640   116264470.21908  22124371.520    90595735.69547
  23685152.380   124466332.06007  23685150.780    96986762.22845
  21367304.040   112285947.93909  21367302.000    87495539.21548
  22986179.240   120793301.21408  22986176.780    94124693.12346
  21254921.720   111695398.70409  21254917.680    87035375.52549
  20844589.400   109539110.65709  20844584.880    85355162.62749
  20440462.660   107415461.53909  20440462.560    83700380.84849
  23266639.560   122267049.32908  23266643.020    95273054.66646
 15 03 06 02 07  0.0000000  0  9G01G04G11G16G18G19G22G27G32
  24547226.780   128996554.36306  24547231.980   100516799.17645
  22111898.180   116198917.11008  22111897.300    90544655.40747
  23669394.020   124383521.52207  23669392.300    96922234.57845
  21380717.700   112356437.07509  21380715.660    87550465.79848
  22999795.840   120864856.56508  22999793.320    94180450.53946
  21245725.880   111647074.32009  21245721.860    86997720.16949
  20847875.380   109556378.65909  20847870.860    85368618.22149
  20438595.380   107405649.03409  20438595.300    83692734.74249
  23245025.220   122153466.97907  23245028.680    95184549.29146
 15 03 06 02 07 30.0000000  0  9G01G04G11G16G18G19G22G27G32
  24531948.680   128916268.43005  24531953.880   100454239.05745
  22099470.520   116133609.88608  22099469.840    90493766.69247
  23653654.660   124300810.72407  23653652.860    96857784.63745
  21394214.620   112427363.57909  21394212.540    87605733.17348
  23013469.780   120936713.25008  23013467.140    94236442.75146
  21236569.520   111598957.37809  21236565.500    86960226.44749
  20851259.920   109574164.53909  20851255.400    85382477.34649
  20436788.620   107396154.37309  20436788.520    83685336.28849
  23223443.240   122040054.65608  23223446.600    95096176.38646
 15 03 06 02 08  0.0000000  0  9G01G04G11G16G18G19G22G27G32
  24516697.200   128836122.29206  24516702.240   100391787.88744
  22087089.320   116068546.09408  22087088.620    90443067.67047
  23637933.780   124218197.45407  23637932.040    96793410.71845
  21407793.820   112498722.65909  21407791.760    87661337.63548
  23027200.180   121008866.93908  23027197.460    94292666.40946
  21227452.440   111551046.72109  21227448.420    86922893.48149
  20854742.360   109592465.02209  20854737.840    85396737.47349
  20435042.080   107386976.25409  20435041.980    83678184.50949
  23201893.740   121926812.54908  23201896.820    95007936.10046
 15 03 06 02 08 30.0000000  0  9G01G04G11G16G18G19G22G27G32
  24501472.480   128756117.19306  24501477.560   100329446.58645
  22074754.720   116003727.05708  22074753.880    90392559.35947
  23622231.620   124135683.07707  23622230.200    96729113.84146
  21421455.000   112570512.46909  21421452.880    87717277.71848
  23040986.880   121081316.60708  23040984.160    94349120.68346
  21218375.060   111503344.75909  21218371.020    86885723.12149
  20858322.820   109611280.36609  20858318.260    85411398.77849
  20433356.220   107378117.01309  20433356.120    83671281.19449
  23180377.460   121813744.59607  23180380.360    94919831.48246
 15 03 06 02 09  0.0000000  0  9G01G04G11G16G18G19G22G27G32
  24486274.480   128676252.51206  24486279.500   100267214.69445
  22062466.460   115939151.93308  22062465.520    90342241.10747
  23606548.340   124053267.28907  23606547.200    96664893.83046
  21435197.720   112642730.82609  21435195.620    87773551.74048
  23054829.360   121154059.02908  23054826.680    94405803.07946
  21209337.540   111455852.20009  21209333.440    86848715.93649
  20862000.840   109630608.55709  20861996.300    85426459.71049
  20431731.120   107369577.05709  20431731.020    83664626.67849
  23158894.600   121700852.72407  23158897.340    94831864.10346
 15 03 06 02 09 30.0000000  0  9G01G04G11G16G18G19G22G27G32
  24471103.500   128596530.27206  24471108.460   100205093.79545
  22050225.000   115874822.62908  22050224.040    90292114.40147
  23590884.340   123970952.22707  23590883.360    96600752.29546
  21449021.980   112715377.65609  21449019.880    87830159.63948
  23068727.460   121227094.00808  23068724.820    94462713.44746
  21200340.440   111408572.02609  21200336.340    86811874.25549
  20865776.680   109650450.78809  20865772.120    85441921.19349
  20430167.320   107361359.38509  20430167.280    83658223.29549
  23137446.140   121588141.68808  23137448.840    94744037.63146
 15 03 06 02 10  0.0000000  0  9G01G04G11G16G18G19G22G27G32
  24455959.620   128516951.21706  24455964.800   100143084.42745
  22038030.400   115810739.98908  22038029.580    90242179.89747
  23575239.640   123888738.36907  23575238.680    96536689.59846
  21462927.340   112788450.80809  21462925.260    87887099.73748
  23082680.920   121300420.18008  23082678.280    94519850.72146
  21191384.040   111361505.91809  21191379.980    86775199.37249
  20869650.260   109670806.65209  20869645.700    85457782.90949
  20428665.180   107353465.75909  20428665.180    83652072.41649
  23116032.760   121475614.78008  23116035.340    94656354.61346
 15 03 06 02 10 30.0000000  0  9G01G04G11G16G18G19G22G27G32
  24440842.480   128437511.89706  24440847.860   100081183.97045
  22025881.940   115746900.08908  22025881.340    90192434.54747
  23559613.640   123806622.80607  23559612.500    96472703.49045
  21476912.680   112861944.19509  21476910.620    87944367.29048
  23096688.640   121374031.45508  23096686.080    94577210.15346
  21182467.920   111314651.55909  21182463.900    86738689.49249
  20873620.700   109691671.32609  20873616.100    85474041.10749
  20427224.240   107345893.71109  20427224.280    83646172.11649
  23094654.280   121363271.16908  23094656.620    94568814.42546
 15 03 06 02 11  0.0000000  0  9G01G04G11G16G18G19G22G27G32
  24425752.480   128358214.93306  24425757.720   100019394.38645
  22013780.300   115683306.00908  22013779.800    90142880.73747
  23544006.680   123724608.22707  23544005.360    96408796.08544
  21490978.120   112935858.36809  21490976.060    88001962.72448
  23110750.720   121447928.54208  23110748.220    94634792.29446
  21173592.840   111268012.83309  21173588.820    86702347.63649
  20877688.200   109713046.12009  20877683.580    85490696.79549
  20425845.220   107338646.96109  20425845.280    83640525.28649
  23073311.780   121251116.24208  23073314.060    94481421.24146
 15 03 06 02 11 30.0000000  0  9G01G04G11G16G18G19G22G27G32
  24410689.540   128279060.37006  24410694.900    99957715.82746
  22001725.400   115619957.47708  22001724.900    90093518.26447
  23528418.820   123642694.77807  23528417.160    96344967.42044
  21505123.120   113010190.74209  21505121.020    88059884.03248
  23124866.740   121522109.00908  23124864.300    94692595.24146
  21164759.000   111221590.80409  21164754.980    86666174.63249
  20881852.620   109734930.23409  20881847.980    85507749.35549
  20424528.320   107331726.58209  20424528.400    83635132.77449
  23052005.580   121139152.55308  23052007.780    94394177.09346
 15 03 06 02 12  0.0000000  0  9G01G04G11G16G18G19G22G27G32
  24395653.760   128200047.95106  24395659.020    99896147.97445
  21989717.120   115556854.08308  21989716.600    90044346.82247
  23512850.300   123560882.63907  23512848.580    96281217.75645
  21519347.140   113084938.50909  21519345.020    88118129.02248
  23139036.220   121596570.43908  23139033.860    94750617.14146
  21155966.580   111175386.31209  21155962.580    86630171.14849
  20886113.620   109757321.94509  20886109.000    85525197.44849
  20423273.660   107325133.28609  20423273.740    83629995.13749
  23030736.280   121027382.48908  23030738.420    94307083.81146
 15 03 06 02 12 30.0000000  0  9G01G04G11G16G18G19G22G27G32
  24380644.720   128121175.57806  24380649.900    99834689.21345
  21977755.100   115493993.51708  21977754.500    89995364.58547
  23497300.860   123479169.65107  23497299.280    96217545.32945
  21533649.260   113160096.72809  21533647.160    88176693.83948
  23153258.320   121671308.13908  23153256.060    94808854.28346
  21147215.380   111129398.40309  21147211.360    86594336.41849
  20890470.600   109780218.01709  20890466.000    85543038.54349
  20422081.080   107318866.00909  20422081.140    83625111.53749
  23009503.860   120915806.49608  23009505.800    94220141.72346
 15 03 06 02 13  0.0000000  0  9G01G04G11G16G18G19G22G27G32
  24365663.000   128042446.78906  24365667.920    99773342.39646
  21965840.020   115431379.34908  21965839.360    89946574.34347
  23481771.080   123397559.59108  23481769.700    96153953.12045
  21548029.900   113235667.60609  21548027.820    88235580.20548
  23167533.420   121746323.96008  23167531.040    94867308.16146
  21138506.300   111083631.87409  21138502.220    86558674.18949
  20894923.940   109803620.68709  20894919.420    85561274.38549
  20420951.420   107312929.44809  20420951.460    83620485.63749
  22988309.520   120804431.00908  22988311.460    94133355.88146
 15 03 06 02 13 30.0000000  0  9G01G04G11G16G18G19G22G27G32
  24350708.440   127963860.42406  24350712.980    99712106.52145
  21953971.660   115369010.36008  21953970.940    89897975.16147
  23466260.740   123316051.57708  23466259.380    96090440.44645
  21562488.320   113311646.98709  21562486.240    88294784.89948
  23181860.720   121821614.07708  23181858.260    94925975.79946
  21129839.380   111038086.79409  21129835.280    86523184.52949
  20899473.200   109827527.43009  20899468.740    85579903.02749
  20419884.640   107307323.32709  20419884.640    83616117.23449
  22967153.640   120693257.34408  22967155.620    94046727.30146
 15 03 06 02 14  0.0000000  0  9G01G04G11G16G18G19G22G27G32
  24335781.560   127885419.35306  24335785.900    99650983.86645
  21942150.500   115306889.43708  21942149.720    89849569.28047
  23450770.300   123234648.35507  23450768.860    96027009.42645
  21577024.500   113388034.95009  21577022.380    88354307.96748
  23196240.280   121897178.94708  23196237.800    94984857.50546
  21121215.340   110992767.21009  21121211.240    86487870.58249
  20904118.680   109851939.87809  20904114.280    85598925.72249
  20418881.480   107302051.53309  20418881.460    83612009.34549
  22946037.260   120582291.06408  22946039.180    93960260.29346
 15 03 06 02 14 30.0000000  0  9G01G04G11G16G18G19G22G27G32
  24320881.340   127807118.85107  24320885.600    99589970.73645
  21930375.480   115245011.67608  21930374.720    89801352.87147
  23435299.020   123153346.18007  23435297.500    95963657.11545
  21591637.140   113464824.60509  21591634.980    88414144.03748
  23210670.800   121973011.87808  23210668.280    95043948.08946
  21112633.540   110947669.56309  21112629.420    86452729.56449
  20908859.280   109876852.06309  20908854.900    85618337.81649
  20417941.260   107297110.53309  20417941.260    83608159.20549
  22924960.020   120471530.19008  22924961.840    93873953.36246
 15 03 06 02 15  0.0000000  0  9G01G04G11G16G18G19G22G27G32
  24306008.620   127728962.83706  24306012.680    99529070.11245
  21918647.360   115183380.65908  21918646.640    89753328.72147
  23419847.480   123072148.42507  23419845.840    95900386.19045
  21606326.300   113542016.64109  21606324.180    88474293.64948
  23225152.740   122049114.50308  23225150.140    95103248.83846
  21104094.920   110902798.84609  21104090.780    86417765.37349
  20913695.560   109902266.66209  20913691.080    85638141.40249
  20417064.880   107292505.09909  20417064.840    83604570.55149
  22903923.040   120360981.14908  22903924.860    93787811.50446
 15 03 06 02 15 30.0000000  0  9G01G04G11G16G18G19G22G27G32
  24291163.000   127650949.66006  24291167.000    99468280.83845
  21906965.980   115121994.94508  21906965.220    89705495.69747
  23404415.580   122991053.93407  23404413.780    95837195.71745
  21621091.480   113619608.13309  21621089.400    88534754.53348
  23239685.180   122125482.70408  23239682.500    95162756.53346
  21095599.460   110858154.92309  21095595.300    86382977.91349
  20918626.880   109928180.70309  20918622.320    85658334.16749
  20416252.240   107288234.73109  20416252.200    83601242.98749
  22882926.580   120250645.04208  22882928.400    93701835.55646
 15 03 06 02 16  0.0000000  0  9G01G04G11G16G18G19G22G27G32
  24276344.740   127573080.98306  24276348.860    99407604.16245
  21895331.660   115060856.08108  21895330.860    89657855.03647
  23389003.720   122910064.61007  23389001.940    95774087.19344
  21635932.360   113697597.52609  21635930.340    88595525.45848
  23254268.120   122202116.31108  23254265.400    95222471.02646
  21087147.580   110813740.18909  21087143.400    86348369.02949
  20923653.340   109954594.62609  20923648.660    85678916.44749
  20415503.880   107284302.08009  20415503.860    83598178.57849
  22861971.540   120140526.21008  22861973.160    93616028.90446
 15 03 06 02 16 30.0000000  0  9G01G04G11G16G18G19G22G27G32
  24261553.780   127495355.22206  24261558.080    99347038.83546
  21883744.020   114999962.25908  21883743.180    89610405.32147
  23373611.620   122829178.93607  23373609.920    95711059.44445
  21650848.220   113775980.92809  21650846.220    88656603.40548
  23268900.660   122279010.95408  23268897.980    95282388.90545
  21078739.320   110769554.51009  21078735.120    86313938.63749
  20928774.300   109981505.24009  20928769.560    85699885.75849
  20414819.660   107280706.55909  20414819.660    83595376.86749
  22841057.960   120030625.59408  22841059.500    93530392.28346
 15 03 06 02 17  0.0000000  0  9G01G04G11G16G18G19G22G27G32
  24246790.320   127417774.86806  24246794.900    99286586.84046
  21872203.520   114939316.19708  21872202.700    89563148.66747
  23358239.840   122748399.98107  23358238.180    95648114.83545
  21665839.040   113854758.05109  21665837.020    88717988.14748
  23283582.940   122356167.06108  23283580.180    95342510.56346
  21070375.360   110725601.65409  21070371.160    86279689.66049
  20933989.960   110008913.57909  20933985.200    85721242.90449
  20414200.320   107277451.80309  20414200.320    83592840.68349
  22820186.900   119920948.57908  22820188.480    93444929.88846
 15 03 06 02 17 30.0000000  0  9G01G04G11G16G18G19G22G27G32
  24232053.780   127340335.05206  24232058.560    99226244.32746
  21860709.120   114878912.58608  21860708.340    89516080.93947
  23342887.460   122667723.10507  23342885.840    95585249.80045
  21680903.440   113933921.71009  21680901.420    88779674.09548
  23298313.720   122433577.78508  23298310.960    95402830.60145
  21062055.000   110681877.91909  21062050.840    86245619.23049
  20939299.200   110036813.85809  20939294.460    85742983.38949
  20413645.040   107274533.89709  20413645.060    83590566.99049
  22799358.020   119811492.87408  22799359.660    93359639.94846
 15 03 06 02 18  0.0000000  0  9G01G04G11G16G18G19G22G27G32
  24217345.240   127263041.45806  24217349.780    99166015.68545
  21849261.920   114818757.22808  21849261.240    89469206.67147
  23327555.580   122587153.93907  23327554.060    95522468.69246
  21696042.000   114013475.13009  21696039.960    88841663.75348
  23313093.560   122511246.31008  23313090.860    95463351.52945
  21053779.560   110638390.30209  21053775.440    86211732.78749
  20944702.800   110065210.26209  20944698.140    85765110.45949
  20413155.140   107271959.53909  20413155.160    83588560.99149
  22778572.820   119702266.73108  22778574.160    93274528.85846
 15 03 06 02 18 30.0000000  0 10G01G04G11G14G16G18G19G22G27G32
  24202664.240   127185892.64206  24202668.760    99105899.93645
  21837861.600   114758848.46208  21837860.980    89422524.54347
  23312244.020   122506691.46107  23312242.680    95459770.71245
  24523157.300   128870059.52106  24523156.380   100418229.88344
  21711253.900   114093414.12509  21711251.860    88903953.84448
  23327921.700   122589168.95108  23327919.180    95524070.45746
  21045549.040   110595138.56709  21045544.900    86178030.14049
  20950200.240   110094099.83209  20950195.660    85787621.81049
  20412730.580   107269728.33509  20412730.560    83586822.38049
  22757831.600   119593271.51208  22757832.840    93189597.70346
 15 03 06 02 19  0.0000000  0 10G01G04G11G14G16G18G19G22G27G32
  24188012.680   127108897.78307  24188016.920    99045904.06545
  21826509.940   114699195.50708  21826509.360    89376041.74947
  23296954.600   122426345.10308  23296953.260    95397163.22045
  24509803.660   128799889.38506  24509803.940   100363551.97144
  21726540.360   114173745.13809  21726538.400    88966549.41848
  23342799.540   122667352.68808  23342797.080    95584992.85246
  21037365.380   110552133.13809  21037361.260    86144519.42649
  20955792.960   110123490.14209  20955788.460    85810523.35549
  20412373.240   107267850.52209  20412373.220    83585359.15149
  22737136.580   119484519.01808  22737137.740    93104855.68646
 15 03 06 02 19 30.0000000  0 10G01G04G11G14G16G18G19G22G27G32
  24173385.960   127032034.33206  24173390.020    98986010.63846
  21815202.660   114639775.67208  21815202.060    89329740.62847
  23281683.060   122346092.62208  23281681.560    95334628.85946
  24496461.760   128729777.88106  24496462.160   100308919.69044
  21741896.740   114254443.37309  21741894.820    89029431.13148
  23357722.300   122745772.60208  23357719.800    95646099.27646
  21029224.560   110509352.87409  21029220.460    86111184.16049
  20961476.560   110153357.74809  20961472.060    85833796.81649
  20412079.080   107266304.61109  20412079.080    83584154.53949
  22716483.940   119375989.45108  22716485.260    93020287.38047
 15 03 06 02 20  0.0000000  0 10G01G04G11G14G16G18G19G22G27G32
  24158786.260   126955312.63507  24158789.980    98926227.65345
  21803941.740   114580599.27209  21803941.100    89283629.19947
  23266431.420   122265944.66808  23266429.740    95272175.97445
  24483133.800   128659737.90107  24483133.720   100254343.13644
  21757324.460   114335516.37109  21757322.540    89092604.86748
  23372691.620   122824436.99908  23372689.100    95707396.19945
  21021128.780   110466809.30509  21021124.660    86078033.33749
  20967252.680   110183711.32509  20967248.140    85857448.95749
  20411850.220   107265101.94109  20411850.220    83583217.38849
  22695876.200   119267695.83408  22695877.420    92935902.92746
 15 03 06 02 20 30.0000000  0 10G01G04G11G14G16G18G19G22G27G32
  24144214.700   126878738.95607  24144218.460    98866560.01045
  21792728.380   114521672.45809  21792727.560    89237712.24647
  23251200.920   122185907.75008  23251199.200    95209809.59845
  24469821.220   128589779.13007  24469820.720   100199829.87344
  21772824.220   114416967.92009  21772822.300    89156073.58448
  23387708.200   122903349.85408  23387705.840    95768886.73145
  21013079.500   110424510.06409  21013075.360    86045072.89449
  20973122.180   110214555.56909  20973117.580    85881483.43549
  20411688.060   107264249.79009  20411688.060    83582553.37449
  22675315.040   119159647.00308  22675316.180    92851709.21446
 15 03 06 02 21  0.0000000  0 10G01G04G11G14G16G18G19G22G27G32
  24129670.820   126802310.55307  24129674.440    98807005.53745
  21781562.000   114462992.47509  21781561.020    89191987.62447
  23235991.080   122105979.46507  23235989.280    95147527.87046
  24456524.160   128519900.95806  24456523.480   100145379.37845
  21788395.000   114498792.86609  21788393.120    89219833.25548
  23402771.220   122982506.36708  23402768.900    95830567.13045
  21005076.420   110382453.57409  21005072.280    86012301.61149
  20979084.320   110245886.53909  20979079.640    85905897.19149
  20411592.300   107263746.44409  20411592.260    83582161.15249
  22654800.540   119051843.03208  22654801.500    92767706.27847
 15 03 06 02 21 30.0000000  0 10G01G04G11G14G16G18G19G22G27G32
  24115154.640   126726027.71207  24115158.300    98747564.50145
  21770442.600   114404559.39209  21770441.380    89146455.39547
  23220802.020   122026160.48408  23220800.060    95085331.29145
  24443242.760   128450106.52206  24443242.320   100090994.20645
  21804036.460   114580989.22809  21804034.580    89283882.33948
  23417880.100   123061904.05108  23417877.780    95892435.45845
  20997119.880   110340641.45809  20997115.680    85979720.74249
  20985138.800   110277702.93109  20985134.100    85930689.18549
  20411563.140   107263593.24209  20411563.100    83582041.76749
  22634333.100   118944286.80008  22634334.060    92683896.39247
 15 03 06 02 22  0.0000000  0 10G01G04G11G14G16G18G19G22G27G32
  24100666.240   126649891.20007  24100670.140    98688237.49046
  21759370.260   114346373.90709  21759368.900    89101116.10147
  23205633.820   121946451.56007  23205631.900    95023220.50045
  24429977.960   128380399.76206  24429977.620   100036677.29345
  21819748.180   114663554.75309  21819746.300    89348219.07948
  23433034.680   123141541.74108  23433032.140    95954490.79345
  20989210.220   110299075.84309  20989206.000    85947331.95149
  20991285.480   110310003.86309  20991280.800    85955858.74249
  20411600.940   107263791.98209  20411600.920    83582196.62049
  22613913.520   118836981.81308  22613914.400    92600282.26247
 15 03 06 02 22 30.0000000  0 10G01G04G11G14G16G18G19G22G27G32
  24086205.280   126573899.25706  24086209.260    98629023.13245
  21748344.620   114288434.16208  21748343.400    89055968.28747
  23190486.220   121866851.29307  23190484.380    94961194.36145
  24416730.040   128310781.87206  24416729.580    99982429.66045
  21835529.180   114746484.41009  21835527.320    89412839.56748
  23448234.260   123221415.65007  23448231.640    96016730.20445
  20981347.320   110257756.25409  20981343.140    85915134.87249
  20997523.720   110342786.09109  20997519.080    85981403.33549
  20411705.600   107264341.89209  20411705.540    83582625.11549
  22593541.940   118729928.94508  22593542.860    92516864.60147
 15 03 06 02 23  0.0000000  0 10G01G04G11G14G16G18G19G22G27G32
  24071771.820   126498051.99506  24071776.080    98569921.51145
  21737365.800   114230740.52209  21737364.880    89011012.25548
  23175359.420   121787360.39007  23175357.640    94899253.44646
  24403499.540   128241255.35906  24403498.680    99928253.18743
  21851379.220   114829776.77709  21851377.380    89477742.68448
  23463478.340   123301523.63207  23463475.640    96079152.01645
  20973531.500   110216684.03109  20973527.400    85883130.54949
  21003853.380   110376048.77809  21003848.800    86007322.32349
  20411877.300   107265244.12909  20411877.260    83583328.15549
  22573218.900   118623131.14508  22573219.880    92433645.69647
 15 03 06 02 23 30.0000000  0 10G01G04G11G14G16G18G19G22G27G32
  24057366.060   126422350.34006  24057370.140    98510933.33745
  21726433.860   114173293.32309  21726433.220    88966248.25147
  23160253.760   121707980.00808  23160252.140    94837398.64645
  24390287.280   128171824.29006  24390285.840    99874151.08744
  21867297.940   114913430.16309  21867296.120    89542927.11548
  23478766.720   123381864.44507  23478764.060    96141755.24345
  20965763.200   110175861.47109  20965759.160    85851320.77249
  21010274.240   110409790.98309  21010269.720    86033614.95649
  20412116.380   107266500.63209  20412116.400    83584307.25049
  22552945.060   118516591.93808  22552946.000    92350628.29047
 15 03 06 02 24  0.0000000  0 10G01G04G11G14G16G18G19G22G27G32
  24042987.580   126346792.23706  24042991.620    98452057.01845
  21715548.520   114116090.74409  21715547.960    88921674.83147
  23145168.960   121628708.60908  23145167.340    94775628.76245
  24377093.180   128102489.15506  24377091.940    99820123.78744
  21883284.440   114997439.65609  21883282.560    89608389.01948
  23494098.540   123462433.71908  23494095.940    96204536.48945
  20958042.300   110135287.95209  20958038.260    85819705.03749
  21016785.660   110444008.98309  21016781.160    86060278.32949
  20412422.720   107268110.41809  20412422.740    83585561.61849
  22532720.540   118410311.96008  22532721.320    92267812.85746
 15 03 06 02 24 30.0000000  0 10G01G04G11G14G16G18G19G22G27G32
  24028637.180   126271381.09007  24028641.020    98393295.18445
  21704710.380   114059136.07009  21704709.740    88877294.58647
  23130105.580   121549549.72408  23130103.880    94713946.55545
  24363918.620   128033256.62506  24363917.460    99766176.40744
  21899338.760   115081805.43009  21899336.820    89674128.55948
  23509474.120   123543232.66907  23509471.460    96267496.70845
  20950369.720   110094968.25609  20950365.700    85788287.09849
  21023388.000   110478704.70309  21023383.500    86087313.96149
  20412797.120   107270077.82909  20412797.160    83587094.66049
  22512546.540   118304297.31008  22512547.220    92185204.17047
 15 03 06 02 25  0.0000000  0 10G01G04G11G14G16G18G19G22G27G32
  24014314.540   126196115.26207  24014318.180    98334646.59545
  21693919.080   114002427.56409  21693918.300    88833106.16647
  23115063.320   121470502.01408  23115061.580    94652350.98445
  24350763.680   127964127.56107  24350762.880    99712309.68844
  21915460.200   115166524.05109  21915458.220    89740143.03648
  23524892.580   123624257.39407  23524889.900    96330632.86445
  20942745.400   110054902.11309  20942741.400    85757066.72949
  21030080.760   110513875.40209  21030076.260    86114719.70449
  20413239.460   107272402.30209  20413239.500    83588905.93249
  22492423.200   118198548.97308  22492424.040    92102803.01447
 15 03 06 02 25 30.0000000  0 10G01G04G11G14G16G18G19G22G27G32
  24000019.280   126120992.91907  24000022.760    98276109.81745
  21683174.260   113945963.37109  21683173.360    88789108.13347
  23100041.920   121391564.12208  23100040.000    94590840.96545
  24337628.880   127895103.16706  24337628.200    99658524.49545
  21931647.920   115251590.82509  21931645.900    89806428.80848
  23540353.240   123705504.15007  23540350.700    96393942.02045
  20935169.220   110015088.96809  20935165.220    85726043.50549
  21036863.220   110549517.27309  21036858.700    86142492.59549
  20413749.620   107275082.98809  20413749.640    83590994.77649
  22472350.700   118093067.86208  22472351.600    92020610.07347
 15 03 06 02 26  0.0000000  0 10G01G04G11G14G16G18G19G22G27G32
  23985752.060   126046017.84107  23985755.320    98217687.79345
  21672476.660   113889747.08609  21672475.660    88745303.25847
  23085042.140   121312740.14008  23085040.120    94529419.72945
  24324515.300   127826190.21606  24324514.280    99604826.12544
  21947902.000   115337006.44509  21947900.000    89872986.40148
  23555856.400   123786974.17007  23555853.860    96457425.15545
  20927642.180   109975534.00909  20927638.160    85695221.45949
  21043735.760   110585632.37609  21043731.160    86170634.23949
  20414328.420   107278124.65009  20414328.460    83593364.89349
  22452330.280   117987860.41508  22452331.000    91938630.38047
 15 03 06 02 26 30.0000000  0 10G01G04G11G14G16G18G19G22G27G32
  23971512.480   125971188.13506  23971515.820    98159379.04045
  21661825.880   113833776.96709  21661824.820    88701690.21547
  23070063.800   121234028.50808  23070061.840    94468086.02946
  24311422.800   127757389.45005  24311421.720    99551215.17744
  21964221.620   115422766.54309  21964219.680    89939812.42448
  23571401.300   123868663.54407  23571398.700    96521079.20745
  20920164.120   109936236.36009  20920160.080    85664599.92049
  21050697.760   110622217.73609  21050693.140    86199142.32249
  20414975.760   107281526.45209  20414975.820    83596015.64949
  22432362.100   117882927.45708  22432362.660    91856864.55947
 15 03 06 02 27  0.0000000  0 10G01G04G11G14G16G18G19G22G27G32
  23957300.600   125896504.80306  23957303.900    98101184.36946
  21651222.100   113778053.73509  21651221.060    88658269.54948
  23055107.140   121155430.72208  23055105.200    94406841.05246
  24298352.060   127688704.70706  24298350.920    99497694.67645
  21980606.580   115508869.99209  21980604.660    90006905.99648
  23586987.840   123950571.45207  23586985.240    96584903.55445
  20912735.560   109897199.04709  20912731.540    85634181.24649
  21057749.060   110659272.53609  21057744.440    86228016.19649
  20415691.980   107285290.41609  20415692.080    83598948.60349
  22412446.860   117778272.73708  22412447.420    91775315.54647
 15 03 06 02 27 30.0000000  0 10G01G04G11G14G16G18G19G22G27G32
  23943116.340   125821967.44306  23943119.780    98043103.40446
  21640665.240   113722576.95609  21640664.200    88615040.91548
  23040172.120   121076946.64908  23040170.260    94345684.66446
  24285304.120   127620138.65706  24285303.520    99444266.61344
  21997056.280   115595313.66709  21997054.400    90074264.66348
  23602615.380   124032694.90507  23602612.960    96648895.84345
  20905356.620   109858422.63509  20905352.620    85603965.85749
  21064889.340   110696794.86309  21064884.720    86257254.37249
  20416477.260   107289417.09309  20416477.360    83602164.18349
  22392584.960   117673898.47908  22392585.560    91693985.06747
 15 03 06 02 28  0.0000000  0 10G01G04G11G14G16G18G19G22G27G32
  23928959.520   125747574.72006  23928963.300    97985135.18545
  21630155.040   113667345.37909  21630154.060    88572003.35648
  23025258.600   120998575.93708  23025256.900    94284616.63746
  24272279.400   127551692.77107  24272278.880    99390932.21645
  22013569.980   115682093.56509  22013568.160    90141885.33048
  23618283.280   124115030.43007  23618280.840    96713053.39545
  20898027.340   109819907.21309  20898023.380    85573953.84549
  21072117.960   110734781.74409  21072113.360    86286854.53849
  20417331.480   107293906.18609  20417331.600    83605662.17049
  22372776.720   117569806.02708  22372777.460    91612874.19047
 15 03 06 02 28 30.0000000  0 10G01G04G11G14G16G18G19G22G27G32
  23914830.540   125673327.40407  23914834.440    97927280.26946
  21619691.560   113612359.49709  21619690.660    88529157.24147
  23010366.720   120920318.89808  23010365.060    94223637.16846
  24259278.240   127483370.75706  24259277.860    99337694.36745
  22030147.260   115769207.46309  22030145.420    90209766.26148
  23633991.320   124197576.76407  23633988.980    96777375.21345
  20890748.200   109781655.37409  20890744.280    85544147.22749
  21079434.820   110773232.43609  21079430.260    86316816.12349
  20418255.020   107298759.45809  20418255.160    83609443.93849
  22353022.780   117465998.92608  22353023.480    91531985.64947
 15 03 06 02 29  0.0000000  0 10G01G04G11G14G16G18G19G22G27G32
  23900729.380   125599224.99507  23900732.920    97869538.21245
  21609274.800   113557618.87009  21609273.860    88486502.22147
  22995496.480   120842175.69508  22995494.660    94162746.39645
  24246301.020   127415174.92606  24246301.020    99284554.82544
  22046787.420   115856651.98809  22046785.600    90277904.81748
  23649739.040   124280331.25407  23649736.660    96841859.21645
  20883519.340   109743667.57709  20883515.420    85514546.34649
  21086839.520   110812144.67609  21086835.000    86347137.34749
  20419247.980   107303977.31709  20419248.060    83613509.79049
  22333323.500   117362479.14608  22333324.020    91451320.98647
 15 03 06 02 29 30.0000000  0 10G01G04G11G14G16G18G19G22G27G32
  23886656.220   125525269.20807  23886659.520    97811910.41146
  21598905.000   113503125.11909  21598904.000    88444039.58248
  22980648.420   120764148.64708  22980646.340    94101946.11345
  24233348.460   127347109.93106  24233348.560    99231517.21544
  22063490.380   115944426.59409  22063488.600    90346300.57748
  23665526.300   124363293.26707  23665523.960    96906504.93145
  20876341.340   109705946.95009  20876337.420    85485153.65249
  21094332.080   110851518.46009  21094327.560    86377818.21549
  20420310.820   107309562.55009  20420310.880    83617861.91149
  22313679.780   117259251.29208  22313680.220    91370883.80647
 15 03 06 02 30  0.0000000  0 10G01G04G11G14G16G18G19G22G27G32
  23872610.380   125451456.94807  23872613.220    97754394.42445
  21588581.520   113448875.01309  21588580.480    88401766.80748
  22965822.020   120686235.02208  22965819.960    94041234.24446
  24220420.800   127279175.77306  24220420.300    99178581.56244
  22080255.120   116032525.82609  22080253.360    90414949.30148
  23681352.020   124446457.83407  23681349.660    96971308.48445
  20869213.840   109668491.72709  20869209.860    85455967.77249
  21101911.640   110891349.29509  21101907.060    86408855.23449
  20421443.180   107315513.02609  20421443.220    83622498.64649
  22294091.540   117156314.86908  22294092.080    91290673.71747
 15 03 06 02 30 30.0000000  0 10G01G04G11G14G16G18G19G22G27G32
  23858592.700   125377793.63907  23858595.500    97696994.56845
  21578305.380   113394874.00809  21578304.320    88359688.12948
  22951018.320   120608440.59308  22951016.220    93980615.23446
  24207519.720   127211380.84106  24207518.680    99125754.34345
  22097082.180   116120952.48409  22097080.440    90483853.14748
  23697216.780   124529827.71607  23697214.380    97036272.02045
  20862138.220   109631309.01409  20862134.160    85426994.23249
  21109578.920   110931640.91909  21109574.300    86440251.30849
  20422646.260   107321835.18309  20422646.300    83627424.99449
  22274560.320   117053678.02008  22274560.920    91210697.06247
 15 03 06 02 31  0.0000000  0 10G01G04G11G14G16G18G19G22G27G32
  23844602.340   125304274.09607  23844605.320    97639706.72345
  21568075.640   113341116.81109  21568074.560    88317799.42448
  22936236.360   120530760.62008  22936234.260    93920085.41946
  24194644.880   127143722.58306  24194643.800    99073033.65145
  22113969.920   116209697.92009  22113968.140    90553005.40248
  23713119.360   124613396.19907  23713116.900    97101390.32145
  20855113.740   109594394.99709  20855109.620    85398230.06449
  21117332.560   110972386.37509  21117327.900    86472001.01949
  20423919.260   107328524.82809  20423919.300    83632637.69649
  22255085.620   116951338.21408  22255086.160    91130951.85947
 15 03 06 02 31 30.0000000  0 10G01G04G11G14G16G18G19G22G27G32
  23830639.680   125230900.91806  23830642.800    97582532.94146
  21557892.840   113287606.01209  21557891.780    88276102.71848
  22921476.700   120453198.24308  22921474.620    93859647.23646
  24181797.100   127076206.63606  24181796.480    99020423.88646
  22130918.420   116298762.77809  22130916.640    90622406.56048
  23729059.840   124697163.75007  23729057.280    97166663.73145
  20848141.160   109557753.58109  20848136.980    85369678.32249
  21125172.740   111013586.67809  21125168.060    86504105.15749
  20425262.860   107335585.46709  20425262.920    83638139.49549
  22235668.440   116849300.64208  22235668.860    91051442.16247
 15 03 06 02 32  0.0000000  0 10G01G04G11G14G16G18G19G22G27G32
  23816705.280   125157676.29706  23816708.480    97525474.91046
  21547757.340   113234343.76009  21547756.340    88234599.68148
  22906739.800   120375755.64708  22906737.720    93799302.36246
  24168977.220   127008837.99506  24168976.960    98967928.90145
  22147927.520   116388146.11509  22147925.740    90692055.87448
  23745038.200   124781130.29407  23745035.580    97232092.20545
  20841221.160   109521388.48909  20841216.920    85341341.88849
  21133099.540   111055242.20909  21133094.880    86536564.01449
  20426677.660   107343020.25209  20426677.720    83643932.82149
  22216309.740   116747570.27808  22216310.220    90972171.84347
 15 03 06 02 32 30.0000000  0 10G01G04G11G14G16G18G19G22G27G32
  23802798.080   125084594.00707  23802801.180    97468527.78546
  21537667.920   113181323.65509  21537666.980    88193285.34648
  22892024.740   120298427.74808  22892022.640    93739046.89546
  24156184.740   126941613.40106  24156184.560    98915546.16945
  22164995.580   116477839.12909  22164993.820    90761946.50648
  23761052.820   124865287.54307  23761050.260    97297669.27645
  20834352.860   109485294.96609  20834348.560    85313217.06849
  21141111.500   111097345.46909  21141106.900    86569371.75449
  20428162.660   107350823.98709  20428162.740    83650013.65249
  22197008.840   116646143.58208  22197009.260    90893138.15647
 15 03 06 02 33  0.0000000  0 10G01G04G11G14G16G18G19G22G27G32
  23788918.860   125011658.59707  23788922.000    97411695.10045
  21527625.500   113128550.34809  21527624.600    88152163.30948
  22877332.400   120221219.13208  22877330.300    93678884.35846
  24143421.080   126874540.07506  24143420.560    98863281.25244
  22182122.860   116567843.35709  22182121.080    90832079.63348
  23777104.160   124949637.91907  23777101.420    97363396.82845
  20827537.380   109449479.09809  20827533.020    85285308.59949
  21149209.180   111139899.15909  21149204.620    86602530.47349
  20429718.960   107359002.20209  20429719.020    83656386.27949
  22177767.080   116545027.69808  22177767.480    90814346.66147
 15 03 06 02 33 30.0000000  0 10G01G04G11G14G16G18G19G22G27G32
  23775067.540   124938869.54507  23775070.280    97354976.43645
  21517629.880   113076023.04409  21517628.960    88111232.96948
  22862662.840   120144129.78808  22862660.660    93618814.75646
  24130686.840   126807620.74306  24130685.800    98811136.32444
  22199308.820   116658156.42209  22199307.140    90902453.41648
  23793191.680   125034178.57007  23793188.800    97429272.65145
  20820774.840   109413941.63509  20820770.440    85257617.07749
  21157392.060   111182900.65809  21157387.540    86636038.13849
  20431346.580   107367555.21409  20431346.600    83663050.95749
  22158584.880   116444224.76108  22158585.120    90735799.01047
 15 03 06 02 34  0.0000000  0 10G01G04G11G14G16G18G19G22G27G32
  23761243.500   124866223.93707  23761246.020    97298369.57045
  21507680.500   113023738.84109  21507679.520    88070492.05648
  22848015.440   120067157.48608  22848013.280    93558836.36946
  24117982.060   126740855.64307  24117980.880    98759111.62145
  22216552.420   116748772.21509  22216550.740    90973063.08148
  23809314.460   125118904.55907  23809311.780    97495292.89445
  20814064.980   109378681.06109  20814060.560    85230141.29849
  21165659.360   111226345.73809  21165654.860    86669891.44449
  20433045.140   107376481.14109  20433045.140    83670006.21549
  22139462.200   116343734.54908  22139462.240    90657495.02347
 15 03 06 02 34 30.0000000  0 10G01G04G11G14G16G18G19G22G27G32
  23747447.360   124793725.66507  23747450.000    97241877.51246
  21497778.160   112971701.63809  21497777.120    88029943.61548
  22833391.080   119990306.59408  22833388.940    93498952.59646
  24105307.820   126674251.55006  24105307.020    98707212.36645
  22233853.920   116839692.15909  22233852.260    91043909.76248
  23825472.960   125203817.94407  23825470.440    97561459.16445
  20807408.880   109343703.10609  20807404.500    85202885.75749
  21174011.480   111270236.59109  21174007.020    86704092.11449
  20434815.580   107385784.87109  20434815.580    83677255.87149
  22120400.240   116243563.57608  22120400.160    90579439.80647
 15 03 06 02 35  0.0000000  0 10G01G04G11G14G16G18G19G22G27G32
  23733679.280   124721374.73407  23733681.980    97185500.24946
  21487922.840   112919911.50109  21487921.760    87989587.67848
  22818789.880   119913577.30108  22818787.880    93439163.55546
  24092664.500   126607811.22306  24092664.160    98655440.77245
  22251212.820   116930913.55509  22251211.160    91114991.32848
  23841666.660   125288916.46207  23841664.200    97627769.68145
  20800806.780   109309008.98409  20800802.460    85175851.37349
  21182448.020   111314571.09209  21182443.600    86738638.47449
  20436658.100   107395467.25809  20436658.080    83684800.57649
  22101399.560   116143714.62508  22101399.620    90501635.51147
 15 03 06 02 35 30.0000000  0 10G01G04G11G14G16G18G19G22G27G32
  23719938.800   124649168.63307  23719941.640    97129235.85546
  21478113.980   112868365.67209  21478112.880    87949422.12248
  22804211.620   119836968.00108  22804209.640    93379468.02446
  24080052.400   126541534.95206  24080051.620    98603796.95844
  22268627.980   117022430.73609  22268626.320    91186303.38348
  23857894.720   125374195.49807  23857892.220    97694220.88045
  20794258.480   109274597.67709  20794254.260    85149037.37849
  21190968.280   111359345.32109  21190963.820    86773527.49449
  20438572.380   107405526.79709  20438572.360    83692639.17749
  22082460.160   116044187.74808  22082460.320    90424082.20147
 15 03 06 02 36  0.0000000  0 10G01G04G11G14G16G18G19G22G27G32
  23706226.000   124577107.53007  23706228.980    97073084.45346
  21468351.620   112817064.27609  21468350.540    87909447.03348
  22789656.220   119760478.84508  22789654.200    93319866.11046
  24067472.180   126475426.03507  24067471.560    98552283.55944
  22286099.060   117114241.74409  22286097.420    91257844.39147
  23874156.700   125459653.09307  23874154.120    97760811.18945
  20787764.300   109240470.69909  20787760.100    85122444.93249
  21199571.960   111404557.94609  21199567.460    86808758.10949
  20440558.640   107415964.55109  20440558.600    83700772.48649
  22063582.580   115944985.69008  22063582.680    90346781.97047
 15 03 06 02 36 30.0000000  0 10G01G04G11G14G16G18G19G22G27G32
  23692541.160   124505192.94507  23692544.060    97017047.19046
  21458636.060   112766008.86409  21458634.960    87869663.60748
  22775124.100   119684112.30708  22775122.100    93260359.73346
  24054924.720   126409488.71706  24054923.400    98500903.80845
  22303625.800   117206345.28209  22303624.200    91329613.32948
  23890452.560   125545288.65707  23890450.000    97827540.18545
  20781324.820   109206631.24509  20781320.640    85096076.51849
  21208258.960   111450208.35009  21208254.440    86844329.84249
  20442617.340   107426782.95009  20442617.280    83709202.39349
  22044767.640   115846112.67608  22044767.580    90269738.12847
 15 03 06 02 37  0.0000000  0 10G01G04G11G14G16G18G19G22G27G32
  23678883.920   124433423.19207  23678886.660    96961122.82146
  21448966.960   112715197.74709  21448965.860    87830070.54548
  22760614.960   119607866.71408  22760612.960    93200947.60946
  24042410.080   126343724.35706  24042408.700    98449658.91044
  22321207.340   117298736.69309  22321205.740    91401606.60448
  23906781.640   125631098.66407  23906779.180    97894405.13345
  20774939.980   109173078.91009  20774935.840    85069931.85049
  21217028.640   111496293.18509  21217024.060    86880240.10949
  20444748.300   107437981.23109  20444748.240    83717928.32449
  22026015.460   115747569.66708  22026015.340    90192951.45247
 15 03 06 02 37 30.0000000  0 10G01G04G11G14G16G18G19G22G27G32
  23665254.020   124361797.71207  23665256.740    96905310.85646
  21439344.220   112664630.14609  21439343.160    87790667.24948
  22746128.980   119531742.51108  22746127.060    93141630.07646
  24029928.780   126278135.16706  24029927.560    98398550.50345
  22338843.020   117391412.57309  22338841.400    91473821.54047
  23923143.460   125717080.60607  23923141.080    97961404.03845
  20768609.940   109139814.64109  20768605.840    85044011.64849
  21225880.500   111542809.83109  21225875.880    86916486.85548
  20446951.600   107449559.76609  20446951.600    83726950.55949
  22007326.540   115649358.74308  22007326.340    90116423.54147
 15 03 06 02 38  0.0000000  0 10G01G04G11G14G16G18G19G22G27G32
  23651652.020   124290319.30307  23651654.460    96849613.46146
  21429768.360   112614308.94109  21429767.360    87751455.93848
  22731666.740   119455743.01108  22731664.800    93082409.70746
  24017482.140   126212727.45606  24017481.020    98347583.48245
  22356532.840   117484372.92909  22356531.220    91546258.12948
  23939538.120   125803234.70307  23939535.660    98028537.07245
  20762335.580   109106842.85309  20762331.500    85018319.34649
  21234814.800   111589759.72609  21234810.140    86953071.18749
  20449227.980   107461522.30809  20449228.020    83736272.01049
  21988701.800   115551485.32308  21988701.560    90040158.60247
 15 03 06 02 38 30.0000000  0 10G01G04G11G14G16G18G19G22G27G32
  23638078.060   124218988.92807  23638080.600    96794031.45846
  21420239.580   112564234.89309  21420238.680    87712437.21848
  22717228.540   119379869.53508  22717226.440    93023287.54046
  24005070.840   126147505.03307  24005069.560    98296760.83145
  22374276.560   117577616.46509  22374274.920    91618915.39048
  23955965.400   125889560.29807  23955962.960    98095803.76345
  20756117.360   109074165.87109  20756113.280    84992856.76649
  21243831.400   111637142.25009  21243826.740    86989992.63448
  20451577.800   107473870.65309  20451577.840    83745894.08949
  21970141.960   115453952.86908  21970141.700    89964159.35847
 15 03 06 02 39  0.0000000  0 10G01G04G11G14G16G18G19G22G27G32
  23624531.360   124147801.82706  23624534.000    96738561.06146
  21410757.000   112514403.42009  21410756.060    87673607.53048
  22702813.460   119304117.80508  22702811.340    92964260.24046
  23992694.360   126082465.80207  23992693.160    98246080.97145
  22392072.820   117671136.18508  22392071.140    91691787.86247
  23972423.960   125976050.47207  23972421.500    98163198.69445
  20749954.660   109041780.63209  20749950.580    84967621.52249
  21252929.000   111684950.41609  21252924.380    87027245.76149
  20454000.300   107486600.95309  20454000.360    83755813.79749
  21951646.600   115356759.47208  21951646.300    89888424.31847
 15 03 06 02 39 30.0000000  0 10G01G04G11G14G16G18G19G22G27G32
  23611012.440   124076760.49507  23611015.140    96683204.26446
  21401321.060   112464816.66109  21401320.020    87634968.52148
  22688422.160   119228490.90808  22688419.980    92905330.21346
  23980353.700   126017615.25207  23980352.700    98195548.13145
  22409921.460   117764931.26909  22409919.800    91764874.89548
  23988913.960   126062705.61007  23988911.560    98230722.17645
  20743848.220   109009690.90809  20743844.120    84942616.54849
  21262107.720   111733185.00209  21262103.140    87064831.15048
  20456496.120   107499716.56509  20456496.160    83766033.75149
  21933216.720   115259910.01409  21933216.320    89812957.26947
 15 03 06 02 40  0.0000000  0 10G01G04G11G14G16G18G19G22G27G32
  23597521.000   124005863.37407  23597523.800    96627959.85146
  21391931.440   112415473.48609  21391930.240    87596519.31248
  22674054.400   119152987.98208  22674052.280    92846496.80546
  23968049.160   125952954.94906  23968048.300    98145163.51544
  22427821.760   117858997.67808  22427820.080    91838173.35147
  24005434.680   126149522.43307  24005432.300    98298371.61545
  20737798.020   108977896.85609  20737793.900    84917841.96449
  21271366.980   111781842.81309  21271362.420    87102746.32748
  20459065.180   107513216.95909  20459065.180    83776553.54049
  21914852.560   115163405.89108  21914852.120    89737759.31747
 15 03 06 02 40 30.0000000  0 10G01G04G11G14G16G18G19G22G27G32
  23584057.720   123935113.48407  23584060.420    96572830.12846
  21382588.620   112366376.46509  21382587.260    87558261.90348
  22659710.880   119077612.48108  22659708.840    92787762.68146
  23955781.860   125888490.72207  23955780.820    98094931.65245
  22445773.640   117953335.20209  22445772.000    91911683.05947
  24021986.340   126236501.52807  24021983.860    98366147.53845
  20731804.940   108946402.87109  20731800.800    84893301.19849
  21280706.960   111830924.82809  21280702.440    87140992.05449
  20461708.120   107527105.84209  20461708.140    83787376.03849
  21896555.060   115067252.28208  21896554.720    89662834.50247
 15 03 06 02 41  0.0000000  0 10G01G04G11G14G16G18G19G22G27G32
  23570621.940   123864507.46007  23570624.540    96517812.50046
  21373291.920   112317522.18709  21373290.480    87520193.64948
  22645391.100   119002361.71508  22645389.080    92729125.75646
  23943551.860   125824222.11407  23943550.760    98044852.27845
  22463775.940   118047937.61509  22463774.320    91985399.17947
  24038567.820   126323637.75707  24038565.420    98434045.89245
  20725868.640   108915207.15409  20725864.460    84868992.84649
  21290126.740   111880426.12709  21290122.240    87179564.49349
  20464424.540   107541380.79909  20464424.560    83798499.37549
  21878324.180   114971448.71008  21878323.860    89588182.43847
 15 03 06 02 41 30.0000000  0 10G01G04G11G14G16G18G19G22G27G32
  23557213.180   123794043.38907  23557215.740    96462905.50146
  21364041.020   112268908.88609  21364039.600    87482313.15748
  22631094.800   118927233.78708  22631092.640    92670584.53346
  23931359.600   125760150.28307  23931358.340    97994926.18645
  22481827.860   118142800.89209  22481826.300    92059318.56747
  24055178.460   126410927.15907  24055175.940    98502063.60444
  20719988.980   108884309.31909  20719984.820    84844916.61149
  21299625.560   111930342.76909  21299621.060    87218460.57348
  20467214.200   107556040.79209  20467214.260    83809922.74049
  21860160.000   114875995.65709  21860159.640    89513803.50147
 15 03 06 02 42  0.0000000  0 10G01G04G11G14G16G18G19G22G27G32
  23543832.720   123723728.23707  23543835.160    96408114.54546
  21354837.280   112220543.46609  21354836.020    87444625.84148
  22616823.400   118852237.18108  22616821.200    92612145.64646
  23919206.600   125696285.02007  23919205.460    97945161.08945
  22499930.300   118237929.44909  22499928.700    92133444.67747
  24071819.100   126498374.61507  24071816.760    98570204.45845
  20714167.600   108853717.53209  20714163.400    84821078.86149
  21309204.400   111980679.96009  21309199.900    87257684.36048
  20470078.640   107571093.63909  20470078.740    83821652.23749
  21842064.380   114780902.74509  21842063.940    89439705.20047
 15 03 06 02 42 30.0000000  0 10G01G04G11G14G16G18G19G22G27G32
  23530479.880   123653558.76807  23530482.080    96353437.10746
  21345680.180   112172422.75109  21345679.000    87407129.19148
  22602576.340   118777368.98208  22602574.200    92553806.82946
  23907092.760   125632626.24307  23907091.740    97895556.89445
  22518081.920   118333316.76408  22518080.380    92207772.39547
  24088488.860   126585974.93207  24088486.580    98638464.41445
  20708404.180   108823430.46409  20708399.940    84797478.53749
  21318862.320   112031432.56409  21318857.740    87297231.84048
  20473017.400   107586536.93009  20473017.500    83833685.96049
  21824037.140   114686169.37709  21824036.720    89365887.04648
 15 03 06 02 43  0.0000000  0 10G01G04G11G14G16G18G19G22G27G32
  23517154.500   123583534.08807  23517156.720    96298872.49946
  21336569.520   112124545.53709  21336568.360    87369822.28548
  22588353.640   118702628.57308  22588351.600    92495567.60046
  23895018.480   125569175.97206  23895017.360    97846115.14645
  22536282.080   118428959.13008  22536280.520    92282298.86247
  24105187.100   126673725.24806  24105184.720    98706841.28445
  20702698.860   108793448.62409  20702694.600    84774116.06249
  21328598.740   112082597.81809  21328594.180    87337100.86948
  20476030.440   107602370.64809  20476030.560    83846023.91549
  21806078.600   114591797.25408  21806078.300    89292350.38848
 15 03 06 02 43 30.0000000  0 10G01G04G11G14G16G18G19G22G27G32
  23503856.900   123513655.40907  23503859.120    96244421.63546
  21327505.420   112076913.02809  21327504.260    87332706.07148
  22574155.620   118628017.80808  22574153.600    92437429.40546
  23882984.760   125505938.31807  23882983.340    97796839.06244
  22554530.580   118524855.59708  22554529.060    92357023.33347
  24121913.760   126761624.71807  24121911.400    98775334.36444
  20697052.060   108763774.60809  20697047.840    84750993.45949
  21338413.600   112134175.34709  21338409.060    87377291.15148
  20479118.160   107618596.78709  20479118.340    83858667.66149
  21788189.500   114497789.93709  21788189.260    89219098.00848
 15 03 06 02 44  0.0000000  0 10G01G04G11G14G16G18G19G22G27G32
  23490586.560   123443919.84307  23490588.740    96190082.30346
  21318487.320   112029522.54009  21318486.160    87295778.44048
  22559981.900   118553534.31008  22559979.720    92379390.34246
  23870991.240   125442913.12507  23870989.620    97747728.54645
  22572826.360   118621000.40708  22572824.820    92431941.31247
  24138667.940   126849668.31007  24138665.660    98843939.74245
  20691463.580   108734407.00209  20691459.340    84728109.60649
  21348305.980   112186160.14709  21348301.440    87417798.78548
  20482280.180   107635213.28309  20482280.380    83871615.57049
  21770369.840   114404147.24209  21770369.620    89146129.73947
 15 03 06 02 44 30.0000000  0 10G01G04G11G14G16G18G19G22G27G32
  23477343.840   123374329.01107  23477346.060    96135855.76246
  21309515.520   111982375.41309  21309514.320    87259040.45048
  22545832.920   118479180.56308  22545830.560    92321452.38346
  23859039.160   125380105.21907  23859037.480    97698787.32144
  22591169.200   118717392.33808  22591167.580    92507051.86047
  24155449.540   126937855.99307  24155447.320    98912657.41244
  20685934.020   108705349.28909  20685929.800    84705467.23649
  21358275.800   112238552.00709  21358271.280    87458623.61448
  20485516.960   107652222.63209  20485517.140    83884869.60649
  21752620.400   114310873.29709  21752620.080    89073448.81147
 15 03 06 02 45  0.0000000  0 10G01G04G11G14G16G18G19G22G27G32
  23464128.540   123304882.46607  23464130.860    96081741.64446
  21300589.900   111935471.36009  21300588.700    87222491.86648
  22531708.600   118404956.65008  22531706.100    92263615.61046
  23847128.960   125317516.85107  23847127.580    97650017.21546
  22609558.380   118814027.93908  22609556.740    92582352.28147
  24172258.020   127026185.37207  24172255.680    98981485.47945
  20680463.640   108676602.39009  20680459.420    84683067.05949
  21368322.640   112291348.63409  21368318.120    87499763.84248
  20488828.540   107669625.12809  20488828.720    83898429.99149
  21734941.520   114217970.30509  21734941.140    89001056.93748
 15 03 06 02 45 30.0000000  0 10G01G04G11G14G16G18G19G22G27G32
  23450941.120   123235582.69807  23450943.640    96027741.90646
  21291711.040   111888812.68809  21291709.700    87186134.47648
  22517609.500   118330865.66308  22517607.140    92205882.40946
  23835261.760   125255153.87306  23835260.440    97601422.70445
  22627993.880   118910907.17208  22627992.380    92657842.52747
  24189093.520   127114656.68706  24189091.120    99050424.15844
  20675053.180   108648170.28309  20675048.960    84660912.17349
  21378446.680   112344550.84709  21378442.180    87541220.11448
  20492215.600   107687424.15709  20492215.760    83912299.35549
  21717334.160   114125443.24309  21717333.780    88928957.98648
 15 03 06 02 46  0.0000000  0 10G01G04G11G14G16G18G19G22G27G32
  23437781.000   123166426.80707  23437783.820    95973854.26446
  21282878.340   111842396.59409  21282876.960    87149966.09948
  22503535.340   118256905.59508  22503533.120    92148251.21546
  23823437.160   125193016.10907  23823436.200    97553003.74445
  22646474.720   119008024.40208  22646473.220    92733518.23047
  24205955.160   127203265.22407  24205952.680    99119469.75745
  20669702.320   108620051.38209  20669698.100    84639001.33749
  21388646.920   112398153.55609  21388642.420    87582988.44948
  20495677.720   107705617.57309  20495677.820    83926476.02949
  21699798.280   114033291.67709  21699797.860    88857151.63148
 15 03 06 02 46 30.0000000  0 10G01G04G11G14G16G18G19G22G27G32
  23424648.500   123097415.42107  23424651.260    95920079.22246
  21274091.820   111796223.41409  21274090.540    87113987.00848
  22489486.320   118183077.51008  22489484.100    92090722.86246
  23811656.320   125131107.21407  23811655.180    97504763.04745
  22665000.460   119105377.53708  22664998.900    92809377.75247
  24222842.780   127292009.84607  24222840.180    99188621.40944
  20664411.520   108592248.17709  20664407.340    84617336.50049
  21398923.120   112452155.29709  21398918.620    87625067.72348
  20499215.160   107724206.76209  20499215.200    83940961.09949
  21682334.440   113941518.75209  21682334.020    88785640.31148
 15 03 06 02 47  0.0000000  0 10G01G04G11G14G16G18G19G22G27G32
  23411543.120   123028546.31307  23411545.640    95866415.03546
  21265351.140   111750291.14909  21265349.940    87078195.65348
  22475462.040   118109379.55508  22475459.720    92033295.91146
  23799919.200   125069427.59307  23799917.380    97456701.03145
  22683570.220   119202961.93708  22683568.560    92885417.49547
  24239755.440   127380886.13506  24239752.780    99257875.64845
  20659180.620   108564759.65109  20659176.480    84595916.87349
  21409274.640   112506552.65709  21409270.100    87667455.28148
  20502827.660   107743190.29109  20502827.640    83955753.45349
  21664942.680   113850124.78609  21664942.280    88714424.29348
 15 03 06 02 47 30.0000000  0 10G01G04G11G14G16G18G19G22G27G32
  23398465.300   122959821.61407  23398467.500    95812863.36046
  21256656.660   111704601.77609  21256655.540    87042593.57348
  22461463.060   118035814.82908  22461460.700    91975972.78446
  23788226.800   125007982.77607  23788224.780    97408821.96745
  22702183.780   119300776.66108  22702182.120    92961636.70347
  24256693.200   127469894.37607  24256690.520    99327232.71244
  20654010.300   108537589.66509  20654006.240    84574745.46449
  21419701.440   112561345.54309  21419696.820    87710151.04048
  20506515.720   107762571.05409  20506515.680    83970855.34049
  21647623.880   113759114.32709  21647623.540    88643507.11648
 15 03 06 02 48  0.0000000  0 10G01G04G11G14G16G18G19G22G27G32
  23385415.220   122891242.81507  23385417.280    95759425.38646
  21248008.740   111659156.96509  21248007.640    87007182.04448
  22447489.860   117962385.30908  22447487.480    91918754.99946
  23776579.740   124946776.88407  23776577.740    97361129.04644
  22720840.880   119398820.24108  22720839.320    93038034.23047
  24273655.960   127559034.02906  24273653.300    99396692.16044
  20648901.180   108510741.14209  20648897.160    84553824.53549
  21430203.360   112616533.33709  21430198.700    87753154.51048
  20510279.780   107782351.28009  20510279.760    83986268.48949
  21630378.880   113668491.34509  21630378.520    88572891.84948
 15 03 06 02 48 30.0000000  0 10G01G04G11G14G16G18G19G22G27G32
  23372392.720   122822809.10507  23372394.820    95706100.47546
  21239407.160   111613955.56509  21239406.060    86971960.20248
  22433542.360   117889090.86708  22433539.880    91861642.47646
  23764978.380   124885812.24207  23764976.900    97313624.18645
  22739541.020   119497089.67808  22739539.400    93114607.75247
  24290643.180   127648302.47506  24290640.500    99466252.01244
  20643853.400   108484214.92409  20643849.400    84533154.75249
  21440779.920   112672113.45309  21440775.280    87796463.69148
  20514119.840   107802530.97109  20514119.860    84001992.91649
  21613207.920   113578257.59109  21613207.620    88502579.88848
 15 03 06 02 49  0.0000000  0 10G01G04G11G14G16G18G19G22G27G32
  23359397.220   122754517.56507  23359399.560    95652886.36646
  21230851.400   111568994.83209  21230850.300    86936925.89248
  22419620.200   117815929.30208  22419617.600    91804633.49446
  23753423.000   124825088.85207  23753421.800    97266307.29345
  22758283.000   119595579.03508  22758281.340    93191352.64247
  24307653.980   127737694.64307  24307651.200    99535908.22544
  20638866.700   108458009.56509  20638862.680    84512734.99649
  21451430.220   112728081.20509  21451425.580    87840074.93348
  20518035.500   107823107.94309  20518035.580    84018026.90949
  21596110.980   113488412.65409  21596110.620    88432570.89548
 15 03 06 02 49 30.0000000  0 10G01G04G11G14G16G18G19G22G27G32
  23346429.680   122686373.00807  23346432.220    95599786.77447
  21222342.360   111524279.54909  21222341.280    86902082.84748
  22405724.300   117742906.17508  22405721.680    91747732.38346
  23741915.020   124764614.29507  23741913.980    97219184.27845
  22777067.140   119694289.99408  22777065.440    93268270.21747
  24324688.880   127827213.85206  24324686.120    99605663.43644
  20633942.280   108432131.41909  20633938.220    84492570.21349
  21462154.740   112784439.25109  21462150.160    87883990.29548
  20522027.840   107844087.69709  20522027.940    84034374.76849
  21579089.380   113398963.87109  21579089.000    88362870.59848
 15 03 06 02 50  0.0000000  0 10G01G04G11G14G16G18G19G22G27G32
  23333489.180   122618370.46807  23333491.760    95546797.84846
  21213879.060   111479804.65409  21213878.000    86867427.10748
  22391853.860   117670017.02008  22391851.320    91690935.66846
  23730453.900   124704386.67007  23730453.100    97172253.69045
  22795892.120   119793215.66108  22795890.440    93345355.07547
  24341746.520   127916852.95206  24341743.960    99675512.07345
  20629079.460   108406576.85109  20629075.340    84472657.56549
  21472952.240   112841180.67709  21472947.720    87928204.39048
  20526095.980   107865466.02009  20526096.120    84051033.19349
  21562142.700   113309908.50609  21562142.360    88293476.85048
 15 03 06 02 50 30.0000000  0 10G01G04G11G14G16G18G19G22G27G32
  23320575.960   122550511.21007  23320578.520    95493920.56146
  21205461.740   111435571.32309  21205460.660    86832959.59948
  22378009.440   117597264.19908  22378007.040    91634245.18746
  23719040.720   124644410.17507  23719039.700    97125518.76345
  22814757.560   119892353.94408  22814755.920    93422605.61947
  24358827.020   128006611.43807  24358824.300    99745453.74644
  20624278.800   108381348.96309  20624274.640    84452999.46849
  21483822.600   112898304.96509  21483818.100    87972716.81748
  20530240.360   107887244.88909  20530240.520    84068003.72849
  21545271.620   113221250.44009  21545271.280    88224392.68848
 15 03 06 02 51  0.0000000  0 10G01G04G11G14G16G18G19G22G27G32
  23307690.280   122482796.47307  23307692.660    95441155.87646
  21197090.640   111391580.89609  21197089.480    86798681.35848
  22364191.320   117524649.18908  22364189.020    91577662.08846
  23707676.060   124584688.83807  23707675.100    97078982.68745
  22833663.200   119991703.66408  22833661.620    93500020.90747
  24375930.100   128096488.70907  24375927.320    99815487.97544
  20619540.760   108356450.25009  20619536.600    84433597.86849
  21494765.700   112955811.47809  21494761.200    88017527.08548
  20534461.340   107909426.25209  20534461.460    84085287.89849
  21528476.800   113132993.20709  21528476.420    88155620.85348
 15 03 06 02 51 30.0000000  0 10G01G04G11G14G16G18G19G22G27G32
  23294831.480   122415223.33607  23294833.760    95388501.52646
  21188765.180   111347830.34509  21188763.960    86764590.03448
  22350399.040   117452170.02408  22350396.680    91521184.84146
  23696359.960   124525222.64207  23696358.880    97032645.42545
  22852607.980   120091258.72408  22852606.460    93577596.21547
  24393054.860   128186479.72506  24393052.340    99885610.87044
  20614865.140   108331879.50709  20614860.940    84414451.83449
  21505780.580   113013695.06309  21505776.040    88062631.17748
  20538758.520   107932007.89309  20538758.580    84102883.97649
  21511758.180   113045136.43909  21511757.780    88087161.08548
 15 03 06 02 52  0.0000000  0 10G01G04G11G14G16G18G19G22G27G32
  23282000.480   122347796.61407  23282002.640    95335961.26746
  21180486.280   111304324.44509  21180485.000    86730689.34348
  22336633.540   117379831.97508  22336631.120    91464817.55146
  23685094.080   124466019.48007  23685092.900    96986513.09845
  22871592.200   120191021.12608  22871590.680    93655333.07747
  24410201.840   128276587.48707  24410199.520    99955824.67944
  20610253.060   108307642.81609  20610248.860    84395566.09649
  21516867.880   113071958.94209  21516863.240    88108031.60248
  20543132.900   107954995.28909  20543132.920    84120796.21549
  21495117.140   112957687.28909  21495116.660    88019018.92548
 15 03 06 02 52 30.0000000  0 10G01G04G11G14G16G18G19G22G27G32
  23269196.260   122280510.80107  23269198.500    95283530.83147
  21172252.900   111261057.69909  21172251.560    86696975.01448
  22322894.060   117307630.44908  22322891.480    91408556.64046
  23673877.800   124407076.49607  23673876.440    96940583.51045
  22890614.460   120290983.47808  22890613.080    93733225.73647
  24427369.600   128366804.51506  24427367.200   100026123.65444
  20605703.840   108283736.47409  20605699.640    84376937.77949
  21528026.080   113130595.41009  21528021.400    88153722.35948
  20547583.540   107978383.56309  20547583.520    84139020.83349
  21478553.100   112870642.67109  21478552.580    87951191.99548
 15 03 06 02 53  0.0000000  0 10G01G04G11G14G16G18G19G22G27G32
  23256419.520   122213368.90007  23256421.840    95231212.52346
  21164065.660   111218033.41309  21164064.280    86663449.60448
  22309181.240   117235569.21508  22309178.440    91352405.04346
  23662712.180   124348399.90807  23662710.620    96894861.52845
  22909674.780   120391145.85408  22909673.380    93811274.27247
  24444558.460   128457132.19207  24444556.020   100096508.83444
  20601218.300   108260164.88609  20601214.120    84358570.30849
  21539255.380   113189605.77809  21539250.740    88199704.46348
  20552111.200   108002176.48509  20552111.140    84157560.76449
  21462067.060   112784008.04109  21462066.540    87883684.53648
 15 03 06 02 53 30.0000000  0 10G01G04G11G14G16G18G19G22G27G32
  23243670.380   122146371.27807  23243672.660    95179006.64847
  21155924.500   111175251.42009  21155923.120    86630113.00348
  22295495.240   117163649.10408  22295492.380    91296363.41746
  23651597.700   124289992.87607  23651596.100    96849349.57645
  22928772.660   120491505.40508  22928771.260    93889476.44547
  24461767.940   128547568.99606  24461765.460   100166979.07144
  20596796.780   108236929.78909  20596792.580    84340465.03949
  21550555.480   113248988.12009  21550550.840    88245976.42348
  20556716.000   108026374.97709  20556715.940    84176416.72849
  21445659.520   112697786.06509  21445659.000    87816498.62548
 15 03 06 02 54  0.0000000  0 10G01G04G11G14G16G18G19G22G27G32
  23230948.400   122079516.24107  23230950.600    95126911.85346
  21147829.140   111132710.08709  21147827.760    86596963.91048
  22281835.920   117091869.30608  22281833.260    91240431.13346
  23640534.640   124231856.55307  23640533.100    96804048.57645
  22947907.180   120592057.73408  22947905.760    93967828.82347
  24478997.500   128638111.52006  24478994.960   100237531.67344
  20592439.340   108214031.39309  20592435.160    84322622.12249
  21561925.660   113308738.78209  21561921.040    88292535.36848
  20561397.800   108050978.07109  20561397.780    84195587.95349
  21429330.680   112611977.44409  21429330.120    87749634.79848
 15 03 06 02 54 30.0000000  0 10G01G04G11G14G16G18G19G22G27G32
  23218253.220   122012802.24207  23218255.260    95074926.97346
  21139779.320   111090408.15209  21139777.960    86564001.37848
  22268203.240   117020229.13308  22268200.780    91184607.64747
  23629523.420   124173992.30407  23629521.880    96758959.57545
  22967077.700   120692799.09708  22967076.300    94046328.51747
  24496246.580   128728755.96306  24496243.960   100308163.71144
  20588145.940   108191469.40009  20588141.740    84305041.34949
  21573365.220   113368854.14409  21573360.660    88339378.50348
  20566156.400   108075984.86609  20566156.480    84215073.76249
  21413080.680   112526583.00509  21413080.060    87683093.71848
 15 03 06 02 55  0.0000000  0 10G01G04G11G14G16G18G19G22G27G32
  23205585.440   121946232.69507  23205587.340    95023054.64946
  21131775.740   111048348.97909  21131774.400    86531228.00748
  22254597.900   116948732.66308  22254595.540    91128896.14646
  23618565.060   124116406.39507  23618563.440    96714087.46545
  22986284.180   120793729.63908  22986282.860    94124975.62547
  24513515.500   128819504.17706  24513512.680   100378876.59545
  20583917.500   108169248.79209  20583913.300    84287726.59649
  21584874.560   113429336.28109  21584870.020    88386507.44348
  20570992.600   108101399.36309  20570992.760    84234877.26049
  21396910.580   112441608.45609  21396909.880    87616879.82248
 15 03 06 02 55 30.0000000  0 10G01G04G11G14G16G18G19G22G27G32
  23192944.780   121879805.98107  23192946.560    94971293.62646
  21123818.020   111006530.71809  21123816.720    86498642.35148
  22241019.700   116877379.01308  22241017.380    91073295.92447
  23607660.040   124059100.17307  23607658.340    96669433.28245
  23005525.740   120894844.74808  23005524.580    94203766.53147
  24530803.420   128910352.50306  24530800.620   100449667.46744
  20579754.000   108147369.38109  20579749.780    84270677.69449
  21596452.940   113490181.23609  21596448.420    88433919.08648
  20575906.200   108127220.54209  20575906.400    84254997.64949
  21380820.520   112357054.57609  21380819.760    87550993.71448
 15 03 06 02 56  0.0000000  0 10G01G04G11G14G16G18G19G22G27G32
  23180331.080   121813521.26807  23180332.840    94919643.24346
  21115905.980   110964952.54709  21115904.640    86466243.78248
  22227468.620   116806168.06708  22227466.340    91017806.91447
  23596808.560   124002075.67907  23596807.100    96624998.64445
  23024801.920   120996141.55308  23024800.780    94282699.02247
  24548109.920   129001298.55306  24548107.060   100520534.52344
  20575655.540   108125831.89109  20575651.340    84253895.24249
  21608099.820   113551386.23509  21608095.340    88481611.29348
  20580897.180   108153448.17509  20580897.420    84275434.76349
  21364810.760   112272922.79009  21364809.960    87485436.51648
 15 03 06 02 56 30.0000000  0 10G01G04G11G14G16G18G19G22G27G32
  23167744.520   121747378.95507  23167746.440    94868103.83646
  21108039.720   110923615.06909  21108038.400    86434032.76648
  22213944.960   116735101.05608  22213942.700    90962430.04746
  23586011.360   123945336.15907  23586009.900    96580786.05245
  23044112.220   121097617.28308  23044111.040    94361770.93447
  24565434.700   129092340.63706  24565431.880   100591476.39745
  20571622.520   108104638.28909  20571618.360    84237380.74549
  21619814.920   113612949.60609  21619810.420    88529582.74548
  20585965.700   108180083.32509  20585965.960    84296189.41549
  21348881.860   112189215.90309  21348881.040    87420210.40948
 15 03 06 02 57  0.0000000  0 10G01G04G11G14G16G18G19G22G27G32
  23155185.160   121681379.36207  23155187.180    94816675.63546
  21100219.260   110882518.38209  21100217.980    86402009.38448
  22200448.920   116664178.91908  22200446.580    90907166.06347
  23575268.920   123888884.64207  23575267.600    96536797.89845
  23063456.180   121199269.76508  23063454.860    94440980.59446
  24582777.460   129183477.26406  24582774.800   100662491.91944
  20567655.260   108083790.22609  20567651.100    84221135.50149
  21631597.900   113674869.66009  21631593.380    88577832.13648
  20591111.940   108207126.83009  20591112.200    84317262.26949
  21333034.280   112105936.47109  21333033.460    87355317.38448
 15 03 06 02 57 30.0000000  0 10G01G04G11G14G16G18G19G22G27G32
  23142652.900   121615521.95408  23142655.060    94765358.22346
  21092444.520   110841661.89509  21092443.280    86370173.16048
  22186980.520   116593401.89208  22186978.100    90852015.15746
  23564581.800   123832723.61107  23564580.280    96493036.05745
  23082833.060   121301095.66708  23082831.920    94520325.35946
  24600137.720   129274706.31706  24600134.960   100733579.49544
  20563753.980   108063288.77209  20563749.800    84205160.33849
  21643448.280   113737143.69109  21643443.720    88626357.35248
  20596335.900   108234578.69909  20596336.120    84338653.33149
  21317268.380   112023086.27209  21317267.500    87290758.82848
 15 03 06 02 58  0.0000000  0 10G01G04G11G14G16G18G19G22G27G32
  23130147.760   121549807.11107  23130150.100    94714151.91947
  21084715.600   110801046.21409  21084714.340    86338524.57848
  22173539.880   116522770.88308  22173537.440    90796978.02847
  23553950.460   123776856.30107  23553948.760    96449503.11145
  23102242.520   121403092.72408  23102241.440    94599803.49347
  24617515.260   129366026.27706  24617512.440   100804737.88745
  20559919.000   108043135.64709  20559914.800    84189456.60349
  21655365.780   113799770.41609  21655361.200    88675157.39148
  20601637.720   108262439.91209  20601637.900    84360363.35749
  21301584.660   111940667.89409  21301583.760    87226536.75848
 15 03 06 02 58 30.0000000  0 10G01G04G11G14G16G18G19G22G27G32
  23117669.320   121484232.65207  23117671.540    94663054.99446
  21077032.060   110760668.92109  21077030.740    86307061.75648
  22160126.820   116452284.76708  22160124.440    90742053.81047
  23543375.340   123721283.41607  23543373.620    96406199.56644
  23121683.560   121505255.61608  23121682.400    94679410.87246
  24634909.460   129457433.12806  24634906.600   100875964.01944
  20556150.220   108023330.35909  20556145.960    84174023.91149
  21667349.560   113862745.52809  21667344.980    88724228.90648
  20607017.140   108290708.82609  20607017.260    84382391.07849
  21285983.080   111858681.44709  21285982.200    87162651.25648
 15 03 06 02 59  0.0000000  0 10G01G04G11G14G16G18G19G22G27G32
  23105217.780   121418799.74907  23105219.840    94612068.36146
  21069394.140   110720531.39109  21069392.780    86275785.76748
  22146741.740   116381945.77308  22146739.340    90687244.23747
  23532857.000   123666008.85307  23532855.400    96363128.50345
  23141155.980   121607583.30608  23141154.680    94759146.65746
  24652320.020   129548926.42006  24652317.520   100947257.42344
  20552448.180   108003875.93209  20552443.880    84158864.61849
  21679399.500   113926068.21709  21679394.940    88773571.26148
  20612474.440   108319387.18109  20612474.520    84404737.84449
  21270464.340   111777130.30209  21270463.500    87099104.95248
 15 03 06 02 59 30.0000000  0 10G01G04G11G14G16G18G19G22G27G32
  23092793.780   121353511.99507  23092795.860    94561194.85646
  21061802.460   110680637.08209  21061801.140    86244699.31148
  22133385.540   116311758.35508  22133383.080    90632552.76546
  23522396.560   123611039.30607  23522395.200    96320295.11646
  23160659.860   121710076.55408  23160658.560    94839011.43746
  24669747.280   129640507.75906  24669744.900   101018619.56444
  20548813.800   107984777.13909  20548809.500    84143982.44249
  21691515.840   113989740.02709  21691511.300    88823185.65648
  20618010.420   108348479.03109  20618010.500    84427406.81449
  21255029.540   111696020.33009  21255028.760    87035902.41148
 15 03 06 03 00  0.0000000  0 10G01G04G11G14G16G18G19G22G27G32
  23080396.140   121288362.47507  23080398.240    94510429.03746
  21054255.720   110640979.00309  21054254.480    86213796.92848
  22120056.940   116241716.05008  22120054.400    90577974.36847
  23511993.440   123556370.32907  23511992.240    96277695.94445
  23180193.380   121812725.41908  23180192.140    94918997.49047
  24687189.760   129732168.73106  24687187.800   101090043.64445
  20545246.060   107966028.60409  20545241.800    84129373.19049
  21703696.940   114053752.08909  21703692.440    88873065.17948
  20623623.880   108377978.06509  20623623.960    84450393.06449
  21239677.840   111615346.90909  21239677.120    86973040.04348
 15 03 06 03 00 30.0000000  0 10G01G04G11G14G16G18G19G22G27G32
  23068025.280   121223353.06907  23068027.260    94459772.39946
  21046754.400   110601559.27709  21046753.200    86183080.27348
  22106756.440   116171821.38008  22106753.860    90523511.00747
  23501648.480   123502006.75307  23501647.380    96235334.73946
  23199756.280   121915528.95208  23199755.040    94999104.03946
  24704647.480   129823909.13805  24704645.220   101161529.70045
  20541745.540   107947633.43409  20541741.340    84115039.29149
  21715942.700   114118104.07409  21715938.260    88923209.57048
  20629315.300   108407886.58709  20629315.380    84473698.39449
  21224409.980   111535114.01009  21224409.300    86910520.93148
 15 03 06 03 01  0.0000000  0 10G01G04G11G14G16G18G19G22G27G32
  23055681.900   121158487.88307  23055683.840    94409228.13747
  21039299.200   110562381.81809  21039298.020    86152552.39748
  22093484.920   116102079.21608  22093482.380    90469166.50347
  23491362.860   123447955.62107  23491361.700    96193217.01246
  23219348.920   122018488.70008  23219347.600    95079332.35046
  24722120.660   129915731.34006  24722118.440   101233079.41144
  20538313.320   107929597.41109  20538309.200    84100985.25249
  21728253.660   114182798.64209  21728249.240    88973620.92448
  20635085.520   108438209.23209  20635085.620    84497326.43149
  21209227.240   111455328.03909  21209226.540    86848350.08648
 15 03 06 03 01 30.0000000  0 10G01G04G11G14G16G18G19G22G27G32
  23043365.220   121093763.38807  23043367.360    94358793.51047
  21031889.420   110523443.14009  21031888.220    86122210.57748
  22080241.960   116032487.24408  22080239.520    90414939.01447
  23481136.560   123394215.76007  23481135.000    96151341.80045
  23238970.140   122121598.71808  23238969.000    95159677.72446
  24739608.300   130007630.06606  24739605.880   101304688.79744
  20534949.060   107911918.42109  20534945.000    84087209.41149
  21740628.700   114247829.80109  21740624.200    89024294.54648
  20640933.980   108468942.91809  20640934.080    84521274.74349
  21194129.260   111375987.58209  21194128.480    86786526.36948
 15 03 06 03 02  0.0000000  0 10G01G04G11G14G16G18G19G22G27G32
  23031075.620   121029181.76807  23031077.960    94308470.22347
  21024525.480   110484745.40109  21024524.240    86092056.49848
  22067028.160   115963048.36608  22067025.620    90360830.80747
  23470970.480   123340792.60407  23470968.700    96109713.39345
  23258619.760   122224858.24408  23258618.720    95240139.59546
  24757110.740   130099605.77506  24757108.480   101376358.18545
  20531653.420   107894599.84409  20531649.400    84073714.41849
  21753067.760   114313197.63609  21753063.240    89075230.51148
  20646861.160   108500090.33109  20646861.260    84545545.44449
  21179116.860   111297097.05809  21179116.060    86725053.25848
 15 03 06 03 02 30.0000000  0 10G01G04G11G14G16G18G19G22G27G32
  23018812.260   120964738.39607  23018814.840    94258254.67847
  21017206.500   110446284.06709  21017205.260    86062086.62948
  22053842.780   115893758.72708  22053840.200    90306838.88647
  23460864.220   123287684.14107  23460862.260    96068330.20845
  23278296.540   122328260.20808  23278295.560    95320712.47446
  24774626.580   130191652.21905  24774624.620   101448082.67744
  20528425.860   107877638.78909  20528421.820    84060498.01449
  21765569.600   114378895.22809  21765565.040    89126423.44048
  20652866.280   108531647.29709  20652866.380    84570135.28049
  21164189.600   111218653.82509  21164188.760    86663928.68848
 15 03 06 03 03  0.0000000  0 10G01G04G11G14G16G18G19G22G27G32
  23006575.840   120900436.47107  23006578.580    94208149.34647
  21009933.080   110408062.05509  21009931.800    86032303.25048
  22040686.540   115824622.21908  22040683.940    90252966.29547
  23450819.000   123234896.40607  23450817.080    96027196.92245
  23298000.440   122431804.28108  23297999.400    95401396.07746
  24792156.220   130283770.91506  24792154.000   101519863.44444
  20525267.260   107861039.92909  20525263.160    84047563.82749
  21778134.560   114444924.62209  21778129.980    89177874.90848
  20658950.020   108563617.39609  20658950.100    84595047.03349
  21149348.480   111140663.26509  21149347.580    86603156.85048
 15 03 06 03 03 30.0000000  0 10G01G04G11G14G16G18G19G22G27G32
  22994366.480   120836275.94808  22994369.180    94158154.20147
  21002705.280   110370079.69109  21002703.960    86002706.61348
  22027559.500   115755639.22608  22027556.880    90199213.33647
  23440835.320   123182432.22607  23440833.680    95986315.76646
  23317730.880   122535488.10708  23317729.840    95482188.57646
  24809699.360   130375960.23405  24809696.900   101591699.32644
  20522177.860   107844804.80209  20522173.700    84034913.08349
  21790762.200   114511283.05009  21790757.600    89229582.77248
  20665112.440   108596001.11609  20665112.500    84620281.09649
  21134593.940   111063127.57409  21134593.000    86542739.46148
 15 03 06 03 04  0.0000000  0 10G01G04G11G14G16G18G19G22G27G32
  22982183.380   120772252.73508  22982185.740    94108266.01146
  20995522.300   110332332.80309  20995521.020    85973293.45748
  22014461.220   115686807.48708  22014458.620    90145578.22747
  23430913.000   123130290.03007  23430911.680    95945685.51445
  23337486.760   122639305.45008  23337485.720    95563085.10946
  24827254.740   130468213.87406  24827252.260   101663585.25444
  20519157.120   107828930.45109  20519152.920    84022543.45049
  21803451.280   114577964.47109  21803446.660    89281542.31048
  20671352.860   108628794.68909  20671352.900    84645834.51949
  21119925.560   110986044.71409  21119924.620    86482674.91948
 15 03 06 03 04 30.0000000  0 10G01G04G11G14G16G18G19G22G27G32
  22970027.660   120708373.14908  22970029.720    94058489.74947
  20988385.280   110294827.55209  20988384.040    85944068.59848
  22001393.020   115618133.91408  22001390.480    90092066.37047
  23421053.680   123078478.85907  23421052.440    95905313.19145
  23357268.700   122743259.46308  23357267.580    95644088.15046
  24844823.140   130560536.52306  24844820.400   101735524.97544
  20516206.540   107813424.89909  20516202.300    84010461.20249
  21816202.680   114644973.57009  21816198.100    89333757.18848
  20677672.540   108662004.86809  20677672.560    84671712.57149
  21105344.940   110909423.06209  21105343.960    86422969.76748
 15 03 06 03 05  0.0000000  0 10G01G04G11G14G16G18G19G22G27G32
  22957898.180   120644631.86208  22957899.980    94008821.24146
  20981293.260   110257558.77709  20981292.000    85915028.01348
  21988354.060   115549613.69308  21988351.520    90038674.00847
  23411256.920   123026996.41707  23411255.520    95865197.02546
  23377075.000   122847342.00708  23377073.940    95725191.32546
  24862403.360   130652921.42306  24862400.300   101807513.17644
  20513325.400   107798284.31709  20513321.140    83998663.35049
  21829014.940   114712302.62409  21829010.400    89386221.38648
  20684070.520   108695626.72409  20684070.560    84697911.41249
  21090851.400   110833259.30009  21090850.440    86363621.41148
 15 03 06 03 05 30.0000000  0 10G01G04G11G14G16G18G19G22G27G32
  22945795.480   120581031.57407  22945797.200    93959262.61747
  20974246.720   110220529.07509  20974245.480    85886173.71048
  21975345.000   115481250.52908  21975342.420    89985404.02547
  23401523.620   122975847.99007  23401522.300    95825341.14746
  23396905.720   122951553.03608  23396904.720    95806394.62446
  24879995.660   130745369.50506  24879992.740   101879550.64044
  20510514.440   107783512.60409  20510510.180    83987152.92049
  21841888.240   114779952.41409  21841883.740    89438935.49648
  20690547.440   108729663.35809  20690547.520    84724433.45649
  21076445.940   110757558.37009  21076445.040    86304633.70448
 15 03 06 03 06  0.0000000  0 10G01G04G11G14G16G18G19G22G27G32
  22933718.940   120517569.45608  22933720.800    93909811.66147
  20967245.200   110183735.74509  20967243.880    85857503.58348
  21962365.440   115413042.42808  21962362.740    89932254.87247
  23391853.820   122925033.33907  23391852.480    95785745.31945
  23416759.880   123055887.23308  23416758.940    95887693.89346
  24897599.200   130837876.15106  24897596.260   101951633.74443
  20507773.420   107769108.47009  20507769.180    83975928.91449
  21854821.620   114847917.86909  21854817.160    89491895.57948
  20697102.820   108764112.26509  20697102.940    84751276.74549
  21062128.380   110682319.31109  21062127.520    86246005.89648
 15 03 06 03 06 30.0000000  0 10G01G04G11G14G16G18G19G22G27G32
  22921669.320   120454248.81108  22921671.220    93860470.93847
  20960289.280   110147181.89109  20960287.900    85829020.06948
  21949416.120   115344993.54708  21949413.440    89879229.79847
  23382248.720   122874558.72607  23382247.280    95746414.47545
  23436637.580   123160344.70208  23436636.620    95969089.23046
  24915214.060   130930442.89706  24915211.280   102023763.67544
  20505103.240   107755076.51709  20505099.000    83964994.92849
  21867815.380   114916200.52509  21867810.920    89545102.84148
  20703737.340   108798977.07909  20703737.500    84778444.12549
  21047899.780   110607547.54709  21047898.900    86187742.21548
 15 03 06 03 07  0.0000000  0 10G01G03G04G11G14G16G19G22G27G32
  22909646.700   120391069.89308  22909648.660    93811240.65947
  24617302.800   129364798.22706  24617309.080   100803751.87145
  20953378.980   110110867.82309  20953377.540    85800723.39848
  21936497.300   115277104.94008  21936494.720    89826329.60347
  23372708.900   122824427.14907  23372707.580    95707350.92645
  23456538.300   123264923.46608  23456537.520    96050579.06546
  20502504.260   107741418.76609  20502500.000    83954352.52349
  21880869.160   114984798.43109  21880864.740    89598555.74348
  20710451.180   108834258.46509  20710451.380    84805936.10349
  21033760.500   110533245.22409  21033759.640    86129844.32248
 15 03 06 03 07 30.0000000  0 10G01G03G04G11G14G16G19G22G27G32
  22897650.800   120328031.39908  22897652.800    93762119.79647
  24596948.000   129257832.65306  24596954.320   100720402.22346
  20946514.020   110074792.28309  20946512.580    85772612.59448
  21923608.920   115209376.20008  21923606.460    89773553.97947
  23363234.720   122774639.80007  23363233.580    95668555.61246
  23476461.400   123369619.51908  23476460.620    96132160.29346
  20499976.460   107728134.99309  20499972.180    83944001.52949
  21893982.320   115053708.39509  21893977.860    89652251.81248
  20717244.100   108869955.34009  20717244.320    84833751.84249
  21019710.660   110459413.18209  21019709.880    86072312.89548
 15 03 06 03 08  0.0000000  0 10G01G03G04G11G14G16G19G22G27G32
  22885680.320   120265126.23108  22885682.320    93713102.83547
  24576614.000   129150974.47307  24576619.760   100637136.26646
  20939693.100   110038948.18509  20939691.700    85744682.15148
  21910749.860   115141801.35308  21910747.380    89720898.27847
  23353825.340   122725192.41507  23353824.120    95630025.20745
  23496404.900   123474422.65908  23496404.040    96213824.97546
  20497518.700   107715219.47909  20497514.440    83933937.49449
  21907153.120   115122921.05109  21907148.600    89706183.75448
  20724114.800   108906061.03109  20724115.080    84861886.14149
  21005749.300   110386046.15209  21005748.540    86015143.81448
 15 03 06 03 08 30.0000000  0 10G01G03G04G11G14G16G19G22G27G32
  22873736.720   120202362.57808  22873738.760    93664196.13346
  24556301.940   129044233.61706  24556307.480   100553961.76846
  20932917.780   110003343.89309  20932916.400    85716938.55548
  21897921.720   115074388.95408  21897919.120    89668369.15847
  23344482.680   122676095.53507  23344481.340    95591767.91446
  23516369.800   123579338.72808  23516369.040    96295577.63746
  20495132.880   107702682.02109  20495128.640    83924168.04049
  21920382.680   115192442.63209  21920378.120    89760356.40448
  20731064.900   108942583.95809  20731065.240    84890345.55249
  20991878.400   110313154.35409  20991877.660    85958345.04148
 15 03 06 03 09  0.0000000  0 10G01G03G04G11G14G16G19G22G27G32
  22861819.500   120139737.53208  22861821.540    93615397.44647
  24536011.960   128937609.34706  24536017.420   100470878.05445
  20926187.520   109967976.43809  20926186.180    85689379.51348
  21885124.220   115007137.66308  21885121.460    89615965.58047
  23335206.500   122627348.94907  23335205.100    95553783.60645
  23536355.120   123684362.21708  23536354.440    96377414.01746
  20492818.660   107690520.94409  20492814.440    83914691.88049
  21933670.020   115262268.09309  21933665.440    89814765.85748
  20738093.920   108979521.52309  20738094.240    84919128.07149
  20978097.760   110240736.80409  20978097.040    85901915.81648
 15 03 06 03 09 30.0000000  0 10G01G03G04G11G14G16G19G22G27G32
  22849929.340   120077254.42708  22849931.240    93566709.34347
  24515745.000   128831107.02806  24515750.560   100387889.39746
  20919503.000   109932849.19209  20919501.640    85662007.63148
  21872358.060   114940051.31008  21872355.240    89563690.50847
  23325998.060   122578959.00007  23325996.620    95516077.17545
  23556361.040   123789493.67408  23556360.640    96459334.49846
  20490577.040   107678741.25909  20490572.800    83905512.89749
  21947015.480   115332398.80109  21947010.840    89869413.15548
  20745202.500   109016877.32109  20745202.800    84948236.47049
  20964408.440   110168798.85809  20964407.660    85845860.29648
 15 03 06 03 10  0.0000000  0 10G01G03G04G11G14G16G19G22G27G32
  22838065.340   120014908.47608  22838067.160    93518128.12147
  24495500.820   128724724.14007  24495506.060   100304993.78245
  20912863.220   109897957.01509  20912861.900    85634818.92448
  21859622.560   114873125.95308  21859619.840    89511540.90647
  23316856.960   122530923.15207  23316855.520    95478646.68945
  23576386.060   123894725.45108  23576385.780    96541333.16946
  20488407.300   107667339.30409  20488403.100    83896628.25449
  21960417.700   115402827.98209  21960413.080    89924293.03448
  20752389.780   109054646.83009  20752390.080    84977667.24849
  20950809.780   110097337.50209  20950808.940    85790176.14748
 15 03 06 03 10 30.0000000  0 10G01G03G04G11G14G16G19G22G27G32
  22826227.720   119952700.81108  22826229.340    93469654.64547
  24475279.840   128618463.51307  24475285.160   100222193.44146
  20906268.520   109863301.43109  20906267.160    85607814.57848
  21846918.120   114806363.51309  21846915.480    89459518.24747
  23307784.120   122483245.39207  23307782.400    95441495.19945
  23596429.820   124000055.56708  23596429.380    96623408.46146
  20486309.880   107656317.46809  20486305.740    83888039.80549
  21973876.500   115473554.65009  21973871.900    89979404.72248
  20759656.080   109092831.40009  20759656.340    85007421.45049
  20937302.420   110026355.91909  20937301.540    85734865.84548
 15 03 06 03 11  0.0000000  0 10G01G03G04G11G14G16G19G22G27G32
  22814415.900   119890628.82108  22814417.400    93421286.88547
  24455082.200   128512324.76307  24455087.760   100139488.11846
  20899718.320   109828879.74009  20899716.940    85580992.49048
  21834244.400   114739762.74608  21834241.820    89407621.57947
  23298779.500   122435925.67207  23298777.520    95404622.69945
  23616491.500   124105479.71008  23616490.940    96705557.04046
  20484284.620   107645674.81009  20484280.520    83879746.82449
  21987391.040   115544574.16109  21987386.480    90034744.59648
  20767000.920   109131428.68709  20767001.140    85037497.25049
  20923886.160   109955853.20209  20923885.280    85679928.68848
 15 03 06 03 11 30.0000000  0 10G01G03G04G11G14G16G19G22G27G32
  22802630.940   119828698.61208  22802632.500    93373029.62647
  24434909.240   128406315.90706  24434914.900   100056883.97245
  20893213.760   109794698.05409  20893212.420    85554357.41848
  21821602.660   114673330.11408  21821600.140    89355855.91847
  23289844.680   122388972.78907  23289842.640    95368036.05645
  23636571.520   124211000.38608  23636571.060    96787780.79846
  20482332.960   107635418.62609  20482328.840    83871754.98849
  22000962.080   115615890.68909  22000957.620    90090315.90248
  20774425.520   109170444.99709  20774425.640    85067899.55549
  20910562.560   109885837.36409  20910561.720    85625370.91248
 15 03 06 03 12  0.0000000  0 10G01G03G04G11G14G16G19G22G27G32
  22790872.320   119766907.26408  22790873.920    93324880.57947
  24414760.500   128300436.17006  24414766.760    99974380.58446
  20886754.300   109760753.44409  20886752.960    85527907.08948
  21808992.640   114607064.15408  21808989.960    89304220.12747
  23280979.620   122342386.31107  23280977.720    95331734.92646
  23656668.920   124316612.04308  23656668.580    96870075.47446
  20480454.540   107625547.31209  20480450.400    83864063.05249
  22014588.680   115687498.92309  22014584.240    90146114.52548
  20781929.320   109209877.59809  20781929.380    85098626.25149
  20897331.440   109816307.32509  20897330.600    85571191.68548
 15 03 06 03 12 30.0000000  0 10G01G03G04G11G14G16G19G22G27G32
  22779139.760   119705252.59208  22779141.260    93276838.00647
  24394636.720   128194685.50207  24394642.560    99891977.66745
  20880339.500   109727043.73709  20880338.220    85501639.79348
  21796414.080   114540963.39109  21796411.200    89252713.05147
  23272184.240   122296166.82307  23272182.700    95295719.76646
  23676782.720   124422310.31307  23676782.340    96952437.61946
  20478649.200   107616059.96909  20478645.020    83856670.31449
  22028269.980   115759394.75609  22028265.500    90202137.25148
  20789511.960   109249724.49009  20789511.980    85129675.77049
  20884192.720   109747262.72209  20884191.880    85517390.72548
 15 03 06 03 13  0.0000000  0 10G01G03G04G11G14G16G19G22G27G32
  22767433.960   119643738.32708  22767435.380    93228904.83747
  24374538.540   128089069.52406  24374544.400    99809679.84646
  20873970.180   109693572.81609  20873968.880    85475558.57448
  21783867.800   114475032.37108  21783864.940    89201338.25347
  23263459.700   122250320.33607  23263458.640    95259995.26346
  23696913.200   124528096.40008  23696912.680    97034868.21346
  20476917.880   107606961.68109  20476913.660    83849580.74249
  22042006.360   115831579.82009  22042001.880    90258385.35148
  20797174.180   109289989.61009  20797174.180    85161051.17949
  20871147.420   109678709.06409  20871146.520    85463972.32348
 15 03 06 03 13 30.0000000  0 10G01G03G04G11G14G16G19G22G27G32
  22755753.960   119582359.78008  22755755.340    93181077.43547
  24354465.400   127983585.48106  24354471.260    99727484.78446
  20867645.380   109660335.91509  20867644.080    85449659.70248
  21771353.080   114409267.15208  21771350.360    89150092.64447
  23254805.920   122204844.87507  23254805.200    95224559.87246
  23717058.900   124633962.37907  23717058.380    97117361.06546
  20475260.020   107598249.33709  20475255.760    83842791.90049
  22055796.500   115904047.33509  22055792.000    90314853.54948
  20804915.080   109330668.40309  20804915.120    85192748.93449
  20858194.960   109610643.48709  20858194.000    85410934.24248
 15 03 06 03 14  0.0000000  0 10G01G03G04G11G14G16G19G22G27G32
  22744100.020   119521118.47508  22744101.360    93133356.96847
  24334417.940   127878236.78606  24334423.860    99645395.17146
  20861365.440   109627334.51309  20861364.100    85423944.32648
  21758870.480   114343670.71408  21758867.940    89098978.55047
  23246223.600   122159744.32907  23246223.000    95189416.59946
  23737219.720   124739907.37308  23737219.300    97199915.44246
  20473676.060   107589925.42109  20473671.780    83836305.72049
  22069640.340   115976796.93709  22069635.760    90371541.53648
  20812735.040   109371762.55509  20812735.100    85224770.33549
  20845335.980   109543069.24609  20845334.980    85358279.02048
 15 03 06 03 14 30.0000000  0 10G01G03G04G11G14G16G19G22G27G32
  22732472.680   119460017.00008  22732474.100    93085745.44747
  24314397.240   127773028.23307  24314403.040    99563414.68346
  20855130.840   109594571.40809  20855129.500    85398414.65148
  21746420.620   114278246.34509  21746418.140    89047998.54247
  23237713.640   122115023.95407  23237712.780    95154569.56645
  23757395.400   124845930.69007  23757394.980    97282530.86746
  20472166.800   107581994.15609  20472162.520    83830125.51349
  22083537.940   116049829.12909  22083533.340    90428449.73948
  20820634.560   109413274.76309  20820634.640    85257117.49749
  20832571.340   109475990.68109  20832570.300    85306010.03748
 15 03 06 03 15  0.0000000  0 10G01G03G04G11G14G16G19G22G27G32
  22720871.020   119399049.94908  22720872.640    93038238.66747
  24294402.600   127667956.36806  24294408.380    99481540.77546
  20848940.560   109562041.14909  20848939.220    85373066.40748
  21734002.660   114212989.64109  21734000.020    88997149.16847
  23229275.440   122070680.97607  23229274.440    95120016.61945
  23777584.540   124952025.10307  23777584.280    97365201.70346
  20470731.480   107574451.44909  20470727.180    83824248.07549
  22097487.860   116123136.42709  22097483.280    90485572.30348
  20828612.620   109455199.78309  20828612.740    85289786.33849
  20819900.320   109409404.06409  20819899.240    85254124.38848
 15 03 06 03 15 30.0000000  0 10G01G03G04G11G14G16G19G22G27G32
  22709296.100   119338223.10808  22709297.820    92990841.14147
  24274435.120   127563028.92507  24274440.900    99399779.42045
  20842795.680   109529749.46809  20842794.340    85347904.07148
  21721617.880   114147907.28009  21721615.120    88946435.65647
  23220910.640   122026723.57407  23220909.540    95085764.11646
  23797787.720   125058193.51207  23797787.360    97447930.17845
  20469371.400   107567304.15909  20469367.120    83818678.75649
  22111490.820   116196722.52009  22111486.240    90542912.11848
  20836670.340   109497543.46809  20836670.540    85322781.41249
  20807324.360   109343317.07209  20807323.280    85202628.06348
 15 03 06 03 16  0.0000000  0 10G01G03G04G11G14G16G19G22G27G32
  22697746.480   119277529.54808  22697748.280    92943547.48847
  24254494.500   127458241.05906  24254500.060    99318126.72746
  20836694.900   109497689.51609  20836693.480    85322922.30548
  21709265.100   114082993.10908  21709262.260    88895853.19647
  23212618.300   121983147.24607  23212617.060    95051808.55946
  23818003.280   125164426.13508  23818002.940    97530708.71045
  20468085.520   107560546.84609  20468081.280    83813413.32349
  22125545.100   116270578.28609  22125540.520    90600462.07048
  20844806.420   109540298.94109  20844806.660    85356097.35849
  20794842.400   109277724.20509  20794841.380    85151516.77148
 15 03 06 03 16 30.0000000  0 10G01G03G04G11G14G16G19G22G27G32
  22686223.240   119216974.37908  22686224.880    92896361.65047
  24234581.780   127353599.70807  24234587.480    99236588.31946
  20830639.160   109465866.37209  20830637.680    85298125.05748
  21696945.480   114018253.43109  21696942.740    88845406.71047
  23204400.000   121939959.46507  23204398.720    95018155.76546
  23838231.420   125270725.46307  23838231.220    97613539.19746
  20466875.040   107554185.67309  20466870.800    83808456.56149
  22139651.260   116344706.88908  22139646.720    90658224.61148
  20853021.840   109583471.39109  20853022.140    85389738.21849
  20782455.780   109212632.31909  20782454.800    85100795.84748
 15 03 06 03 17  0.0000000  0 10G01G03G04G11G14G16G19G22G27G32
  22674726.320   119156557.50708  22674727.880    92849283.57047
  24214697.340   127249106.86707  24214702.880    99155165.56846
  20824628.440   109434279.89409  20824626.920    85273512.22348
  21684659.240   113953688.84409  21684656.600    88795096.64847
  23196256.140   121897162.71908  23196254.860    94984807.67346
  23858471.580   125377088.41407  23858471.620    97696419.24646
  20465740.140   107548221.82009  20465735.900    83803809.39649
  22153808.920   116419106.03109  22153804.380    90716197.96148
  20861316.600   109627060.79409  20861316.940    85423703.97449
  20770164.820   109148043.03609  20770163.860    85050466.56248
 15 03 06 03 17 30.0000000  0 10G01G03G04G11G14G16G19G22G27G32
  22663255.120   119096275.70208  22663256.600    92802310.75647
  24194840.740   127144761.25406  24194846.260    99073857.57246
  20818662.160   109402926.89109  20818660.620    85249081.32248
  21672406.000   113889297.62209  21672403.420    88744921.68147
  23188186.520   121854756.49007  23188185.160    94951763.87946
  23878723.020   125483509.28308  23878722.760    97779344.46645
  20464680.480   107542653.34509  20464676.240    83799470.32549
  22168017.060   116493770.41608  22168012.580    90774378.00148
  20869690.120   109671063.96709  20869690.460    85457992.15149
  20757969.180   109083954.63609  20757968.240    85000527.57848
 15 03 06 03 18  0.0000000  0 10G01G03G04G11G14G16G19G22G27G32
  22651810.000   119036131.13308  22651811.440    92755444.87047
  24175012.980   127040566.93307  24175018.220    98992667.39145
  20812740.720   109371809.66609  20812739.240    85224834.13648
  21660186.280   113825082.44009  21660183.660    88694883.87847
  23180191.980   121812744.92008  23180190.540    94919027.60945
  23898985.400   125589987.89407  23898985.000    97862314.67745
  20463696.700   107537483.65409  20463692.460    83795441.98449
  22182275.780   116568700.39509  22182271.300    90832764.98148
  20878142.820   109715483.06609  20878143.120    85492604.42249
  20745869.580   109020370.89009  20745868.620    84950981.82748
 15 03 06 03 18 30.0000000  0 10G01G03G04G11G14G16G19G22G27G32
  22640390.780   118976122.87408  22640392.320    92708685.21647
  24155214.300   126936525.12107  24155219.380    98911596.08546
  20806863.960   109340927.43909  20806862.580    85200770.07748
  21648000.000   113761043.22709  21647997.360    88644983.19947
  23172272.800   121771129.63207  23172271.240    94886600.13546
  23919257.920   125696520.54507  23919257.800    97945326.94245
  20462788.920   107532713.13009  20462784.660    83791724.69149
  22196584.460   116643892.82908  22196579.940    90891356.49148
  20886674.520   109760317.20509  20886674.780    85527540.10449
  20733866.180   108957292.55309  20733865.140    84901829.90648
 15 03 06 03 19  0.0000000  0 10G01G03G04G11G14G16G19G22G27G32
  22628997.460   118916251.25108  22628999.180    92662032.04147
  24135445.180   126832638.04107  24135450.240    98830645.40246
  20801032.000   109310280.32909  20801030.620    85176889.22948
  21635847.520   113697181.58709  21635844.860    88595220.89847
  23164429.520   121729913.33007  23164427.780    94854483.54646
  23939540.420   125803104.72507  23939540.340    98028379.40645
  20461957.380   107528343.38209  20461953.140    83788319.69849
  22210942.720   116719345.94808  22210938.160    90950151.13048
  20895285.260   109805566.70509  20895285.480    85562799.45349
  20721959.300   108894721.51009  20721958.220    84853073.28049
 15 03 06 03 19 30.0000000  0 10G01G03G04G11G14G16G19G22G27G32
  22617630.340   118856517.10008  22617632.220    92615485.97347
  24115705.780   126728908.42006  24115711.080    98749817.43346
  20795245.000   109279869.44409  20795243.600    85153192.43848
  21623729.200   113633499.44309  21623726.560    88545598.44947
  23156662.840   121689099.39807  23156661.060    94822680.49046
  23959832.320   125909738.76107  23959832.280    98111470.69245
  20461202.520   107524376.47909  20461198.260    83785228.59749
  22225350.320   116795058.34708  22225345.760    91009147.79348
  20903975.220   109851232.43509  20903975.360    85598383.12249
  20710149.400   108832660.16109  20710148.280    84804713.80849
 15 03 06 03 20  0.0000000  0 10G01G03G04G11G14G16G19G22G27G32
  22606288.920   118796917.28308  22606290.680    92569044.56047
  24095996.220   126625335.00807  24096001.260    98669111.09546
  20789502.280   109249691.46509  20789500.900    85129677.14448
  21611644.580   113569994.35509  21611642.000    88496113.98147
  23148972.640   121648687.00908  23148971.040    94791190.35146
  23980132.560   126016416.51207  23980132.180    98194596.08545
  20460523.920   107520810.42509  20460519.660    83782449.85849
  22239806.300   116871024.98408  22239801.760    91068342.57547
  20912743.720   109897311.15309  20912743.860    85634288.61049
  20698436.160   108771106.80609  20698435.080    84756750.17949
 15 03 06 03 20 30.0000000  0 10G01G03G04G11G14G16G19G22G27G32
  22594973.460   118737453.82508  22594975.060    92522709.41447
  24076317.240   126521921.84307  24076321.980    98588529.64646
  20783804.260   109219748.31509  20783802.900    85106344.83348
  21599594.240   113506669.28109  21599591.660    88446769.76947
  23141359.620   121608680.36908  23141358.200    94760016.35846
  24000440.920   126123137.39607  24000440.500    98277755.05346
  20459922.140   107517647.98909  20459917.880    83779985.61849
  22254310.740   116947246.03908  22254306.160    91127735.59948
  20921591.160   109943804.80609  20921591.300    85670517.41549
  20686820.220   108710064.94009  20686819.180    84709185.11548
 15 03 06 03 21  0.0000000  0 10G01G03G04G11G14G16G19G22G27G32
  22583683.680   118678125.63808  22583685.160    92476479.66447
  24056668.900   126418669.78906  24056673.540    98508073.70346
  20778150.800   109190039.13209  20778149.440    85083194.83348
  21587578.160   113443524.23809  21587575.540    88397565.84047
  23133824.140   121569080.88308  23133822.740    94729159.63746
  24020756.860   126229898.24207  24020756.880    98360945.16546
  20459397.340   107514890.05709  20459393.060    83777836.57649
  22268862.940   117023718.16408  22268858.360    91187324.25948
  20930517.380   109990712.32009  20930517.500    85707068.71149
  20675301.780   108649535.12109  20675300.740    84662019.04949
 15 03 06 03 21 30.0000000  0 10G01G03G04G11G14G16G19G22G27G32
  22572420.060   118618934.51108  22572421.420    92430356.72847
  24037051.700   126315582.46507  24037056.560    98427746.19446
  20772542.180   109160565.74809  20772540.820    85060228.57248
  21575596.900   113380562.23209  21575594.260    88348504.54447
  23126366.940   121529892.74608  23126365.780    94698623.45546
  24041080.320   126336697.95207  24041080.520    98444165.55745
  20458949.980   107512539.16209  20458945.680    83776004.70649
  22283462.820   117100441.04608  22283458.320    91247108.31348
  20939522.640   110038035.29609  20939522.800    85743943.74449
  20663881.380   108589520.38009  20663880.320    84615254.33248
 15 03 06 03 22  0.0000000  0 10G01G03G04G11G14G16G19G22G27G32
  22561181.920   118559877.41908  22561183.260    92384338.22947
  24017465.880   126212658.89907  24017470.640    98347546.23046
  20766977.880   109131325.22309  20766976.520    85037443.76748
  21563650.040   113317781.05309  21563647.420    88299584.16447
  23118987.880   121491115.04408  23118986.700    94668407.09446
  24061410.080   126443530.50807  24061410.300    98527411.58045
  20458579.740   107510593.45909  20458575.440    83774488.57749
  22298109.360   117177409.19908  22298104.840    91307083.50347
  20948606.400   110085770.68509  20948606.540    85781140.14949
  20652558.700   108530019.26909  20652557.600    84568889.85948
 15 03 06 03 22 30.0000000  0 10G01G03G04G11G14G16G19G22G27G32
  22549969.820   118500957.79308  22549971.380    92338426.86347
  23997912.260   126109904.39507  23997916.920    98267477.98946
  20761458.500   109102320.93509  20761457.180    85014843.03648
  21551738.400   113255185.14709  21551735.840    88250808.15347
  23111687.980   121452753.73908  23111686.700    94638515.18546
  24081746.020   126550396.71807  24081746.240    98610683.81345
  20458287.460   107509057.55909  20458283.180    83773291.76849
  22312802.920   117254624.70908  22312798.440    91367251.42347
  20957769.240   110133921.80009  20957769.400    85818660.48249
  20641334.680   108471036.58509  20641333.520    84522929.34249
 15 03 06 03 23  0.0000000  0 10G01G03G04G11G14G16G19G22G27G32
  22538783.280   118442172.91908  22538785.160    92292620.51947
  23978390.420   126007318.04406  23978395.060    98187540.80746
  20755983.560   109073550.06009  20755982.240    84992424.18648
  21539861.620   113192772.45909  21539859.080    88202174.91147
  23104467.100   121414808.19508  23104465.740    94608947.24746
  24102087.520   126657291.79007  24102087.720    98693978.50745
  20458072.860   107507929.86509  20458068.580    83772413.04649
  22327542.580   117332082.48208  22327538.160    91427608.12748
  20967010.620   110182485.75809  20967010.840    85856502.51949
  20630209.000   108412571.05209  20630207.880    84477371.80948
 15 03 06 03 23 30.0000000  0 10G01G03G04G11G14G16G19G22G27G32
  22527622.440   118383522.64808  22527624.480    92246919.05847
  23958900.780   125904901.64606  23958905.300    98107736.02446
  20750553.080   109045012.73409  20750551.780    84970187.31948
  21528019.940   113130544.28909  21528017.400    88153685.45047
  23097325.700   121377280.42608  23097324.240    94579704.84446
  24122433.980   126764212.34507  24122433.920    98777293.09845
  20457936.140   107507211.42809  20457931.840    83771853.22349
  22342327.900   117409780.06808  22342323.520    91488151.69448
  20976330.540   110231462.27109  20976330.760    85894666.02149
  20619181.920   108354623.71809  20619180.860    84432218.06349
 15 03 06 03 24  0.0000000  0 10G01G03G04G11G14G16G19G22G27G32
  22516487.360   118325007.42908  22516489.360    92201322.82547
  23939444.160   125802657.58407  23939448.840    98028065.49446
  20745167.100   109016709.19409  20745165.780    84948132.62348
  21516213.700   113068502.06109  21516211.040    88105340.86747
  23090264.260   121340173.08908  23090262.620    94550790.06446
  24142784.780   126871155.91907  24142784.860    98860625.60245
  20457877.520   107506903.52809  20457873.220    83771613.29849
  22357158.640   117487716.21608  22357154.260    91548881.15447
  20985729.040   110280851.62709  20985729.260    85933151.22749
  20608253.840   108297196.57209  20608252.800    84387469.65449
 15 03 06 03 24 30.0000000  0 10G01G03G04G11G14G16G19G22G27G32
  22505378.220   118266628.58808  22505380.040    92155832.86047
  23920021.040   125700589.03307  23920025.740    97948531.74746
  20739825.860   108988640.82609  20739824.520    84926261.17548
  21504443.220   113006647.81609  21504440.520    88057142.75647
  23083283.600   121303489.99808  23083281.780    94522205.85246
  24163139.840   126978122.19507  24163140.080    98943975.78945
  20457897.540   107507008.72809  20457893.260    83771695.26949
  22372034.640   117565889.96408  22372030.260    91609795.75347
  20995206.300   110330654.98309  20995206.500    85971959.02749
  20597425.280   108240292.20309  20597424.260    84343128.60348
 15 03 06 03 25  0.0000000  0 10G01G03G04G11G14G16G19G22G27G32
  22494294.340   118208382.54008  22494295.960    92110446.36547
  23900631.000   125598694.37907  23900635.620    97869133.51146
  20734528.720   108960804.33509  20734527.360    84904570.41048
  21492708.120   112944979.40209  21492705.420    88009089.45747
  23076383.420   121267229.63908  23076381.700    94493951.04946
  24183498.020   127085104.30407  24183498.300    99027338.32845
  20457995.760   107507524.96509  20457991.500    83772097.53149
  22386954.820   117644295.80808  22386950.440    91670891.20547
  21004761.640   110380868.62309  21004761.820    86011086.53149
  20586695.780   108183908.47309  20586694.780    84299193.25449
 15 03 06 03 25 30.0000000  0 10G01G03G04G11G14G16G19G22G27G32
  22483236.240   118150272.21808  22483237.860    92065165.63247
  23881274.880   125496978.38807  23881279.480    97789874.47046
  20729276.280   108933202.55309  20729274.900    84883062.53048
  21481009.060   112883500.55309  21481006.420    87961183.86247
  23069564.740   121231397.22308  23069563.120    94466029.71146
  24203859.340   127192102.98307  24203859.380    99110713.79145
  20458172.940   107508456.03109  20458168.640    83772823.03149
  22401919.260   117722934.26008  22401914.780    91732167.91747
  21014395.560   110431495.19909  21014395.760    86050535.79849
  20576066.160   108128049.38009  20576065.080    84255666.70449
 15 03 06 03 26  0.0000000  0 10G01G03G04G11G14G16G19G22G27G32
  22472203.700   118092295.80308  22472205.300    92019989.23947
  23861952.920   125395441.04407  23861957.680    97710754.62246
  20724068.120   108905833.57209  20724066.740    84861736.05948
  21469345.920   112822210.29609  21469343.360    87913425.24548
  23062827.580   121195992.63508  23062825.960    94438441.73946
  24224222.780   127299113.62907  24224223.080    99194098.55545
  20458428.820   107509800.74209  20458424.500    83773870.85749
  22416927.300   117801801.82008  22416922.760    91793623.16048
  21024107.660   110482532.63409  21024107.860    86090305.21849
  20565536.280   108072714.44709  20565535.180    84212548.59349
 15 03 06 03 26 30.0000000  0 10G01G03G04G11G14G16G19G22G27G32
  22461196.620   118034453.31708  22461198.120    91974917.20847
  23842665.420   125294084.30307  23842670.060    97631775.50346
  20718904.320   108878697.63309  20718902.980    84840591.18148
  21457718.900   112761110.07509  21457716.320    87865814.69148
  23056172.300   121161018.50108  23056170.820    94411189.18146
  24244588.080   127406133.41207  24244588.540    99277490.46445
  20458763.720   107511560.76409  20458759.420    83775242.29949
  22431978.540   117880896.30408  22431974.020    91855255.22047
  21033897.940   110533980.81109  21033898.120    86130394.69449
  20555106.420   108017904.96409  20555105.280    84169839.92549
 15 03 06 03 27  0.0000000  0 10G01G03G04G11G14G16G19G22G27G32
  22450215.580   117976747.81808  22450217.080    91929951.91447
  23823413.060   125192913.00507  23823417.320    97552940.87646
  20713785.420   108851797.68709  20713784.100    84819630.19948
  21446128.760   112700203.52309  21446126.040    87818355.05348
  23049599.900   121126480.04008  23049598.500    94384276.11746
  24264955.240   127513162.77706  24264955.680    99360889.83245
  20459178.380   107513739.90909  20459174.100    83776940.33649
  22447073.100   117960218.70508  22447068.560    91917064.88347
  21043766.880   110585842.46109  21043767.060    86170806.36449
  20544777.300   107963625.12209  20544776.160    84127543.96749
 15 03 06 03 27 30.0000000  0 10G01G03G04G11G14G16G19G22G27G32
  22439259.900   117919175.15708  22439261.440    91885090.12547
  23804195.600   125091924.93307  23804199.620    97474248.97746
  20708710.700   108825129.79509  20708709.360    84798850.02448
  21434574.920   112639487.63109  21434572.100    87771043.96648
  23043109.960   121092375.01208  23043108.620    94357700.78546
  24285322.880   127620195.17207  24285323.620    99444291.47745
  20459672.200   107516334.96609  20459667.940    83778962.44649
  22462209.840   118039762.77708  22462205.260    91979047.26647
  21053713.680   110638113.15909  21053713.880    86211536.76149
  20534548.400   107909872.00709  20534547.300    84085658.44249
 15 03 06 03 28  0.0000000  0 10G01G03G04G11G14G16G19G22G27G32
  22428329.540   117861735.85408  22428331.180    91840332.26548
  23785013.400   124991122.47307  23785017.660    97395701.76646
  20703680.240   108798694.44709  20703678.840    84778251.06648
  21423057.760   112578964.38709  21423054.940    87723883.01548
  23036702.920   121058706.14507  23036701.640    94331465.33946
  24305690.860   127727228.31507  24305691.300    99527693.79845
  20460245.540   107519347.80909  20460241.300    83781310.11849
  22477388.480   118119527.03408  22477383.960    92041201.23747
  21063738.360   110690793.17109  21063738.600    86252586.11749
  20524420.040   107856647.42109  20524418.960    84044184.76949
 15 03 06 03 28 30.0000000  0 10G01G03G04G11G14G16G19G22G27G32
  22417425.080   117804432.97408  22417426.860    91795680.69948
  23765867.420   124890510.43307  23765871.840    97317302.99447
  20698694.580   108772494.54509  20698693.140    84757835.56048
  21411577.940   112518637.56809  21411575.240    87676875.12048
  23030379.780   121025478.48708  23030378.480    94305573.68446
  24326059.040   127834262.72307  24326059.380    99611097.10745
  20460899.100   107522782.21109  20460894.880    83783986.27249
  22492609.140   118199512.36808  22492604.700    92103527.45747
  21073841.500   110743885.23109  21073841.720    86293956.54949
  20514393.040   107803955.38309  20514391.960    84003126.05649
 15 03 06 03 29  0.0000000  0 10G01G03G04G11G14G16G19G22G27G32
  22406546.220   117747264.33908  22406547.960    91751133.74047
  23746757.720   124790088.59507  23746762.100    97239052.41346
  20693753.360   108746528.14909  20693751.900    84737602.01248
  21400135.260   112458505.98609  21400132.660    87630019.35748
  23024140.640   120992692.01908  23024139.240    94280025.80946
  24346426.380   127941293.58007  24346426.980    99694497.57745
  20461632.680   107526637.04009  20461628.440    83786990.03249
  22507871.100   118279714.56408  22507866.640    92166022.67147
  21084022.580   110797386.82009  21084022.760    86335646.09149
  20504467.200   107751794.93109  20504466.120    83962481.57349
 15 03 06 03 29 30.0000000  0 10G01G03G04G11G14G16G19G22G27G32
  22395692.340   117690226.53108  22395693.980    91706688.71747
  23727683.960   124689855.22007  23727688.120    97160948.69446
  20688855.900   108720791.83909  20688854.480    84717547.74748
  21388729.280   112398567.21209  21388726.620    87583313.82248
  23017985.220   120960345.16808  23017983.660    94254820.48746
  24366792.100   128048314.89507  24366792.660    99777890.74344
  20462445.760   107530909.72809  20462441.520    83790319.39149
  22523173.300   118360128.20808  22523168.820    92228682.64747
  21094280.840   110851294.13809  21094281.020    86377651.77749
  20494642.080   107700163.64209  20494640.960    83922249.41249
 15 03 06 03 30  0.0000000  0 10G01G03G04G11G14G16G19G22G27G32
  22384864.200   117633323.89508  22384865.740    91662349.03848
  23708647.120   124589816.46307  23708650.840    97082996.61846
  20684003.000   108695289.79009  20684001.600    84697676.02948
  21377361.060   112338826.72009  21377358.260    87536762.79448
  23011914.740   120928444.38908  23011912.920    94229962.74946
  24387156.280   128155328.40006  24387156.680    99861277.80545
  20463339.400   107535605.86209  20463335.200    83793978.71649
  22538516.200   118440755.74408  22538511.800    92291509.29447
  21104617.060   110905611.20409  21104617.240    86419976.75349
  20484918.740   107649067.01209  20484917.560    83882433.87849
 15 03 06 03 30 30.0000000  0 10G01G03G04G11G14G16G19G22G27G32
  22374061.480   117576555.40008  22374062.960    91618113.87947
  23689647.280   124489973.01707  23689651.160    97005196.75446
  20679194.540   108670021.19109  20679193.140    84677986.20948
  21366030.600   112279284.54409  21366027.680    87490366.28548
  23005929.360   120896990.91508  23005927.380    94205453.56646
  24407518.120   128262330.69406  24407518.480    99944656.09944
  20464313.560   107540725.22809  20464309.380    83797967.82349
  22553899.160   118521593.84908  22553894.740    92354500.00747
  21115030.980   110960336.64209  21115031.140    86462619.93349
  20475297.120   107598505.03409  20475295.920    83843034.94949
 15 03 06 03 31  0.0000000  0 10G01G03G04G11G14G16G19G22G27G32
  22363284.060   117519920.27708  22363285.480    91573982.66247
  23670684.840   124390326.07307  23670688.740    96927550.02646
  20674430.420   108644985.47409  20674428.980    84658477.87348
  21354737.900   112219941.08109  21354735.040    87444124.64648
  23000029.260   120865985.62008  23000027.320    94181293.61246
  24427877.160   128369317.93807  24427877.700   100028022.63944
  20465368.320   107546268.12409  20465364.180    83802286.96649
  22569321.660   118602639.72608  22569317.200    92417652.64447
  21125522.340   111015469.31609  21125522.520    86505580.45249
  20465777.320   107548478.08409  20465776.120    83804052.93749
 15 03 06 03 31 30.0000000  0 10G01G03G04G11G14G16G19G22G27G32
  22352531.960   117463418.23608  22352533.440    91529955.13447
  23651760.260   124290877.07307  23651764.020    96850057.49146
  20669710.500   108620182.10909  20669709.020    84639150.59348
  21343483.080   112160796.95209  21343480.320    87398038.33248
  22994214.760   120835430.08008  22994212.900    94157484.11646
  24448233.000   128476287.64507  24448233.640   100111375.57345
  20466503.780   107552235.03209  20466499.640    83806936.50449
  22584783.260   118683890.91908  22584778.820    92480965.25947
  21136091.060   111071008.48509  21136091.260    86548857.72049
  20456359.420   107498986.71409  20456358.220    83765488.25849
 15 03 06 03 32  0.0000000  0 10G01G03G04G11G14G16G19G22G27G32
  22341805.520   117407050.36608  22341806.960    91486032.14347
  23632873.760   124191628.84407  23632877.760    96772721.47347
  20665035.040   108595612.37209  20665033.540    84620005.35248
  21332266.680   112101854.43509  21332263.960    87352109.11148
  22988486.480   120805327.51808  22988484.740    94134027.59546
  24468585.220   128583238.39806  24468585.680   100194713.72044
  20467720.300   107558627.85109  20467716.140    83811917.91549
  22600283.780   118765346.55408  22600279.380    92544437.17647
  21146737.300   111126954.80609  21146737.500    86592452.24649
  20447043.800   107450033.04809  20447042.640    83727342.56649
 15 03 06 03 32 30.0000000  0 10G01G03G04G11G14G16G19G22G27G32
  22331104.840   117350817.42108  22331106.240    91442214.29148
  23614025.920   124092583.86907  23614030.020    96695543.83646
  20660404.180   108571277.13009  20660402.660    84601042.84548
  21321089.000   112043115.22809  21321086.180    87306338.30648
  22982844.880   120775680.61008  22982843.280    94110926.12746
  24488933.200   128690168.06706  24488933.880   100278035.46444
  20469018.260   107565448.59109  20469014.080    83817232.77249
  22615822.940   118847005.31508  22615818.500    92608067.37347
  21157461.060   111183308.58509  21157461.260    86636364.26949
  20437830.800   107401618.73509  20437829.680    83689617.14749
 15 03 06 03 33  0.0000000  0 10G01G03G04G11G14G16G19G22G27G32
  22320428.980   117294715.04108  22320430.280    91398498.17947
  23595216.220   123993739.51607  23595220.460    96618522.51046
  20655817.100   108547171.91709  20655815.560    84582259.57048
  21309949.340   111984575.93309  21309946.500    87260723.27148
  22977289.440   120746486.67608  22977288.000    94088177.62346
  24509275.900   128797069.87406  24509276.620   100361335.55545
  20470396.920   107572693.44309  20470392.720    83822878.10549
  22631399.600   118928861.06608  22631395.160    92671851.06547
  21168261.440   111240065.01209  21168261.660    86680590.04249
  20428719.820   107353740.43009  20428718.720    83652309.39849
 15 03 06 03 33 30.0000000  0 11G01G03G04G11G14G16G19G22G27G28G32
  22309778.340   117238745.85008  22309779.540    91354885.83947
  23576445.560   123895100.30907  23576449.500    96541661.05946
  20651274.280   108523299.22109  20651272.740    84563657.48348
  21298848.420   111926240.36709  21298845.640    87215266.99048
  22971821.080   120717750.54708  22971819.700    94065785.85946
  24529613.480   128903943.55907  24529614.080   100444613.79645
  20471857.000   107580366.11209  20471852.800    83828856.80549
  22647013.780   119010914.07808  22647009.400    92735788.46947
  21179138.840   111297226.26109  21179139.100    86725131.26349
  25085882.760   131827208.40405  25085881.220   102722486.64544
  20419711.520   107306401.65709  20419710.460    83615422.06949
 15 03 06 03 34  0.0000000  0 11G01G03G04G11G14G16G19G22G27G28G32
  22299153.780   117182914.03508  22299155.080    91311380.55948
  23557715.220   123796672.25207  23557718.780    96464964.20346
  20646776.540   108499663.53509  20646775.020    84545240.08048
  21287787.300   111868113.77909  21287784.600    87169973.55148
  22966440.960   120689478.07208  22966439.620    94043755.38046
  24549946.120   129010791.31306  24549946.740   100527871.77045
  20473399.420   107588471.43709  20473395.180    83835172.63849
  22662665.860   119093166.25108  22662661.440    92799881.07347
  21190094.000   111354796.03409  21190094.300    86769990.81849
  25071609.340   131752200.78406  25071608.120   102664039.14244
  20410806.880   107259607.46309  20410805.800    83578959.08349
 15 03 06 03 34 30.0000000  0 11G01G03G04G11G14G16G19G22G27G28G32
  22288554.540   117127215.06008  22288556.060    91267978.78148
  23539024.400   123698452.13907  23539027.900    96388429.33946
  20642323.060   108476260.32109  20642321.520    84527003.82248
  21276765.300   111810192.59709  21276762.580    87124840.17048
  22961148.520   120661666.49608  22961147.100    94022084.04646
  24570272.100   129117605.36307  24570272.840   100611103.50844
  20475023.480   107597005.85109  20475019.220    83841822.82949
  22678354.600   119175611.22008  22678350.160    92864123.89847
  21201125.920   111412769.23609  21201126.240    86815164.73149
  25057397.000   131677513.96006  25057395.880   102605841.64443
  20402005.120   107213354.09409  20402004.040    83542917.52549
 15 03 06 03 35  0.0000000  0 11G01G03G04G11G14G16G19G22G27G28G32
  22277979.920   117071645.16208  22277981.520    91224677.59148
  23520372.720   123600438.02107  23520376.220    96312054.91046
  20637913.060   108453085.75209  20637911.500    84508945.72448
  21265781.900   111752474.38509  21265779.120    87079864.95248
  22955943.540   120634314.01308  22955942.000    94000770.44146
  24590590.640   129224380.07507  24590591.080   100694304.69643
  20476728.640   107605966.46209  20476724.380    83848805.11349
  22694079.000   119258243.47308  22694074.560    92928512.65847
  21212233.780   111471141.59709  21212234.140    86860649.67849
  25043245.540   131603146.55906  25043244.080   102547893.05044
  20393305.780   107167638.71709  20393304.640    83507295.17449
 15 03 06 03 35 30.0000000  0 11G01G03G04G11G14G16G19G22G27G28G32
  22267430.500   117016207.47108  22267432.060    91181479.40147
  23501761.000   123502634.75107  23501764.800    96235844.79747
  20633547.200   108430143.10509  20633545.640    84491068.34548
  21254837.820   111694962.94809  21254835.020    87035050.85448
  22950826.780   120607425.52008  22950825.280    93979818.38946
  24610901.800   129331115.35207  24610902.060   100777475.15144
  20478515.600   107615357.06809  20478511.360    83856122.46649
  22709839.260   119341064.12808  22709834.840    92993048.22947
  21223418.060   111529915.69509  21223418.520    86906447.66449
  25029155.920   131529104.01306  25029154.160   102490197.50444
  20384709.560   107122465.19409  20384708.380    83472095.05149
 15 03 06 03 36  0.0000000  0 11G01G03G04G11G14G16G19G22G27G28G32
  22256906.720   116960904.76708  22256908.240    91138386.40447
  23483190.480   123405046.89807  23483194.300    96159802.48646
  20629226.040   108407435.27409  20629224.500    84473373.93848
  21243933.840   111637662.38009  21243931.140    86990401.06748
  22945799.180   120581005.56708  22945797.700    93959231.43146
  24631205.280   129437811.69006  24631205.960   100860615.21046
  20480385.040   107625181.10709  20480380.840    83863777.55049
  22725635.400   119424073.27708  22725630.960    93057730.67347
  21234679.280   111589093.76109  21234679.740    86952560.42849
  25015128.940   131455391.01606  25015127.160   102432758.82044
  20376217.100   107077837.04409  20376215.900    83437319.88849
 15 03 06 03 36 30.0000000  0 11G01G03G04G11G14G16G19G22G27G28G32
  22246408.120   116905734.77008  22246409.680    91095396.82448
  23464661.020   123307673.89107  23464664.680    96083927.58046
  20624949.120   108384959.94709  20624947.620    84455860.70448
  21233069.800   111580571.39109  21233067.140    86945914.59248
  22940860.720   120555053.63408  22940859.100    93939009.16346
  24651500.400   129544463.96207  24651501.080   100943720.98544
  20482336.700   107635437.20009  20482332.500    83871769.30649
  22741466.580   119507266.88408  22741462.080    93122556.85847
  21246016.820   111648672.94909  21246017.300    86998985.75949
  25001164.640   131382007.67406  25001163.160   102375577.06344
  20367828.180   107033752.92009  20367826.940    83402968.64349
 15 03 06 03 37  0.0000000  0 11G01G03G04G11G14G16G19G22G27G28G32
  22235934.720   116850696.79108  22235936.180    91052510.11147
  23446172.580   123210516.64407  23446176.080    96008220.81247
  20620716.260   108362716.34109  20620714.840    84438528.03248
  21222245.700   111523690.47009  21222243.040    86901591.80648
  22936011.440   120529570.64808  22936009.760    93919152.30946
  24671786.720   129651069.29607  24671787.180   101026790.20943
  20484370.640   107646125.57909  20484366.440    83880097.90349
  22757332.360   119590642.33608  22757327.920    93187524.72947
  21257430.480   111708651.96409  21257430.940    87045722.64049
  24987263.340   131308955.20406  24987261.820   102318653.02744
  20359542.740   106990212.66809  20359541.480    83369041.19249
 15 03 06 03 37 30.0000000  0 11G01G03G04G11G14G16G19G22G27G28G32
  22225486.880   116795792.60408  22225488.180    91009727.64548
  23427725.720   123113578.62007  23427729.140    95932684.87247
  20616527.880   108340706.27709  20616526.480    84421377.34348
  21211462.120   111467022.46909  21211459.420    86857434.93948
  22931252.100   120504560.12208  22931250.420    93899663.59946
  24692063.840   129757626.72406  24692064.460   101109822.10945
  20486487.340   107657248.76309  20486483.120    83888765.31749
  22773232.780   119674199.50008  22773228.380    93252634.19847
  21268920.440   111769031.94309  21268920.840    87092771.96649
  24973425.780   131236237.68606  24973424.000   102261990.02844
  20351361.240   106947218.84709  20351360.020    83335539.53649
 15 03 06 03 38  0.0000000  0 11G01G03G04G11G14G16G19G22G27G28G32
  22215063.860   116741018.74708  22215065.060    90967046.73248
  23409320.160   123016858.02707  23409323.540    95857318.35046
  20612383.300   108318926.47809  20612381.940    84404406.08148
  21200718.620   111410564.91909  21200715.860    86813442.05648
  22926582.400   120480020.12508  22926580.540    93880541.54746
  24712330.600   129864130.25806  24712331.080   101192812.01045
  20488686.240   107668804.10009  20488682.020    83897769.47449
  22789166.620   119757932.43308  22789162.160    93317880.64247
  21280485.920   111829808.84009  21280486.340    87140130.57749
  24959651.660   131163853.97105  24959649.780   102205587.13344
  20343283.200   106904768.66009  20343282.000    83302461.48949
 15 03 06 03 38 30.0000000  0 11G01G03G04G11G14G16G19G22G27G28G32
  22204666.760   116686381.59108  22204668.080    90924472.35448
  23390957.460   122920362.86107  23390960.800    95782127.46547
  20608283.740   108297383.19409  20608282.380    84387619.11149
  21190016.520   111354325.04309  21190013.780    86769618.78848
  22922003.740   120455958.70808  22922001.820    93861792.40946
  24732587.840   129970583.76806  24732588.420   101275762.95545
  20490968.720   107680798.56109  20490964.480    83907115.80149
  22805134.820   119841845.80708  22805130.340    93383267.68047
  21292128.020   111890988.31809  21292128.420    87187802.88349
  24945942.540   131091812.56106  24945940.840   102149450.99244
  20335309.980   106862869.10909  20335308.780    83269812.50849
 15 03 06 03 39  0.0000000  0 11G01G03G04G11G14G16G19G22G27G28G32
  22194294.300   116631873.85608  22194295.640    90881998.80748
  23372636.780   122824087.55807  23372640.080    95707107.90646
  20604227.840   108276069.37209  20604226.460    84371010.94249
  21179354.720   111298296.96709  21179351.960    86725960.55148
  22917515.060   120432370.48308  22917513.100    93843411.99246
  24752833.660   130076977.08506  24752834.420   101358666.95744
  20493333.460   107693225.36909  20493329.240    83916799.02049
  22821135.520   119925930.10008  22821131.160    93448787.89347
  21303845.220   111952562.51909  21303845.640    87235782.76849
  24932297.640   131020108.26406  24932295.740   102093577.49643
  20327440.260   106821513.60909  20327439.080    83237587.46049
 15 03 06 03 39 30.0000000  0 11G01G03G04G11G14G16G19G22G27G28G32
  22183947.080   116577498.95308  22183948.340    90839628.77148
  23354358.900   122728037.03607  23354362.040    95632263.48746
  20600216.260   108254988.41109  20600214.840    84354584.22348
  21168734.000   111242484.85909  21168731.240    86682470.60748
  22913117.320   120409260.39008  22913115.360    93825404.14346
  24773068.380   130183311.19106  24773068.780   101441524.82044
  20495781.220   107706088.52709  20495777.040    83926822.25349
  22837169.000   120010186.74508  22837164.700    93514442.41547
  21315638.080   112014534.08909  21315638.460    87284072.28849
  24918717.940   130948746.08806  24918715.720   102037970.55244
  20319674.800   106780706.08509  20319673.660    83205789.41049
 15 03 06 03 40  0.0000000  0 11G01G03G04G11G14G16G19G22G27G28G32
  22173625.320   116523258.46108  22173626.580    90797363.47948
  23336124.380   122632214.57808  23336127.480    95557596.79046
  20596249.260   108234141.67509  20596247.820    84338340.02848
  21158155.000   111186891.87809  21158152.200    86639151.41348
  22908811.100   120386631.36908  22908809.140    93807771.16346
  24793291.460   130289585.41506  24793291.580   101524336.06044
  20498312.560   107719390.78209  20498308.380    83937187.64749
  22853235.240   120094615.46408  22853230.920    93580231.02547
  21327506.740   112076903.94709  21327507.040    87332672.17249
  24905203.940   130877729.93306  24905201.640   101982633.31344
  20312014.060   106740448.72509  20312012.920    83174420.05949
 15 03 06 03 40 30.0000000  0 11G01G03G04G11G14G16G19G22G27G28G32
  22163328.520   116469149.18708  22163329.920    90755200.43048
  23317933.000   122536618.56708  23317936.060    95483106.54047
  20592326.280   108213526.33109  20592324.880    84322276.13148
  21147617.240   111131515.52309  21147614.400    86596001.01548
  22904596.160   120364482.22708  22904594.200    93790512.11446
  24813502.180   130395794.13507  24813502.840   101607096.19644
  20500926.880   107733129.23109  20500922.740    83947892.93249
  22869333.200   120179210.76208  22869328.860    93646149.43147
  21339450.420   112139668.20409  21339450.680    87381579.37349
  24891755.600   130807058.91306  24891753.460   101927564.97345
  20304457.500   106700738.84709  20304456.360    83143477.31749
 15 03 06 03 41  0.0000000  0 11G01G03G04G11G14G16G19G22G27G28G32
  22153057.060   116415172.68908  22153058.600    90713140.84248
  23299785.300   122441252.20707  23299788.400    95408795.23147
  20588447.640   108193143.85109  20588446.260    84306393.68848
  21137121.180   111076358.49509  21137118.420    86553021.51848
  22900473.000   120342815.68408  22900471.180    93773629.11646
  24833700.280   130501935.72806  24833701.100   101689803.95145
  20503624.700   107747306.37909  20503620.580    83958940.05449
  22885462.840   120263972.30408  22885458.480    93712197.37746
  21351469.320   112202827.65609  21351469.560    87430794.51849
  24878373.500   130736736.30706  24878371.580   101872768.15845
  20297005.560   106661578.58809  20297004.360    83112962.85049
 15 03 06 03 41 30.0000000  0 11G01G03G04G11G14G16G19G22G27G28G32
  22142810.720   116361327.71208  22142812.240    90671183.73548
  23281681.260   122346115.67507  23281684.460    95334663.01847
  20584613.040   108172992.88109  20584611.640    84290691.64849
  21126666.860   111021420.79009  21126664.180    86510212.92248
  22896441.840   120321632.15608  22896440.120    93757122.48646
  24853884.820   130608006.81106  24853885.600   101772456.86443
  20506405.840   107761921.27609  20506401.720    83970328.28249
  22901623.500   120348896.67008  22901619.060    93778372.20447
  21363563.020   112266380.27109  21363563.220    87480316.02349
  24865058.040   130666763.14206  24865056.100   101818243.55944
  20289658.040   106622967.16809  20289656.800    83082876.05049
 15 03 06 03 42  0.0000000  0 11G01G03G04G11G14G16G19G22G27G28G32
  22132589.820   116307615.99208  22132591.220    90629330.45948
  23263621.680   122251212.48107  23263624.720    95260712.60647
  20580822.840   108153075.35109  20580821.420    84275171.50949
  21116254.780   110966705.15909  21116252.100    86467577.36948
  22892503.280   120300934.91208  22892501.560    93740994.77446
  24874055.760   130714006.67806  24874056.100   101855054.28044
  20509270.720   107776976.14409  20509266.560    83982059.34349
  22917815.100   120433983.82108  22917810.500    93844673.87847
  21375731.700   112330327.06809  21375731.920    87530144.68549
  24851809.800   130597143.14706  24851807.800   101763994.24344
  20282415.380   106584906.78809  20282414.100    83053218.63149
 15 03 06 03 42 30.0000000  0 11G01G03G04G11G14G16G19G22G27G28G32
  22122393.360   116254032.98108  22122394.660    90587577.47048
  23245605.980   122156539.54608  23245608.860    95186941.61547
  20577076.240   108133386.83809  20577074.760    84259829.81848
  21105884.320   110912207.95309  21105881.540    86425112.01948
  22888656.700   120280720.79308  22888655.060    93725243.53346
  24894212.060   130819928.18207  24894212.340   101937590.69745
  20512218.620   107792467.47609  20512214.480    83994130.50949
  22934036.380   120519227.19608  22934031.800    93911097.28547
  21387974.320   112394662.74909  21387974.640    87580276.37249
  24838628.500   130527874.07106  24838626.380   101710018.32745
  20275276.780   106547393.37809  20275275.500    83023987.42549
 15 03 06 03 43  0.0000000  0 11G01G03G04G11G14G16G19G22G27G28G32
  22112222.460   116200584.99508  22112223.780    90545929.71548
  23227635.580   122062104.66908  23227638.400    95113356.12847
  20573374.340   108113933.35609  20573372.820    84244671.26949
  21095556.860   110857936.71109  21095554.060    86382822.74448
  22884903.560   120260997.44708  22884901.820    93709874.70446
  24914353.980   130925774.68906  24914354.260   102020068.66445
  20515250.800   107808401.67609  20515246.660    84006546.76749
  22950288.120   120604630.69508  22950283.540    93977645.45247
  21400291.980   112459392.71309  21400292.360    87630715.29449
  24825515.360   130458963.95506  24825512.900   101656322.11044
  20268243.560   106510433.56509  20268242.280    82995187.58849
 15 03 06 03 43 30.0000000  0 11G01G03G04G11G14G16G19G22G27G28G32
  22102077.060   116147271.30408  22102078.540    90504386.58648
  23209710.620   121967908.77607  23209713.360    95039956.84547
  20569717.120   108094714.58509  20569715.580    84229695.61048
  21085272.400   110803891.46909  21085269.640    86340709.56548
  22881243.880   120241765.50408  22881242.160    93694888.79346
  24934480.900   131031543.46606  24934481.400   102102486.01144
  20518367.240   107824778.73709  20518363.080    84019308.10349
  22966569.840   120690191.77208  22966565.220    94044316.42147
  21412684.400   112524515.49309  21412684.860    87681460.30149
  24812470.780   130390414.03806  24812468.400   101602906.64445
  20261315.660   106474027.20509  20261314.400    82966819.01049
 15 03 06 03 44  0.0000000  0 10G01G03G04G11G14G19G22G27G28G32
  22091958.320   116094097.49708  22091959.940    90462952.47348
  23191832.420   121873958.92308  23191835.140    94966749.30147
  20566105.560   108075735.70909  20566104.020    84214906.87348
  21075032.340   110750079.47509  21075029.620    86298778.14348
  22877679.060   120223032.24808  22877677.260    93680291.45746
  20521569.160   107841604.99509  20521564.980    84032419.46249
  22982882.220   120775914.06208  22982877.640    94111112.99247
  21425152.520   112590035.79509  21425152.980    87732515.06449
  24799496.220   130322231.92305  24799493.580   101549777.68045
  20254494.160   106438180.01709  20254492.920    82938886.15549
 15 03 06 03 44 30.0000000  0 10G01G03G04G11G14G19G22G27G28G32
  22081862.920   116041045.46008  22081864.540    90421613.24648
  23173997.920   121780238.49308  23174000.520    94893720.52547
  20562536.280   108056979.14509  20562534.780    84200291.38349
  21064833.380   110696483.48609  21064830.620    86257015.04948
  22874205.880   120204780.86408  22874204.040    93666069.61646
  20524853.220   107858862.78909  20524849.020    84045867.09849
  22999221.480   120861777.36908  22999216.920    94178019.47747
  21437692.680   112655934.69709  21437693.140    87783864.85749
  24786588.440   130254401.43106  24786585.760   101496922.78444
  20247775.680   106402874.38009  20247774.480    82911375.29749
 15 03 06 03 45  0.0000000  0 10G01G03G04G11G14G19G22G27G28G32
  22071792.900   115988126.47008  22071794.380    90380377.68248
  23156209.600   121686760.30008  23156212.000    94820880.47746
  20559011.380   108038455.84109  20559009.940    84185857.64249
  21054677.860   110643115.81909  21054675.080    86215429.84748
  22870826.720   120187023.91008  22870824.980    93652233.03846
  20528221.600   107876563.74609  20528217.380    84059660.04149
  23015589.300   120947790.77508  23015584.720    94245042.90547
  21450306.840   112722222.59409  21450307.300    87835517.74449
  24773750.140   130186935.80106  24773747.700   101444352.17844
  20241162.480   106368121.84209  20241161.280    82884295.41249
 15 03 06 03 45 30.0000000  0 10G01G03G04G11G14G19G22G27G28G32
  22061747.900   115935339.16908  22061749.240    90339244.73648
  23138467.420   121593524.50508  23138469.560    94748229.32747
  20555530.640   108020164.64209  20555529.260    84171604.76948
  21044565.700   110589976.11409  21044562.940    86174022.30648
  22867541.680   120169761.30508  22867540.040    93638781.67646
  20531674.180   107894707.03409  20531669.940    84073797.67249
  23031985.060   121033951.23908  23031980.480    94312180.92447
  21462994.600   112788897.23409  21462995.040    87887472.00249
  24760981.500   130119835.91707  24760978.940   101392066.56143
  20234654.340   106333921.39109  20234653.120    82857645.73849
 15 03 06 03 46  0.0000000  0 10G01G03G04G11G14G19G22G27G28G32
  22051728.020   115882684.47508  22051729.420    90298215.11948
  23120771.700   121500533.46808  23120773.960    94675768.90547
  20552094.280   108002106.41109  20552092.880    84157533.42549
  21034497.300   110537066.47609  21034494.580    86132794.02848
  22864351.180   120152995.40608  22864349.560    93625717.35246
  20535211.200   107913294.07609  20535206.920    84088281.07249
  23048408.560   121120257.51608  23048404.100    94379432.55847
  21475755.960   112855958.64409  21475756.360    87939727.62849
  24748282.880   130053104.31806  24748280.120   101340067.89544
  20228251.480   106300274.14209  20228250.240    82831427.11949
 15 03 06 03 46 30.0000000  0 10G01G03G04G11G14G19G22G27G28G32
  22041733.160   115830161.69908  22041734.620    90257288.29448
  23103122.780   121407787.98508  23103124.980    94603499.80747
  20548702.160   107984280.69809  20548700.740    84143643.26948
  21024472.800   110484387.33809  21024470.040    86091745.35848
  22861255.340   120136726.74608  22861253.680    93613040.49346
  20538832.520   107932324.10709  20538828.220    84103109.66349
  23064859.280   121206706.77508  23064854.900    94446795.60947
  21488590.640   112923405.15609  21488591.020    87992283.34349
  24735654.560   129986742.27206  24735652.180   101288357.24645
  20221953.800   106267179.62409  20221952.520    82805639.20749
 15 03 06 03 47  0.0000000  0 10G01G03G04G11G14G19G22G27G28G32
  22031763.520   115777771.42808  22031764.960    90216464.71948
  23085521.000   121315290.10908  23085523.180    94531423.63247
  20545354.360   107966687.88209  20545352.920    84129934.58148
  21014492.440   110431940.29009  21014489.680    86050877.53848
  22858254.520   120120957.08908  22858252.780    93600752.45446
  20542538.480   107951799.06909  20542534.200    84118284.95049
  23081336.940   121293297.76208  23081332.680    94514269.08947
  21501498.500   112991236.44409  21501498.920    88045138.87049
  24723097.220   129920752.46306  24723094.740   101236936.61845
  20215761.440   106234638.64909  20215760.140    82780282.62449
 15 03 06 03 47 30.0000000  0 10G01G03G04G11G14G19G22G27G28G32
  22021819.080   115725513.13508  22021820.540    90175743.99048
  23067966.520   121223040.75508  23067968.600    94459541.12247
  20542050.780   107949327.37609  20542049.360    84116406.92649
  21004556.380   110379726.10209  21004553.620    86010191.16348
  22855348.800   120105687.11508  22855347.060    93588853.78146
  20546329.000   107971718.21009  20546324.680    84133806.34849
  23097841.140   121380027.95508  23097836.980    94581851.04847
  21514479.340   113059451.02209  21514479.740    88098293.07449
  24710610.780   129855135.97006  24710608.640   101185806.91844
  20209674.340   106202650.87509  20209673.040    82755357.10449
 15 03 06 03 48  0.0000000  0 10G01G03G04G11G14G19G22G27G28G32
  22011900.400   115673390.18108  22011901.900    90135128.72548
  23050460.100   121131044.68508  23050462.440    94387856.00047
  20538792.120   107932202.95009  20538790.740    84103063.23049
  20994665.440   110327748.92509  20994662.740    85969689.48448
  22852539.040   120090921.64708  22852537.400    93577348.23846
  20550204.760   107992085.51309  20550200.460    84149676.97649
  23114372.100   121466898.48208  23114367.880    94649542.36147
  21527533.560   113128051.28009  21527533.960    88151747.80649
  24698196.380   129789898.15006  24698194.440   101134972.25144
  20203693.160   106171219.75209  20203691.860    82730865.34049
 15 03 06 03 48 30.0000000  0 10G01G03G04G11G14G19G22G27G28G32
  22002006.360   115621396.64208  22002007.900    90094614.30448
  23033000.960   121039297.42008  23033003.500    94316364.75047
  20535577.220   107915308.31009  20535575.800    84089898.58449
  20984818.720   110276004.05909  20984816.000    85929368.82448
  22849824.300   120076655.75508  22849822.740    93566231.96946
  20554164.720   108012895.29109  20554160.480    84165892.38349
  23130928.280   121553901.59508  23130923.980    94717336.99146
  21540659.820   113197030.30409  21540660.240    88205497.68649
  24685853.240   129725034.85007  24685851.220   101084429.44644
  20197816.840   106140339.57109  20197815.540    82706802.88249
 15 03 06 03 49  0.0000000  0 10G01G03G04G11G14G19G22G27G28G32
  21992137.900   115569537.41108  21992139.520    90054204.54048
  23015590.520   120947805.28708  23015592.860    94245072.28147
  20532406.980   107898648.54409  20532405.540    84076916.95049
  20975017.300   110224497.12109  20975014.480    85889233.55648
  22847205.700   120062895.34508  22847204.120    93555509.58446
  20558209.900   108034152.96309  20558205.720    84182456.79949
  23147510.220   121641040.25408  23147505.820    94785237.24347
  21553858.900   113266391.97009  21553859.260    88259545.72649
  24673582.640   129660552.75306  24673580.620   101034183.66344
  20192046.300   106110015.28409  20192045.020    82683173.58449
 15 03 06 03 49 30.0000000  0 10G01G03G04G11G14G19G22G27G28G32
  21982294.140   115517808.11608  21982295.760    90013896.03348
  22998228.140   120856565.26208  22998230.020    94173976.25247
  20529280.620   107882219.46409  20529279.160    84064115.08249
  20965260.680   110173225.59809  20965257.800    85849281.73448
  22844682.640   120049636.87208  22844681.060    93545178.31646
  20562339.540   108055854.37609  20562335.380    84199366.99149
  23164116.720   121728307.89608  23164112.380    94853237.99247
  21567129.780   113336130.85709  21567130.060    88313887.70649
  24661384.320   129596449.52406  24661382.200   100984233.09445
  20186380.760   106080242.59609  20186379.440    82659974.10849
 15 03 06 03 50  0.0000000  0 10G01G03G04G11G14G19G22G27G28G32
  21972475.800   115466212.50408  21972477.360    89973691.68348
  22980914.640   120765582.52308  22980916.360    94103080.70347
  20526198.860   107866024.69009  20526197.360    84051495.78649
  20955549.640   110122193.65109  20955546.740    85809516.59148
  22842256.220   120036886.02208  22842254.640    93535242.60446
  20566554.420   108078003.77509  20566550.280    84216626.25249
  23180748.120   121815706.38008  23180743.780    94921340.69246
  21580473.000   113406249.73009  21580473.200    88368525.77349
  24649259.000   129532730.47906  24649257.080   100934581.89545
  20180820.900   106051025.27209  20180819.540    82637207.37449
 15 03 06 03 50 30.0000000  0 10G01G03G04G11G14G19G22G27G28G32
  21962682.480   115414748.29908  21962683.860    89933589.72448
  22963649.880   120674856.13108  22963651.820    94032384.91547
  20523161.220   107850061.87609  20523159.740    84039057.23649
  20945883.980   110071400.37509  20945881.120    85769937.42348
  22839926.080   120024641.09908  22839924.440    93525701.11546
  20570854.120   108100598.97409  20570850.000    84234232.89549
  23197403.540   121903231.25208  23197399.140    94989541.88446
  21593887.900   113476745.18009  21593888.060    88423457.28049
  24637206.700   129469395.45407  24637204.640   100885229.93045
  20175366.280   106022361.12609  20175364.920    82614871.69049
 15 03 06 03 51  0.0000000  0 10G01G03G04G11G14G19G22G27G28G32
  21952914.540   115363417.53608  21952915.740    89893591.74148
  22946434.620   120584389.49408  22946436.740    93961891.53747
  20520168.140   107834333.06109  20520166.620    84026801.02049
  20936264.340   110020848.85009  20936261.460    85730546.63048
  22837692.900   120012905.31208  22837691.120    93516556.34646
  20575239.080   108123642.16809  20575234.980    84252188.62349
  23214083.100   121990882.68708  23214078.680    95057841.69146
  21607374.620   113547618.20109  21607374.800    88478682.99449
  24625228.140   129406448.10706  24625226.280   100836180.07544
  20170017.320   105994252.13409  20170015.940    82592968.59149
 15 03 06 03 51 30.0000000  0 10G01G03G04G11G14G19G22G27G28G32
  21943171.600   115312217.97808  21943172.740    89853696.01048
  22929268.620   120494181.71808  22929270.840    93891599.86847
  20517219.200   107818836.22209  20517217.640    84014725.57149
  20926690.520   109970538.04409  20926687.600    85691343.41548
  22835556.320   120001677.52908  22835554.580    93507807.45146
  20579708.960   108147131.48809  20579704.860    84270491.98949
  23230785.960   122078656.65408  23230781.520    95126236.99646
  21620932.480   113618865.43309  21620932.700    88534200.31249
  24613323.240   129343887.83407  24613321.040   100787431.80245
  20164773.560   105966696.03309  20164772.180    82571496.32649
 15 03 06 03 52  0.0000000  0 10G01G03G04G11G14G19G22G27G28G32
  21933454.180   115261152.70708  21933455.380    89813904.91048
  22912152.720   120404237.18008  22912154.780    93821513.30547
  20514314.980   107803574.31109  20514313.380    84002833.18149
  20917163.200   109920471.85509  20917160.300    85652330.81448
  22833517.200   119990961.67908  22833515.360    93499457.44446
  20584264.360   108171070.24809  20584260.260    84289145.55849
  23247512.300   122166554.10608  23247507.860    95194728.49246
  21634561.920   113690488.85309  21634562.180    88590010.75449
  24601493.020   129281719.52206  24601490.780   100738988.97445
  20159635.580   105939695.91109  20159634.220    82550457.28649
 15 03 06 03 52 30.0000000  0 10G01G03G04G11G14G19G22G27G28G32
  21923761.960   115210219.92308  21923763.360    89774217.04948
  22895086.760   120314555.48608  22895088.620    93751631.55347
  20511455.120   107788545.61709  20511453.500    83991122.51249
  20907682.340   109870649.76009  20907679.500    85613508.41148
  22831575.280   119980756.63908  22831573.340    93491505.47546
  20588905.100   108195457.35409  20588900.960    84308148.49149
  23264261.400   122254571.21008  23264256.980    95263313.24946
  21648262.400   113762485.48409  21648262.700    88646112.00749
  24589737.340   129219943.26907  24589735.320   100690851.64745
  20154603.020   105913249.73509  20154601.660    82529849.88849
 15 03 06 03 53  0.0000000  0 10G01G03G04G11G14G19G22G27G28G32
  21914094.420   115159416.67608  21914095.960    89734630.12148
  22878070.540   120225134.96708  22878072.260    93681953.32347
  20508639.100   107773747.38209  20508637.460    83979591.43049
  20898247.560   109821069.86909  20898244.820    85574874.74648
  22829730.300   119971060.89608  22829728.200    93483950.36546
  20593630.560   108220289.68809  20593626.400    84327498.35649
  23281032.340   122342703.22908  23281027.800    95331987.53546
  21662033.180   113834851.37709  21662033.520    88702501.00849
  24578056.160   129158557.80507  24578054.180   100643018.81545
  20149675.300   105887354.52809  20149673.940    82509671.82749
 15 03 06 03 53 30.0000000  0 10G01G03G04G11G14G19G22G27G28G32
  21904452.620   115108748.62208  21904454.140    89695148.53548
  22861105.320   120135982.51008  22861107.000    93612483.95847
  20505867.940   107759184.90609  20505866.280    83968244.05149
  20888860.140   109771738.85109  20888857.440    85536434.99448
  22827983.440   119961880.80408  22827981.280    93476797.06546
  20598441.860   108245573.05109  20598437.680    84347199.66749
  23297825.700   122430953.22308  23297821.180    95400753.75146
  21675875.080   113907590.88209  21675875.400    88759181.12149
  24566450.680   129097570.38506  24566448.860   100595496.16944
  20144853.480   105862015.82909  20144852.100    82489927.39749
 15 03 06 03 54  0.0000000  0 10G01G03G04G11G14G19G22G27G28G32
  21894836.360   115058214.74008  21894837.720    89655771.49748
  22844191.100   120047098.42208  22844192.960    93543223.72047
  20503141.520   107744857.34909  20503139.820    83957079.72649
  20879520.040   109722656.45009  20879517.340    85498188.97548
  22826334.660   119953216.19908  22826332.400    93470045.44747
  20603338.780   108271306.40009  20603334.580    84367251.61749
  23314641.060   122519318.64108  23314636.640    95469609.90946
  21689787.680   113980701.83309  21689787.980    88816150.68449
  24554921.040   129036981.80207  24554918.760   100548284.25344
  20140137.320   105837232.38809  20140135.940    82470615.63949
 15 03 06 03 54 30.0000000  0 10G01G03G04G11G14G19G22G27G28G32
  21885244.800   115007810.92508  21885246.000    89616495.81448
  22827327.500   119958479.89208  22827329.440    93474170.39847
  20500459.060   107730760.73409  20500457.300    83946095.35649
  20870226.800   109673820.26709  20870224.100    85460134.81548
  22824783.460   119945064.43808  22824781.120    93463693.44246
  20608320.620   108297486.05609  20608316.380    84387651.34449
  23331477.280   122607793.55908  23331472.940    95538551.38146
  21703769.940   114054178.93709  21703770.180    88873405.55649
  24543466.820   128976789.45706  24543464.620   100501381.15644
  20135526.000   105812999.91209  20135524.640    82451733.20649
 15 03 06 03 55  0.0000000  0 10G01G03G04G11G14G19G22G27G28G32
  21875679.140   114957543.25008  21875680.160    89577326.20548
  22810515.740   119870134.19108  22810517.860    93405329.68647
  20497821.700   107716901.19109  20497819.920    83935295.71549
  20860981.740   109625237.21009  20860979.060    85422277.89148
  22823330.900   119937431.48408  22823328.640    93457745.70246
  20613388.540   108324118.14509  20613384.300    84408403.61049
  23348335.100   122696381.83008  23348330.700    95607581.19646
  21717822.760   114128027.02909  21717823.020    88930949.50849
  24532089.380   128917001.11907  24532087.180   100454792.83245
  20131020.680   105789324.23709  20131019.300    82433284.63949
 15 03 06 03 55 30.0000000  0 10G01G03G04G11G14G19G22G27G28G32
  21866138.660   114907407.92308  21866139.680    89538259.72748
  22793755.340   119782058.75108  22793757.520    93336699.56747
  20495228.660   107703274.73909  20495226.880    83924677.70349
  20851784.360   109576904.51709  20851781.660    85384616.06148
  22821976.520   119930314.57308  22821974.380    93452200.07846
  20618541.820   108351198.87209  20618537.600    84429505.47349
  23365213.340   122785077.63808  23365209.000    95676694.80346
  21731945.220   114202241.08309  21731945.500    88988778.62949
  24520788.320   128857614.39106  24520786.300   100408517.44844
  20126620.560   105766201.37709  20126619.160    82415266.84449
 15 03 06 03 56  0.0000000  0 10G01G03G04G11G14G19G22G27G28G32
  21856623.320   114857404.56908  21856624.420    89499296.08648
  22777046.600   119694254.48308  22777048.560    93268280.71847
  20492679.940   107689881.11209  20492678.140    83914241.11349
  20842634.700   109528822.62709  20842631.960    85347149.65148
  22820720.380   119923714.10908  22820718.320    93447056.85946
  20623780.500   108378728.19309  20623776.260    84450956.88449
  23382111.620   122873878.69308  23382107.300    95745890.40846
  21746137.040   114276819.48009  21746137.320    89046891.64749
  24509564.140   128798631.02706  24509562.220   100362556.39145
  20122325.500   105743630.57709  20122324.080    82397679.21649
 15 03 06 03 56 30.0000000  0 10G01G03G04G11G14G19G22G27G28G32
  21847133.380   114807534.62608  21847134.600    89460436.40148
  22760389.980   119606724.02408  22760391.700    93200075.23647
  20490175.780   107676721.67009  20490173.980    83903987.00249
  20833533.300   109480994.46009  20833530.540    85309880.96048
  22819563.080   119917632.74908  22819561.080    93442318.15146
  20629104.800   108406707.53909  20629100.560    84472758.96349
  23399029.820   122962784.43708  23399025.600    95815167.59846
  21760398.260   114351762.36809  21760398.500    89105288.69149
  24498417.180   128740053.90307  24498415.280   100316911.88544
  20118135.760   105721613.14009  20118134.340    82380522.78849
 15 03 06 03 57  0.0000000  0 10G01G03G04G11G14G19G22G27G28G32
  21837668.680   114757797.21908  21837669.940    89421679.99648
  22743785.560   119519467.68908  22743787.320    93132083.36847
  20487716.020   107663795.64909  20487714.240    83893914.78449
  20824480.200   109433420.11709  20824477.440    85272810.05248
  22818504.540   119912069.99108  22818502.600    93437983.53746
  20634514.520   108435135.77509  20634510.260    84494910.83249
  23415967.480   123051792.18308  23415963.220    95884524.26846
  21774728.400   114427067.60409  21774728.640    89163968.08649
  24487347.820   128681883.71906  24487345.540   100271584.45444
  20114051.060   105700147.78309  20114049.620    82363796.54849
 15 03 06 03 57 30.0000000  0 10G01G03G04G11G14G19G22G27G28G32
  21828229.100   114708191.80208  21828230.380    89383026.43448
  22727233.500   119432486.09508  22727235.300    93064305.57647
  20485300.580   107651102.39509  20485298.820    83884023.93749
  20815475.480   109386100.14909  20815472.760    85235937.35948
  22817544.780   119907026.08508  22817542.860    93434053.22446
  20640009.540   108464012.61509  20640005.360    84517412.26049
  23432924.080   123140899.16608  23432919.660    95953958.28446
  21789127.100   114502733.31509  21789127.400    89222928.36348
  24476355.900   128624120.99707  24476353.660   100226574.56644
  20110071.200   105679233.50709  20110069.760    82347499.72649
 15 03 06 03 58  0.0000000  0 10G01G03G04G11G14G19G22G27G28G32
  21818815.120   114658720.94508  21818816.340    89344477.71348
  22710734.440   119345782.97608  22710736.300    92996744.78447
  20482929.940   107638644.70509  20482928.240    83874316.64249
  20806519.840   109339038.14809  20806517.180    85199265.67948
  22816684.340   119902504.19208  22816682.300    93430529.68846
  20645590.460   108493340.66909  20645586.300    84540265.27649
  23449899.660   123230106.30408  23449895.280    96023470.31346
  21803594.620   114578760.76709  21803594.980    89282170.51348
  24465442.560   128566770.17307  24465440.260   100181885.57345
  20106196.620   105658872.61209  20106195.180    82331634.10149
 15 03 06 03 58 30.0000000  0 10G01G03G04G11G14G19G22G27G28G32
  21809426.820   114609385.16108  21809428.000    89306034.24348
  22694288.620   119259360.03408  22694290.580    92929402.31847
  20480604.180   107626423.04009  20480602.580    83864793.26949
  20797613.580   109292235.65209  20797610.940    85162796.20348
  22815923.480   119898505.50508  22815921.300    93427413.84646
  20651257.380   108523120.62409  20651253.260    84563470.42949
  23466893.920   123319411.81408  23466889.600    96093059.00246
  21818130.820   114655149.13209  21818131.240    89341693.89848
  24454607.880   128509833.41607  24454605.460   100137519.28544
  20102427.340   105639065.13009  20102425.880    82316199.71249
 15 03 06 03 59  0.0000000  0 10G01G03G04G11G14G19G22G27G28G32
  21800063.660   114560181.69708  21800064.860    89267693.89148
  22677895.840   119173215.67008  22677897.760    92862276.91947
  20478322.780   107614434.37109  20478321.240    83855451.45049
  20788756.400   109245690.97009  20788753.760    85126527.63048
  22815261.680   119895027.86908  22815259.540    93424704.01446
  20657009.720   108553349.46909  20657005.620    84587025.36649
  23483906.020   123408811.29808  23483901.800    96162720.92546
  21832734.980   114731894.31309  21832735.400    89401495.32248
  24443851.740   128453309.48006  24443849.420   100093474.65944
  20098762.800   105619807.87109  20098761.300    82301194.07049
 15 03 06 03 59 30.0000000  0 10G01G03G04G11G14G19G22G27G28G32
  21790725.820   114511111.05609  21790727.020    89229457.03248
  22661556.540   119087351.47508  22661558.120    92795369.80547
  20476085.860   107602679.47409  20476084.400    83846291.79249
  20779948.560   109199405.26609  20779945.880    85090460.85648
  22814699.200   119892072.28008  22814697.200    93422400.96446
  20662847.540   108584027.39909  20662843.420    84610930.24449
  23500935.780   123498303.21408  23500931.620    96232454.87746
  21847406.820   114808995.37409  21847407.220    89461574.06048
  24433174.620   128397200.21507  24433172.540   100049753.17744
  20095202.960   105601100.83309  20095201.440    82286617.17049
