     2.11           OBSERVATION DATA    G                   RINEX VERSION / TYPE
SPIDER V4,0,0,3554                      2015 03 24 00:46    PGM / RUN BY / DATE 
CAEK                                                        MARKER NAME         
CAEK                                                        MARKER NUMBER       
                                                            OBSERVER / AGENCY   
496550              LEICA GRX1200+GNSS  8.10/4.007          REC # / TYPE / VERS 
                    LEIAR25         NONE                    ANT # / TYPE        
  5175865.2406   441308.6117  3689278.4577                  APPROX POSITION XYZ 
        0.0720        0.0000        0.0000                  ANTENNA: DELTA H/E/N
     1     1                                                WAVELENGTH FACT L1/2
     4    C1    L1    P2    L2                              # / TYPES OF OBSERV 
    30.000                                                  INTERVAL            
  2015    03    06    00    00    0.0000000     GPS         TIME OF FIRST OBS   
  2015    03    06    23    59   30.0000000     GPS         TIME OF LAST OBS    
    16                                                      LEAP SECONDS        
    30                                                      # OF SATELLITES     
   G 1   819   819   819   819                              PRN / # OF OBS      
   G 2   937   937   937   937                              PRN / # OF OBS      
   G 3   848   848   848   848                              PRN / # OF OBS      
   G 4   840   839   839   839                              PRN / # OF OBS      
   G 5   656   656   656   656                              PRN / # OF OBS      
   G 6   805   805   805   805                              PRN / # OF OBS      
   G 7   663   663   663   663                              PRN / # OF OBS      
   G 9   800   800   800   800                              PRN / # OF OBS      
   G10   767   766   766   766                              PRN / # OF OBS      
   G11   783   783   783   783                              PRN / # OF OBS      
   G12   826   826   826   826                              PRN / # OF OBS      
   G13   806   806   806   806                              PRN / # OF OBS      
   G14   909   908   908   908                              PRN / # OF OBS      
   G15   692   692   692   692                              PRN / # OF OBS      
   G16   676   676   676   676                              PRN / # OF OBS      
   G17   940   938   938   938                              PRN / # OF OBS      
   G18   915   910   910   909                              PRN / # OF OBS      
   G19   772   772   772   772                              PRN / # OF OBS      
   G20   773   772   772   772                              PRN / # OF OBS      
   G21   695   685   678   672                              PRN / # OF OBS      
   G22   654   647   643   642                              PRN / # OF OBS      
   G23   744   744   744   744                              PRN / # OF OBS      
   G24   823   810   802   802                              PRN / # OF OBS      
   G25   854   854   853   853                              PRN / # OF OBS      
   G27   816   816   816   816                              PRN / # OF OBS      
   G28   891   891   890   890                              PRN / # OF OBS      
   G29   752   752   751   751                              PRN / # OF OBS      
   G30   710   710   710   710                              PRN / # OF OBS      
   G31   847   846   845   845                              PRN / # OF OBS      
   G32   758   758   758   758                              PRN / # OF OBS      
BIT 2 OF LLI FLAGS DATA COLLECTED UNDER A/S CONDITION       COMMENT             
SNR is mapped to RINEX snr flag value [2-9]                 COMMENT             
Lx:     = 25dBHz -> 1; 26-27dBHz -> 2; 28-31dBHz -> 3       COMMENT             
       32-35dBHz -> 4; 36-38dBHz -> 5; 39-41dBHz -> 6       COMMENT             
       42-44dBHz -> 7; 45-48dBHz -> 8; >=49dBHz -> 9        COMMENT             
                                                            END OF HEADER       
 15 03 06 00 00  0.0000000  0  7G16G18G19G21G22G27G31
  21112451.560   110946700.03509  21112448.160    86451969.96748
  22067654.720   115966453.00909  22067651.600    90363517.44147
  24512445.060   128813768.90808  24512441.280   100374351.61045
  21738707.660   114238152.26109  21738703.760    89016942.10848
  23034921.380   121049425.65208  23034917.700    94324267.88447
  22312913.000   117255181.90309  22312912.200    91367718.44748
  23836727.460   125262848.31208  23836726.960    97607397.81646
 15 03 06 00 00 30.0000000  0  7G16G18G19G21G22G27G31
  21101998.480   110891769.01509  21101995.120    86409166.57548
  22059419.100   115923174.54209  22059415.940    90329793.98247
  24497425.380   128734839.61808  24497421.460   100312848.28745
  21748753.440   114290943.06809  21748749.500    89058077.80748
  23017727.080   120959069.66909  23017723.300    94253860.73447
  22301539.480   117195413.87009  22301538.700    91321145.98448
  23854987.720   125358805.95908  23854987.380    97682169.71646
 15 03 06 00 01  0.0000000  0  7G16G18G19G21G22G27G31
  21091618.800   110837223.72009  21091615.460    86366663.74948
  22051261.520   115880306.10409  22051258.300    90296390.01347
  24482418.800   128655979.26607  24482415.100   100251398.71046
  21758845.680   114343977.87409  21758841.700    89099403.62848
  23000561.280   120868863.51109  23000557.600    94183570.33347
  22290187.200   117135757.47309  22290186.460    91274660.49648
  23873255.940   125454804.73108  23873255.680    97756973.65146
 15 03 06 00 01 30.0000000  0  7G16G18G19G21G22G27G31
  21081312.540   110783064.10609  21081309.200    86324461.45448
  22043181.920   115837847.35609  22043178.720    90263305.29747
  24467424.740   128577185.46707  24467421.400   100190001.07546
  21768983.740   114397253.66309  21768979.760    89140917.22848
  22983424.140   120778808.01009  22983420.520    94113397.33246
  22278855.760   117076210.64509  22278855.160    91228260.38948
  23891531.020   125550839.69508  23891530.860    97831805.79546
 15 03 06 00 02  0.0000000  0  7G16G18G19G21G22G27G31
  21071078.820   110729285.75409  21071075.520    86282556.24948
  22035179.460   115795794.06609  22035176.160    90230536.51247
  24452442.280   128498452.16007  24452439.060   100128650.52446
  21779165.980   114450761.71109  21779162.020    89182611.80848
  22966315.080   120688899.62409  22966311.340    94043338.93147
  22267544.040   117016767.33709  22267543.420    91181940.95348
  23909811.160   125646901.50708  23909811.280    97906658.81546
 15 03 06 00 02 30.0000000  0  7G16G18G19G21G22G27G31
  21060918.840   110675894.56809  21060915.520    86240952.72148
  22027255.120   115754151.21809  22027251.700    90198087.54247
  24437471.940   128419782.90008  24437468.400   100067349.84146
  21789392.660   114504503.39509  21789388.740    89224488.43748
  22949235.140   120599144.32309  22949231.520    93973399.85247
  22256252.700   116957431.16809  22256252.100    91135704.98748
  23928096.500   125742990.57708  23928096.720    97981533.06546
 15 03 06 00 03  0.0000000  0  7G16G18G19G21G22G27G31
  21050832.600   110622890.69309  21050829.220    86199651.00748
  22019408.760   115712918.20309  22019405.300    90165957.94147
  24422513.480   128341175.41508  24422509.740   100006097.28246
  21799663.160   114558475.27909  21799659.260    89266544.45148
  22932184.500   120509542.90209  22932180.740    93903580.65347
  22244981.360   116898200.22609  22244980.800    91089551.02548
  23946386.220   125839102.23308  23946386.400    98056424.98446
 15 03 06 00 03 30.0000000  0  7G16G18G19G21G22G27G31
  21040820.400   110570275.65609  21040816.920    86158652.27148
  22011640.840   115672097.45009  22011637.320    90134149.57147
  24407566.840   128262629.54308  24407563.080    99944892.76846
  21809977.080   114612675.53609  21809973.240    89308778.40948
  22915163.620   120420097.87609  22915159.780    93833883.31847
  22233730.060   116839074.58409  22233729.540    91043479.10248
  23964679.580   125935233.43508  23964679.800    98131332.02146
 15 03 06 00 04  0.0000000  0  7G16G18G19G21G22G27G31
  21030883.360   110518055.78309  21030879.800    86117961.46348
  22003952.300   115631694.09909  22003948.800    90102666.45947
  24392632.660   128184149.52908  24392628.840    99883739.58845
  21820334.940   114667106.63909  21820331.120    89351192.24748
  22898173.680   120330815.68209  22898169.860    93764312.87447
  22222499.620   116780058.52609  22222499.120    90997492.58048
  23982976.880   126031385.19708  23982977.120    98206255.11046
 15 03 06 00 04 30.0000000  0  7G16G18G19G21G22G27G31
  21021021.100   110466228.80209  21021017.420    86077576.80048
  21996342.700   115591705.66009  21996339.200    90071506.65247
  24377710.240   128105731.01008  24377706.120    99822634.23944
  21830735.460   114721761.76709  21830731.620    89393780.65748
  22881214.480   120241695.07309  22881210.580    93694868.32947
  22211289.280   116721147.75509  22211288.740    90951588.10348
  24001276.820   126127550.18908  24001277.160    98281188.50346
 15 03 06 00 05  0.0000000  0  7G16G18G19G21G22G27G31
  21011235.520   110414804.79609  21011231.760    86037506.14648
  21988813.780   115552141.19409  21988810.360    90040677.21748
  24362800.460   128027381.76306  24362796.400    99761582.96946
  21841179.860   114776647.48609  21841176.060    89436548.74948
  22864288.100   120152746.57708  22864284.260    93625557.90947
  22200100.600   116662350.54209  22200100.000    90905772.11048
  24019580.200   126223733.79108  24019580.780    98356136.36046
 15 03 06 00 05 30.0000000  0  7G16G18G19G21G22G27G31
  21001525.200   110363776.55209  21001521.420    85997743.88648
  21981364.140   115512993.49209  21981360.820    90010172.52847
  24347902.260   127949092.59408  24347898.280    99700578.50445
  21851665.960   114831752.23909  21851662.160    89479487.51848
  22847393.120   120063963.48909  22847389.300    93556376.38247
  22188931.820   116603657.73709  22188931.100    90860037.47148
  24037884.840   126319923.42408  24037885.340    98431088.94146
 15 03 06 00 06  0.0000000  0  7G16G18G19G21G22G27G31
  20991890.360   110313145.02609  20991886.580    85958290.74948
  21973993.980   115474263.23909  21973990.680    89979993.11947
  24333015.660   127870862.44208  24333011.540    99639619.94645
  21862193.340   114887073.85009  21862189.500    89522595.25948
  22830530.020   119975347.28209  22830526.140    93487324.86647
  22177782.700   116545068.44509  22177781.900    90814383.49448
  24056189.880   126416115.25408  24056190.400    98506043.19646
 15 03 06 00 06 30.0000000  0  7G16G18G19G21G22G27G31
  20982333.100   110262921.39609  20982329.360    85919155.46648
  21966705.420   115435961.51709  21966702.160    89950147.63347
  24318141.800   127792700.54207  24318138.020    99578714.69445
  21872763.320   114942619.36509  21872759.460    89565877.48048
  22813700.960   119886910.32109  22813697.080    93418413.05147
  22166655.060   116486592.27409  22166654.180    90768817.66648
  24074496.560   126512315.76908  24074497.060    98581004.23846
 15 03 06 00 07  0.0000000  0  7G16G18G19G21G22G27G31
  20972852.500   110213100.77809  20972848.800    85880334.20248
  21959497.240   115398082.35609  21959493.980    89920631.42747
  24303279.840   127714599.87408  24303275.920    99517857.02246
  21883374.320   114998380.31509  21883370.420    89609327.56748
  22796905.140   119798647.83109  22796901.100    93349637.16447
  22155547.560   116428222.13009  22155546.700    90723334.45848
  24092802.980   126608515.11108  24092803.640    98655964.28046
 15 03 06 00 07 30.0000000  0  7G16G18G19G21G22G27G31
  20963449.420   110163687.45309  20963445.760    85841830.31548
  21952370.180   115360629.59509  21952367.020    89891447.47147
  24288429.940   127636562.50807  24288425.940    99457048.72246
  21894026.080   115054355.75709  21894022.160    89652944.78748
  22780143.420   119710564.66809  22780139.420    93281001.02047
  22144460.700   116369960.62909  22144459.860    90677935.89248
  24111109.100   126704712.43208  24111109.720    98730922.77546
 15 03 06 00 08  0.0000000  0  7G16G18G19G21G22G27G31
  20954125.400   110114689.25009  20954121.720    85803649.89948
  21945325.760   115323611.02109  21945322.660    89862601.84548
  24273592.880   127558594.43708  24273589.280    99396294.48846
  21904719.760   115110551.53309  21904715.860    89696733.69948
  22763417.500   119622669.67809  22763413.420    93212511.49347
  22133395.660   116311813.85309  22133394.900    90632626.73248
  24129415.440   126800910.94008  24129416.040    98805882.18346
 15 03 06 00 08 30.0000000  0  7G16G18G19G21G22G27G31
  20944878.520   110066096.71009  20944874.880    85765785.58848
  21938362.080   115287016.75609  21938358.940    89834086.85047
  24258767.220   127480684.80808  24258763.100    99335585.63345
  21915452.740   115166953.64209  21915448.820    89740683.38848
  22746725.760   119534954.25009  22746721.660    93144161.88447
  22122350.340   116253770.63109  22122349.640    90587398.25948
  24147719.340   126897096.28208  24147719.980    98880831.32746
 15 03 06 00 09  0.0000000  0  7G16G18G19G21G22G27G31
  20935710.800   110017920.00609  20935707.180    85728245.30348
  21931480.840   115250855.69309  21931477.720    89805909.41147
  24243953.960   127402841.00607  24243949.880    99274928.17846
  21926226.120   115223568.09109  21926222.180    89784798.54148
  22730070.140   119447428.49409  22730066.060    93075960.07947
  22111326.320   116195839.02309  22111325.620    90542256.75948
  24166021.600   126993273.46608  24166022.400    98955774.08546
 15 03 06 00 09 30.0000000  0  7G16G18G19G21G22G27G31
  20926623.000   109970163.35209  20926619.380    85691032.32448
  21924682.840   115215132.15109  21924679.680    89778072.89347
  24229153.520   127325065.14608  24229149.880    99214323.71246
  21937040.000   115280395.34809  21937036.060    89829079.51548
  22713451.600   119360097.79509  22713447.500    93007910.24947
  22100324.020   116138021.67209  22100323.300    90497204.28848
  24184322.200   127089442.05208  24184323.240    99030710.13046
 15 03 06 00 10  0.0000000  0  7G16G18G19G21G22G27G31
  20917613.580   109922818.63609  20917609.960    85654140.34248
  21917966.460   115179837.37509  21917963.320    89750570.49547
  24214364.420   127247347.58608  24214360.800    99153764.61546
  21947892.160   115337423.67609  21947888.180    89873517.17748
  22696868.740   119272954.52509  22696864.720    92940006.48547
  22089341.600   116080308.65209  22089340.880    90452233.12048
  24202618.700   127185589.01408  24202619.860    99105629.33146
 15 03 06 00 10 30.0000000  0  7G16G18G19G21G22G27G31
  20908685.080   109875899.11709  20908681.440    85617579.68048
  21911334.100   115144984.17809  21911330.940    89723412.17348
  24199588.360   127169699.35808  24199584.720    99093259.58046
  21958784.400   115394662.77409  21958780.440    89918119.06548
  22680324.180   119186012.48809  22680320.060    92872259.51348
  22078381.240   116022711.51409  22078380.520    90407352.24548
  24220912.600   127281722.78008  24220914.120    99180538.19646
 15 03 06 00 11  0.0000000  0  7G16G18G19G21G22G27G31
  20899835.860   109829396.43109  20899832.260    85581343.82648
  21904784.060   115110563.55609  21904780.960    89696590.94047
  24184823.800   127092110.57508  24184820.060    99032800.81946
  21969714.480   115452100.60509  21969710.540    89962875.81547
  22663816.500   119099264.22509  22663812.420    92804663.54547
  22067441.020   115965220.20409  22067440.240    90362553.83948
  24239201.580   127377830.21408  24239203.300    99255426.56346
 15 03 06 00 11 30.0000000  0  7G16G18G19G21G22G27G31
  20891067.980   109783321.15709  20891064.420    85545441.00448
  21898318.320   115076586.06009  21898315.280    89670114.97647
  24170071.880   127014589.28007  24170068.160    98972394.68045
  21980683.620   115509743.93309  21980679.720    90007792.68547
  22647347.840   119012721.16109  22647343.740    92737227.45047
  22056522.600   115907843.56709  22056521.780    90317844.76748
  24257486.660   127473917.30308  24257488.500    99330299.01946
 15 03 06 00 12  0.0000000  0  7G16G18G19G21G22G27G31
  20882381.800   109737674.93409  20882378.240    85509872.52448
  21891937.020   115043052.38909  21891933.980    89643984.85847
  24155332.760   126937135.41708  24155328.840    98912041.05446
  21991691.460   115567590.52009  21991687.560    90052867.95048
  22630918.680   118926385.54809  22630914.500    92669953.02647
  22045626.020   115850581.73709  22045625.220    90273225.17148
  24275767.260   127569980.68008  24275769.360    99405152.99746
 15 03 06 00 12 30.0000000  0  7G16G18G19G21G22G27G31
  20873776.320   109692452.79409  20873772.760    85474634.48548
  21885639.160   115009956.93209  21885636.120    89618196.21347
  24140605.340   126859742.18708  24140601.420    98851734.68645
  22002736.280   115625631.39609  22002732.420    90098094.59648
  22614528.020   118840252.41309  22614523.840    92602836.36547
  22034749.980   115793427.73409  22034749.180    90228689.59548
  24294041.560   127666010.42308  24294043.820    99479980.74446
 15 03 06 00 13  0.0000000  0  7G16G18G19G21G22G27G31
  20865252.720   109647661.14509  20865249.200    85439731.90748
  21879425.860   114977305.83109  21879422.820    89592753.81548
  24125890.260   126782413.83808  24125886.280    98791478.91145
  22013818.640   115683869.74609  22013814.820    90143475.12547
  22598177.380   118754329.60909  22598173.100    92535883.60047
  22023895.280   115736386.25809  22023894.600    90184241.70848
  24312309.820   127762008.45008  24312312.000    99554783.81546
 15 03 06 00 13 30.0000000  0  7G16G18G19G21G22G27G31
  20856810.880   109603299.22609  20856807.400    85405164.17648
  21873296.860   114945097.77409  21873293.840    89567656.63848
  24111187.280   126705148.35508  24111182.840    98731272.01546
  22024937.680   115742300.65609  22024933.880    90189005.69248
  22581866.820   118668617.51609  22581862.560    92469095.02247
  22013061.660   115679455.30609  22013060.980    90139879.93348
  24330571.000   127857969.19908  24330573.560    99629557.72547
 15 03 06 00 14  0.0000000  0  7G16G18G19G21G22G27G31
  20848452.500   109559375.91609  20848449.060    85370938.22448
  21867253.700   114913340.85609  21867250.640    89542911.01048
  24096497.320   126627952.17108  24096493.100    98671119.24046
  22036094.520   115800930.03109  22036090.680    90234690.92747
  22565598.080   118583124.99109  22565593.780    92402477.53047
  22002250.360   115622641.93809  22002249.780    90095609.79448
  24348826.100   127953897.13108  24348828.620    99704306.12446
 15 03 06 00 14 30.0000000  0  7G16G18G19G21G22G27G31
  20840176.740   109515886.82109  20840173.380    85337050.61848
  21861295.440   114882030.18509  21861292.380    89518513.10447
  24081819.460   126550818.94908  24081815.360    98611015.47446
  22047287.460   115859749.17509  22047283.580    90280524.01847
  22549370.440   118497848.40709  22549366.140    92336028.30447
  21991460.320   115565939.98709  21991459.760    90051426.46848
  24367073.040   128049782.76008  24367075.580    99779021.46446
 15 03 06 00 15  0.0000000  0  7G16G18G19G21G22G27G31
  20831983.540   109472831.64809  20831980.280    85303501.13748
  21855421.940   114851164.83209  21855418.880    89494462.19147
  24067153.020   126473746.44708  24067148.800    98550959.01246
  22058515.820   115918754.56009  22058511.900    90326502.23448
  22533184.020   118412788.45009  22533179.700    92269747.87647
  21980691.160   115509347.67709  21980690.600    90007328.57748
  24385311.160   128145621.02308  24385313.840    99853699.92947
 15 03 06 00 15 30.0000000  0  7G16G18G19G21G22G27G31
  20823875.740   109430224.99309  20823872.520    85270301.14748
  21849635.740   114820758.40009  21849632.660    89470768.88247
  24052500.520   126396747.56008  24052496.540    98490959.95146
  22069781.520   115977956.41009  22069777.660    90372633.54248
  22517041.680   118327960.19109  22517037.400    92203647.99147
  21969945.340   115452877.82509  21969944.720    89963326.10348
  24403542.020   128241421.88608  24403544.740    99928349.20546
 15 03 06 00 16  0.0000000  0  7G16G18G19G21G22G27G31
  20815852.200   109388061.13409  20815848.960    85237446.19148
  21843935.800   114790805.18209  21843932.740    89447428.73447
  24037860.480   126319814.78707  24037856.720    98431012.39545
  22081082.860   116037345.39809  22081079.020    90418910.66548
  22500942.460   118243358.58909  22500938.240    92137724.72147
  21959221.400   115396523.16109  21959220.740    89919413.38848
  24421763.660   128337174.84608  24421766.420   100002961.13646
 15 03 06 00 16 30.0000000  0  7G16G18G19G21G22G27G31
  20807912.440   109346337.23809  20807909.120    85204934.06648
  21838321.500   114761301.83609  21838318.400    89424439.12547
  24023232.240   126242943.60308  24023228.440    98371112.78146
  22092418.680   116096915.57109  22092414.840    90465328.97147
  22484886.060   118158981.90109  22484881.840    92071976.70947
  21948518.600   115340279.55409  21948517.880    89875587.21548
  24439975.080   128432872.92808  24439978.200   100077530.31646
 15 03 06 00 17  0.0000000  0  7G16G18G19G21G22G27G31
  20800058.380   109305063.62209  20800055.000    85172772.80648
  21832794.580   114732257.71709  21832791.420    89401807.35847
  24008617.240   126166141.90608  24008613.620    98311267.37246
  22103790.320   116156673.97909  22103786.500    90511893.96447
  22468874.540   118074840.95509  22468870.280    92006412.39347
  21937838.560   115284155.48709  21937837.840    89831854.18648
  24458177.020   128528521.60208  24458180.440   100152060.89146
 15 03 06 00 17 30.0000000  0  7G16G18G19G21G22G27G31
  20792289.480   109264237.23809  20792286.040    85140960.04048
  21827354.360   114703669.11609  21827351.100    89379530.54647
  23994014.680   126089405.42608  23994011.040    98251472.74446
  22115196.420   116216613.51809  22115192.640    90558600.09047
  22452907.480   117990933.63609  22452903.220    91941030.13047
  21927180.420   115228146.58509  21927179.720    89788210.90548
  24476368.060   128624113.08007  24476371.440   100226546.97745
 15 03 06 00 18  0.0000000  0  7G16G18G19G21G22G27G31
  20784605.900   109223859.59509  20784602.460    85109496.93748
  21822001.060   114675537.28509  21821997.740    89357609.64347
  23979424.540   126012733.98308  23979420.960    98191728.79746
  22126636.560   116276731.80409  22126632.760    90605445.49448
  22436985.380   117907262.43809  22436981.000    91875831.83747
  21916544.220   115172252.92509  21916543.520    89744657.40348
  24494547.720   128719644.36208  24494551.020   100300986.10346
 15 03 06 00 18 30.0000000  0  7G16G18G19G21G22G27G31
  20777008.200   109183933.31509  20777004.720    85078385.54848
  21816734.980   114647863.87909  21816731.640    89336045.95847
  23964846.920   125936127.92308  23964843.400    98132035.82046
  22138110.620   116337028.15509  22138106.760    90652429.65748
  22421108.780   117823830.45009  22421104.380    91810819.95147
  21905930.080   115116475.28209  21905929.340    89701194.30848
  24512715.440   128815113.35608  24512718.880   100375376.60246
 15 03 06 00 19  0.0000000  0  7G16G18G19G21G22G27G31
  20769497.120   109144462.12009  20769493.560    85047628.76948
  21811556.700   114620651.82609  21811553.400    89314841.77247
  23950282.080   125859589.34607  23950278.240    98072395.39946
  22149618.580   116397502.79009  22149614.660    90699552.74648
  22405278.500   117740642.10109  22405274.040    91745997.90647
  21895338.480   115060816.03009  21895337.740    89657823.46948
  24530871.200   128910519.01908  24530875.000   100449717.80346
 15 03 06 00 19 30.0000000  0  7G16G18G19G21G22G27G31
  20762072.920   109105447.47309  20762069.300    85017227.74648
  21806466.320   114593902.04009  21806463.120    89293997.80147
  23935730.060   125783118.10908  23935726.320    98012807.49646
  22161160.020   116458153.44609  22161156.040    90746812.99347
  22389495.040   117657699.55109  22389490.620    91681367.40147
  21884769.400   115005275.12609  21884768.620    89614544.85348
  24549014.260   129005858.73908  24549018.700   100524007.46246
 15 03 06 00 20  0.0000000  0  7G16G18G19G21G22G27G31
  20754736.000   109066891.51209  20754732.340    84987184.13348
  21801464.240   114567616.11609  21801461.060    89273515.27347
  23921190.900   125706714.47608  23921187.120    97953272.25345
  22172734.700   116518978.65309  22172730.700    90794209.26247
  22373758.900   117575005.81909  22373754.400    91616930.77147
  21874223.000   114949853.28909  21874222.220    89571359.01248
  24567144.460   129101129.71008  24567149.280   100598243.64045
 15 03 06 00 20 30.0000000  0  7G16G18G19G21G22G27G31
  20747485.980   109028792.14009  20747482.260    84957496.31348
  21796549.980   114541791.51309  21796546.780    89253392.21047
  23906664.040   125630374.93308  23906660.140    97893786.89546
  22184341.580   116579973.25309  22184337.620    90841737.51747
  22358069.880   117492559.80409  22358065.460    91552687.17047
  21863698.640   114894547.29909  21863697.820    89528263.44148
  24585260.440   129196325.75308  24585265.400   100672421.41245
 15 03 06 00 21  0.0000000  0  7G16G18G19G21G22G27G31
  20740324.480   108991158.02209  20740320.720    84928171.02448
  21791725.000   114516435.88309  21791721.740    89233634.59147
  23892150.380   125554106.03108  23892146.480    97834356.68245
  22195981.660   116641142.27809  22195977.720    90889401.69147
  22342429.860   117410371.09309  22342425.400    91488644.06747
  21853197.640   114839364.16309  21853196.760    89485263.60448
  24603362.780   129291450.71508  24603367.900   100746543.76444
 15 03 06 00 21 30.0000000  0  7G16G18G19G21G22G27G31
  20733250.100   108953981.81709  20733246.320    84899202.55148
  21786987.720   114491541.28009  21786984.440    89214236.20247
  23877648.820   125477899.04608  23877644.700    97774974.55446
  22207652.860   116702474.88209  22207648.920    90937193.32747
  22326837.520   117328432.97809  22326833.040    91424796.22547
  21842718.340   114784294.99909  21842717.440    89442352.57348
  24621449.480   129386492.72408  24621454.700   100820601.51746
 15 03 06 00 22  0.0000000  0  7G16G18G19G21G22G27G31
  20726264.980   108917274.86409  20726261.260    84870599.73048
  21782340.200   114467118.52909  21782336.960    89195205.50447
  23863160.540   125401763.38008  23863156.580    97715648.17646
  22219356.660   116763978.92409  22219352.740    90985118.55047
  22311295.200   117246757.72409  22311290.760    91361153.22248
  21832262.640   114729349.95709  21832261.720    89399538.26648
  24639521.840   129481459.33908  24639527.460   100894600.37746
 15 03 06 00 22 30.0000000  0  7G16G18G19G21G22G27G31
  20719368.060   108881031.14709  20719364.340    84842357.87348
  21777781.200   114443161.01109  21777778.000    89176537.31847
  23848684.800   125325692.06008  23848680.620    97656371.77546
  22231091.340   116825644.94709  22231087.440    91033169.99647
  22295801.940   117165340.33509  22295797.460    91297711.15047
  21821829.160   114674521.66009  21821828.240    89356814.93048
  24657577.740   129576339.54108  24657583.120   100968532.02944
 15 03 06 00 23  0.0000000  0  7G16G18G19G21G22G27G31
  20712561.000   108845259.70509  20712557.300    84814484.01448
  21773312.220   114419676.57009  21773309.080    89158237.76047
  23834222.180   125249691.26908  23834218.220    97597150.44847
  22242857.860   116887478.56909  22242854.020    91081352.02947
  22280359.580   117084190.38209  22280355.080    91234477.46148
  21811419.320   114619817.79109  21811418.380    89314188.55148
  24675618.220   129671137.70108  24675623.740   101042399.64846
 15 03 06 00 23 30.0000000  0  7G16G18G19G21G22G27G31
  20705843.080   108809956.67109  20705839.360    84786975.15448
  21768932.480   114396660.88109  21768929.360    89140303.46948
  23819772.300   125173756.08607  23819768.100    97537980.14847
  22254654.940   116949472.61409  22254651.120    91129659.07947
  22264967.540   117003304.80009  22264962.960    91171449.77647
  21801032.160   114565233.16509  21801031.280    89271655.08748
  24693641.500   129765846.09708  24693647.120   101116197.30745
 15 03 06 00 24  0.0000000  0  6G16G18G19G21G22G27
  20699214.020   108775120.92309  20699210.380    84759830.41148
  21764641.640   114374112.27009  21764638.520    89122733.13147
  23805334.500   125097884.38008  23805330.400    97478859.40847
  22266481.720   117011622.71009  22266477.860    91178087.71547
  22249625.840   116922683.68009  22249621.200    91108628.16348
  21790667.240   114510765.37909  21790666.380    89229212.66948
 15 03 06 00 24 30.0000000  0  6G16G18G19G21G22G27
  20692676.460   108740765.85509  20692672.820    84733060.22648
  21760442.140   114352043.58909  21760438.980    89105536.76847
  23790910.720   125022087.29908  23790906.520    97419796.80345
  22278340.020   117073938.56209  22278336.160    91226645.51447
  22234337.160   116842341.16209  22234332.520    91046023.64048
  21780326.900   114456426.71809  21780326.100    89186870.86248
 15 03 06 00 25  0.0000000  0  6G16G18G19G21G22G27
  20686229.000   108706884.29309  20686225.380    84706659.00948
  21756332.280   114330446.13109  21756329.140    89088707.59548
  23776499.600   124946355.89508  23776495.180    97360785.29346
  22290227.840   117136409.31309  22290223.940    91275324.02347
  22219100.180   116762270.47309  22219095.560    90983630.93847
  21770009.420   114402208.16309  21770008.680    89144622.65248
 15 03 06 00 25 30.0000000  0  6G16G18G19G21G22G27
  20679873.060   108673483.75509  20679869.460    84680632.60748
  21752313.440   114309327.05009  21752310.260    89072251.17247
  23762101.960   124870696.31708  23762097.720    97301829.85346
  22302145.880   117199039.06209  22302142.020    91324126.41247
  22203916.560   116682480.18709  22203911.940    90921456.73048
  21759716.060   114348116.28309  21759715.340    89102473.14148
 15 03 06 00 26  0.0000000  0  6G16G18G19G21G22G27
  20673607.900   108640560.09809  20673604.320    84654977.80048
  21748384.780   114288681.84709  21748381.580    89056164.00747
  23747716.960   124795103.04908  23747712.580    97242925.98646
  22314092.940   117261821.23309  22314089.060    91373047.57747
  22188785.600   116602966.81009  22188781.020    90859498.29248
  21749445.800   114294145.93109  21749445.100    89060418.32048
 15 03 06 00 26 30.0000000  0  6G16G18G19G21G22G27
  20667434.780   108608120.23909  20667431.220    84629699.98148
  21744547.360   114268516.01109  21744544.120    89040450.38348
  23733345.620   124719581.20808  23733341.420    97184077.84146
  22326069.560   117324758.67309  22326065.620    91422089.72947
  22173708.980   116523738.89009  22173704.420    90797762.29548
  21739199.680   114240302.44309  21739199.000    89018462.36348
 15 03 06 00 27  0.0000000  0  6G16G18G19G21G22G27
  20661353.860   108576164.70209  20661350.280    84604799.56148
  21740801.180   114248829.85209  21740797.940    89025110.53548
  23718987.480   124644129.85808  23718983.320    97125284.63946
  22338075.160   117387848.67109  22338071.200    91471250.75947
  22158686.940   116444797.70709  22158682.400    90736249.72648
  21728977.640   114186585.47809  21728977.020    88976604.99448
 15 03 06 00 27 30.0000000  0  6G16G18G19G21G22G27
  20655364.500   108544690.60209  20655360.960    84580274.28048
  21737145.660   114229620.04909  21737142.460    89010141.86648
  23704642.160   124568744.71408  23704638.180    97066542.98046
  22350108.760   117451085.64709  22350104.840    91520526.31747
  22143719.100   116366141.42209  22143714.580    90674959.15548
  21718778.940   114132991.01909  21718778.300    88934843.08048
 15 03 06 00 28  0.0000000  0  6G16G18G19G21G22G27
  20649467.580   108513702.35709  20649464.100    84556127.59048
  21733581.360   114210889.60209  21733578.160    88995546.72148
  23690309.940   124493428.49208  23690305.740    97007855.01746
  22362170.520   117514470.50309  22362166.600    91569917.10347
  22128806.420   116287774.97209  22128801.900    90613894.42848
  21708604.160   114079522.13909  21708603.500    88893179.01648
 15 03 06 00 28 30.0000000  0  6G16G18G19G21G22G27
  20643663.700   108483202.91709  20643660.260    84532361.78648
  21730108.820   114192641.11909  21730105.660    88981327.13348
  23675991.200   124418183.38908  23675987.360    96949222.54347
  22374260.440   117578003.34309  22374256.500    91619423.20647
  22113949.620   116209702.28209  22113945.100    90553058.60248
  21698453.680   114026180.87309  21698452.960    88851614.39948
 15 03 06 00 29  0.0000000  0  6G16G18G19G21G22G27
  20637952.440   108453190.13809  20637949.020    84508975.20548
  21726727.400   114174871.45809  21726724.240    88967480.66348
  23661685.440   124343005.38008  23661681.080    96890642.27046
  22386377.380   117641678.13809  22386373.440    91669039.92547
  22099148.520   116131922.11309  22099144.020    90492450.72148
  21688326.840   113972963.82009  21688326.080    88810146.57848
 15 03 06 00 29 30.0000000  0  6G16G18G19G21G22G27
  20632335.900   108423674.98709  20632332.500    84485976.37948
  21723438.920   114157590.31109  21723435.740    88954014.84448
  23647393.900   124267903.72908  23647390.040    96832121.57247
  22398522.840   117705502.78209  22398518.900    91718773.40847
  22084405.300   116054446.05809  22084400.760    90432079.80548
  21678225.500   113919880.77509  21678224.700    88768783.16448
 15 03 06 00 30  0.0000000  0  6G16G18G19G21G22G27
  20626812.140   108394647.35809  20626808.740    84463357.44448
  21720241.500   114140787.62109  21720238.280    88940921.84748
  23633114.820   124192866.75708  23633110.420    96773651.20046
  22410694.220   117769463.82409  22410690.260    91768613.17247
  22069718.380   115977265.79909  22069713.800    90371939.37648
  21668147.540   113866920.57809  21668146.680    88727515.48248
 15 03 06 00 30 30.0000000  0  6G16G18G19G21G22G27
  20621382.760   108366115.66609  20621379.320    84441124.95348
  21717136.440   114124470.67309  21717133.300    88928207.35748
  23618849.560   124117902.22008  23618845.600    96715237.33747
  22422892.720   117833567.30609  22422888.800    91818563.92947
  22055089.480   115900390.43409  22055084.880    90312036.52748
  21658094.420   113814090.88709  21658093.520    88686349.48748
 15 03 06 00 31  0.0000000  0  6G16G18G19G21G22G27
  20616048.640   108338084.50309  20616045.180    84419282.48248
  21714124.480   114108642.92609  21714121.340    88915874.05848
  23604598.400   124043012.76008  23604594.180    96656881.92846
  22435118.360   117897813.50109  22435114.480    91868625.88547
  22040519.540   115823824.73009  22040514.860    90252374.97448
  21648066.780   113761394.77309  21648065.780    88645287.58248
 15 03 06 00 31 30.0000000  0  6G16G18G19G21G22G27
  20610807.900   108310543.91809  20610804.360    84397822.28048
  21711203.800   114093294.70209  21711200.620    88903914.41548
  23590359.760   123968187.72108  23590355.880    96598576.74546
  22447368.940   117962190.76009  22447365.040    91918789.97947
  22026006.960   115747560.58109  22026002.240    90192948.39948
  21638062.600   113708822.07609  21638061.520    88604321.84948
 15 03 06 00 32  0.0000000  0  6G16G18G19G21G22G27
  20605663.220   108283508.24509  20605659.640    84376755.52248
  21708376.840   114078438.70609  21708373.600    88892338.32448
  23576135.560   123893439.44208  23576131.240    96540331.32546
  22459646.400   118026709.19809  22459642.500    91969064.08047
  22011554.620   115671613.13309  22011549.900    90133768.60448
  21628084.300   113656385.50909  21628083.180    88563462.19448
 15 03 06 00 32 30.0000000  0  6G16G18G19G21G22G27
  20600613.600   108256972.11909  20600609.960    84356078.02048
  21705642.340   114064068.68009  21705639.040    88881140.91648
  23561924.680   123818761.29708  23561920.780    96482140.65746
  22471949.180   118091360.58009  22471945.320    92019441.77347
  21997161.660   115595977.75909  21997156.960    90074831.99048
  21618130.680   113604078.68109  21618129.500    88522703.63448
 15 03 06 00 33  0.0000000  0  6G16G18G19G21G22G27
  20595658.300   108230931.70009  20595654.640    84335786.77648
  21702999.480   114050180.28109  21702996.120    88870318.79148
  23547726.440   123744148.47408  23547722.120    96424000.77146
  22484275.940   118156137.90709  22484272.040    92069917.59847
  21982827.540   115520651.69209  21982822.840    90016136.38048
  21608200.820   113551897.12409  21608199.660    88482042.68648
 15 03 06 00 33 30.0000000  0  6G16G18G19G21G22G27
  20590800.280   108205402.60109  20590796.640    84315893.96848
  21700451.020   114036788.07509  21700447.680    88859883.31648
  23533543.220   123669615.05608  23533539.200    96365922.82547
  22496629.180   118221054.43209  22496625.260    92120501.89547
  21968555.420   115445651.31309  21968550.720    89957694.56148
  21598297.540   113499855.32309  21598296.400    88441490.63748
 15 03 06 00 34  0.0000000  0  6G16G18G19G21G22G27
  20586037.840   108180375.75209  20586034.220    84296392.52748
  21697995.220   114023882.89109  21697991.900    88849827.33848
  23519373.200   123595151.25808  23519368.900    96307899.10746
  22509006.640   118286098.11109  22509002.680    92171185.27747
  21954343.900   115370969.40809  21954339.160    89899500.90248
  21588419.140   113447944.09909  21588418.000    88401040.33848
 15 03 06 00 34 30.0000000  0  6G16G18G19G21G22G27
  20581372.100   108155857.05709  20581368.480    84277287.04048
  21695632.820   114011468.39009  21695629.480    88840153.70948
  23505217.160   123520760.92608  23505213.020    96249932.65046
  22521408.700   118351271.28709  22521404.760    92221969.55947
  21940194.180   115296612.19109  21940189.440    89841560.24448
  21578566.380   113396167.33809  21578565.200    88360694.80648
 15 03 06 00 35  0.0000000  0  6G16G18G19G21G22G27
  20576803.060   108131846.68709  20576799.460    84258577.66148
  21693363.820   113999544.78009  21693360.440    88830862.59348
  23491074.980   123446443.43208  23491070.660    96192022.93846
  22533834.860   118416571.48509  22533830.940    92272852.82447
  21926106.520   115222581.00409  21926101.760    89783873.63548
  21568739.160   113344524.93309  21568737.980    88320453.97348
 15 03 06 00 35 30.0000000  0  6G16G18G19G21G22G27
  20572330.880   108108345.35609  20572327.320    84240264.92848
  21691188.240   113988112.29509  21691184.860    88821954.17648
  23476946.600   123372198.21508  23476942.300    96134169.52547
  22546284.680   118481995.87709  22546280.780    92323832.85447
  21912081.220   115148877.56009  21912076.460    89726442.40948
  21558937.480   113293016.76409  21558936.320    88280317.73248
 15 03 06 00 36  0.0000000  0  6G16G18G19G21G22G27
  20567956.180   108085356.17409  20567952.640    84222351.27148
  21689106.440   113977172.54609  21689103.060    88813429.71048
  23462832.280   123298027.26208  23462828.000    96076374.00647
  22558758.260   118547545.33008  22558754.440    92374910.34347
  21898119.040   115075506.06409  21898114.360    89669269.84548
  21549161.740   113241645.03809  21549160.640    88240287.81748
 15 03 06 00 36 30.0000000  0  6G16G18G19G21G22G27
  20563679.000   108062879.59109  20563675.500    84204837.04948
  21687118.460   113966725.61709  21687115.060    88805289.25248
  23448732.040   123223929.93208  23448727.860    96018635.86047
  22571255.160   118613217.30809  22571251.420    92426083.30347
  21884220.340   115002468.15209  21884215.680    89612357.21148
  21539411.920   113190409.60909  21539410.900    88200364.10648
 15 03 06 00 37  0.0000000  0  6G16G18G19G21G22G27
  20559499.820   108040917.98609  20559496.340    84187724.10348
  21685224.480   113956772.80109  21685221.100    88797533.82548
  23434645.960   123149907.31908  23434641.780    95960955.93847
  22583775.380   118679011.51409  22583771.580    92477351.51547
  21870385.740   114929767.26909  21870381.140    89555707.20748
  21529688.340   113139312.09009  21529687.380    88160547.86248
 15 03 06 00 37 30.0000000  0  6G16G18G19G21G22G27
  20555418.720   108019471.85509  20555415.280    84171012.82848
  21683424.420   113947313.53709  21683421.080    88790162.98147
  23420573.960   123075958.99308  23420569.880    95903333.90147
  22596318.300   118744924.99809  22596314.500    92528712.66247
  21856615.480   114857404.64209  21856610.980    89499320.77248
  21519990.920   113088352.00409  21519990.000    88120838.70448
 15 03 06 00 38  0.0000000  0  6G16G18G19G21G22G27
  20551435.620   107998540.57809  20551432.180    84154702.73148
  21681718.120   113938346.93609  21681714.760    88783176.02748
  23406515.900   123002083.33108  23406511.780    95845768.46847
  22608883.260   118810954.28709  22608879.540    92580164.04247
  21842909.780   114785380.97909  21842905.300    89443198.46348
  21510319.460   113037528.41209  21510318.600    88081235.90748
 15 03 06 00 38 30.0000000  0  6G16G18G19G21G22G27
  20547551.200   107978127.54509  20547547.700    84138796.46348
  21680105.960   113929875.10409  21680102.660    88776574.60848
  23392472.120   122928282.37008  23392467.920    95788261.25446
  22621470.500   118877100.58309  22621466.780    92631706.60347
  21829269.460   114713700.70809  21829264.960    89387343.73548
  21500674.460   112986843.72309  21500673.660    88041741.34748
 15 03 06 00 39  0.0000000  0  6G16G18G19G21G22G27
  20543766.180   107958236.74009  20543762.600    84123297.12148
  21678588.560   113921901.17409  21678585.280    88770361.16548
  23378443.060   122854559.10208  23378438.740    95730814.57046
  22634080.140   118943364.49609  22634076.400    92683340.81047
  21815695.460   114642368.66709  21815690.860    89331760.34748
  21491056.520   112936301.20509  21491055.760    88002357.55848
 15 03 06 00 39 30.0000000  0  6G16G18G19G21G22G27
  20540079.700   107938864.12209  20540076.120    84108201.57548
  21677165.040   113914420.44409  21677161.740    88764532.03848
  23364427.820   122780908.69208  23364423.540    95673424.67947
  22646710.960   119009739.69609  22646707.180    92735061.74247
  21802187.220   114571382.11409  21802182.500    89276446.17648
  21481464.760   112885896.35509  21481464.060    87963081.06448
 15 03 06 00 40  0.0000000  0  6G16G18G19G21G22G27
  20536492.900   107920015.31409  20536489.300    84093514.18448
  21675836.260   113907437.59809  21675832.920    88759090.86948
  23350427.240   122707335.24508  23350423.120    95616094.74347
  22659363.500   119076228.89809  22659359.660    92786871.50047
  21788746.000   114500747.83709  21788741.180    89221406.50248
  21471900.120   112835633.98209  21471899.460    87923915.58448
 15 03 06 00 40 30.0000000  0  6G16G18G19G21G22G27
  20533005.420   107901688.31209  20533001.780    84079233.40148
  21674601.700   113900949.79709  21674598.300    88754035.45048
  23336440.900   122633836.30108  23336436.640    95558822.85147
  22672036.780   119142827.33409  22672032.960    92838766.38347
  21775371.620   114430465.02409  21775366.800    89166640.70348
  21462362.180   112785511.93209  21462361.540    87884859.45848
 15 03 06 00 41  0.0000000  0  6G16G18G19G21G22G27
  20529618.400   107883889.37009  20529614.780    84065364.08849
  21673462.260   113894961.95209  21673458.840    88749369.60948
  23322469.680   122560416.87308  23322465.440    95501612.96347
  22684731.580   119209538.80109  22684727.740    92890749.33447
  21762065.460   114360540.78709  21762060.660    89112154.30548
  21452851.960   112735535.54409  21452851.340    87845916.82848
 15 03 06 00 41 30.0000000  0  6G16G18G19G21G22G27
  20526330.700   107866612.44509  20526327.100    84051901.54148
  21672416.740   113889467.64109  21672413.280    88745088.33448
  23308512.300   122487070.18108  23308507.880    95444459.70647
  22697446.140   119276354.21508  22697442.320    92942813.28347
  21748826.640   114290970.60709  21748821.880    89057943.80448
  21443368.260   112685698.38209  21443367.640    87807082.68048
 15 03 06 00 42  0.0000000  0  6G16G18G19G21G22G27
  20523143.660   107849864.39009  20523140.040    84038851.10648
  21671466.300   113884473.07909  21671462.860    88741196.47448
  23294569.860   122413802.16408  23294565.380    95387367.75747
  22710181.400   119343278.38908  22710177.640    92994961.98247
  21735656.680   114221762.43109  21735651.940    89004015.38048
  21433912.300   112636006.87209  21433911.640    87768362.02948
 15 03 06 00 42 30.0000000  0  6G16G18G19G21G22G27
  20520057.360   107833645.96509  20520053.800    84026213.36748
  21670610.880   113879978.04609  21670607.460    88737693.85248
  23280642.300   122340612.76008  23280637.880    95330337.06947
  22722936.920   119410309.06809  22722933.140    93047193.66747
  21722555.920   114152917.81409  21722551.220    88950370.24648
  21424484.100   112586461.12109  21424483.420    87729754.94848
 15 03 06 00 43  0.0000000  0  6G16G18G19G21G22G27
  20517071.540   107817955.67209  20517068.040    84013987.16448
  21669850.000   113875979.75209  21669846.600    88734578.30947
  23266729.240   122267499.28608  23266724.680    95273365.55646
  22735711.820   119477441.76509  22735708.020    93099504.85647
  21709524.300   114084436.28309  21709519.580    88897008.04548
  21415083.220   112537059.09709  21415082.520    87691259.87748
 15 03 06 00 43 30.0000000  0  6G16G18G19G21G22G27
  20514186.960   107802797.35409  20514183.560    84002175.48448
  21669184.280   113872481.44609  21669180.880    88731852.36547
  23252831.200   122194464.96608  23252826.760    95216455.72047
  22748506.500   119544678.33008  22748502.660    93151896.97647
  21696562.820   114016323.26509  21696558.060    88843932.98648
  21405710.360   112487804.24309  21405709.600    87652879.47348
 15 03 06 00 44  0.0000000  0  6G16G18G19G21G22G27
  20511403.620   107788170.95609  20511400.280    83990778.29049
  21668613.480   113869482.11609  21668610.120    88729515.24348
  23238948.080   122121509.16708  23238943.760    95159607.07847
  22761320.380   119612015.97108  22761316.600    93204367.86347
  21683671.720   113948580.09509  21683666.920    88791146.12748
  21396365.480   112438696.44909  21396364.640    87614613.67648
 15 03 06 00 44 30.0000000  0  6G16G18G19G21G22G27
  20508721.420   107774076.02609  20508718.120    83979795.22049
  21668137.440   113866980.60909  21668134.100    88727566.02048
  23225079.700   122048630.43508  23225075.380    95102818.47147
  22774152.960   119679451.98408  22774149.280    93256915.39547
  21670851.060   113881207.10409  21670846.240    88738647.71348
  21387048.360   112389734.64509  21387047.480    87576461.62548
 15 03 06 00 45  0.0000000  0  6G16G18G19G21G22G27
  20506141.380   107760517.70609  20506138.100    83969230.28549
  21667756.900   113864981.02609  21667753.540    88726007.91448
  23211226.740   121975832.97508  23211222.560    95046093.18847
  22787004.780   119746988.86708  22787001.080    93309541.51947
  21658101.980   113814210.43109  21658097.120    88686442.53448
  21377759.900   112340923.39309  21377759.000    87538426.88148
 15 03 06 00 45 30.0000000  0  6G16G18G19G21G22G27
  20503663.100   107747494.22809  20503659.820    83959082.11849
  21667471.360   113863480.60509  21667467.980    88724838.76847
  23197388.760   121903114.18108  23197384.600    94989429.22247
  22799874.960   119814622.37908  22799871.340    93362242.95047
  21645424.480   113747589.80009  21645419.600    88634530.38348
  21368499.720   112292260.79209  21368498.840    87500507.98048
 15 03 06 00 46  0.0000000  0  6G16G18G19G21G22G27
  20501286.920   107735007.24409  20501283.660    83949351.99349
  21667281.000   113862480.19909  21667277.620    88724059.23648
  23183566.020   121830475.21808  23183561.800    94932827.43547
  22812763.400   119882351.70708  22812759.780    93415019.03747
  21632819.060   113681348.00209  21632814.220    88582913.41648
  21359268.080   112243748.16809  21359267.200    87462705.94148
 15 03 06 00 46 30.0000000  0  6G16G18G19G21G22G27
  20499013.260   107723058.99109  20499009.960    83940041.66149
  21667186.040   113861981.03409  21667182.680    88723670.28748
  23169758.720   121757917.67208  23169754.460    94876289.12247
  22825670.000   119950176.29508  22825666.380    93467869.36147
  21620286.360   113615488.46109  21620281.580    88531594.31148
  21350065.360   112195387.45109  21350064.480    87425022.26748
 15 03 06 00 47  0.0000000  0  6G16G18G19G21G22G27
  20496841.440   107711645.79809  20496838.120    83931148.25049
  21667185.620   113861978.91909  21667182.280    88723668.64548
  23155966.100   121685437.25608  23155961.860    94819810.88547
  22838593.700   120018090.75808  22838590.040    93520789.70947
  21607825.900   113550008.51709  21607821.120    88480571.00548
  21340890.800   112147174.75709  21340889.920    87387453.94548
 15 03 06 00 47 30.0000000  0  6G16G18G19G21G22G27
  20494772.860   107700775.06809  20494769.500    83922677.55349
  21667280.980   113862480.10709  21667277.640    88724059.19148
  23142189.440   121613040.70808  23142185.320    94763398.03347
  22851535.420   120086099.92108  22851531.760    93573783.86247
  21595439.460   113484917.39909  21595434.680    88429850.68548
  21331745.740   112099117.27409  21331744.860    87350006.57248
 15 03 06 00 48  0.0000000  0  6G16G18G19G21G22G27
  20492806.780   107690443.34809  20492803.420    83914626.85249
  21667471.340   113863480.44009  21667468.000    88724838.67548
  23128427.980   121540723.87908  23128423.860    94707047.28847
  22864494.120   120154197.94708  22864490.380    93626847.24547
  21583126.540   113420212.37809  21583121.680    88379431.20348
  21322629.520   112051211.30409  21322628.640    87312677.24848
 15 03 06 00 48 30.0000000  0  6G16G18G19G21G22G27
  20490943.700   107680652.89609  20490940.360    83906997.92149
  21667756.920   113864981.03409  21667753.540    88726007.97848
  23114682.020   121468488.12708  23114677.760    94650759.69547
  22877469.660   120222384.56308  22877465.860    93679979.66347
  21570887.700   113355896.80609  21570882.820    88329315.18948
  21313542.560   112003458.89609  21313541.620    87275467.58248
 15 03 06 00 49  0.0000000  0  6G16G18G19G21G22G27
  20489183.960   107671405.41109  20489180.580    83899792.08648
  21668137.760   113866982.26909  21668134.340    88727567.39648
  23100951.740   121396334.86608  23100947.260    94594536.41847
  22890462.000   120290659.50509  22890458.180    93733180.89847
  21558723.580   113291973.95509  21558718.680    88279505.20248
  21304485.100   111955861.56509  21304484.120    87238378.76348
 15 03 06 00 49 30.0000000  0  6G16G18G19G21G22G27
  20487527.120   107662698.50809  20487523.720    83893007.47649
  21668613.440   113869481.91609  21668610.020    88729515.18148
  23087236.660   121324261.46108  23087232.280    94538375.35047
  22903470.320   120359018.25208  22903466.460    93786447.44647
  21546634.020   113228442.90409  21546629.100    88230000.50648
  21295456.740   111908417.06609  21295455.700    87201409.03148
 15 03 06 00 50  0.0000000  0  6G16G18G19G21G22G27
  20485974.500   107654539.42209  20485971.140    83886649.74449
  21669185.120   113872485.98109  21669181.700    88731856.01948
  23073537.980   121252274.40708  23073533.560    94482281.57647
  22916495.460   120427465.60908  22916491.600    93839783.04247
  21534620.580   113165312.01409  21534615.680    88180807.62348
  21286458.760   111861132.43309  21286457.740    87164563.86748
 15 03 06 00 50 30.0000000  0  6G16G18G19G21G22G27
  20484525.860   107646926.73809  20484522.500    83880717.77549
  21669852.280   113875991.99909  21669848.860    88734587.98948
  23059855.360   121180371.70308  23059850.900    94426253.52647
  22929536.700   120495997.82408  22929532.900    93893184.75247
  21522683.240   113102580.92909  21522678.360    88131926.28348
  21277490.900   111814005.96809  21277489.920    87127841.95348
 15 03 06 00 51  0.0000000  0  6G16G18G19G21G22G27
  20483181.040   107639859.59309  20483177.640    83875210.90449
  21670614.640   113879998.31709  21670611.180    88737709.80248
  23046188.480   121108551.92208  23046184.040    94370290.09147
  22942593.540   120564612.20008  22942589.820    93946650.49346
  21510822.040   113040249.99209  21510817.140    88083356.75248
  21268553.000   111767036.97409  21268552.020    87091242.74448
 15 03 06 00 51 30.0000000  0  6G16G18G19G21G22G27
  20481940.460   107633340.30109  20481937.060    83870130.92949
  21671472.440   113884506.24909  21671468.980    88741222.47648
  23032537.800   121036817.19008  23032533.340    94314392.91847
  22955665.980   120633308.69808  22955662.340    94000180.21247
  21499037.740   112978323.12509  21499032.840    88035102.06648
  21259645.480   111720227.64809  21259644.500    87054767.94548
 15 03 06 00 52  0.0000000  0  6G16G18G19G21G22G27
  20480803.720   107627366.52909  20480800.260    83865476.03749
  21672425.040   113889512.27009  21672421.560    88745123.27848
  23018902.760   120965164.52208  23018898.240    94258559.71147
  22968753.240   120702082.87108  22968749.580    94053770.46947
  21487330.080   112916799.05109  21487325.200    87987161.25448
  21250767.900   111673575.67409  21250766.940    87018415.76248
 15 03 06 00 52 30.0000000  0  6G16G18G19G21G22G27
  20479771.980   107621944.51809  20479768.480    83861251.08949
  21673473.580   113895022.50009  21673470.100    88749416.97648
  23005284.420   120893600.00108  23005279.920    94202795.18447
  22981856.140   120770938.87108  22981852.440    94107424.49047
  21475700.500   112855685.20609  21475695.580    87939540.09748
  21241921.440   111627087.38609  21241920.500    86982191.13648
 15 03 06 00 53  0.0000000  0  6G16G18G19G21G22G27
  20478844.280   107617069.31409  20478840.780    83857452.22748
  21674616.820   113901030.28509  21674613.320    88754098.37348
  22991681.900   120822118.31508  22991677.420    94147095.21047
  22994973.260   120839869.63908  22994969.500    94161136.77247
  21464148.280   112794978.10909  21464143.360    87892235.88848
  21233105.200   111580757.74809  21233104.220    86946090.13048
 15 03 06 00 53 30.0000000  0  6G16G18G19G21G22G27
  20478021.460   107612745.34209  20478017.960    83854082.89049
  21675855.460   113907539.29809  21675851.960    88759170.33548
  22978095.900   120750723.23808  22978091.340    94091462.68447
  23008105.060   120908877.73408  23008101.320    94214909.30647
  21452674.600   112734683.70509  21452669.700    87845253.25448
  21224320.000   111534591.35009  21224319.020    86910116.32548
 15 03 06 00 54  0.0000000  0  6G16G18G19G21G22G27
  20477303.720   107608973.35609  20477300.180    83851143.67248
  21677189.540   113914550.04409  21677186.060    88764633.26447
  22964526.540   120679415.80908  22964521.940    94035898.48747
  23021251.420   120977962.29608  23021247.700    94268741.40847
  21441279.880   112674804.17609  21441275.020    87798593.89548
  21215566.040   111488589.43409  21215565.100    86874270.68948
 15 03 06 00 54 30.0000000  0  7G04G16G18G19G21G22G27
  24583421.620                                                  
  20476690.580   107605751.07309  20476687.020    83848632.79849
  21678618.360   113922058.61409  21678614.880    88770484.10348
  22950973.300   120608192.93409  22950968.680    93980400.17147
  23034411.380   121047118.25608  23034407.640    94322629.16447
  21429963.860   112615338.13709  21429958.980    87752256.74248
  21206842.880   111442749.38109  21206842.040    86838551.18348
 15 03 06 00 55  0.0000000  0  7G04G16G18G19G21G22G27
  24564836.000   129089085.97808  24564839.040   100588897.61445
  20476186.460   107603101.72909  20476182.880    83846568.37448
  21680146.160   113930087.60509  21680142.760    88776740.46748
  22937440.480   120537077.45908  22937435.800    93924985.54247
  23047589.000   121116366.97908  23047585.260    94376589.20747
  21418731.160   112556310.03409  21418726.320    87706260.84248
  21198154.980   111397094.48209  21198154.180    86802975.94748
 15 03 06 00 55 30.0000000  0  7G04G16G18G19G21G22G27
  24546273.720   128991541.70007  24546276.860   100512889.39943
  20475783.760   107600985.46609  20475780.160    83844919.32749
  21681765.380   113938596.81509  21681762.020    88783371.02148
  22923920.520   120466029.54208  22923915.700    93869623.54747
  23060776.480   121185667.41808  23060772.740    94430589.53447
  21407574.600   112497681.85509  21407569.760    87660576.56648
  21189494.900   111351585.52309  21189494.120    86767514.42948
 15 03 06 00 56  0.0000000  0  7G04G16G18G19G21G22G27
  24527739.160   128894144.11107  24527742.620   100436995.25144
  20475486.600   107599424.07609  20475483.020    83843702.65648
  21683479.920   113947606.85809  21683476.580    88790391.84348
  22910417.540   120395070.96408  22910412.680    93814331.16547
  23073977.460   121255038.78908  23073973.720    94484645.14846
  21396498.500   112439476.54109  21396493.640    87615221.79648
  21180866.780   111306244.37009  21180865.960    86732183.66948
 15 03 06 00 56 30.0000000  0  7G04G16G18G19G21G22G27
  24509233.320   128796897.14907  24509237.100   100361218.62545
  20475295.480   107598420.01009  20475291.920    83842920.26549
  21685290.060   113957119.19209  21685286.700    88797804.06248
  22896932.020   120324204.35608  22896927.220    93759110.45247
  23087192.200   121324482.47208  23087188.420    94538757.10147
  21385503.640   112381698.06409  21385498.760    87570199.63148
  21172271.180   111261074.11309  21172270.360    86696986.07649
 15 03 06 00 57  0.0000000  0  7G04G16G18G19G21G22G27
  24490755.680   128699797.71208  24490759.580   100285556.89245
  20475209.900   107597970.53609  20475206.380    83842570.01949
  21687195.060   113967129.92109  21687191.660    88805604.63848
  22883463.300   120253426.07809  22883458.520    93703958.57047
  23100419.660   121393993.06208  23100415.840    94592921.19547
  21374589.660   112324344.59709  21374584.760    87525508.63448
  21163707.460   111216071.56309  21163706.660    86661919.16749
 15 03 06 00 57 30.0000000  0  7G04G16G18G19G21G22G27
  24472306.220   128602845.20308  24472310.140   100210009.63445
  20475229.660   107598074.63309  20475226.200    83842651.13249
  21689194.540   113977637.18309  21689191.120    88813792.12348
  22870011.240   120182735.16009  22870006.420    93648874.76447
  23113659.280   121463567.87208  23113655.480    94647135.33447
  21363756.660   112267416.62209  21363751.720    87481149.18948
  21155175.500   111171236.20509  21155174.800    86626982.53449
 15 03 06 00 58  0.0000000  0  7G04G16G18G19G21G22G27
  24453885.460   128506043.23308  24453889.320   100134579.82846
  20475355.340   107598735.27309  20475351.940    83843165.90648
  21691288.980   113988643.46109  21691285.540    88822368.45248
  22856576.400   120112134.91209  22856571.700    93593861.59847
  23126911.360   121533208.25908  23126907.560    94701400.56146
  21353005.500   112210918.84209  21353000.520    87437124.96548
  21146676.060   111126571.59609  21146675.420    86592178.94949
 15 03 06 00 58 30.0000000  0  7G04G16G18G19G21G22G27
  24435493.920   128409395.42108  24435497.720   100059270.19145
  20475587.540   107599955.62909  20475584.200    83844116.82248
  21693478.760   114000150.92709  21693475.360    88831335.31548
  22843159.280   120041627.76408  22843154.580    93538920.97847
  23140176.240   121602915.77108  23140172.520    94755718.09846
  21342337.040   112154855.73809  21342332.040    87393439.44648
  21138209.800   111082081.15209  21138209.200    86557511.08148
 15 03 06 00 59  0.0000000  0  7G04G16G18G19G21G22G27
  24417131.100   128312898.95508  24417134.760    99984078.45945
  20475925.700   107601732.62709  20475922.380    83845501.48849
  21695763.160   114012155.67209  21695759.740    88840689.67248
  22829759.360   119971211.10108  22829754.600    93484050.87347
  23153452.940   121672685.72108  23153449.340    94810084.28746
  21331750.920   112099225.38609  21331745.920    87350091.13448
  21129776.160   111037762.25909  21129775.600    86522976.88849
 15 03 06 00 59 30.0000000  0  7G04G16G18G19G21G22G27
  24398797.100   128216554.44008  24398800.740    99909005.15545
  20476369.800   107604066.28009  20476366.460    83847319.91549
  21698142.020   114024656.67409  21698138.620    88850430.71848
  22816376.740   119900885.21308  22816372.020    93429251.50247
  23166741.240   121742516.31908  23166737.640    94864497.74046
  21321247.520   112044029.61209  21321242.460    87307081.46348
  21121375.300   110993615.55709  21121374.760    86488576.87149
 15 03 06 01 00  0.0000000  0  7G04G16G18G19G21G22G27
  24380492.240   128120363.22308  24380495.820    99834051.32745
  20476920.040   107606957.78209  20476916.700    83849573.01949
  21700615.420   114037654.56809  21700612.040    88860558.94948
  22803011.560   119830650.49208  22803006.820    93374523.15947
  23180040.960   121812406.97108  23180037.440    94918957.97046
  21310827.260   111989270.76009  21310822.100    87264412.24048
  21113007.440   110949642.27709  21113006.880    86454311.98649
 15 03 06 01 00 30.0000000  0  7G04G16G18G19G21G22G27
  24362217.260   128024329.19508  24362220.720    99759220.00544
  20477577.100   107610410.56109  20477573.740    83852263.48849
  21703183.840   114051151.56409  21703180.440    88871076.09748
  22789664.480   119760511.04509  22789659.660    93319869.07347
  23193352.520   121882359.68108  23193349.000    94973466.56746
  21300491.020   111934953.67109  21300485.840    87222087.25348
  21104673.380   110905846.50909  21104672.800    86420185.42249
 15 03 06 01 01  0.0000000  0  7G04G16G18G19G21G22G27
  24343971.780   127928449.78208  24343975.020    99684509.22545
  20478340.320   107614421.28809  20478336.980    83855388.72049
  21705846.420   114065143.50109  21705843.020    88881978.90948
  22776334.900   119690463.34609  22776330.080    93265286.46647
  23206674.940   121952369.37608  23206671.360    95028019.56847
  21290238.380   111881075.96209  21290233.220    87180104.64248
  21096372.580   110862225.40809  21096371.980    86386194.96049
 15 03 06 01 01 30.0000000  0  7G04G16G18G19G21G22G27
  24325756.280   127832728.44208  24325759.520    99609921.65345
  20479210.340   107618993.06709  20479206.940    83858951.13849
  21708603.600   114079632.59809  21708600.180    88893269.12748
  22763023.340   119620510.55509  22763018.620    93210777.82947
  23220008.520   122022437.59408  23220004.940    95082618.17146
  21280070.300   111827642.78509  21280065.220    87138468.42148
  21088105.700   110818782.60809  21088105.080    86352343.43349
 15 03 06 01 02  0.0000000  0  7G04G16G18G19G21G22G27
  24307570.660   127737163.95108  24307573.840    99535456.16145
  20480186.860   107624124.33809  20480183.380    83862949.52749
  21711454.960   114094616.79309  21711451.600    88904945.12948
  22749729.680   119550651.67908  22749724.980    93156342.34947
  23233352.660   122092561.32308  23233349.020    95137260.04046
  21269986.820   111774653.99009  21269981.760    87097178.46948
  21079872.620   110775517.37509  21079871.960    86318630.27349
 15 03 06 01 02 30.0000000  0  7G04G16G18G19G21G22G27
  24289415.520   127641759.63308  24289418.680    99461115.53845
  20481270.400   107629817.88009  20481266.820    83867386.04149
  21714400.900   114110097.82209  21714397.540    88917008.27748
  22736454.260   119480889.16509  22736449.460    93101981.97647
  23246707.620   122162741.75708  23246703.940    95191946.08646
  21259988.660   111722113.55409  21259983.640    87056237.89048
  21071673.860   110732432.64809  21071673.220    86285057.76649
 15 03 06 01 03  0.0000000  0  7G04G16G18G19G21G22G27
  24271290.520   127546513.72808  24271293.560    99386898.48445
  20482460.360   107636070.96809  20482456.760    83872258.57149
  21717440.720   114126072.17609  21717437.340    88929455.83248
  22723196.720   119411220.48009  22723192.000    93047694.71347
  23260072.620   122232974.87708  23260068.860    95246673.17946
  21250075.680   111670020.56909  21250070.640    87015645.96348
  21063509.100   110689526.60209  21063508.460    86251624.49049
 15 03 06 01 03 30.0000000  0  7G04G16G18G19G21G22G27
  24253196.440   127451430.40407  24253199.200    99312808.08245
  20483757.540   107642887.46809  20483753.900    83877570.12449
  21720574.960   114142542.77109  21720571.600    88942290.07448
  22709957.880   119341650.13809  22709953.180    92993484.08947
  23273448.020   122303262.86308  23273444.180    95301443.04046
  21240248.780   111618379.86609  21240243.720    86975406.47948
  21055379.260   110646803.68209  21055378.560    86218333.91149
 15 03 06 01 04  0.0000000  0  7G04G16G18G19G21G22G27
  24235132.800   127356507.55008  24235135.540    99238842.83845
  20485161.340   107650264.44809  20485157.700    83883318.41149
  21723802.980   114159506.16509  21723799.620    88955508.30948
  22696737.280   119272175.50209  22696732.440    92939348.02047
  23286833.060   122373601.42408  23286829.160    95356252.28546
  21230507.780   111567190.46809  21230502.660    86935518.64748
  21047283.820   110604261.78109  21047283.100    86185184.38849
 15 03 06 01 04 30.0000000  0  7G04G16G18G19G21G22G27
  24217099.660   127261744.88308  24217102.240    99165002.34944
  20486671.700   107658201.36209  20486668.100    83889503.01149
  21727124.380   114176960.44709  21727121.020    88969109.05348
  22683534.800   119202795.88608  22683530.000    92885286.00047
  23300227.320   122443988.57208  23300223.420    95411099.41446
  21220852.700   111516452.74109  21220847.580    86895982.76848
  21039222.840   110561900.72009  21039222.060    86152175.77149
 15 03 06 01 05  0.0000000  0  7G04G16G18G19G21G22G27
  24199098.440   127167150.15608  24199100.760    99091292.70344
  20488289.980   107666705.42509  20488286.380    83896129.54849
  21730540.420   114194911.85609  21730537.060    88983097.17248
  22670351.800   119133518.82209  22670347.040    92831303.89247
  23313631.960   122514430.30208  23313627.980    95465989.06646
  21211285.300   111466175.74109  21211280.180    86856805.90748
  21031197.800   110519728.60809  21031196.960    86119314.39549
 15 03 06 01 05 30.0000000  0  7G04G16G18G19G21G22G27
  24181127.840   127072716.07808  24181129.980    99017708.08844
  20490014.640   107675768.64609  20490011.060    83903191.79049
  21734049.600   114213352.59509  21734046.240    88997466.58748
  22657186.940   119064337.10509  22657182.160    92777396.07347
  23327045.260   122584917.52008  23327041.280    95520914.16446
  21201804.380   111416353.23809  21201799.280    86817983.19248
  21023207.360   110477738.54909  21023206.500    86086594.87349
 15 03 06 01 06  0.0000000  0  7G04G16G18G19G21G22G27
  24163189.200   126978449.77808  24163191.280    98944254.22345
  20491846.920   107685397.31909  20491843.320    83910694.63749
  21737652.820   114232287.51009  21737649.440    89012221.06648
  22644041.440   118995257.13109  22644036.620    92723567.54047
  23340468.060   122655454.86208  23340464.100    95575878.30946
  21192411.400   111366992.74809  21192406.300    86779520.48548
  21015252.820   110435937.33509  21015251.960    86054022.50149
 15 03 06 01 06 30.0000000  0  7G04G16G18G19G21G22G27
  24145281.640   126884347.39008  24145283.680    98870928.29744
  20493785.980   107695587.00609  20493782.360    83918634.64348
  21741348.920   114251710.71009  21741345.580    89027356.03548
  22630914.480   118926274.55909  22630909.660    92669814.91347
  23353899.220   122726036.53108  23353895.340    95630876.99746
  21183105.720   111318091.01409  21183100.620    86741415.25648
  21007333.480   110394321.13809  21007332.640    86021594.30249
 15 03 06 01 07  0.0000000  0  7G04G16G18G19G21G22G27
  24127406.020   126790412.67008  24127408.080    98797732.99545
  20495832.400   107706340.87109  20495828.800    83927014.27249
  21745138.480   114271625.10809  21745135.140    89042873.75648
  22617806.780   118857393.29309  22617802.000    92616141.21647
  23367339.300   122796664.50208  23367335.480    95685911.76846
  21173888.200   111269652.61409  21173883.060    86703671.06748
  20999450.120   110352894.12309  20999449.260    85989313.52449
 15 03 06 01 07 30.0000000  0  7G04G16G18G19G21G22G27
  24109562.220   126696644.68608  24109564.120    98724667.52145
  20497985.800   107717657.22709  20497982.220    83935832.20049
  21749021.100   114292028.39809  21749017.760    89058772.43048
  22604718.080   118788611.92109  22604713.280    92562545.36247
  23380787.660   122867336.08208  23380783.740    95740980.52746
  21164758.860   111221677.68809  21164753.720    86666288.02048
  20991602.680   110311655.57109  20991601.820    85957179.58849
 15 03 06 01 08  0.0000000  0  7G04G16G18G19G21G22G27
  24091751.000   126603047.89008  24091752.800    98651735.46045
  20500246.860   107729539.31209  20500243.300    83945090.95749
  21752997.240   114312923.22909  21752993.900    89075054.12248
  22591649.260   118719934.80509  22591644.400    92509030.73747
  23394244.740   122938053.66408  23394240.840    95796085.11246
  21155718.680   111174171.41009  21155713.540    86629270.15648
  20983791.920   110270609.91009  20983791.060    85925195.95849
 15 03 06 01 08 30.0000000  0  7G04G16G18G19G21G22G27
  24073971.340   126509616.81208  24073972.940    98578932.37345
  20502614.420   107741981.26009  20502610.920    83954785.97749
  21757065.640   114334303.00209  21757062.280    89091713.70048
  22578599.260   118651356.52409  22578594.500    92455593.14247
  23407709.280   123008810.41508  23407705.380    95851220.24546
  21146766.860   111127129.54709  21146761.720    86592614.18348
  20976016.960   110229752.33209  20976016.100    85893358.89949
 15 03 06 01 09  0.0000000  0  7G04G16G18G19G21G22G27
  24056224.580   126416358.62508  24056225.980    98506263.98345
  20505089.940   107754990.34709  20505086.480    83964922.92248
  21761227.340   114356173.02709  21761223.980    89108755.28847
  22565569.340   118582883.71709  22565564.480    92402237.72447
  23421182.200   123079611.21908  23421178.320    95906389.69046
  21137904.820   111080559.60909  21137899.720    86556325.93848
  20968279.200   110189090.05809  20968278.320    85861674.02049
 15 03 06 01 09 30.0000000  0  7G04G16G18G19G21G22G27
  24038510.200   126323270.32008  24038511.480    98433727.94245
  20507672.540   107768562.16209  20507669.140    83975498.35248
  21765481.520   114378528.96509  21765478.180    89126175.50448
  22552558.920   118514513.35109  22552554.000    92348962.12347
  23434662.600   123150451.17308  23434658.800    95961589.64046
  21129132.180   111034459.23509  21129127.080    86520403.58348
  20960578.040   110148620.25509  20960577.200    85830139.11548
 15 03 06 01 10  0.0000000  0  7G04G16G18G19G21G22G27
  24020828.620   126230354.13508  24020829.700    98361326.02845
  20510362.540   107782698.35709  20510359.200    83986513.56149
  21769828.240   114401371.03309  21769824.900    89143974.53048
  22539568.260   118446247.32409  22539563.380    92295767.84547
  23448150.560   123221330.68908  23448146.720    96016820.43046
  21120449.540   110988831.58809  21120444.400    86484849.59148
  20952913.960   110108345.31109  20952913.100    85798756.05249
 15 03 06 01 10 30.0000000  0  7G04G16G18G19G21G22G27
  24003180.000   126137610.98807  24003181.080    98289058.92146
  20513159.940   107797398.69409  20513156.580    83997968.35849
  21774267.360   114424698.75309  21774264.000    89162151.97648
  22526597.640   118378086.52109  22526592.840    92242655.54747
  23461645.860   123292248.94308  23461642.080    96072081.38846
  21111857.200   110943678.48909  21111852.060    86449665.37448
  20945287.180   110068266.36409  20945286.300    85767525.70849
 15 03 06 01 11  0.0000000  0  7G04G16G18G19G21G22G27
  23985564.620   126045042.54808  23985565.640    98216927.96845
  20516064.820   107812663.70409  20516061.440    84009863.16249
  21778798.880   114448512.06409  21778795.540    89180707.81448
  22513647.320   118310032.19609  22513642.520    92189626.22347
  23475148.520   123363205.89308  23475144.740    96127372.51646
  21103355.560   110899001.97809  21103350.400    86414852.52448
  20937698.040   110028385.30109  20937697.200    85736449.56349
 15 03 06 01 11 30.0000000  0  7G04G16G18G19G21G22G27
  23967982.120   125952647.29508  23967983.120    98144931.94845
  20519076.820   107828491.49609  20519073.400    84022196.48749
  21783422.340   114472808.55509  21783418.980    89199640.14248
  22500717.000   118242082.98709  22500712.140    92136678.79647
  23488657.880   123434198.16108  23488654.080    96182691.14646
  21094944.540   110854801.63009  21094939.360    86380410.70548
  20930146.380   109988701.13109  20930145.540    85705526.83349
 15 03 06 01 12  0.0000000  0  7G04G16G18G19G21G22G27
  23950433.020   125860427.80808  23950433.920    98073072.86344
  20522196.200   107844883.69609  20522192.760    84034969.62449
  21788137.760   114497588.29909  21788134.400    89218949.04048
  22487807.120   118174241.04209  22487802.220    92083814.95348
  23502174.160   123505226.41908  23502170.440    96238037.82846
  21086624.620   110811080.16109  21086619.460    86346342.05048
  20922632.620   109949216.30809  20922631.820    85674759.44849
 15 03 06 01 12 30.0000000  0  7G04G16G18G19G21G22G27
  23932917.420   125768384.24608  23932918.380    98001350.84045
  20525422.800   107861839.44409  20525419.340    84048181.88349
  21792944.880   114522850.00109  21792941.540    89238633.48748
  22474917.640   118106506.54309  22474912.800    92031034.83848
  23515696.920   123576288.80208  23515693.160    96293411.10246
  21078396.000   110767838.51309  21078390.860    86312647.27048
  20915156.900   109909931.42309  20915156.180    85644147.85449
 15 03 06 01 13  0.0000000  0  7G04G16G18G19G21G22G27
  23915435.560   125676517.69408  23915436.520    97929766.75845
  20528756.680   107879359.01409  20528753.200    84061833.49049
  21797843.720   114548593.45509  21797840.360    89258693.32748
  22462048.800   118038880.35909  22462043.960    91978339.12248
  23529226.100   123647385.16008  23529222.380    96348810.84846
  21070259.060   110725078.61209  21070253.920    86279327.88948
  20907719.600   109870848.02209  20907718.860    85613693.26449
 15 03 06 01 13 30.0000000  0  7G04G16G18G19G21G22G27
  23897987.980   125584830.69908  23897988.800    97858322.56345
  20532198.180   107897444.30309  20532194.720    84075925.91749
  21802834.340   114574819.29309  21802831.000    89279129.05348
  22449201.040   117971364.98009  22449196.200    91925729.75648
  23542761.780   123718515.87208  23542758.100    96404237.36746
  21062214.420   110682803.85909  21062209.300    86246386.54048
  20900321.160   109831968.81009  20900320.400    85583397.77849
 15 03 06 01 14  0.0000000  0  7G04G16G18G19G21G22G27
  23880573.680   125493318.52108  23880574.400    97787014.58945
  20535746.200   107916089.66009  20535742.820    84090454.75249
  21807915.540   114601521.20309  21807912.200    89299935.73248
  22436373.440   117903955.68409  22436368.600    91873203.03648
  23556302.920   123789674.75908  23556299.120    96459685.82246
  21054261.280   110641009.95509  21054256.140    86213819.86548
  20892960.800   109793289.53409  20892959.960    85553258.07649
 15 03 06 01 14 30.0000000  0  7G04G16G18G19G21G22G27
  23863193.820   125401987.31008  23863194.500    97715847.62545
  20539401.740   107935300.00709  20539398.460    84105423.85049
  21813088.140   114628703.34709  21813084.760    89321116.63248
  22423567.180   117836658.55409  22423562.420    91820763.73748
  23569850.200   123860866.24608  23569846.500    96515159.70046
  21046400.900   110599703.68209  21046395.780    86181633.17948
  20885639.640   109754816.46309  20885638.800    85523279.06849
 15 03 06 01 15  0.0000000  0  7G04G16G18G19G21G22G27
  23845848.440   125310837.47708  23845848.940    97644821.98045
  20543164.700   107955074.76609  20543161.460    84120832.73849
  21818351.980   114656364.73209  21818348.520    89342670.95848
  22410782.340   117769474.01309  22410777.640    91768412.15748
  23583403.360   123932088.84608  23583399.620    96570657.80946
  21038633.540   110558886.17109  21038628.420    86149827.33748
  20878357.880   109716550.46409  20878357.040    85493461.40749
 15 03 06 01 15 30.0000000  0  7G04G16G18G19G21G22G27
  23828537.100   125219866.37308  23828537.380    97573935.57545
  20547034.320   107975409.77809  20547031.080    84136678.19649
  21823706.160   114684500.98009  21823702.640    89364595.31548
  22398018.360   117702398.98709  22398013.640    91716145.92248
  23596961.680   124003338.31408  23596958.080    96626176.85446
  21030958.780   110518555.22409  21030953.660    86118400.64848
  20871115.080   109678489.11709  20871114.220    85463803.22249
 15 03 06 01 16  0.0000000  0  7G04G16G18G19G21G22G27
  23811260.500   125129077.55908  23811260.660    97503191.20845
  20551011.220   107996308.42809  20551007.960    84152962.84449
  21829150.960   114713113.68109  21829147.400    89386890.92647
  22385275.900   117635437.09209  22385271.240    91663967.84848
  23610525.460   124074616.34308  23610521.780    96681718.18246
  21023377.360   110478714.95609  21023372.260    86087356.29548
  20863911.980   109640636.35809  20863911.080    85434307.56849
 15 03 06 01 16 30.0000000  0  7G04G16G18G19G21G22G27
  23794018.700   125038471.68508  23794018.800    97432589.41745
  20555095.340   108017770.43509  20555092.060    84169686.46948
  21834686.200   114742201.76609  21834682.660    89409556.97147
  22372555.140   117568588.98909  22372550.440    91611878.42148
  23624094.480   124145922.25308  23624090.800    96737281.19045
  21015889.580   110439366.66409  21015884.500    86056695.30748
  20856748.760   109602993.26509  20856747.820    85404975.28849
 15 03 06 01 17  0.0000000  0  7G04G16G18G19G21G22G27
  23776811.660   124948048.69708  23776811.840    97362130.12045
  20559286.400   108039794.54809  20559283.140    84186848.11048
  21840311.640   114771763.73109  21840308.040    89432592.27547
  22359856.020   117501854.76309  22359851.340    91559877.74848
  23637668.480   124217254.29608  23637664.780    96792864.60046
  21008495.580   110400510.93709  21008490.480    86026418.13748
  20849625.480   109565560.27309  20849624.560    85375806.73149
 15 03 06 01 17 30.0000000  0  7G04G16G18G19G21G22G27
  23759639.660   124857810.02908  23759639.920    97291814.45545
  20563584.420   108062380.80409  20563581.140    84204447.77349
  21846027.160   114801798.98409  21846023.520    89455996.37247
  22347178.880   117435235.94009  22347174.120    91507966.98148
  23651247.420   124288612.00308  23651243.820    96848467.98346
  21001195.640   110362149.40709  21001190.520    85996526.04248
  20842542.480   109528338.92009  20842541.580    85346803.07749
 15 03 06 01 18  0.0000000  0  7G04G16G18G19G21G22G27
  23742502.900   124767756.50908  23742503.100    97221643.05145
  20567989.400   108085529.28509  20567986.140    84222485.54348
  21851832.540   114832306.69009  21851828.920    89479768.61847
  22334523.780   117368733.14109  22334519.060    91456146.63248
  23664831.060   124359994.49708  23664827.480    96904090.70246
  20993990.100   110324283.87809  20993984.920    85967020.45248
  20835500.040   109491330.75509  20835499.180    85317965.55249
 15 03 06 01 18 30.0000000  0  7G04G16G18G19G21G22G27
  23725401.080   124677886.51408  23725401.180    97151614.64146
  20572500.760   108109236.78909  20572497.520    84240958.91248
  21857727.160   114863283.32509  21857723.560    89503906.25847
  22321890.420   117302344.67209  22321885.760    91404415.37248
  23678418.840   124431398.88408  23678415.300    96959730.46346
  20986878.680   110286912.93809  20986873.480    85937900.25948
  20828497.900   109454534.35309  20828497.060    85289293.03549
 15 03 06 01 19  0.0000000  0  7G04G16G18G19G21G22G27
  23708334.780   124588203.23508  23708334.780    97081731.73246
  20577119.040   108133506.08009  20577115.780    84259870.03649
  21863711.380   114894730.80209  21863707.840    89528410.79247
  22309279.480   117236074.22409  22309274.960    91352776.07048
  23692011.140   124502826.67608  23692007.640    97015388.47746
  20979862.140   110250040.79209  20979856.980    85909168.73148
  20821536.800   109417953.51309  20821535.960    85260788.48649
 15 03 06 01 19 30.0000000  0  7G04G16G18G19G21G22G27
  23691304.100   124498707.17508  23691304.040    97011994.70445
  20581844.080   108158336.21409  20581840.820    84279218.18048
  21869784.800   114926647.07309  21869781.320    89553280.61447
  22296691.100   117169921.78809  22296686.560    91301228.71348
  23705607.640   124574276.57408  23705604.020    97071063.72246
  20972940.580   110213667.89309  20972935.480    85880826.22348
  20814616.820   109381588.85609  20814616.000    85232452.39149
 15 03 06 01 20  0.0000000  0  7G04G16G18G19G21G22G27
  23674309.740   124409402.17008  23674309.700    96942406.53645
  20586676.400   108183729.89909  20586673.100    84299005.45448
  21875947.960   114959034.90309  21875944.560    89578517.88947
  22284125.960   117103891.74209  22284121.480    91249776.74048
  23719208.680   124645750.87908  23719205.220    97126757.94746
  20966114.920   110177798.90509  20966109.880    85852876.37648
  20807738.900   109345445.10909  20807738.060    85204288.43549
 15 03 06 01 20 30.0000000  0  7G04G16G18G19G21G22G27
  23657350.440   124320281.33708  23657350.460    96872961.87145
  20591614.420   108209679.02509  20591611.060    84319225.54248
  21882199.160   114991885.11709  21882195.740    89604115.45947
  22271582.780   117037976.99909  22271578.300    91198414.61748
  23732812.840   124717241.41408  23732809.440    97182464.85646
  20959383.880   110142427.19609  20959378.880    85825314.02048
  20800901.740   109309515.59309  20800900.900    85176291.41649
 15 03 06 01 21  0.0000000  0  7G04G16G18G19G21G22G27
  23640427.120   124231349.65508  23640427.200    96803664.59745
  20596658.860   108236187.42609  20596655.460    84339881.42148
  21888539.020   115025201.08309  21888535.520    89630075.95447
  22259062.460   116972182.58109  22259058.080    91147146.24748
  23746420.760   124788751.14108  23746417.340    97238186.71446
  20952748.440   110107557.82809  20952743.480    85798143.09048
  20794106.360   109273805.70109  20794105.480    85148465.52249
 15 03 06 01 21 30.0000000  0  7G04G16G18G19G21G22G27
  23623540.280   124142609.39208  23623540.380    96734516.48846
  20601809.920   108263256.06909  20601806.480    84360973.86848
  21894967.520   115058982.95809  21894963.980    89656399.50147
  22246565.480   116906510.77009  22246561.220    91095973.43248
  23760032.500   124860281.48508  23760029.080    97293924.63146
  20946209.240   110073194.04009  20946204.240    85771366.13948
  20787353.260   109238318.12109  20787352.400    85120812.87749
 15 03 06 01 22  0.0000000  0  7G04G16G18G19G21G22G27
  23606689.540   124054058.41908  23606689.500    96665515.85246
  20607067.020   108290881.96909  20607063.560    84382500.52949
  21901484.040   115093227.17609  21901480.440    89683083.31347
  22234091.540   116840959.92809  22234087.280    91044894.86848
  23773647.420   124931828.46008  23773644.240    97349675.48746
  20939765.980   110039334.48809  20939760.940    85744982.08348
  20780642.220   109203051.47809  20780641.340    85093332.37649
 15 03 06 01 22 30.0000000  0  7G04G16G18G19G21G22G27
  23589875.440   123965700.09208  23589875.260    96596665.32945
  20612430.460   108319066.97109  20612427.020    84404462.85448
  21908088.740   115127934.85409  21908085.140    89710128.26347
  22221641.260   116775533.43109  22221637.020    90993913.19248
  23787265.900   125003393.86608  23787262.660    97405440.73346
  20933419.320   110005982.53609  20933414.240    85718993.56148
  20773973.900   109168009.46109  20773973.020    85066026.91349
 15 03 06 01 23  0.0000000  0  7G04G16G18G19G21G22G27
  23573097.700   123877533.15908  23573097.500    96527963.94945
  20617899.880   108347808.77809  20617896.400    84426859.05948
  21914780.980   115163102.74909  21914777.400    89737531.82047
  22209214.460   116710229.96109  22209210.160    90943027.38048
  23800887.320   125074975.14008  23800884.160    97461218.31245
  20927169.060   109973137.04309  20927163.920    85693399.68248
  20767348.220   109133191.34609  20767347.340    85038895.91449
 15 03 06 01 23 30.0000000  0  7G04G16G18G19G21G22G27
  23556356.320   123789557.38608  23556356.240    96459411.53046
  20623474.940   108377105.60309  20623471.440    84449687.73748
  21921560.520   115198729.39109  21921556.900    89765292.83647
  22196811.100   116645049.61809  22196806.760    90892237.51248
  23814511.360   125146570.04208  23814508.040    97517006.53545
  20921015.280   109940798.43209  20921010.060    85668200.77548
  20760765.200   109098597.33709  20760764.320    85011939.53949
 15 03 06 01 24  0.0000000  0  7G04G16G18G19G21G22G27
  23539651.580   123701773.96808  23539651.480    96391009.00245
  20629155.660   108406957.63409  20629152.100    84472949.04348
  21928427.160   115234813.80109  21928423.560    89793410.56047
  22184431.440   116579993.56309  22184426.980    90841544.48548
  23828138.060   125218178.57208  23828134.800    97572805.37346
  20914958.180   109908967.92809  20914952.900    85643397.79748
  20754225.180   109064229.29009  20754224.280    84985159.24449
 15 03 06 01 24 30.0000000  0  7G04G16G18G19G21G22G27
  23522984.160   123614186.26808  23522983.940    96322758.95145
  20634942.340   108437366.83709  20634938.780    84496644.51648
  21935381.160   115271357.34209  21935377.540    89821886.05247
  22172076.120   116515065.45909  22172071.560    90790951.17148
  23841767.700   125289802.82608  23841764.440    97628616.46846
  20908998.520   109877649.64809  20908993.200    85618993.95148
  20747728.880   109030090.99009  20747727.980    84958557.97649
 15 03 06 01 25  0.0000000  0  7G04G16G18G19G21G22G27
  23506353.500   123526791.52908  23506353.200    96254659.28946
  20640834.320   108468329.39809  20640830.740    84520771.16948
  21942421.600   115308355.24009  21942418.020    89850715.58147
  22159744.620   116450262.76309  22159739.980    90740455.57848
  23855399.480   125361438.33708  23855396.420    97684436.29846
  20903135.860   109846841.10109  20903130.520    85594987.29548
  20741275.900   108996180.20109  20741274.960    84932133.98349
 15 03 06 01 25 30.0000000  0  7G04G16G18G19G21G22G27
  23489760.480   123439594.85708  23489760.200    96186713.96146
  20646832.220   108499848.73609  20646828.640    84545331.68448
  21949549.140   115345810.74509  21949545.620    89879901.69947
  22147437.960   116385590.57909  22147433.260    90690061.68148
  23869034.240   125433089.13008  23869031.020    97740268.08446
  20897371.180   109816547.68509  20897365.860    85571382.05048
  20734867.260   108962502.55509  20734866.340    84905891.67149
 15 03 06 01 26  0.0000000  0  7G04G16G18G19G21G22G27
  23473204.340   123352591.91708  23473204.000    96118919.56746
  20652935.040   108531919.38409  20652931.500    84570321.78548
  21956762.540   115383717.57009  21956759.080    89909439.48547
  22135155.380   116321045.17209  22135150.700    90639766.56548
  23882670.760   125504749.23208  23882667.500    97796107.09445
  20891703.780   109786765.47609  20891698.460    85548175.14248
  20728502.320   108929054.50709  20728501.400    84879828.25549
 15 03 06 01 26 30.0000000  0  7G04G16G18G19G21G22G27
  23456685.380   123265784.69508  23456685.060    96051277.69546
  20659142.900   108564541.87709  20659139.360    84595741.89948
  21964061.880   115422076.08409  21964058.440    89939329.23847
  22122897.280   116256628.61309  22122892.620    90589571.86248
  23896309.240   125576419.30008  23896305.880    97851953.90846
  20886134.080   109757496.63309  20886128.720    85525368.26648
  20722181.580   108895838.51009  20722180.620    84853945.66249
 15 03 06 01 27  0.0000000  0  7G04G16G18G19G21G22G27
  23440204.580   123179178.03508  23440204.240    95983792.09845
  20665456.420   108597719.67009  20665452.900    84621594.71048
  21971447.680   115460888.86909  21971444.240    89969572.97147
  22110664.600   116192345.80609  22110659.980    90539481.37948
  23909950.200   125648102.82608  23909946.960    97907811.16946
  20880663.020   109728746.30809  20880657.680    85502965.42348
  20715906.020   108862859.98609  20715905.060    84828248.10649
 15 03 06 01 27 30.0000000  0  7G04G16G18G19G21G22G27
  23423761.120   123092767.32408  23423760.700    95916459.17946
  20671874.420   108631446.54809  20671870.940    84647875.38448
  21978918.660   115500149.33609  21978915.220    90000165.54547
  22098456.560   116128192.28609  22098451.960    90489491.63448
  23923592.520   125719793.54208  23923589.040    97963674.07646
  20875289.800   109700510.01209  20875284.500    85480963.12948
  20709674.820   108830114.67709  20709673.860    84802732.28649
 15 03 06 01 28  0.0000000  0  7G04G16G18G19G21G22G27
  23407354.940   123006552.63908  23407354.500    95849279.01246
  20678396.700   108665721.34009  20678393.240    84674582.99849
  21986474.480   115539855.59409  21986471.080    90031105.48647
  22086273.260   116064168.77209  22086268.660    90439603.18648
  23937236.080   125791490.60208  23937232.620    98019541.90146
  20870014.480   109672788.10509  20870009.240    85459361.65548
  20703488.160   108797603.56509  20703487.200    84777398.94749
 15 03 06 01 28 30.0000000  0  7G04G16G18G19G21G22G27
  23390987.200   122920540.03208  23390986.760    95782256.29746
  20685024.200   108700549.12909  20685020.800    84701721.51748
  21994115.900   115580011.94209  21994112.520    90062396.14547
  22074115.900   116000281.57509  22074111.300    90389820.95848
  23950881.660   125863198.64308  23950878.000    98075418.28146
  20864838.280   109645587.03809  20864833.080    85438166.02548
  20697347.300   108765333.20109  20697346.360    84752253.20349
 15 03 06 01 29  0.0000000  0  7G04G16G18G19G21G22G27
  23374657.020   122834724.78008  23374656.520    95715387.35946
  20691755.660   108735923.16109  20691752.280    84729285.68548
  22001841.740   115620611.62109  22001838.400    90094032.25647
  22061983.580   115936526.00309  22061979.020    90340141.29948
  23964528.160   125934911.48208  23964524.720    98131298.38645
  20859760.280   109618902.02809  20859755.080    85417372.52348
  20691251.460   108733299.46109  20691250.560    84727291.85449
 15 03 06 01 29 30.0000000  0  7G04G16G18G19G21G22G27
  23358365.000   122749110.18608  23358364.580    95648674.79346
  20698591.440   108771845.41209  20698588.060    84757277.03748
  22009652.240   115661656.09909  22009648.920    90126014.97447
  22049877.080   115872905.91309  22049872.460    90290567.20848
  23978176.040   126006631.17908  23978172.460    98187183.86645
  20854781.200   109592737.07009  20854776.080    85396984.25648
  20685201.420   108701506.40009  20685200.500    84702518.03549
 15 03 06 01 30  0.0000000  0  7G04G16G18G19G21G22G27
  23342111.600   122663698.41008  23342111.100    95582120.24345
  20705531.680   108808316.61909  20705528.280    84785696.14148
  22017547.400   115703145.42609  22017544.040    90158344.31647
  22037796.800   115809423.44509  22037792.140    90241100.35148
  23991825.260   126078358.53008  23991821.780    98243075.29245
  20849901.460   109567094.01809  20849896.340    85377002.66648
  20679197.680   108669956.68509  20679196.760    84677933.83649
 15 03 06 01 30 30.0000000  0  7G04G16G18G19G21G22G27
  23325896.360   122578486.77808  23325895.720    95515721.64046
  20712575.640   108845332.70309  20712572.180    84814539.83048
  22025526.300   115745074.88109  22025523.060    90191016.61947
  22025742.240   115746076.28909  22025737.540    90191738.93748
  24005475.200   126150089.52208  24005471.560    98298969.59045
  20845120.640   109541970.66009  20845115.500    85357426.03548
  20673239.920   108638648.31909  20673238.980    84653537.70749
 15 03 06 01 31  0.0000000  0  7G04G16G18G19G21G22G27
  23309719.700   122493478.05008  23309719.000    95449481.15946
  20719723.420   108882894.44309  20719719.940    84843808.70048
  22033589.020   115787444.79509  22033585.800    90224032.14047
  22013714.060   115682867.69509  22013709.300    90142485.49648
  24019125.980   126221825.27008  24019122.520    98354867.53946
  20840439.240   109517369.77409  20840434.080    85338256.52248
  20667328.660   108607584.45709  20667327.780    84629332.09349
 15 03 06 01 31 30.0000000  0  7G04G16G18G19G21G22G27
  23293581.140   122408669.96808  23293580.560    95383397.04346
  20726974.380   108920998.47409  20726970.900    84873500.14548
  22041734.820   115830251.40809  22041731.620    90257387.93847
  22001711.940   115619796.05209  22001707.200    90093338.76748
  24032777.240   126293562.78708  24032773.700    98410766.91545
  20835856.880   109493289.30709  20835851.700    85319492.53448
  20661463.720   108576763.92309  20661462.860    84605316.09949
 15 03 06 01 32  0.0000000  0  7G04G16G18G19G21G22G27
  23277481.660   122324067.16008  23277481.080    95317472.85346
  20734329.180   108959648.25909  20734325.720    84903616.84448
  22049964.240   115873497.35709  22049961.040    90291086.07847
  21989736.740   115556866.12009  21989732.020    90044302.46648
  24046429.380   126365305.45908  24046425.960    98466670.25645
  20831374.460   109469734.02809  20831369.280    85301137.77748
  20655646.060   108546191.89509  20655645.200    84581493.73449
 15 03 06 01 32 30.0000000  0  7G04G16G18G19G21G22G27
  23261421.120   122239668.60008  23261420.400    95251707.80745
  20741787.260   108998840.73109  20741783.820    84934156.41948
  22058276.680   115917179.36609  22058273.400    90325124.00847
  21977788.380   115494077.07509  21977783.680    89995375.94048
  24060082.000   126437050.86608  24060078.520    98522575.74445
  20826991.800   109446702.86609  20826986.580    85283191.42748
  20649875.540   108515867.92609  20649874.740    84557864.67149
 15 03 06 01 33  0.0000000  0  7G04G16G18G19G21G22G27
  23245399.280   122155473.24708  23245398.440    95186101.09746
  20749348.060   109038573.00309  20749344.640    84965116.61648
  22066671.600   115961294.44009  22066668.220    90359499.39247
  21965866.660   115431428.03209  21965861.980    89946558.50848
  24073734.760   126508796.63008  24073731.200    98578481.54646
  20822708.720   109424195.12309  20822703.480    85265652.93749
  20644152.180   108485791.66309  20644151.440    84534428.62049
 15 03 06 01 33 30.0000000  0  7G04G16G18G19G21G22G27
  23229416.440   122071483.01008  23229415.580    95120654.23846
  20757011.700   109078845.67409  20757008.320    84996497.91048
  22075148.800   116005842.13309  22075145.360    90394211.88247
  21953972.120   115368921.79909  21953967.460    89897852.37148
  24087387.780   126580543.50608  24087384.340    98634388.17645
  20818525.620   109402212.76309  20818520.360    85248523.84248
  20638476.480   108455965.79709  20638475.760    84511187.69049
 15 03 06 01 34  0.0000000  0  7G04G16G18G19G21G22G27
  23213472.660   121987698.45908  23213471.800    95055367.65046
  20764777.920   109119657.44709  20764774.600    85028299.27148
  22083708.080   116050821.27909  22083704.660    90429260.56747
  21942104.920   115306559.13509  21942100.200    89849258.08748
  24101040.840   126652290.83907  24101037.560    98690295.17046
  20814442.400   109380755.39509  20814437.160    85231803.82048
  20632848.620   108426391.41409  20632847.960    84488142.71449
 15 03 06 01 34 30.0000000  0  7G04G16G18G19G21G22G27
  23197568.420   121904121.75208  23197567.520    94990243.02846
  20772646.900   109161009.32609  20772643.660    85060521.50648
  22092349.440   116096231.80909  22092346.020    90464645.39247
  21930265.460   115244342.56009  21930260.760    89800777.65448
  24114694.100   126724039.68508  24114691.040    98746203.29745
  20810459.800   109359826.65909  20810454.620    85215495.72948
  20627269.220   108397071.53509  20627268.560    84465296.05749
 15 03 06 01 35  0.0000000  0  7G04G16G18G19G21G22G27
  23181703.320   121820750.50708  23181702.320    94925278.48846
  20780617.880   109202897.22709  20780614.660    85093161.41048
  22101072.080   116142069.53609  22101068.620    90500363.10347
  21918453.460   115182270.23609  21918448.760    89752409.61948
  24128347.080   126795786.39508  24128343.740    98802109.83945
  20806577.320   109339424.00209  20806572.140    85199597.56548
  20621737.940   108368004.48609  20621737.300    84442646.40849
 15 03 06 01 35 30.0000000  0  7G04G16G18G19G21G22G27
  23165876.920   121737582.75008  23165875.960    94860472.50146
  20788690.220   109245317.66809  20788687.000    85126216.28148
  22109875.240   116188330.43109  22109871.740    90536410.54347
  21906668.680   115120340.81009  21906663.940    89704152.91748
  24141999.180   126867527.89808  24141995.560    98858012.31845
  20802794.500   109319545.20109  20802789.320    85184107.60148
  20616254.600   108339189.12509  20616253.880    84420192.88049
 15 03 06 01 36  0.0000000  0  7G04G16G18G19G21G22G27
  23150091.140   121654628.75908  23150090.320    94795833.08546
  20796865.440   109288278.50009  20796862.160    85159692.23848
  22118760.500   116235022.59809  22118756.960    90572794.05247
  21894913.040   115058564.72309  21894908.320    89656015.71748
  24155651.920   126939273.37608  24155648.260    98913917.84745
  20799113.280   109300200.35409  20799108.120    85169033.70248
  20610821.200   108310636.27609  20610820.400    84397943.90649
 15 03 06 01 36 30.0000000  0  7G04G16G18G19G21G22G27
  23134344.840   121571882.11708  23134344.100    94731355.26046
  20805142.080   109331772.35009  20805138.780    85193583.53548
  22127726.180   116282137.40209  22127722.600    90609506.88447
  21883185.520   114996936.33909  21883180.800    89607993.59848
  24169303.880   127011015.05208  24169300.400    98969820.41046
  20795532.520   109281383.21509  20795527.340    85154371.00848
  20605436.700   108282340.40609  20605435.840    84375895.17549
 15 03 06 01 37  0.0000000  0  7G04G16G18G19G21G22G27
  23118638.020   121489342.48908  23118637.240    94667038.73246
  20813519.660   109375796.68809  20813516.360    85227888.20048
  22136771.760   116329672.13809  22136768.160    90646546.93847
  21871486.120   114935455.54009  21871481.400    89560086.48648
  24182954.880   127082751.49308  24182951.600    99025718.89845
  20792052.020   109263093.25109  20792046.860    85140119.10048
  20600101.140   108254301.81209  20600100.260    84354046.91849
 15 03 06 01 37 30.0000000  0  7G04G16G18G19G21G22G27
  23102971.000   121407011.51708  23102970.020    94602884.77345
  20821998.220   109420351.71909  20821994.880    85262606.39448
  22145897.240   116377626.75109  22145893.600    90683914.16747
  21859815.240   114874124.62309  21859810.500    89512296.16548
  24196605.100   127154482.96908  24196601.380    99081613.58545
  20788672.140   109245332.09009  20788667.000    85126279.24948
  20594815.000   108226522.83009  20594814.100    84332400.95449
 15 03 06 01 38  0.0000000  0  7G04G16G18G19G21G22G27
  23087344.240   121324892.36808  23087343.160    94538895.87546
  20830578.000   109465438.81709  20830574.660    85297739.18348
  22155102.840   116426002.47109  22155099.220    90721609.53847
  21848173.560   114812947.15309  21848168.820    89464625.40948
  24210254.840   127226212.53508  24210250.920    99137506.75545
  20785393.520   109228103.02309  20785388.400    85112854.01648
  20589579.040   108199007.68809  20589578.140    84310960.58749
 15 03 06 01 38 30.0000000  0  7G04G16G18G19G21G22G27
  23071757.500   121242983.80608  23071756.460    94475071.08546
  20839258.440   109511054.85309  20839255.100    85333284.12848
  22164387.840   116474795.70409  22164384.280    90759630.23547
  21836561.020   114751922.57809  21836556.200    89417073.79248
  24223903.560   127297937.32108  24223899.780    99193396.17245
  20782215.840   109211404.32309  20782210.720    85099842.05648
  20584393.180   108171755.78609  20584392.280    84289725.33949
 15 03 06 01 39  0.0000000  0  7G04G16G18G19G21G22G27
  23056210.620   121161284.70808  23056209.640    94411409.50346
  20848039.000   109557197.06509  20848035.680    85369239.08448
  22173751.700   116524003.13909  22173748.120    90797973.69347
  21824977.360   114691049.83709  21824972.540    89369640.49548
  24237550.960   127369654.81108  24237547.500    99249279.89345
  20779138.860   109195234.83909  20779133.740    85087242.47548
  20579257.300   108144766.58009  20579256.440    84268694.78949
 15 03 06 01 39 30.0000000  0  7G04G16G18G19G21G22G27
  23040704.120   121079797.84208  23040703.220    94347913.30146
  20856919.880   109603866.58309  20856916.620    85405604.92348
  22183194.500   116573625.40909  22183190.940    90836640.39647
  21813423.260   114630332.46609  21813418.440    89322328.26048
  24251197.440   127441366.58308  24251194.020    99305159.17646
  20776163.160   109179597.52709  20776158.000    85075057.56748
  20574172.120   108118043.71609  20574171.240    84247871.77649
 15 03 06 01 40  0.0000000  0  7G04G16G18G19G21G22G27
  23025237.980   120998522.75908  23025237.060    94284582.11746
  20865900.600   109651060.77409  20865897.400    85442379.60448
  22192715.740   116623660.05209  22192712.200    90875628.43047
  21801898.860   114569771.19609  21801894.020    89275137.66648
  24264842.520   127513071.66007  24264838.940    99361033.28545
  20773288.640   109164492.00909  20773283.440    85063287.04448
  20569137.740   108091587.77609  20569136.860    84227256.76049
 15 03 06 01 40 30.0000000  0  7G04G16G18G19G21G22G27
  23009812.400   120917461.47508  23009811.520    94221417.54646
  20874981.320   109698780.32509  20874978.180    85479563.65448
  22202315.420   116674107.11309  22202311.960    90914937.83047
  21790404.620   114509368.59409  21790399.820    89228070.71448
  24278486.500   127584771.55807  24278482.860    99416903.31545
  20770515.700   109149920.05309  20770510.460    85051932.28748
  20564154.660   108065401.48009  20564153.800    84206851.85249
 15 03 06 01 41  0.0000000  0  7G04G16G18G19G21G22G27
  22994427.260   120836612.08908  22994426.300    94158418.07246
  20884161.240   109747021.14609  20884158.120    85517153.88848
  22211992.760   116724961.95909  22211989.320    90954564.97747
  21778940.120   114449122.33109  21778935.340    89181125.57248
  24292128.640   127656462.28208  24292124.900    99472766.19545
  20767843.780   109135879.20809  20767838.540    85040991.37748
  20559222.700   108039483.55809  20559221.800    84186656.06449
 15 03 06 01 41 30.0000000  0  8G04G11G16G18G19G21G22G27
  22979082.280   120755973.31808  22979081.380    94095582.71046
  24659803.840   129588135.90507  24659802.500   100977768.29344
  20893439.780   109795780.12409  20893436.680    85555147.88148
  22221747.120   116776221.54309  22221743.700    90994507.51047
  21767505.300   114389032.02609  21767500.500    89134301.96648
  24305768.880   127728141.79308  24305765.280    99528620.36245
  20765272.700   109122368.19109  20765267.460    85030463.32848
  20554341.700   108013833.52009  20554340.780    84166669.02049
 15 03 06 01 42  0.0000000  0  8G04G11G16G18G19G21G22G27
  22963777.620   120675546.66608  22963776.680    94032912.65146
  24642728.640   129498403.78908  24642727.020   100907847.25645
  20902816.860   109845056.96209  20902813.760    85593545.40248
  22231578.340   116827884.99309  22231574.900    91034764.74147
  21756100.700   114329100.50609  21756095.900    89087602.08248
  24319407.240   127799811.27308  24319403.740    99584466.68145
  20762802.720   109109388.46309  20762797.460    85020349.26348
  20549512.120   107988453.77709  20549511.200    84146892.59049
 15 03 06 01 42 30.0000000  0  8G04G11G16G18G19G21G22G27
  22948514.980   120595340.77508  22948513.960    93970414.59446
  24625667.380   129408747.01907  24625665.920   100837984.95844
  20912293.720   109894858.30809  20912290.640    85632351.63048
  22241487.740   116879959.13609  22241484.260    91075341.99847
  21744727.960   114269336.26709  21744723.100    89041032.55248
  24333044.840   127871477.42807  24333041.520    99640310.41646
  20760435.480   109096948.35509  20760430.160    85010655.68448
  20544735.780   107963353.91409  20544734.860    84127334.25649
 15 03 06 01 43  0.0000000  0  9G04G11G16G18G19G21G22G27G32
  22933293.240   120515350.23308  22933292.240    93908084.37946
  24608619.420   129319160.43608  24608617.980   100768177.36244
  20921869.040   109945177.04309  20921865.980    85671561.02848
  22251473.760   116932436.36409  22251470.340    91116233.35347
  21733386.140   114209734.54809  21733381.300    88994589.66848
  24346680.500   127943134.80607  24346677.400    99696147.25845
  20758169.840   109085042.06509  20758164.480    85001378.07748
  20540011.780   107938529.21609  20540010.860    84107990.34449
  24495966.700   128727167.81808  24495970.940   100306890.19344
 15 03 06 01 43 30.0000000  0  9G04G11G16G18G19G21G22G27G32
  22918111.160   120435567.48108  22918109.900    93845916.01746
  24591583.640   129229636.46608  24591582.120   100698418.45344
  20931541.060   109996003.93309  20931538.040    85711166.37248
  22261534.580   116985306.85809  22261531.280    91157431.13247
  21722073.980   114150288.79109  21722069.160    88948268.29348
  24360313.000   128014774.07708  24360309.580    99751970.11044
  20756004.300   109073661.68709  20755998.900    84992510.25848
  20535338.900   107913973.04809  20535337.960    84088855.65449
  24473309.060   128608103.97508  24473313.680   100214113.53144
 15 03 06 01 44  0.0000000  0  9G04G11G16G18G19G21G22G27G32
  22902971.100   120356006.08408  22902969.820    93783920.16846
  24574562.060   129140188.26108  24574560.200   100628718.67444
  20941311.980   110047350.21409  20941308.960    85751176.44548
  22271672.440   117038581.74609  22271669.220    91198944.03147
  21710794.200   114091013.30209  21710789.420    88902079.60448
  24373944.560   128086407.66708  24373940.900    99807788.51845
  20753941.360   109062820.68009  20753935.940    84984062.73048
  20530719.820   107889699.73909  20530718.880    84069941.38649
  24450657.660   128489073.24608  24450662.640   100121362.77045
 15 03 06 01 44 30.0000000  0  9G04G11G16G18G19G21G22G27G32
  22887871.600   120276658.58708  22887870.580    93722091.02847
  24557553.800   129050808.97008  24557551.680   100559072.48245
  20951180.000   110099206.71509  20951176.960    85791584.09648
  22281885.480   117092251.58609  22281882.300    91240764.68247
  21699545.600   114031901.64409  21699540.860    88856018.59048
  24387573.540   128158027.93807  24387570.240    99863596.46746
  20751979.600   109052511.45909  20751974.160    84976029.58348
  20526153.320   107865702.77009  20526152.400    84051242.44749
  24428011.820   128370070.39308  24428017.080   100028633.81945
 15 03 06 01 45  0.0000000  0  9G04G11G16G18G19G21G22G27G32
  22872813.880   120197530.69908  22872813.020    93660432.98046
  24540559.340   128961503.59407  24540557.640   100489484.03744
  20961145.720   110151576.49109  20961142.640    85832391.69948
  22292174.420   117146320.21209  22292171.200    91282896.08347
  21688329.200   113972959.18209  21688324.480    88810089.40248
  24401200.640   128229639.67007  24401197.540    99919397.76946
  20750120.080   109042739.65509  20750114.660    84968415.20149
  20521640.660   107841988.77009  20521639.780    84032764.01049
  24405372.740   128251103.29308  24405378.040    99935932.78045
 15 03 06 01 45 30.0000000  0  9G04G11G16G18G19G21G22G27G32
  22857797.280   120118618.54808  22857796.400    93598943.03146
  24523578.300   128872268.34408  24523576.320   100419950.11843
  20971208.260   110204454.98309  20971205.100    85873595.70648
  22302538.060   117200781.31909  22302534.760    91325333.30947
  21677144.500   113914183.16609  21677139.760    88764289.91448
  24414825.220   128301237.64508  24414822.360    99975188.35445
  20748361.960   109033500.84309  20748356.560    84961216.13648
  20517181.260   107818554.58309  20517180.380    84014503.60249
  24382740.040   128132169.88708  24382745.340    99843257.91945
 15 03 06 01 46  0.0000000  0  9G04G11G16G18G19G21G22G27G32
  22842821.660   120039921.54908  22842820.780    93537620.74446
  24506610.540   128783102.83107  24506608.580   100350470.53944
  20981366.960   110257839.13609  20981363.780    85915193.72748
  22312975.860   117255632.08609  22312972.540    91368074.17147
  21665991.480   113855573.98109  21665986.800    88718620.43248
  24428447.200   128372820.81308  24428444.060   100030967.40944
  20746705.080   109024794.00109  20746699.680    84954431.59248
  20512775.180   107795400.62909  20512774.320    83996461.56449
  24360114.260   128013272.48208  24360119.500    99750611.16644
 15 03 06 01 46 30.0000000  0  9G04G11G16G18G19G21G22G27G32
  22827887.800   119961444.18908  22827886.960    93476469.61846
  24489656.600   128694010.90907  24489654.900   100281048.43644
  20991622.260   110311731.05909  20991619.080    85957187.40948
  22323488.200   117310874.62709  22323484.880    91411120.29747
  21654871.120   113797136.36309  21654866.500    88673084.63048
  24442066.980   128444392.29708  24442063.240   100086737.43744
  20745150.180   109016623.13009  20745144.780    84948064.68448
  20508423.420   107772532.04409  20508422.620    83978641.88449
  24337496.340   127894417.17408  24337501.480    99657997.24045
 15 03 06 01 47  0.0000000  0  9G04G11G16G18G19G21G22G27G32
  22812995.700   119883185.05609  22812994.740    93415488.49346
  24472716.500   128604991.59306  24472714.900   100211682.79344
  21001973.600   110366127.72909  21001970.440    85999574.41048
  22334074.460   117366505.41509  22334071.100    91454468.96147
  21643783.300   113738869.77809  21643778.780    88627682.10648
  24455684.080   128515949.80207  24455680.280   100142496.55145
  20743696.900   109008986.33109  20743691.540    84942113.93448
  20504125.980   107749948.58509  20504125.140    83961044.37649
  24314886.800   127775605.38408  24314891.860    99565417.27345
 15 03 06 01 47 30.0000000  0  9G04G11G16G18G19G21G22G27G32
  22798145.520   119805146.80908  22798144.580    93354679.53746
  24455790.900   128516047.56908  24455789.560   100142375.86845
  21012421.000   110421029.34109  21012417.880    86042354.87348
  22344734.760   117422525.31309  22344731.300    91498120.82947
  21632728.740   113680777.85709  21632724.240    88582415.68348
  24469298.600   128587495.87007  24469295.240   100198246.63745
  20742345.820   109001886.73909  20742340.580    84936581.80248
  20499883.440   107727653.72409  20499882.580    83943671.76149
  24292286.420   127656841.95308  24292291.460    99472875.05045
 15 03 06 01 48  0.0000000  0  9G04G11G16G18G19G21G22G27G32
  22783336.340   119727324.02008  22783335.200    93294038.44346
  24438878.680   128427172.97507  24438877.480   100073123.02945
  21022963.140   110476428.77609  21022960.040    86085523.24548
  22355467.540   117478926.30009  22355464.020    91542069.65247
  21621706.520   113622855.65509  21621701.960    88537281.50848
  24482909.920   128659023.77608  24482906.740   100253982.62545
  20741095.800   108995318.06309  20741090.620    84931463.35848
  20495694.900   107705642.78409  20495694.020    83926520.37849
  24269694.560   127538123.20208  24269699.180    99380367.41945
 15 03 06 01 48 30.0000000  0  9G04G11G16G18G19G21G22G27G32
  22768569.120   119649721.78608  22768567.820    93233569.19946
  24421980.720   128338373.35708  24421979.280   100003928.58144
  21033600.640   110532329.26609  21033597.540    86129082.04648
  22366273.380   117535711.50909  22366269.880    91586317.85947
  21610717.760   113565109.34209  21610713.160    88492284.38348
  24496518.620   128730537.48908  24496515.320   100309707.60245
  20739947.800   108989285.22209  20739942.580    84926762.44848
  20491561.560   107683921.99609  20491560.700    83909595.08549
  24247112.500   127419456.89008  24247117.240    99287900.76846
 15 03 06 01 49  0.0000000  0  9G04G11G16G18G19G21G22G27G32
  22753843.480   119572338.09408  22753842.200    93173270.27846
  24405096.680   128249646.48907  24405095.180    99934790.82345
  21044332.620   110588726.22309  21044329.480    86173027.71248
  22377151.500   117592876.44409  22377148.020    91630861.96047
  21599762.180   113507537.36009  21599757.560    88447423.10248
  24510124.260   128802034.78208  24510121.060   100365419.73145
  20738901.140   108983784.93909  20738895.880    84922476.51849
  20487483.200   107662489.99609  20487482.320    83892894.82349
  24224540.660   127300843.38708  24224545.380    99195475.26046
 15 03 06 01 49 30.0000000  0  9G04G11G16G18G19G21G22G27G32
  22739160.240   119495177.57508  22739159.020    93113145.24946
  24388227.140   128160996.73908  24388225.400    99865713.21744
  21055159.660   110645622.55209  21055156.460    86217362.49848
  22388102.340   117650423.52109  22388098.860    91675703.84047
  21588840.800   113450145.10509  21588836.160    88402701.87048
  24523727.320   128873519.01307  24523723.660   100421121.74644
  20737956.780   108978822.31709  20737951.480    84918609.55048
  20483460.840   107641352.41209  20483459.960    83876423.97649
  24201980.160   127182289.24808  24201984.480    99103095.86245
 15 03 06 01 50  0.0000000  0  9G04G11G16G18G19G21G22G27G32
  22724519.100   119418238.42508  22724517.920    93053192.72046
  24371372.120   128072422.65908  24371370.200    99796694.49245
  21066080.960   110703014.15609  21066077.720    86262083.21148
  22399125.200   117708348.71009  22399121.640    91720840.35547
  21577953.500   113392931.84709  21577948.820    88358120.12148
  24537327.160   128944987.54307  24537323.400   100476811.49744
  20737114.260   108974394.72709  20737108.920    84915159.49248
  20479494.380   107620508.41109  20479493.460    83860181.89949
  24179431.120   127063795.29008  24179435.580    99010763.46545
 15 03 06 01 50 30.0000000  0  9G04G11G16G18G19G21G22G27G32
  22709919.880   119341519.41908  22709918.780    92993411.71746
  24354531.060   127983922.77208  24354529.280    99727733.68545
  21077096.040   110760898.52109  21077092.780    86307187.89548
  22410219.300   117766648.68009  22410215.720    91766268.89547
  21567100.200   113335897.06309  21567095.440    88313677.42848
  24550923.760   129016438.20008  24550920.280   100532487.28945
  20736373.180   108970500.41209  20736367.820    84912124.96549
  20475583.700   107599957.66809  20475582.780    83844168.33149
  24156893.880   126945362.88208  24156897.920    98918478.99146
 15 03 06 01 51  0.0000000  0  9G04G11G16G18G19G21G22G27G32
  22695362.360   119265019.58108  22695361.280    92933801.50746
  24337704.080   127895496.32208  24337702.260    99658830.01945
  21088204.140   110819271.75209  21088200.860    86352673.51548
  22421384.180   117825320.43109  22421380.580    91811987.13847
  21556280.800   113279040.55609  21556275.980    88269373.66148
  24564516.820   129087869.93408  24564513.620   100588148.34045
  20735733.280   108967137.81409  20735727.900    84909504.76348
  20471728.820   107579700.12609  20471727.880    83828383.23449
  24134368.420   126826992.73008  24134372.380    98826242.95545
 15 03 06 01 51 30.0000000  0  9G04G11G16G18G19G21G22G27G32
  22680847.260   119188742.48908  22680846.360    92874364.87447
  24320891.760   127807147.06608  24320889.860    99589986.53044
  21099405.540   110878135.40109  21099402.280    86398541.27248
  22432620.060   117884365.30609  22432616.440    91857996.12347
  21545496.200   113222366.94809  21545491.360    88225212.40648
  24578106.720   129159284.94908  24578103.440   100643796.39545
  20735195.280   108964310.61809  20735189.900    84907301.76249
  20467930.640   107559740.37709  20467929.660    83812830.18049
  24111856.060   126708691.35508  24111859.920    98734060.52545
 15 03 06 01 52  0.0000000  0  9G04G11G16G18G19G21G22G27G32
  22666374.340   119112686.87909  22666373.420    92815100.82146
  24304093.820   127718873.18508  24304091.680    99521201.71544
  21110699.540   110937485.85009  21110696.340    86444788.36748
  22443926.240   117943779.43309  22443922.600    91904292.84847
  21534746.200   113165875.17809  21534741.300    88181192.85648
  24591693.120   129230681.64507  24591689.820   100699430.17445
  20734758.700   108962016.35909  20734753.320    84905514.04248
  20464188.980   107540077.79209  20464187.980    83797508.68549
  24089356.920   126590459.43708  24089360.680    98641932.24445
 15 03 06 01 52 30.0000000  0  9G04G11G16G18G19G21G22G27G32
  22651944.700   119036857.98608  22651943.580    92756013.40547
  24287311.240   127630680.24508  24287309.020    99452479.99245
  21122086.840   110997326.55809  21122083.660    86491417.46948
  22455303.240   118003565.96609  22455299.580    91950879.75747
  21524032.040   113109571.76109  21524027.100    88137320.06648
  24605276.580   129302064.26307  24605273.600   100755052.90144
  20734424.460   108960259.85809  20734419.080    84904145.35048
  20460505.060   107520718.74809  20460504.100    83782423.71649
  24066872.520   126472304.78908  24066876.060    98549864.13846
 15 03 06 01 53  0.0000000  0  9G04G11G16G18G19G21G22G27G32
  22637557.100   118961250.58809  22637556.040    92697098.61346
  24270543.000   127542563.05607  24270541.000    99383817.32544
  21133565.980   111057649.82209  21133562.820    86538422.58948
  22466749.700   118063717.19609  22466745.980    91997750.84347
  21513352.840   113053452.20409  21513347.900    88093590.54848
  24618856.340   129373426.72007  24618853.100   100810660.03744
  20734191.480   108959035.48209  20734186.100    84903191.29748
  20456878.060   107501658.88209  20456877.140    83767571.87249
  24044402.100   126354224.32308  24044405.580    98457853.93245
 15 03 06 01 53 30.0000000  0  9G04G11G16G18G19G21G22G27G32
  22623211.520   118885863.78008  22623210.320    92638355.70346
  24253789.020   127454521.18508  24253786.920    99315213.31144
  21145136.520   111118453.32609  21145133.380    86585801.92948
  22478265.060   118124230.49009  22478261.360    92044904.05747
  21502708.620   112997516.62909  21502703.680    88050004.39448
  24632432.060   129444767.56308  24632428.720   100866250.31845
  20734059.500   108958341.95409  20734054.100    84902650.89548
  20453308.080   107482898.55509  20453307.180    83752953.44249
  24021946.280   126236219.95008  24021949.500    98365902.83545
 15 03 06 01 54  0.0000000  0  9G04G11G16G18G19G21G22G27G32
  22608908.560   118810701.03409  22608907.260    92579787.39347
  24237049.880   127366557.27008  24237048.000    99246670.08444
  21156798.460   111179737.15509  21156795.320    86633555.54348
  22489849.420   118185106.51109  22489845.640    92092339.92447
  21492100.240   112941769.35509  21492095.320    88006564.96848
  24646004.420   129516090.38307  24646001.320   100921826.50345
  20734029.020   108958181.84909  20734023.640    84902526.14448
  20449795.860   107464441.74009  20449794.940    83738571.50749
  23999505.920   126118296.96008  23999509.120    98274015.19645
 15 03 06 01 54 30.0000000  0  9G04G11G16G18G19G21G22G27G32
  22594648.660   118735764.53608  22594647.160    92521395.34946
  24220326.200   127278674.11908  24220324.280    99178189.76144
  21168552.000   111241502.16509  21168548.800    86681684.10448
  22501502.800   118246345.52809  22501499.040    92140058.63047
  21481528.240   112886213.48809  21481523.380    87963274.68248
  24659573.280   129587394.82407  24659570.340   100977388.36644
  20734100.340   108958556.84809  20734095.020    84902818.36048
  20446342.080   107446291.81009  20446341.120    83724428.70149
  23977082.020   126000460.01208  23977085.060    98182194.47245
 15 03 06 01 55  0.0000000  0  9G04G11G16G18G19G21G22G27G32
  22580431.500   118661053.32808  22580430.020    92463178.86946
  24203617.700   127190870.90807  24203615.760    99109771.73145
  21180396.480   111303745.22209  21180393.300    86730185.17548
  22513224.580   118307944.31809  22513220.960    92188057.68347
  21470992.660   112830849.03909  21470987.920    87920133.57048
  24673138.320   129658680.17406  24673135.300   101032935.35744
  20734273.240   108959465.63309  20734267.960    84903526.51248
  20442946.700   107428448.83109  20442945.700    83710525.08149
  23954674.840   125882711.00308  23954677.680    98090442.33346
 15 03 06 01 55 30.0000000  0  9G04G11G16G18G19G21G22G27G32
  22566256.940   118586565.91509  22566255.580    92405136.78246
  24186924.140   127103145.69208  24186922.300    99041414.47045
  21192331.180   111366462.27809  21192327.960    86779055.58648
  22525014.140   118369899.06809  22525010.560    92236334.10647
  21460493.300   112775675.09409  21460488.660    87877140.89048
  24686699.220   129729944.16507  24686696.420   101088465.71344
  20734547.240   108960905.55809  20734541.960    84904648.52749
  20439609.520   107410912.03609  20439608.580    83696860.04349
  23932284.580   125765050.57708  23932287.500    97998759.29045
 15 03 06 01 56  0.0000000  0  9G04G11G16G18G19G21G22G27G32
  22552124.760   118512301.22009  22552123.360    92347268.22546
  24170245.300   127015497.81008  24170243.340    98973117.48244
  21204355.460   111429650.25709  21204352.240    86828292.95848
  22536870.820   118432206.76809  22536867.420    92284885.56447
  21450030.300   112720691.91009  21450025.720    87834296.87048
  24700256.040   129801185.65307  24700253.160   101143978.56544
  20734922.080   108962875.26109  20734916.780    84906183.37548
  20436330.640   107393681.62109  20436329.760    83683433.74749
  23909911.460   125647480.18608  23909914.160    97907146.34045
 15 03 06 01 56 30.0000000  0  9G04G11G16G18G19G21G22G27G32
  22538035.420   118438261.65409  22538034.020    92289575.09447
  24153581.600   126927929.49608  24153579.560    98904882.48745
  21216469.240   111493308.71109  21216466.060    86877896.93348
  22548794.660   118494867.20909  22548791.240    92333711.87847
  21439604.200   112665902.57709  21439599.660    87791603.89348
  24713809.020   129872406.72007  24713805.720   101199475.55644
  20735398.060   108965376.40309  20735392.720    84908132.31949
  20433110.680   107376760.76209  20433109.840    83670248.65649
  23887556.380   125530004.68308  23887558.920    97815607.36646
 15 03 06 01 57  0.0000000  0  9G04G11G16G18G19G21G22G27G32
  22523989.020   118364447.85709  22523987.600    92232057.88846
  24136933.280   126840441.97608  24136931.080    98836710.43145
  21228672.340   111557436.52609  21228669.200    86927866.63948
  22560785.320   118557878.78709  22560781.900    92382811.80047
  21429215.300   112611308.62309  21429210.800    87749063.16048
  24727357.880   129943606.23407  24727354.540   101254955.68945
  20735975.060   108968408.32409  20735969.660    84910494.86549
  20429949.940   107360151.12409  20429949.160    83657306.07549
  23865219.960   125412626.93108  23865222.400    97724144.52245
 15 03 06 01 57 30.0000000  0  9G04G11G16G18G19G21G22G27G32
  22509986.140   118290862.40208  22509984.660    92174718.60147
  24120300.700   126753037.55408  24120298.520    98768603.16545
  21240964.840   111622034.11809  21240961.740    86978202.40748
  22572842.880   118621241.85809  22572839.500    92432185.62247
  21418864.260   112556913.67709  21418859.800    87706677.49648
  24740903.040   130014786.32607  24740899.860   101310420.65245
  20736653.540   108971973.69809  20736648.140    84913273.08249
  20426849.060   107343856.14909  20426848.360    83644608.68849
  23842902.960   125295351.84708  23842905.380    97632761.65346
 15 03 06 01 58  0.0000000  0  9G04G11G16G18G19G21G22G27G32
  22496025.940   118217501.77308  22496024.640    92117554.52447
  24103683.280   126665712.71208  24103681.020    98700557.88245
  21253345.580   111687095.48509  21253342.520    87028899.56148
  22584966.200   118684950.80708  22584962.880    92481828.95747
  21408550.640   112502715.24909  21408546.160    87664444.96848
  24754443.600   130085942.78507  24754440.540   101365867.15545
  20737432.740   108976068.41309  20737427.320    84916463.77849
  20423807.620   107327873.41409  20423806.960    83632154.60249
  23820605.420   125178178.58708  23820607.680    97541458.10345
 15 03 06 01 58 30.0000000  0  9G04G11G16G18G19G21G22G27G32
  22482109.000   118144368.46408  22482107.840    92060567.57147
  24087081.560   126578470.07908  24087079.180    98632576.65544
  21265814.700   111752621.16309  21265811.660    87079958.50548
  22597155.340   118749005.73009  22597152.160    92531741.86747
  21398275.060   112448716.63509  21398270.560    87622368.13548
  24767980.260   130157078.15607  24767977.240   101421297.28445
  20738312.920   108980693.89809  20738307.520    84920068.05249
  20420826.300   107312206.39809  20420825.640    83619946.52749
  23798328.220   125061112.11708  23798330.400    97450237.78646
 15 03 06 01 59  0.0000000  0  9G04G11G16G18G19G21G22G27G32
  22468235.180   118071461.20309  22468234.040    92003756.75146
  24070495.320   126491308.47908  24070492.760    98564658.54745
  21278371.440   111818607.22709  21278368.420    87131376.20748
  22609409.680   118813402.90308  22609406.580    92581921.48947
  21388037.480   112394917.76009  21388032.980    87580446.94448
  24781512.600   130228190.27908  24781509.320   101476709.33245
  20739293.680   108985848.12409  20739288.340    84924084.34049
  20417904.980   107296854.66509  20417904.320    83607984.13949
  23776071.500   124944153.55708  23776073.680    97359101.63945
 15 03 06 01 59 30.0000000  0  9G04G11G16G18G19G21G22G27G32
  22454404.620   117998781.14908  22454403.440    91947122.98346
  24053924.700   126404229.29108  24053922.100    98496804.69645
  21291015.480   111885051.97709  21291012.440    87183151.31848
  22621728.900   118878141.19509  22621725.840    92632366.90746
  21377838.280   112341320.48709  21377833.740    87538682.84948
  24795040.560   130299279.58707  24795037.420   101532103.58744
  20740375.140   108991531.39709  20740369.820    84928512.87548
  20415044.100   107281820.46409  20415043.420    83596269.17249
  23753835.900   124827306.45608  23753837.960    97268052.36345
 15 03 06 02 00  0.0000000  0  9G04G11G16G18G19G21G22G27G32
  22440617.800   117926331.05508  22440616.620    91890668.41446
  24037370.220   126317235.39708  24037367.740    98429017.29845
  21303747.100   111951956.85009  21303744.040    87235284.96548
  22634113.220   118943221.47309  22634110.220    92683078.80446
  21367678.160   112287928.59109  21367673.600    87497078.78048
  24808564.600   130370348.67007  24808561.540   101587482.05344
  20741557.680   108997745.74709  20741552.360    84933355.22848
  20412244.340   107267107.49709  20412243.660    83584804.51449
  23731622.520   124710576.01108  23731624.600    97177093.90745
 15 03 06 02 00 30.0000000  0  9G04G11G16G18G19G21G22G27G32
  22426873.960   117854106.68309  22426872.660    91834389.70346
  24020831.080   126230322.42108  24020828.620    98361292.94245
  21316564.820   112019314.10609  21316561.740    87287771.12248
  22646561.360   119008637.05509  22646558.320    92734051.97947
  21357556.520   112234738.90609  21357551.900    87455632.28348
  24822083.680   130441392.07807  24822080.620   101642840.54744
  20742840.340   109004486.15809  20742835.040    84938607.50648
  20409505.060   107252712.48809  20409504.380    83573587.62149
  23709431.020   124593960.34508  23709432.920    97086224.86846
 15 03 06 02 01  0.0000000  0  9G04G11G16G18G19G21G22G27G32
  22413173.580   117782110.47608  22413172.160    91778288.80047
  24004307.960   126143493.26008  24004305.580    98293633.90845
  21329468.860   112087125.13609  21329465.780    87340610.87348
  22659073.340   119074388.00708  22659070.320    92785286.48247
  21347474.080   112181755.12109  21347469.400    87414346.23348
  24835598.300   130512411.80907  24835595.320   101698180.57245
  20744223.360   109011754.14309  20744218.100    84944270.87948
  20406826.960   107238638.97509  20406826.280    83562621.24549
  23687262.340   124477464.61608  23687264.280    96995449.32346
 15 03 06 02 01 30.0000000  0  9G04G11G16G18G19G21G22G27G32
  22399516.260   117710340.80409  22399514.780    91722364.41747
  23987800.520   126056746.49708  23987798.180    98226039.08444
  21342458.320   112155385.21109  21342455.260    87393800.52248
  22671648.500   119140470.82109  22671645.380    92836779.58346
  21337430.720   112128976.70109  21337425.940    87373220.18948
  24849108.140   130583405.93308  24849105.040   101753500.63645
  20745706.380   109019547.67009  20745701.120    84950343.76248
  20404209.920   107224886.44809  20404209.280    83551904.98349
  23665116.640   124361089.83008  23665118.480    96904768.01045
 15 03 06 02 02  0.0000000  0  9G04G11G16G18G19G21G22G27G32
  22385902.520   117638799.71609  22385901.020    91666618.14947
  23971309.160   125970083.93408  23971306.760    98158509.85045
  21355533.180   112224094.18309  21355530.140    87447339.96648
  22684286.720   119206884.95809  22684283.500    92888530.86246
  21327427.000   112076406.42909  21327422.120    87332256.35648
  24862613.460   130654375.91208  24862610.080   101808801.91445
  20747289.560   109027867.52909  20747284.300    84956826.77349
  20401654.480   107211457.65409  20401653.880    83541440.98449
  23642994.800   124244840.21408  23642996.600    96814184.32546
 15 03 06 02 02 30.0000000  0  9G04G11G16G18G19G21G22G27G32
  22372332.800   117567490.28209  22372331.240    91611052.38747
  23954834.440   125883508.76408  23954832.080    98091048.72045
  21368693.680   112293253.18509  21368690.660    87501230.07548
  22696988.160   119273631.25809  22696985.000    92940540.95347
  21317463.720   112024048.61409  21317458.740    87291458.05648
  24876114.740   130725324.91607  24876111.280   101864086.83045
  20748973.420   109036716.16809  20748968.120    84963721.82048
  20399161.460   107198356.86909  20399160.860    83531232.57449
  23620897.800   124128721.40308  23620899.500    96723702.51346
 15 03 06 02 03  0.0000000  0  9G04G11G16G18G19G21G22G27G32
  22358806.620   117496409.87109  22358805.080    91555665.08946
  23938375.940   125797018.73408  23938373.540    98023653.93945
  21381938.760   112362856.60509  21381935.780    87555466.48848
  22709751.940   119340704.80909  22709748.680    92992806.06347
  21307540.520   111971901.59909  21307535.480    87250824.02548
  24889611.080   130796249.10807  24889607.740   101919352.37344
  20750757.200   109046089.85909  20750751.880    84971026.00348
  20396730.600   107185582.43209  20396729.980    83521278.46149
  23598825.760   124012733.31608  23598827.320    96633322.53845
 15 03 06 02 03 30.0000000  0  9G04G11G16G18G19G21G22G27G32
  22345324.340   117425560.20309  22345322.860    91500457.59647
  23921933.900   125710615.55408  23921931.480    97956326.82845
  21395268.340   112432904.04409  21395265.400    87610048.89248
  22722577.820   119408104.83809  22722574.400    93045325.56346
  21297657.900   111919968.02809  21297652.860    87210356.31748
  24903102.920   130867150.11707  24903099.600   101974599.86144
  20752641.060   109055989.48409  20752635.720    84978740.00248
  20394362.380   107173137.20509  20394361.740    83511580.87949
  23576779.380   123896880.18208  23576780.620    96543047.68446
 15 03 06 02 04  0.0000000  0  9G04G11G16G18G19G21G22G27G32
  22331884.740   117354935.21508  22331883.380    91445425.17447
  23905507.240   125624293.40908  23905504.980    97889062.88545
  21408680.720   112503386.70609  21408677.820    87664970.42648
  22735464.200   119475822.85109  22735460.700    93098092.85347
  21287814.960   111868243.10809  21287809.900    87170051.18948
  24916589.080   130938020.82907  24916585.700   102029823.84144
  20754623.700   109066408.21709  20754618.320    84986858.50249
  20392055.740   107161015.60909  20392055.080    83502135.47649
  23554757.980   123781158.06508  23554759.240    96452874.87946
 15 03 06 02 04 30.0000000  0  9G04G11G16G18G19G21G22G27G32
  22318489.340   117284542.71409  22318488.100    91390573.91647
  23889097.620   125538060.42908  23889095.340    97821868.39645
  21422177.000   112574310.04909  21422174.100    87720235.35248
  22748412.240   119543865.12909  22748408.620    93151112.79946
  21278013.400   111816735.68909  21278008.360    87129915.54948
  24930071.040   131008868.70008  24930067.740   102085029.93844
  20756706.420   109077352.91909  20756701.020    84995386.84948
  20389812.440   107149226.80909  20389811.740    83492949.39249
  23532763.660   123665577.65708  23532764.600    96362812.47845
 15 03 06 02 05  0.0000000  0  9G04G11G16G18G19G21G22G27G32
  22305137.620   117214379.43009  22305136.380    91335901.25647
  23872704.300   125451913.14308  23872701.940    97754740.68945
  21435756.020   112645668.09409  21435753.100    87775839.00948
  22761420.800   119612225.57408  22761417.280    93204380.68647
  21268252.780   111765443.37409  21268247.760    87089947.51448
  24943548.060   131079690.01107  24943544.800   102140215.37145
  20758888.340   109088819.15909  20758882.980    85004321.58648
  20387632.000   107137768.43509  20387631.260    83484020.78949
  23510796.020   123550138.00608  23510796.900    96272859.77445
 15 03 06 02 05 30.0000000  0  9G04G11G16G18G19G21G22G27G32
  22291829.840   117144446.84509  22291828.620    91281408.35747
  23856327.760   125365853.64708  23856325.380    97687681.38545
  21449417.660   112717460.32609  21449414.720    87831780.98648
  22774489.860   119680903.96309  22774486.340    93257896.29446
  21258533.620   111714369.11109  21258528.620    87050149.39148
  24957020.160   131150486.01207  24957017.180   102195381.04745
  20761169.680   109100807.72109  20761164.340    85013663.32548
  20385514.940   107126643.22809  20385514.200    83475351.79149
  23488856.060   123434843.50808  23488856.720    96183020.12545
 15 03 06 02 06  0.0000000  0  9G04G11G16G18G19G21G22G27G32
  22278566.120   117074745.44709  22278564.780    91227095.57347
  23839968.060   125279882.69908  23839965.560    97620691.05045
  21463161.560   112789684.91909  21463158.600    87888059.86548
  22787619.080   119749898.09909  22787615.540    93311657.95647
  21248856.300   111663514.70309  21248851.320    87010522.58248
  24970487.400   131221256.77306  24970484.600   102250527.06645
  20763550.360   109113318.37309  20763545.020    85023411.88948
  20383461.540   107115852.56809  20383460.800    83466943.47749
  23466944.280   123319697.11008  23466944.920    96093295.93346
 15 03 06 02 06 30.0000000  0  9G04G11G16G18G19G21G22G27G32
  22265346.380   117005275.13609  22265344.920    91172962.88447
  23823625.080   125193999.81708  23823622.700    97553769.39645
  21476987.220   112862339.19009  21476984.260    87944673.56648
  22800807.940   119819205.57909  22800804.420    93365663.78346
  21239220.920   111612880.80509  21239216.000    86971067.61148
  24983949.700   131292001.86006  24983946.720   102305653.12444
  20766030.160   109126349.72909  20766024.780    85033566.20248
  20381471.940   107105397.28009  20381471.200    83458796.50249
  23445060.900   123204700.90108  23445061.480    96003688.78245
 15 03 06 02 07  0.0000000  0  9G04G11G16G18G19G21G22G27G32
  22252171.100   116936038.09709  22252169.540    91119011.96347
  23807299.340   125108207.54808  23807296.880    97486918.31845
  21490894.540   112935422.64209  21490891.580    88001621.69248
  22814056.420   119888826.21509  22814052.760    93419913.63746
  21229628.140   111562470.67709  21229623.280    86931786.99748
  24997407.340   131362723.07107  24997404.620   102360760.43443
  20768609.260   109139902.91709  20768603.820    85044127.13048
  20379546.760   107095280.44609  20379546.040    83450913.25549
  23423207.120   123089859.71008  23423207.860    95914202.41646
 15 03 06 02 07 30.0000000  0  9G04G11G16G18G19G21G22G27G32
  22239039.400   116867030.19609  22239037.800    91065239.59947
  23790990.040   125022502.06608  23790987.600    97420134.87645
  21504882.360   113008928.92209  21504879.380    88058899.29448
  22827363.180   119958753.63509  22827359.580    93474402.53246
  21220077.380   111512281.22509  21220072.560    86892678.34248
  25010859.460   131433414.96708  25010856.780   102415845.05944
  20771286.660   109153972.62609  20771281.160    85055090.54848
  20377685.420   107085499.04409  20377684.680    83443291.37949
  23401382.520   122975171.98508  23401383.200    95824835.58346
 15 03 06 02 08  0.0000000  0  9G04G11G16G18G19G21G22G27G32
  22225951.540   116798252.69409  22225949.860    91011646.76047
  23774697.620   124936884.94708  23774695.300    97353420.29645
  21518950.420   113082856.80009  21518947.400    88116505.41048
  22840728.180   120028987.18109  22840724.640    93529129.95646
  21210569.060   111462314.99509  21210564.320    86853743.62548
  25024306.520   131504079.52907  25024303.620   102470908.36944
  20774062.420   109168559.27009  20774056.860    85066456.76449
  20375888.380   107076055.42209  20375887.640    83435932.70849
  23379587.880   122860641.59008  23379588.680    95735591.39346
 15 03 06 02 08 30.0000000  0  9G04G11G16G18G19G21G22G27G32
  22212907.820   116729707.34309  22212906.100    90958234.82447
  23758422.320   124851357.87808  23758420.020    97286775.87845
  21533098.360   113157204.60009  21533095.340    88174438.74348
  22854151.260   120099526.16109  22854147.680    93584095.39746
  21201103.760   111412574.81009  21201099.080    86814985.04848
  25037748.680   131574717.33507  25037745.900   102525950.77845
  20776936.700   109183663.55509  20776931.100    85078226.34148
  20374156.120   107066952.21609  20374155.360    83428839.29949
  23357824.080   122746272.76108  23357824.780    95646473.02646
 15 03 06 02 09  0.0000000  0  9G04G11G16G18G19G21G22G27G32
  22199908.140   116661393.63209  22199906.460    90905003.39147
  23742164.220   124765920.91808  23742162.020    97220201.68045
  21547325.820   113231970.31309  21547322.820    88232697.71748
  22867631.980   120170367.62309  22867628.460    93639296.53246
  21191681.680   111363061.71109  21191677.060    86776403.41848
  25051185.640   131645328.30807  25051182.620   102580972.32044
  20779909.140   109199283.79609  20779903.540    85090397.95748
  20372488.760   107058190.09909  20372488.000    83422011.66349
  23336091.420   122632067.55808  23336092.040    95557482.18846
 15 03 06 02 09 30.0000000  0  8G04G11G16G18G19G22G27G32
  22186952.680   116593312.26209  22186950.980    90851953.01247
  23725923.360   124680574.92508  23725921.060    97153698.36845
  21561632.520   113307152.42409  21561629.520    88291281.16248
  22881169.920   120241510.09309  22881166.420    93694732.21946
  21182303.160   111313777.48409  21182298.560    86738000.13748
  20782979.740   109215419.94209  20782974.180    85102971.58648
  20370886.640   107049770.71709  20370885.840    83415451.10649
  23314390.540   122518029.33708  23314391.020    95468621.43146
 15 03 06 02 10  0.0000000  0  8G04G11G16G18G19G22G27G32
  22174041.640   116525464.38809  22174039.880    90799084.56147
  23709700.080   124595320.69708  23709697.740    97087266.54845
  21576018.080   113382748.88109  21576015.080    88350187.47648
  22894764.980   120312952.38509  22894761.460    93750401.54147
  21172968.560   111264724.06409  21172963.980    86699776.70348
  20786148.480   109232071.88609  20786142.980    85115947.12848
  20369350.100   107041696.03209  20369349.260    83409159.14149
  23292722.060   122404161.52808  23292722.500    95379893.49446
 15 03 06 02 10 30.0000000  0  8G04G11G16G18G19G22G27G32
  22161174.880   116457849.20309  22161173.080    90746397.42847
  23693494.220   124510158.40208  23693491.800    97020906.36545
  21590481.840   113458756.54709  21590478.880    88409414.20248
  22908416.440   120384691.50709  22908413.040    93806302.13946
  21163678.060   111215902.22509  21163673.520    86661733.71648
  20789415.080   109249237.91109  20789409.560    85129323.25648
  20367879.260   107033966.61809  20367878.400    83403136.21849
  23271086.520   122290466.34508  23271086.780    95291300.01646
 15 03 06 02 11  0.0000000  0  9G04G11G14G16G18G19G22G27G32
  22148352.200   116390465.87209  22148350.460    90693890.97647
  23677305.640   124425086.87708  23677303.000    96954616.89545
  24685009.380                                                  
  21605023.200   113535171.91209  21605020.240    88468958.61848
  22922123.820   120456724.22009  22922120.320    93862431.53447
  21154431.700   111167312.02009  21154427.120    86623871.23348
  20792779.000   109266915.47709  20792773.500    85143097.98949
  20366474.040   107026582.21409  20366473.200    83397382.13849
  23249483.960   122176945.11908  23249484.240    95202842.13346
 15 03 06 02 11 30.0000000  0  9G04G11G14G16G18G19G22G27G32
  22135572.340   116323307.50709  22135570.560    90641559.79847
  23661133.080   124340099.64508  23661130.540    96888393.13445
  24670904.920   129646473.93808  24670902.060   101023223.92343
  21619640.360   113611985.51509  21619637.400    88528813.34848
  22935885.260   120529041.39508  22935881.820    93918782.56846
  21145228.360   111118947.81409  21145223.740    86586184.84048
  20796238.820   109285097.10109  20796233.360    85157265.48849
  20365133.400   107019537.11109  20365132.560    83391892.43749
  23227913.680   122063593.58408  23227913.960    95114516.44846
 15 03 06 02 12  0.0000000  0  9G01G04G11G16G18G19G22G27G32
  24582231.160   129180501.44007  24582235.240   100660141.46145
  22122839.760   116256397.78909  22122838.020    90589422.37647
  23644981.180   124255220.93508  23644978.500    96822253.90345
  21634337.280   113689218.43509  21634334.360    88588994.81848
  22949704.960   120601664.58209  22949701.580    93975372.05446
  21136072.780   111070834.53309  21136068.080    86548693.97848
  20799798.780   109303805.14609  20799793.380    85171843.17748
  20363862.020   107012856.01109  20363861.200    83386686.37949
  23206380.780   121950438.03508  23206380.900    95026343.45046
 15 03 06 02 12 30.0000000  0  9G01G04G11G16G18G19G22G27G32
  24566803.540   129099427.85707  24566807.060   100596967.41845
  22110152.060   116189724.06109  22110150.460    90537468.84547
  23628847.540   124170438.23408  23628844.960    96756189.51946
  21649111.040   113766855.23309  21649108.180    88649491.01048
  22963580.060   120674578.71509  22963576.620    94032188.26346
  21126962.740   111022960.87309  21126958.020    86511389.83248
  20803456.340   109323026.04509  20803451.020    85186820.50948
  20362657.720   107006527.42709  20362656.920    83381755.01549
  23184883.260   121837468.57208  23184883.280    94938315.48846
 15 03 06 02 13  0.0000000  0  9G01G04G11G16G18G19G22G27G32
  24551397.700   129018469.54507  24551400.900   100533883.19346
  22097506.720   116123272.56109  22097505.240    90485688.46747
  23612729.500   124085737.95308  23612726.860    96690189.34545
  21663958.760   113844880.55209  21663955.900    88710289.93948
  22977507.580   120747768.23709  22977504.220    94089219.05646
  21117895.900   110975314.27809  21117891.140    86474262.62348
  20807208.640   109342744.69609  20807203.360    85202185.69648
  20361518.040   107000538.55709  20361517.280    83377088.35749
  23163418.860   121724673.93608  23163418.840    94850423.75046
 15 03 06 02 13 30.0000000  0  9G01G04G11G16G18G19G22G27G32
  24536016.100   128937638.05007  24536019.200   100470897.78546
  22084905.900   116057055.01809  22084904.480    90434090.41347
  23596629.440   124001132.02408  23596626.980    96624262.70045
  21678882.100   113923302.96009  21678879.180    88771398.28848
  22991489.140   120821242.10408  22991485.820    94146471.41346
  21108874.740   110927907.66509  21108869.980    86437322.41248
  20811057.620   109362971.40109  20811052.380    85217946.76748
  20360445.460   106994901.93009  20360444.680    83372696.17449
  23141990.620   121612068.38708  23141990.660    94762679.32946
 15 03 06 02 14  0.0000000  0  9G01G04G11G16G18G19G22G27G32
  24520658.700   128856934.49507  24520661.800   100408012.09845
  22072349.840   115991072.51709  22072348.380    90382675.50147
  23580547.600   123916621.58708  23580545.220    96558410.45845
  21693880.660   114002120.57009  21693877.660    88832814.59448
  23005524.620   120894998.99409  23005521.220    94203944.31046
  21099899.700   110880743.35709  21099894.920    86400571.00449
  20815003.260   109383706.09409  20814998.080    85234103.67548
  20359440.280   106989619.59709  20359439.480    83368580.06749
  23120599.040   121499655.47208  23120599.020    94675085.00346
 15 03 06 02 14 30.0000000  0  9G01G04G11G16G18G19G22G27G32
  24505325.540   128776359.10907  24505328.820   100345226.25845
  22059838.560   115925325.18109  22059837.020    90331443.82147
  23564484.040   123832207.74508  23564481.780    96492633.47846
  21708954.000   114081331.30409  21708951.040    88894537.22148
  23019613.600   120969037.10209  23019610.140    94261636.33046
  21090971.040   110833822.75109  21090966.220    86364009.50148
  20819045.380   109404947.77009  20819040.220    85250655.63248
  20358502.740   106984692.87009  20358501.980    83364741.05449
  23099244.640   121387438.03108  23099244.640    94587643.01546
 15 03 06 02 15  0.0000000  0  9G01G04G11G16G18G19G22G27G32
  24490016.500   128695910.85907  24490019.860   100282539.51845
  22047371.860   115859811.81809  22047370.160    90280394.47047
  23548438.720   123747889.23708  23548436.460    96426930.77946
  21724101.300   114160930.86609  21724098.380    88956562.83948
  23033755.540   121043353.22009  23033751.980    94319545.00846
  21082088.780   110787146.03809  21082083.920    86327638.04348
  20823183.560   109426694.28909  20823178.440    85267600.97848
  20357632.880   106980121.61509  20357632.100    83361179.03949
  23077927.760   121275417.54308  23077927.640    94500354.46946
 15 03 06 02 15 30.0000000  0  9G01G04G11G16G18G19G22G27G32
  24474731.640   128615589.35007  24474734.680   100219951.41545
  22034949.620   115794532.15909  22034947.800    90229527.21647
  23532411.480   123663665.87508  23532409.240    96361302.24946
  21739322.220   114240917.30609  21739319.300    89018889.90748
  23047949.800   121117944.25508  23047946.240    94377667.89246
  21073253.080   110740714.19509  21073248.200    86291457.38848
  20827417.520   109448943.83909  20827412.380    85284938.29148
  20356830.760   106975906.38509  20356829.980    83357894.43349
  23056648.820   121163596.16408  23056648.640    94413221.07246
 15 03 06 02 16  0.0000000  0  9G01G04G11G16G18G19G22G27G32
  24459471.020   128535394.36308  24459473.740   100157461.89945
  22022571.740   115729485.81309  22022569.900    90178841.77447
  23516402.440   123579537.76008  23516400.200    96295747.92045
  21754616.060   114321286.95709  21754613.180    89081515.59248
  23062196.000   121192808.17609  23062192.420    94436003.41346
  21064464.060   110694527.67809  21064459.200    86255467.90748
  20831746.960   109471694.93209  20831741.740    85302666.43048
  20356096.500   106972047.79409  20356095.720    83354887.74249
  23035408.120   121051976.13608  23035408.000    94326244.59947
 15 03 06 02 16 30.0000000  0  9G01G04G11G16G18G19G22G27G32
  24444234.660   128455327.01907  24444237.300   100095071.90446
  22010238.460   115664674.01809  22010236.640    90128339.08947
  23500411.800   123495506.35808  23500409.420    96230268.92946
  21769982.640   114402038.78509  21769979.800    89144439.06848
  23076493.820   121267943.46908  23076490.100    94494550.39946
  21055722.220   110648589.41109  21055717.420    86219671.85948
  20836171.760   109494947.42009  20836166.520    85320785.25248
  20355430.540   106968548.17209  20355429.760    83352160.75649
  23014206.480   120940561.35708  23014206.340    94239428.02346
 15 03 06 02 17  0.0000000  0  9G01G04G11G16G18G19G22G27G32
  24429022.860   128375389.34007  24429025.840   100032782.99446
  21997950.200   115600098.96309  21997948.440    90078020.88647
  23484439.920   123411574.13208  23484437.420    96164867.25445
  21785421.780   114483171.77109  21785418.900    89207659.55148
  23090843.160   121343349.96008  23090839.540    94553308.69346
  21047028.220   110602902.54309  21047023.440    86184071.70648
  20840692.120   109518701.78109  20840686.780    85339295.14848
  20354833.460   106965410.47909  20354832.660    83349715.80049
  22993044.820   120829356.45708  22993044.600    94152774.98546
 15 03 06 02 17 30.0000000  0  9G01G04G11G16G18G19G22G27G32
  24413835.540   128295579.79508  24413838.560    99970593.90245
  21985706.580   115535758.69209  21985704.920    90027885.64947
  23468486.680   123327739.88408  23468484.240    96099541.91746
  21800932.660   114564681.84109  21800929.780    89271173.87048
  23105243.460   121419024.03408  23105239.900    94612275.49846
  21038382.020   110557466.68109  21038377.240    86148667.14248
  20845307.460   109542955.49609  20845302.080    85358194.15248
  20354305.100   106962633.99709  20354304.300    83347552.30249
  22971923.240   120718362.32208  22971922.780    94066286.16546
 15 03 06 02 18  0.0000000  0  9G01G04G11G16G18G19G22G27G32
  24398672.660   128215898.04408  24398675.400    99908504.29845
  21973507.600   115471653.08709  21973505.960    89977933.27147
  23452552.080   123244003.17508  23452549.540    96034292.55745
  21816514.740   114646566.12709  21816511.800    89334979.78748
  23119694.140   121494962.93808  23119690.500    94671448.67246
  21029783.820   110512282.88809  21029779.040    86113458.98948
  20850017.500   109567706.83909  20850012.080    85377480.91148
  20353845.620   106960219.37709  20353844.800    83345670.77349
  22950842.140   120607581.11108  22950841.720    93979963.28346
 15 03 06 02 18 30.0000000  0  9G01G04G11G16G18G19G22G27G32
  24383533.980   128136343.56507  24383536.220    99846513.82345
  21961353.160   115407781.47609  21961351.540    89928163.22947
  23436636.040   123160364.04308  23436633.540    95969119.25945
  21832167.380   114728821.22909  21832164.440    89399074.64948
  23134194.720   121571163.83209  23134191.100    94730825.98446
  21021233.700   110467351.88509  21021228.960    86078447.82748
  20854821.860   109592953.84009  20854816.440    85397153.90348
  20353455.100   106958167.08309  20353454.280    83344071.58149
  22929801.960   120497015.04408  22929801.580    93893808.03946
 15 03 06 02 19  0.0000000  0  9G01G04G11G16G18G19G22G27G32
  24368419.700   128056918.52007  24368422.080    99784624.36246
  21949243.700   115344146.16709  21949242.080    89878577.31347
  23420739.060   123076824.98408  23420736.440    95904023.91745
  21847890.440   114811446.55409  21847887.500    89463457.99048
  23148745.120   121647626.81108  23148741.460    94790407.52246
  21012732.360   110422677.18109  21012727.620    86043636.36948
  20859720.680   109618697.15209  20859715.240    85417213.62748
  20353134.160   106956480.33709  20353133.320    83342757.23049
  22908803.680   120386668.89508  22908803.160    93807824.14846
 15 03 06 02 19 30.0000000  0  9G01G04G11G16G18G19G22G27G32
  24353330.140   127977623.44808  24353332.820    99722836.16446
  21937179.280   115280747.48609  21937177.620    89829175.78447
  23404861.360   122993386.77608  23404858.700    95839007.17046
  21863683.600   114894440.06709  21863680.620    89528128.24048
  23163344.960   121724349.76109  23163341.360    94850191.63946
  21004280.160   110378260.60209  21004275.400    86009026.05248
  20864713.840   109644936.32709  20864708.380    85437659.73548
  20352883.020   106955160.50409  20352882.180    83341728.78449
  22887847.860   120276545.69608  22887847.360    93722013.96946
 15 03 06 02 20  0.0000000  0  9G01G04G11G16G18G19G22G27G32
  24338265.100   127898456.11608  24338267.780    99661147.42246
  21925159.460   115217583.13109  21925157.800    89779956.84447
  23389002.420   122910047.47108  23388999.560    95774067.49345
  21879545.840   114977796.58809  21879542.880    89593081.35348
  23177993.460   121801328.38408  23177989.960    94910174.98246
  20995876.900   110334101.07309  20995872.140    85974616.03548
  20869800.600   109671667.42409  20869795.160    85458489.16748
  20352701.480   106954206.26009  20352700.600    83340985.20949
  22866934.500   120166645.69208  22866933.880    93636377.70946
 15 03 06 02 20 30.0000000  0  9G01G04G11G16G18G19G22G27G32
  24323224.840   127819418.69008  24323227.300    99599559.85645
  21913184.720   115154655.44509  21913183.000    89730922.31847
  23373162.720   122826809.65808  23373160.060    95709206.90946
  21895477.140   115061515.81909  21895474.140    89658317.09948
  23192690.660   121878562.71008  23192687.180    94970357.57146
  20987523.300   110290202.29809  20987518.460    85940409.20448
  20874981.140   109698891.28009  20874975.680    85479702.56648
  20352590.060   106953620.82609  20352589.200    83340529.02749
  22846064.540   120056973.76109  22846063.920    93550919.18846
 15 03 06 02 21  0.0000000  0  9G01G04G11G16G18G19G22G27G32
  24308208.980   127740510.52307  24308211.340    99538073.11046
  21901254.900   115091963.90509  21901253.180    89682071.79747
  23357342.400   122743673.20008  23357339.520    95644425.27045
  21911476.860   115145594.62409  21911473.860    89723833.03248
  23207436.000   121956050.04708  23207432.640    95030737.32546
  20979219.480   110246564.88809  20979214.520    85906406.02948
  20880255.080   109726606.11109  20880249.620    85501298.54248
  20352548.880   106953404.57609  20352548.080    83340360.51649
  22825238.380   119947531.93508  22825237.680    93465639.95046
 15 03 06 02 21 30.0000000  0  9G01G04G11G16G18G19G22G27G32
  24293217.500   127661731.81307  24293220.180    99476687.26246
  21889370.000   115029508.34209  21889368.280    89633405.14147
  23341541.360   122660638.51908  23341538.760    95579722.97846
  21927544.520   115230030.66009  21927541.540    89789627.31948
  23222228.960   122033787.68709  23222225.600    95091312.08546
  20970965.620   110203190.22209  20970960.600    85872607.58848
  20885622.180   109754810.40909  20885616.720    85523275.91548
  20352578.180   106953558.50609  20352577.400    83340480.45049
  22804456.560   119838322.88408  22804455.780    93380542.08047
 15 03 06 02 22  0.0000000  0  9G01G04G11G16G18G19G22G27G32
  24278250.740   127583082.01507  24278253.620    99415401.86046
  21877529.860   114967288.20409  21877528.160    89584921.95247
  23325759.680   122577705.07808  23325756.760    95515099.53045
  21943679.460   115314820.20009  21943676.500    89855697.06848
  23237069.040   122111773.00208  23237065.600    95152079.87146
  20962761.860   110160079.11209  20962756.840    85839014.52448
  20891081.980   109783501.99609  20891076.560    85545633.00048
  20352677.940   106954082.97709  20352677.200    83340889.12849
  22783719.400   119729348.52208  22783718.620    93295627.09746
 15 03 06 02 22 30.0000000  0  9G01G04G11G16G18G19G22G27G32
  24263309.180   127504564.42207  24263312.200    99354219.47245
  21865735.200   114905306.88409  21865733.400    89536624.84847
  23309998.060   122494876.66508  23309995.200    95450557.96745
  21959881.680   115399963.23909  21959878.740    89922042.26548
  23251956.500   122190007.40308  23251953.060    95213041.74446
  20954609.140   110117236.27109  20954604.100    85805630.49648
  20896634.860   109812682.81409  20896629.500    85568371.29848
  20352849.060   106954982.31109  20352848.320    83341589.90449
  22763028.020   119620614.84609  22763027.240    93210899.65447
 15 03 06 02 23  0.0000000  0  9G01G04G11G16G18G19G22G27G32
  24248391.740   127426173.15108  24248394.420    99293135.46345
  21853984.900   114843558.74109  21853983.100    89488509.45147
  23294255.240   122412147.97908  23294252.140    95386094.08245
  21976149.720   115485452.15309  21976146.780    89988656.98148
  23266889.820   122268482.58508  23266886.480    95274191.22946
  20946506.580   110074656.95509  20946501.540    85772451.80848
  20902279.540   109842345.96309  20902274.220    85591485.43948
  20353090.560   106956251.49109  20353089.840    83342578.86549
  22742381.800   119512118.61709  22742381.060    93126357.23247
 15 03 06 02 23 30.0000000  0  9G01G04G11G16G18G19G22G27G32
  24233499.480   127347913.09708  24233501.640    99232153.63045
  21842279.760   114782048.10909  21842277.940    89440579.12147
  23278532.480   122329524.20908  23278529.520    95321711.95745
  21992483.980   115571289.12209  21992481.020    90055542.90548
  23281869.460   122347201.32108  23281866.140    95335530.49046
  20938455.340   110032347.49809  20938450.320    85739483.40848
  20908016.580   109872494.56109  20908011.320    85614977.84848
  20353403.580   106957896.37209  20353402.840    83343860.58149
  22721782.160   119403867.29809  22721781.440    93042005.65147
 15 03 06 02 24  0.0000000  0  9G01G04G11G16G18G19G22G27G32
  24218631.660   127269781.35308  24218633.620    99171271.83346
  21830619.360   114720772.36409  21830617.520    89392831.82047
  23262829.220   122247002.99808  23262826.100    95257409.73046
  22008883.340   115657468.18809  22008880.360    90122695.40448
  23296894.400   122426158.28908  23296891.300    95397055.40346
  20930455.200   109990306.33709  20930450.140    85706724.07248
  20913845.140   109903124.00809  20913839.920    85638844.95548
  20353787.700   106959914.96009  20353786.960    83345433.50449
  22701229.040   119295860.47308  22701228.320    92957844.58147
 15 03 06 02 24 30.0000000  0 10G01G04G11G14G16G18G19G22G27G32
  24203788.560   127191780.78607  24203790.780    99110492.33446
  21819004.240   114659734.49209  21819002.320    89345269.86847
  23247145.960   122164587.45408  23247143.000    95193189.89845
  24307813.780   127738414.01108  24307810.840    99536427.26145
  22025347.700   115743989.04109  22025344.760    90190114.23248
  23311964.860   122505354.29408  23311961.840    95458766.56946
  20922506.960   109948537.93809  20922501.920    85674177.27048
  20919765.560   109934235.88809  20919760.340    85663087.98748
  20354243.740   106962311.12009  20354242.940    83347300.63549
  22680723.600   119188103.79508  22680722.740    92873878.43446
 15 03 06 02 25  0.0000000  0 10G01G04G11G14G16G18G19G22G27G32
  24188969.800   127113908.27608  24188972.160    99049812.59345
  21807433.780   114598931.14809  21807431.800    89297890.67047
  23231482.180   122082274.70408  23231479.460    95129050.13646
  24294056.680   127666121.43108  24294053.620    99480095.35644
  22041876.120   115830846.46909  22041873.180    90257795.31948
  23327079.820   122584783.80508  23327076.780    95520659.69346
  20914610.240   109907040.39909  20914605.180    85641841.53048
  20925776.920   109965825.83509  20925771.680    85687703.53248
  20354771.180   106965082.60709  20354770.340    83349460.22849
  22660265.600   119080596.50809  22660264.720    92790106.61046
 15 03 06 02 25 30.0000000  0 10G01G04G11G14G16G18G19G22G27G32
  24174176.640   127036169.77908  24174178.860    98989237.21946
  21795909.100   114538368.31809  21795907.080    89250698.87347
  23215839.280   122000071.16408  23215836.540    95064995.43546
  24280321.140   127593941.04408  24280318.900    99423850.94846
  22058469.160   115918043.43109  22058466.260    90325740.97448
  23342239.920   122664450.69008  23342236.920    95582737.78046
  20906766.400   109865820.90509  20906761.400    85609722.44348
  20931880.020   109997897.84209  20931874.760    85712694.70348
  20355371.340   106968236.18809  20355370.460    83351917.54549
  22639856.720   118973347.15409  22639855.680    92706535.75346
 15 03 06 02 26  0.0000000  0 10G01G04G11G14G16G18G19G22G27G32
  24159408.240   126958561.56807  24159410.480    98928763.40145
  21784429.460   114478042.27409  21784427.420    89203691.59247
  23200216.660   121917973.59008  23200214.040    95001023.30145
  24266606.660   127521872.27107  24266604.980    99367693.53845
  22075125.520   116005573.07509  22075122.600    90393945.86548
  23357444.020   122744348.93708  23357441.000    95644996.13746
  20898975.040   109824877.27309  20898970.100    85577818.32148
  20938073.860   110030446.63309  20938068.580    85738057.39748
  20356043.680   106971769.16409  20356042.780    83354670.50349
  22619496.680   118866354.72109  22619495.560    92623165.11046
 15 03 06 02 26 30.0000000  0 10G01G04G11G14G16G18G19G22G27G32
  24144664.600   126881084.07608  24144666.820    98868391.44044
  21772994.980   114417953.56009  21772992.920    89156869.26147
  23184614.220   121835982.68408  23184611.500    94937134.31946
  24252914.120   127449918.12608  24252912.620    99311625.41645
  22091844.760   116093433.20109  22091841.800    90462408.28247
  23372691.860   122824476.68008  23372688.760    95707433.35746
  20891236.420   109784210.88709  20891231.560    85546130.24048
  20944358.300   110063471.45709  20944353.000    85763791.03248
  20356788.440   106975682.83609  20356787.520    83357720.11649
  22599186.040   118759622.13609  22599185.020    92539996.95246
 15 03 06 02 27  0.0000000  0 10G01G04G11G14G16G18G19G22G27G32
  24129945.820   126803737.37707  24129947.720    98808121.31144
  21761605.640   114358102.00109  21761603.540    89110231.69947
  23169032.280   121754099.05808  23169029.680    94873328.93346
  24239244.040   127378081.43108  24239242.640    99255648.83345
  22108626.420   116181621.54809  22108623.480    90531126.44448
  23387983.040   122904832.21008  23387979.840    95770048.02646
  20883550.960   109743823.79809  20883546.160    85514659.78149
  20950733.000   110096970.57909  20950727.700    85789894.24248
  20357605.780   106979978.11309  20357604.900    83361067.07249
  22578925.360   118653152.09109  22578924.300    92457033.35247
 15 03 06 02 27 30.0000000  0 10G01G04G11G14G16G18G19G22G27G32
  24115251.600   126726520.34507  24115253.480    98747952.29845
  21750261.180   114298486.63209  21750259.120    89063778.17747
  23153470.700   121672322.06408  23153467.920    94809606.60246
  24225596.720   127306364.17008  24225594.780    99199765.21644
  22125469.800   116270134.29909  22125466.920    90600097.39547
  23403316.880   122985411.86008  23403313.640    95832837.36346
  20875918.660   109703715.98809  20875913.900    85483406.94448
  20957197.480   110130941.54309  20957192.140    85816365.12748
  20358495.740   106984654.93709  20358494.860    83364711.34449
  22558714.940   118546946.11608  22558713.920    92374275.53247
 15 03 06 02 28  0.0000000  0 10G01G04G11G14G16G18G19G22G27G32
  24100582.380   126649434.11708  24100584.660    98687885.23646
  21738961.880   114239108.64609  21738959.860    89017509.63147
  23137929.800   121590653.74208  23137926.980    94745968.97146
  24211972.660   127234770.11807  24211970.700    99143977.68245
  22142374.540   116358969.68809  22142371.760    90669319.74747
  23418693.160   123066214.50708  23418689.840    95895800.45946
  20868340.000   109663889.90809  20868335.240    85452373.64348
  20963751.640   110165383.78409  20963746.240    85843203.23948
  20359458.640   106989715.22109  20359457.840    83368654.41949
  22538555.500   118441007.89408  22538554.540    92291726.34347
 15 03 06 02 28 30.0000000  0 10G01G04G11G14G16G18G19G22G27G32
  24085938.280   126572478.65308  24085940.620    98627920.04046
  21727707.640   114179967.71009  21727705.700    88971425.81147
  23122409.420   121509093.49708  23122406.640    94682415.58546
  24198372.720   127163302.15908  24198370.900    99088288.42244
  22159340.100   116448124.46309  22159337.360    90738790.97747
  23434111.400   123147237.90308  23434108.100    95958935.55845
  20860815.300   109624347.25909  20860810.500    85421561.19548
  20970395.120   110200295.62009  20970389.700    85870407.27148
  20360494.660   106995159.72409  20360493.900    83372896.88349
  22518447.400   118335339.83208  22518446.520    92209387.68446
 15 03 06 02 29  0.0000000  0 10G01G04G11G14G16G18G19G22G27G32
  24071318.800   126495652.89507  24071321.240    98568055.92846
  21716498.400   114121063.09509  21716496.520    88925526.13047
  23106909.520   121427641.26508  23106906.600    94618946.34945
  24184797.260   127091962.23108  24184795.440    99032698.87445
  22176365.760   116537594.81009  22176363.000    90808508.09847
  23449571.080   123228479.07208  23449567.840    96022240.36145
  20853344.540   109585088.13709  20853339.740    85390969.66948
  20977127.500   110235674.51009  20977122.060    85897975.23848
  20361603.800   107000988.41509  20361603.080    83377438.71349
  22498391.040   118229943.51708  22498390.120    92127260.75047
 15 03 06 02 29 30.0000000  0 10G01G04G11G14G16G18G19G22G27G32
  24056724.580   126418960.60607  24056726.920    98508295.81346
  21705334.840   114062398.49909  21705332.980    88879813.48047
  23091431.000   121346301.34008  23091428.220    94555564.62146
  24171247.380   127020756.91808  24171245.540    98977214.24745
  22193451.740   116627381.98909  22193448.980    90878472.10747
  23465072.480   123309939.32908  23465069.180    96085715.87846
  20845928.700   109546117.65609  20845923.900    85360603.05748
  20983949.120   110271522.42909  20983943.680    85925908.68248
  20362786.960   107007205.93409  20362786.220    83382283.52749
  22478387.580   118124825.46808  22478386.800    92045350.66047
 15 03 06 02 30  0.0000000  0 10G01G04G11G14G16G18G19G22G27G32
  24042155.540   126342400.13808  24042157.840    98448638.40446
  21694216.660   114003972.05309  21694214.780    88834286.41647
  23075973.600   121265072.37608  23075970.860    94492269.36346
  24157723.160   126949687.39808  24157721.280    98921835.44145
  22210597.260   116717481.77409  22210594.460    90948679.70748
  23480614.840   123391614.93508  23480611.560    96149359.19645
  20838567.700   109507435.37609  20838562.920    85330461.02949
  20990859.380   110307836.25009  20990853.980    85954205.17148
  20364043.940   107013811.36109  20364043.200    83387430.61549
  22458437.260   118019986.39408  22458436.540    91963657.95147
 15 03 06 02 30 30.0000000  0 10G01G04G11G14G16G18G19G22G27G32
  24027611.200   126265968.97708  24027613.440    98389081.74146
  21683143.280   113945781.27109  21683141.420    88788942.97647
  23060536.920   121183952.15108  23060534.000    94429058.81846
  24144225.100   126878754.29308  24144223.320    98866562.92546
  22227801.260   116807888.89709  22227798.400    91019126.79447
  23496197.180   123473500.65508  23496193.860    96213166.25146
  20831261.380   109469040.41609  20831256.580    85300542.88048
  20997857.500   110344611.75309  20997852.100    85982861.41148
  20365374.440   107020803.06509  20365373.720    83392878.69449
  22438540.080   117915426.31208  22438539.320    91882182.63047
 15 03 06 02 31  0.0000000  0 10G01G04G11G14G16G18G19G22G27G32
  24013091.960   126189669.41908  24013094.120    98329627.61846
  21672115.240   113887828.58009  21672113.320    88743785.06047
  23045121.480   121102943.60608  23045118.740    94365935.32846
  24130753.940   126807962.42807  24130752.180    98811400.47445
  22245063.500   116898602.17309  22245060.620    91089812.43548
  23511819.660   123555597.38708  23511816.300    96277137.72046
  20824010.460   109430936.58709  20824005.660    85270851.58549
  21004943.620   110381849.64909  21004938.240    86011877.94948
  20366779.080   107028184.34509  20366778.360    83398630.33749
  22418696.980   117811150.26008  22418696.220    91800928.63147
 15 03 06 02 31 30.0000000  0 10G01G04G11G14G16G18G19G22G27G32
  23998597.440   126113500.25507  23998599.500    98270275.11246
  21661132.280   113830112.71709  21661130.280    88698811.67847
  23029727.180   121022046.13708  23029724.200    94302898.35446
  24117309.880   126737313.60008  24117307.920    98756349.44945
  22262383.360   116989618.23609  22262380.460    91160734.01047
  23527481.700   123637901.66308  23527478.340    96341270.92246
  20816814.980   109393123.89809  20816810.160    85241387.14648
  21012117.180   110419547.06909  21012111.860    86041252.56248
  20368257.780   107035954.74509  20368257.020    83404685.19149
  22398908.200   117707159.41909  22398907.280    91719896.86847
 15 03 06 02 32  0.0000000  0 10G01G04G11G14G16G18G19G22G27G32
  23984128.260   126037464.98107  23984130.400    98211026.97246
  21650195.100   113772637.31209  21650192.960    88654025.67947
  23014354.720   120941263.27808  23014351.680    94239950.70446
  24103894.140   126666814.20408  24103892.420    98701414.94145
  22279760.880   117080937.43709  22279758.020    91231891.81248
  23543183.500   123720414.66908  23543180.080    96405566.75946
  20809675.860   109355607.43809  20809671.020    85212153.54949
  21019378.520   110457705.76309  21019373.240    86070986.61348
  20369811.340   107044118.61909  20369810.520    83411046.64949
  22379174.840   117603460.06208  22379173.880    91639092.24447
 15 03 06 02 32 30.0000000  0 10G01G04G11G14G16G18G19G22G27G32
  23969683.820   125961559.61207  23969685.980    98151880.00945
  21639302.880   113715398.20709  21639300.680    88609423.79947
  22999003.480   120860592.17208  22999000.520    94177090.15546
  24090506.820   126596463.15208  24090504.740    98646595.90545
  22297194.760   117172553.09209  22297191.940    91303280.59147
  23558923.880   123803130.45608  23558920.340    96470020.61345
  20802592.640   109318384.65809  20802587.760    85183148.78548
  21026726.700   110496320.51209  21026721.380    86101076.03348
  20371439.200   107052672.91009  20371438.320    83417712.32449
  22359496.680   117500050.71709  22359495.600    91558513.59647
 15 03 06 02 33  0.0000000  0 10G01G04G11G14G16G18G19G22G27G32
  23955264.660   125885786.61708  23955266.480    98092836.18645
  21628456.100   113658397.90409  21628453.880    88565007.99147
  22983674.020   120780035.26108  22983671.060    94114318.54446
  24077148.560   126526265.24508  24077146.560    98591896.28045
  22314684.900   117264464.30909  22314682.100    91374899.68647
  23574702.740   123886049.03308  23574699.140    96534632.47145
  20795566.040   109281459.38209  20795561.120    85154375.84049
  21034161.740   110535391.76709  21034156.400    86131521.16248
  20373141.940   107061620.75909  20373141.060    83424684.66749
  22339874.660   117396936.25409  22339873.540    91478164.70647
 15 03 06 02 33 30.0000000  0 10G01G04G11G14G16G18G19G22G27G32
  23940870.320   125810144.26507  23940872.140    98033894.16346
  21617654.400   113601634.60009  21617652.140    88520776.85647
  22968366.080   120699591.44108  22968362.940    94051635.06646
  24063819.840   126456222.30408  24063817.800    98537317.38845
  22332230.620   117356667.59209  22332227.800    91446746.37647
  23590519.460   123969166.49508  23590515.880    96599399.32645
  20788595.980   109244831.30109  20788591.040    85125834.47749
  21041682.940   110574915.89009  21041677.580    86162319.18048
  20374919.400   107070961.32509  20374918.540    83431963.02449
  22320308.900   117294117.62509  22320307.740    91398046.34547
 15 03 06 02 34  0.0000000  0 10G01G04G11G14G16G18G19G22G27G32
  23926501.240   125734634.76808  23926503.300    97975055.69746
  21606898.220   113545110.56909  21606896.000    88476732.18547
  22953080.200   120619263.65408  22953077.140    93989042.02146
  24050521.600   126386339.49208  24050519.360    98482863.26945
  22349831.680   117449161.77909  22349828.840    91518819.73447
  23606374.000   124052482.94608  23606370.420    96664321.22545
  20781683.120   109208503.98209  20781678.180    85097527.48349
  21049290.480   110614893.73709  21049285.160    86193470.76048
  20376772.180   107080697.71209  20376771.320    83439549.82049
  22300800.380   117191599.58209  22300799.240    91318162.21947
 15 03 06 02 34 30.0000000  0 10G01G04G11G14G16G18G19G22G27G32
  23912157.280   125659257.62508  23912159.460    97916320.37146
  21596187.460   113488825.33209  21596185.320    88432873.58147
  22937816.360   120539051.87308  22937813.400    93926539.35946
  24037254.280   126316619.24208  24037251.960    98428535.84045
  22367487.540   117541943.77609  22367484.680    91591117.36547
  23622265.940   124135995.96408  23622262.420    96729396.28646
  20774827.740   109172478.70909  20774822.780    85069455.84249
  21056983.940   110655323.12209  21056978.640    86224974.17648
  20378700.360   107090830.19909  20378699.460    83447445.25549
  22281349.420   117089384.12109  22281348.240    91238513.85547
 15 03 06 02 35  0.0000000  0 10G01G04G11G14G16G18G19G22G27G32
  23897838.200   125584010.29408  23897840.240    97857686.14446
  21585521.680   113432776.48209  21585519.580    88389199.17547
  22922574.200   120458953.86008  22922571.140    93864125.35146
  24024017.740   126247061.63708  24024015.780    98374335.15645
  22385197.120   117635008.22309  22385194.300    91663635.09447
  23638194.460   124219700.69708  23638190.900    96794620.75145
  20768029.580   109136754.09509  20768024.600    85041618.48249
  21064762.420   110696199.36509  21064757.140    86256825.80048
  20380703.580   107101357.02509  20380702.620    83455647.97749
  22261956.060   116987471.38409  22261954.820    91159101.38447
 15 03 06 02 35 30.0000000  0 10G01G04G11G14G16G18G19G22G27G32
  23883544.260   125508894.90308  23883546.020    97799154.74146
  21574901.260   113376965.90609  21574899.220    88345710.42747
  22907354.180   120378972.56708  22907351.300    93801802.28946
  24010813.120   126177671.57408  24010811.400    98320265.01645
  22402960.200   117728353.87609  22402957.420    91736371.92747
  23654159.460   124303597.12008  23654155.920    96859994.57145
  20761289.280   109101333.74209  20761284.340    85014018.20549
  21072626.080   110737523.14609  21072620.800    86289026.14548
  20382782.360   107112281.09809  20382781.400    83464160.22849
  22242621.120   116885865.91709  22242619.820    91079928.33547
 15 03 06 02 36  0.0000000  0 10G01G04G11G14G16G18G19G22G27G32
  23869275.500   125433912.05308  23869277.140    97740726.61546
  21564326.280   113321394.26109  21564324.300    88302407.87347
  22892156.540   120299108.65608  22892153.680    93739570.70246
  23997641.180   126108452.79108  23997639.400    98266328.32445
  22420776.460   117821979.17509  22420773.740    91809326.67847
  23670160.600   124387683.61508  23670157.140    96925516.50745
  20754607.280   109066219.58709  20754602.340    84986656.52849
  21080574.740   110779293.61509  21080569.480    86321574.57348
  20384937.000   107123603.84209  20384936.040    83472983.14349
  22223345.220   116784570.80409  22223344.000    91000997.14447
 15 03 06 02 36 30.0000000  0 10G01G04G11G14G16G18G19G22G27G32
  23855031.780   125359060.66508  23855033.480    97682400.92846
  21553796.600   113266060.62609  21553794.640    88259290.76547
  22876981.260   120219362.10808  22876978.340    93677430.55746
  23984502.180   126039406.95308  23984500.440    98212526.41445
  22438645.200   117915880.13209  22438642.560    91882496.22147
  23686197.280   124471957.02408  23686193.900    96991184.08245
  20747983.640   109031412.24009  20747978.720    84959533.92249
  21088607.820   110821507.64109  21088602.540    86354468.61648
  20387167.480   107135325.00209  20387166.540    83482116.50849
  22204128.660   116683587.63609  22204127.420    90922309.01047
 15 03 06 02 37  0.0000000  0 10G01G04G11G14G16G18G19G22G27G32
  23840813.120   125284341.70708  23840814.860    97624178.45146
  21543312.380   113210966.02509  21543310.440    88216359.93047
  22861828.500   120139733.90108  22861825.520    93615382.62446
  23971396.980   125970537.99508  23971395.020    98158862.27645
  22456566.000   118010054.67409  22456563.480    91955878.94447
  23702269.360   124556416.44308  23702266.000    97056996.61845
  20741418.820   108996913.93309  20741413.900    84932652.12649
  21096725.160   110864164.50809  21096719.860    86387707.73848
  20389474.100   107147446.33509  20389473.160    83491561.69449
  22184972.140   116582919.92709  22184970.940    90843866.70047
 15 03 06 02 37 30.0000000  0 10G01G04G11G14G16G18G19G22G27G32
  23826619.640   125209754.96508  23826621.480    97566058.98446
  21532873.560   113156109.86309  21532871.600    88173614.88947
  22846698.400   120060224.77808  22846695.460    93553427.50346
  23958325.800   125901848.29908  23958323.760    98105337.86945
  22474538.220   118104499.36709  22474535.780    92029472.18247
  23718376.420   124641059.47808  23718373.040    97122952.22045
  20734913.000   108962725.74409  20734908.100    84906011.98549
  21104926.300   110907261.79009  21104920.980    86421290.03648
  20391856.940   107159968.23309  20391856.040    83501319.01549
  22165876.100   116482569.83309  22165874.800    90765671.88247
 15 03 06 02 38  0.0000000  0 10G01G04G11G14G16G18G19G22G27G32
  23812451.560   125135301.55208  23812453.340    97508043.38646
  21522480.420   113101493.61809  21522478.460    88131056.78447
  22831591.320   119980836.48208  22831588.300    93491566.51546
  23945289.540   125833342.54608  23945287.700    98051956.80545
  22492561.580   118199212.64509  22492559.100    92103274.70047
  23734518.180   124725884.78408  23734514.740    97189049.84245
  20728466.700   108928850.55609  20728461.860    84879615.73349
  21113211.240   110950799.39609  21113205.920    86455215.43748
  20394316.400   107172892.78809  20394315.520    83511390.08949
  22146841.220   116382541.10209  22146839.920    90687727.46647
 15 03 06 02 38 30.0000000  0 10G01G04G11G14G16G18G19G22G27G32
  23798308.460   125060979.48808  23798310.120    97450130.16446
  21512132.580   113047115.09909  21512130.560    88088683.92047
  22816506.860   119901567.41708  22816503.780    93429798.43746
  23932288.520   125765021.52508  23932286.480    97998719.66644
  22510635.200   118294190.10109  22510632.760    92177283.06447
  23750693.900   124810888.66908  23750690.520    97255286.62845
  20722079.880   108895287.68009  20722075.060    84853462.84649
  21121579.280   110994773.73509  21121573.940    86489481.15848
  20396852.240   107186218.69109  20396851.380    83521773.90349
  22127867.640   116282834.19009  22127866.300    90610033.82247
 15 03 06 02 39  0.0000000  0 10G01G04G11G14G16G18G19G22G27G32
  23784190.000   124986786.78508  23784191.600    97392317.72546
  21501829.580   112992972.46109  21501827.560    88046494.87047
  22801444.800   119822416.04608  22801441.740    93368122.08146
  23919322.820   125696885.91708  23919320.640    97945626.99545
  22528758.320   118389427.27409  22528755.860    92251493.81447
  23766902.740   124896066.80808  23766899.280    97321659.21045
  20715752.400   108862036.66109  20715747.600    84827552.96149
  21130029.600   111039180.52409  21130024.260    86524083.85348
  20399464.160   107199944.61509  20399463.320    83532469.42049
  22108955.440   116183449.67509  22108954.080    90532591.38747
 15 03 06 02 39 30.0000000  0 10G01G04G11G14G16G18G19G22G27G32
  23770097.120   124912728.54708  23770098.660    97334610.05946
  21491572.420   112939070.67709  21491570.380    88004493.48847
  22786406.160   119743388.14008  22786403.220    93306541.93446
  23906393.900   125628943.79508  23906391.540    97892685.10845
  22546931.220   118484925.99909  22546928.640    92325908.37647
  23783145.300   124981422.31008  23783141.840    97388169.96045
  20709485.520   108829103.99509  20709480.720    84801891.14849
  21138562.880   111084023.27109  21138557.520    86559026.25548
  20402153.340   107214076.50909  20402152.520    83543481.28049
  22090106.000   116084395.10709  22090104.620    90455406.06347
 15 03 06 02 40  0.0000000  0 10G01G04G11G14G16G18G19G22G27G32
  23756029.360   124838802.16108  23756030.940    97277005.12846
  21481360.600   112885407.47609  21481358.600    87962678.02347
  22771390.680   119664481.82008  22771387.860    93245056.53646
  23893501.820   125561195.49108  23893499.460    97839894.23945
  22565152.860   118580680.94509  22565150.220    92400522.58147
  23799420.800   125066950.64008  23799417.280    97454815.39645
  20703279.060   108796488.64609  20703274.220    84776476.59249
  21147178.220   111129297.60609  21147172.940    86594304.95748
  20404919.440   107228612.53809  20404918.620    83554808.05049
  22071319.360   115985670.60809  22071318.000    90378477.93347
 15 03 06 02 40 30.0000000  0 10G01G04G11G14G16G18G19G22G27G32
  23741986.640   124765007.43208  23741988.120    97219502.77246
  21471194.060   112831982.39209  21471192.160    87921048.10847
  22756398.440   119585697.37408  22756395.600    93183666.08846
  23880647.160   125493643.75208  23880644.940    97787256.55945
  22583422.600   118676688.66209  22583419.940    92475333.75847
  23815728.720   125152649.23808  23815725.180    97521593.52645
  20697133.200   108764191.85209  20697128.320    84751310.26249
  21155875.320   111175001.39909  21155870.060    86629918.30248
  20407762.540   107243553.14309  20407761.720    83566450.07749
  22052595.860   115887278.14309  22052594.480    90301808.52947
 15 03 06 02 41  0.0000000  0 10G01G04G11G14G16G18G19G22G27G32
  23727969.000   124691345.28308  23727970.660    97162103.75446
  21461073.020   112778796.28809  21461071.200    87879604.41847
  22741429.760   119507036.38008  22741426.820    93122371.83146
  23867830.580   125426292.29308  23867828.280    97734774.92545
  22601740.040   118772947.04109  22601737.320    92550340.25047
  23832068.940   125238517.13008  23832065.280    97588503.56345
  20691048.460   108732216.01209  20691043.480    84726394.02749
  21164654.060   111221133.94409  21164648.800    86665865.74448
  20410682.920   107258899.97509  20410682.120    83578408.63949
  22033936.220   115789221.36809  22033934.800    90225400.69947
 15 03 06 02 41 30.0000000  0 10G01G04G11G14G16G18G19G22G27G32
  23713976.780   124617816.51608  23713978.680    97104808.65046
  21450997.720   112725850.16609  21450995.820    87838347.71247
  22726484.760   119428499.67808  22726481.840    93061174.43646
  23855052.680   125359144.84308  23855050.360    97682452.27145
  22620104.880   118869454.64009  22620102.080    92625540.95447
  23848441.080   125324553.01708  23848437.340    97655544.51045
  20685025.200   108700563.36209  20685020.160    84701729.62449
  21173514.160   111267694.02109  21173508.880    86702146.32148
  20413680.900   107274654.52409  20413680.080    83590684.90749
  22015341.020   115691503.30309  22015339.560    90149256.80147
 15 03 06 02 42  0.0000000  0 10G01G04G11G14G16G18G19G22G27G32
  23700009.320   124544417.71508  23700011.360    97047614.83846
  21440967.440   112673140.51609  21440965.500    87797275.27748
  22711563.080   119350085.36608  22711560.080    93000072.40746
  23842313.580   125292200.80708  23842311.240    97630288.10045
  22638515.960   118966205.32909  22638513.220    92700931.05947
  23864844.060   125410751.23808  23864840.300    97722711.94545
  20679063.040   108669231.61409  20679057.900    84677315.27949
  21182454.620   111314676.38709  21182449.320    86738755.96148
  20416755.960   107290814.04709  20416755.120    83603276.73749
  21996810.120   115594123.11509  21996808.720    90073376.18347
 15 03 06 02 42 30.0000000  0 10G01G04G11G14G16G18G19G22G27G32
  23686067.440   124471152.94608  23686069.540    96990525.47146
  21430983.000   112620671.68809  21430981.000    87756390.48248
  22696665.600   119271797.99908  22696662.520    92939069.29346
  23829614.560   125225467.48208  23829612.220    97578288.13145
  22656973.440   119063199.93409  22656970.740    92776511.23347
  23881278.400   125497114.05708  23881274.660    97790007.65445
  20673163.060   108638226.82309  20673157.880    84653155.70649
  21191475.920   111362083.37009  21191470.560    86775696.47048
  20419909.020   107307383.45009  20419908.160    83616187.95449
  21978344.800   115497087.54309  21978343.400    89997764.09647
 15 03 06 02 43  0.0000000  0 10G01G04G11G14G16G18G19G22G27G32
  23672150.360   124398018.37808  23672152.460    96933537.56446
  21421043.580   112568439.46509  21421041.500    87715690.06748
  22681791.500   119193633.96008  22681788.260    92878162.26846
  23816955.500   125158943.78508  23816953.200    97526451.50545
  22675476.020   119160431.51909  22675473.280    92852276.07247
  23897742.860   125583635.40508  23897739.280    97857426.85945
  20667324.800   108607546.39209  20667319.580    84629248.87849
  21200576.860   111409909.11209  21200571.460    86812963.27948
  20423139.440   107324359.45809  20423138.580    83629416.00449
  21959944.780   115400395.06309  21959943.340    89922419.34747
 15 03 06 02 43 30.0000000  0 10G01G04G11G14G16G18G19G22G27G32
  23658258.640   124325016.43408  23658260.620    96876652.98846
  21411149.580   112516446.33309  21411147.540    87675175.96747
  22666941.420   119115596.31108  22666938.060    92817353.75346
  23804337.360   125092634.92608  23804335.060    97474782.27345
  22694023.680   119257900.28809  22694021.060    92928225.72947
  23914237.560   125670315.63508  23914234.020    97924969.90145
  20661548.960   108577194.08709  20661543.720    84605597.73449
  21209757.680   111458154.44409  21209752.240    86850557.04548
  20426447.820   107341745.12009  20426446.980    83642963.27249
  21941610.980   115304050.32609  21941609.480    89847345.57147
 15 03 06 02 44  0.0000000  0 10G01G04G11G14G16G18G19G22G27G32
  23644392.120   124252147.19108  23644393.940    96819871.82246
  21401301.160   112464692.73109  21401299.140    87634848.50647
  22652115.500   119037685.75908  22652112.180    92756644.25746
  23791760.640   125026543.85808  23791758.420    97423282.76746
  22712615.960   119355603.35809  22712613.380    93004357.95747
  23930762.100   125757152.69808  23930758.680    97992635.11345
  20655835.860   108547171.47109  20655830.620    84582203.48549
  21219018.000   111506817.43609  21219012.540    86888476.26248
  20429834.320   107359541.28209  20429833.480    83656830.39649
  21923343.880   115208056.15909  21923342.440    89772544.96147
 15 03 06 02 44 30.0000000  0 10G01G04G11G14G16G18G19G22G27G32
  23630550.880   124179410.69508  23630552.520    96763194.08646
  21391498.240   112413178.38909  21391496.260    87594707.47447
  22637313.960   118959903.19408  22637310.680    92696034.48046
  23779225.920   124960673.65908  23779223.880    97371955.35846
  22731252.280   119453537.82009  22731249.680    93080670.46947
  23947316.040   125844144.88108  23947312.880    98060421.21145
  20650185.840   108517480.36809  20650180.600    84559067.55749
  21228357.380   111555896.19609  21228351.900    86926719.44148
  20433299.040   107377748.61109  20433298.220    83671017.91549
  21905143.900   115112414.92409  21905142.480    89698019.36147
 15 03 06 02 45  0.0000000  0 10G01G04G11G14G16G18G19G22G27G32
  23616735.080   124106807.95508  23616736.560    96706620.56646
  21381741.100   112361904.58209  21381739.180    87554753.88548
  22622537.040   118882250.21008  22622533.780    92635525.68246
  23766733.840   124895027.99508  23766732.060    97320802.95245
  22749932.240   119551701.54609  22749929.620    93157161.64447
  23963899.360   125931291.19108  23963896.200    98128327.41545
  20644599.340   108488123.13009  20644594.100    84536191.79449
  21237775.700   111605389.93609  21237770.240    86965285.99648
  20436842.340   107396368.74909  20436841.540    83685527.10649
  21887011.760   115017130.22609  21887010.360    89623771.59447
 15 03 06 02 45 30.0000000  0 10G01G04G11G14G16G18G19G22G27G32
  23602943.960   124034334.69908  23602945.200    96650147.93846
  21372028.900   112310866.81009  21372027.000    87514984.21548
  22607784.080   118804723.11109  22607780.780    92575114.99046
  23754284.400   124829605.88908  23754282.500    97269824.67645
  22768654.500   119650087.55209  22768651.920    93233826.02547
  23980510.740   126018584.96308  23980507.540    98196348.50745
  20639075.820   108459096.76609  20639070.580    84513573.84949
  21247271.840   111655292.59909  21247266.380    87004171.18348
  20440463.520   107415398.03709  20440462.720    83700355.11449
  21868947.120   114922200.05709  21868945.700    89549800.06747
 15 03 06 02 46  0.0000000  0 10G01G04G11G14G16G18G19G22G27G32
  23589177.880   123961993.61308  23589179.120    96593778.31245
  21362362.200   112260068.01709  21362360.260    87475400.76047
  22593055.800   118727325.57908  22593052.460    92514805.24846
  23741878.560   124764412.80708  23741876.600    97219024.89745
  22787419.020   119748695.81309  22787416.520    93310663.58347
  23997150.480   126106027.06408  23997147.200    98264485.21745
  20633616.020   108430405.38909  20633610.820    84491216.93649
  21256845.960   111705604.77609  21256840.480    87043375.48148
  20444163.200   107434839.87309  20444162.400    83715504.58849
  21850950.900   114827629.61909  21850949.440    89476108.86647
 15 03 06 02 46 30.0000000  0 10G01G04G11G14G16G18G19G22G27G32
  23575437.040   123889785.18708  23575438.240    96537512.05346
  21352741.020   112209508.43009  21352739.080    87436003.70448
  22578352.360   118650058.52308  22578349.000    92454597.17646
  23729516.780   124699452.05508  23729515.000    97168406.17746
  22806225.420   119847523.86509  22806222.880    93387672.43347
  24013818.160   126193616.19008  24013815.000    98332736.47645
  20628220.340   108402051.21209  20628215.200    84469122.78049
  21266497.680   111756324.81509  21266492.160    87082897.59248
  20447941.580   107454695.28709  20447940.800    83730976.33349
  21833023.680   114733421.69709  21833022.220    89402700.13647
 15 03 06 02 47  0.0000000  0 10G01G04G11G14G16G18G19G22G27G32
  23561721.360   123817708.98608  23561722.620    96481348.82946
  21343165.300   112159187.85809  21343163.340    87396792.88547
  22563673.720   118572921.90108  22563670.360    92394490.73846
  23717199.820   124634725.92008  23717197.980    97117970.24145
  22825073.080   119946568.81809  22825070.620    93464850.26947
  24030513.320   126281349.52008  24030509.940    98401100.09545
  20622888.960   108374034.94409  20622883.880    84447291.91649
  21276226.660   111807451.08909  21276221.140    87122736.23748
  20451798.660   107474964.46509  20451797.920    83746770.49049
  21815165.820   114639578.33809  21815164.380    89329575.47347
 15 03 06 02 47 30.0000000  0 10G01G04G11G14G16G18G19G22G27G32
  23548031.040   123745765.98708  23548032.380    96425289.40946
  21333635.260   112109107.17809  21333633.280    87357768.99748
  22549020.240   118495917.67508  22549016.920    92334487.47646
  23704928.400   124570238.62908  23704926.200    97067720.39645
  22843961.560   120045828.43009  22843959.180    93542195.39047
  24047235.780   126369226.32508  24047232.380    98469575.51645
  20617622.360   108346359.25009  20617617.360    84425726.44849
  21286032.760   111858982.31709  21286027.180    87162890.44448
  20455734.780   107495648.96309  20455734.060    83762888.27449
  21797377.980   114546102.83909  21797376.580    89256737.46147
 15 03 06 02 48  0.0000000  0 10G01G04G11G14G16G18G19G22G27G32
  23534365.480   123673953.16908  23534366.820    96369331.41346
  21324150.320   112059263.61309  21324148.360    87318929.87047
  22534391.520   118419043.38508  22534388.240    92274585.44246
  23692702.260   124505989.79808  23692700.040    97017656.37846
  22862889.780   120145296.62609  22862887.320    93619703.03347
  24063984.560   126457241.31108  24063980.920    98538158.61645
  20612420.300   108319022.48409  20612415.360    84404425.06949
  21295914.920   111910913.38609  21295909.340    87203356.21048
  20459749.500   107516746.38009  20459748.780    83779327.81049
  21779660.000   114452994.56209  21779658.640    89184185.58847
 15 03 06 02 48 30.0000000  0 10G01G04G11G14G16G18G19G22G27G32
  23520725.580   123602275.57308  23520726.980    96313478.80046
  21314711.420   112009661.92209  21314709.480    87280279.20748
  22519788.620   118342304.74808  22519785.400    92214789.12946
  23680522.900   124441987.52808  23680521.000    96967784.53045
  22881858.140   120244976.15708  22881855.760    93697375.34247
  24080760.200   126545397.76508  24080756.500    98606851.93445
  20607284.020   108292031.25609  20607279.100    84383392.94549
  21305873.760   111963247.52009  21305868.220    87244136.04748
  20463843.860   107538262.33709  20463843.140    83796093.48549
  21762013.340   114360260.99809  21762012.020    89111925.70747
 15 03 06 02 49  0.0000000  0 10G01G04G11G14G16G18G19G22G27G32
  23507110.040   123530725.69508  23507111.420    96257725.68446
  21305317.180   111960294.81509  21305315.220    87241811.33448
  22505210.220   118265695.00708  22505207.040    92155093.24946
  23668389.900   124378227.22108  23668387.720    96918101.15845
  22900864.720   120344856.29409  22900862.320    93775203.98747
  24097560.880   126633685.82708  24097557.200    98675647.83145
  20602212.340   108265379.43709  20602207.420    84362625.29449
  21315907.580   112015975.40509  21315902.000    87285222.70948
  20468016.520   107560189.85809  20468015.800    83813179.85649
  21744437.040   114267897.01509  21744435.700    89039953.79547
 15 03 06 02 49 30.0000000  0 10G01G04G11G14G16G18G19G22G27G32
  23493520.320   123459311.62108  23493521.800    96202078.39646
  21295969.120   111911170.41509  21295967.140    87203532.59148
  22490658.040   118189222.99608  22490654.840    92095504.68946
  23656304.760   124314719.56008  23656302.620    96868614.69446
  22919910.380   120444941.98608  22919907.960    93853192.79947
  24114387.820   126722112.07808  24114384.280    98744551.39845
  20597207.100   108239076.59209  20597202.140    84342129.57049
  21326017.440   112069102.97309  21326011.840    87326620.81148
  20472269.160   107582537.57409  20472268.440    83830593.65549
  21726933.080   114175913.10609  21726931.740    88968278.05847
 15 03 06 02 50  0.0000000  0 10G01G04G11G14G16G18G19G22G27G32
  23479956.020   123388031.25308  23479957.520    96146535.30146
  21286666.860   111862286.62009  21286664.860    87165441.33248
  22476131.820   118112887.24709  22476128.620    92036022.30846
  23644267.820   124251465.60708  23644265.720    96819325.91845
  22938994.420   120545229.05109  22938992.020    93931338.51747
  24131240.220   126810672.25308  24131236.720    98813559.27444
  20592268.140   108213121.95609  20592263.120    84321905.17449
  21336202.560   112122626.22709  21336196.960    87368327.23748
  20476601.480   107605304.00409  20476600.740    83848333.71449
  21709501.480   114084309.40609  21709500.100    88896898.57647
 15 03 06 02 50 30.0000000  0 10G01G04G11G14G16G18G19G22G27G32
  23466416.100   123316879.06108  23466417.540    96091092.06746
  21277409.340   111813637.80609  21277407.280    87127533.17448
  22461630.660   118036683.23409  22461627.560    91976642.59446
  23632278.820   124188462.62708  23632276.680    96770232.69746
  22958114.980   120645708.49809  22958112.600    94009634.15346
  24148116.760   126899358.80908  24148113.280    98882665.69645
  20587394.720   108187511.67509  20587389.660    84301949.11149
  21346461.540   112176537.73809  21346456.000    87410336.21148
  20481012.500   107628484.06509  20481011.760    83866396.08949
  21692141.660   113993082.83609  21692140.260    88825812.97647
 15 03 06 02 51  0.0000000  0 10G01G04G11G14G16G18G19G22G27G32
  23452901.440   123245859.41108  23452902.860    96035752.11146
  21268197.380   111765228.51909  21268195.300    87089811.66248
  22447155.500   117960615.65509  22447152.280    91917369.17446
  23620338.980   124125717.81408  23620336.740    96721340.65146
  22977272.540   120746382.12709  22977270.260    94088081.08947
  24165017.880   126988174.37608  24165014.260    98951872.60444
  20582587.880   108162251.31009  20582582.780    84282265.71449
  21356794.920   112230840.00109  21356789.360    87452649.66248
  20485503.140   107652082.69009  20485502.440    83884784.61949
  21674854.840   113902239.92309  21674853.420    88755026.32047
 15 03 06 02 51 30.0000000  0 10G01G04G11G14G16G18G19G22G27G32
  23439411.900   123174971.61508  23439413.380    95980514.90346
  21259030.860   111717057.99709  21259028.740    87052276.19447
  22432706.300   117884684.75909  22432703.000    91858202.26346
  23608448.460   124063233.13808  23608446.120    96672651.31746
  22996466.300   120847246.03709  22996464.040    94166676.30946
  24181942.960   127077115.94908  24181939.180    99021177.73445
  20577847.840   108137341.81409  20577842.660    84262855.71549
  21367202.060   112285530.08209  21367196.520    87495265.30448
  20490073.400   107676099.68909  20490072.700    83903499.15849
  21657641.320   113811782.46209  21657639.880    88684540.03147
 15 03 06 02 52  0.0000000  0 10G01G04G11G14G16G18G19G22G27G32
  23425947.760   123104217.25508  23425949.120    95925381.68046
  21249910.080   111669127.87209  21249907.940    87014928.04948
  22418283.500   117808892.65409  22418280.180    91799143.50146
  23596608.500   124001013.36308  23596606.300    96624168.38846
  23015696.020   120948298.84508  23015693.700    94245418.70646
  24198891.900   127166183.30608  24198888.240    99090580.85944
  20573175.060   108112785.98509  20573169.820    84243721.30149
  21377683.020   112340607.96509  21377677.480    87538183.13648
  20494723.660   107700537.17009  20494723.000    83922541.33749
  21640501.860   113721714.28109  21640500.440    88614357.08248
 15 03 06 02 52 30.0000000  0 10G01G04G11G14G16G18G19G22G27G32
  23412508.800   123033594.92808  23412510.060    95870351.32646
  21240834.740   111621436.72809  21240832.600    86977766.11648
  22403887.040   117733238.82009  22403883.720    91740192.47946
  23584819.040   123939059.60008  23584816.900    96575892.76245
  23034961.120   121049537.13309  23034958.860    94324305.63247
  24215864.160   127255372.92408  24215860.640    99160079.25745
  20568569.600   108088584.12909  20568564.340    84224862.70849
  21388237.080   112396070.01409  21388231.580    87581400.31148
  20499453.760   107725394.14009  20499453.120    83941910.38849
  21623436.660   113632036.30509  21623435.220    88544478.18447
 15 03 06 02 53  0.0000000  0 10G01G04G11G14G16G18G19G22G27G32
  23399094.840   122963104.04308  23399096.120    95815423.40546
  21231804.820   111573984.39909  21231802.700    86940790.26948
  22389516.920   117657723.45809  22389513.600    91681349.35346
  23573080.600   123877374.52808  23573078.320    96527826.46945
  23054260.840   121150957.26009  23054258.440    94403334.26646
  24232859.200   127344682.49908  24232855.780    99229671.14145
  20564031.620   108064736.96209  20564026.380    84206280.49349
  21398863.840   112451913.93009  21398858.320    87624915.04348
  20504263.700   107750670.56609  20504263.080    83961606.29249
  21606446.040   113542750.26509  21606444.600    88474904.68047
 15 03 06 02 53 30.0000000  0 10G01G04G11G14G16G18G19G22G27G32
  23385705.940   122892744.87508  23385707.220    95760598.11446
  21222820.280   111526770.64009  21222818.240    86904000.33048
  22375173.360   117582347.40009  22375170.060    91622614.77846
  23561394.140   123815961.10408  23561391.720    96479971.84946
  23073594.580   121252556.23409  23073592.200    94482502.24246
  24249876.700   127434110.43508  24249873.400    99299355.19545
  20559561.400   108041246.03409  20559556.200    84187975.87849
  21409562.880   112508137.62609  21409557.360    87668725.71948
  20509153.580   107776367.11109  20509152.980    83981629.56449
  21589530.480   113453858.62009  21589529.080    88405638.49847
 15 03 06 02 54  0.0000000  0 10G01G04G11G14G16G18G19G22G27G32
  23372342.140   122822517.42708  23372343.420    95705875.47846
  21213881.160   111479795.58409  21213879.160    86867396.39848
  22360856.440   117507111.49609  22360853.140    91563989.42746
  23549759.640   123754822.01608  23549757.340    96432331.03546
  23092961.760   121354331.21809  23092959.460    94561807.35947
  24266916.340   127523654.92108  24266913.140    99369130.09844
  20555159.320   108018113.17909  20555154.160    84169950.27549
  21420333.800   112564739.18209  21420328.260    87712830.82248
  20514123.500   107802484.30109  20514122.940    84001980.61549
  21572690.460   113365363.71009  21572689.040    88336681.45247
 15 03 06 02 54 30.0000000  0 10G01G04G11G14G16G18G19G22G27G32
  23359003.480   122752422.38708  23359004.700    95651255.99846
  21204987.740   111433060.25709  21204985.720    86830979.26648
  22346566.520   117432017.31809  22346563.220    91505474.50146
  23538178.060   123693960.92608  23538175.900    96384906.84145
  23112362.200   121456280.53809  23112359.840    94641248.35547
  24283977.860   127613314.26307  24283974.620    99438994.52445
  20550825.760   107995340.25609  20550820.620    84152205.13849
  21431176.300   112621717.12209  21431170.780    87757229.21648
  20519173.740   107829023.26009  20519173.140    84022660.31549
  21555926.500   113277268.44809  21555925.040    88268035.81748
 15 03 06 02 55  0.0000000  0 10G01G04G11G14G16G18G19G22G27G32
  23345689.740   122682458.23008  23345691.060    95596738.53047
  21196139.620   111386563.05209  21196137.600    86794747.68448
  22332303.380   117357063.96409  22332300.080    91447069.31146
  23526649.780   123633378.99808  23526647.360    96337700.12445
  23131794.800   121558399.31708  23131792.520    94720821.37647
  24301060.680   127703085.27908  24301057.480    99508945.97245
  20546560.660   107972927.14909  20546555.540    84134740.38449
  21442089.880   112679068.53009  21442084.400    87801918.62748
  20524304.000   107855982.83509  20524303.360    84043667.77049
  21539238.700   113189573.47009  21539237.160    88199702.09748
 15 03 06 02 55 30.0000000  0 10G01G04G11G14G16G18G19G22G27G32
  23332401.340   122612627.26408  23332402.780    95542324.83946
  21187337.260   111340306.18009  21187335.200    86758703.36448
  22318067.640   117282254.61609  22318064.280    91388776.32746
  23515175.420   123573081.50408  23515173.200    96290715.11346
  23151259.540   121660686.77209  23151257.140    94800525.84847
  24318164.840   127792968.24907  24318161.740    99578984.62145
  20542364.760   107950877.57709  20542359.640    84117558.89949
  21453074.560   112736793.43609  21453069.100    87846899.06848
  20529514.860   107883365.80809  20529514.160    84065005.14349
  21522628.000   113102283.49209  21522626.380    88131683.95748
 15 03 06 02 56  0.0000000  0 10G01G04G11G14G16G18G19G22G27G32
  23319137.940   122542927.76008  23319139.360    95488013.57946
  21178580.320   111294287.96309  21178578.220    86722845.01348
  22303859.060   117207588.24209  22303855.680    91330594.75846
  23503755.640   123513069.69308  23503753.580    96243952.67546
  23170755.560   121763139.08808  23170753.280    94880358.74146
  24335289.720   127882959.77507  24335286.580    99649107.88245
  20538237.980   107929191.28909  20538232.900    84100660.48849
  21464129.620   112794888.11909  21464124.140    87892167.65148
  20534805.980   107911170.84509  20534805.300    84086671.39749
  21506094.420   113015398.93209  21506092.780    88063981.72148
 15 03 06 02 56 30.0000000  0 10G01G04G11G14G16G18G19G22G27G32
  23305899.420   122473359.35208  23305900.820    95433804.47046
  21169868.740   111248508.25909  21169866.640    86687172.52148
  22289677.720   117133065.30009  22289674.420    91272524.96346
  23492390.700   123453345.72408  23492388.460    96197414.52745
  23190282.300   121865752.50808  23190280.040    94960317.20946
  24352434.720   127973057.25907  24352431.420    99719313.69745
  20534180.560   107907869.32409  20534175.480    84084045.96849
  21475254.560   112853350.02609  21475249.120    87937722.37848
  20540177.440   107939397.93909  20540176.740    84108666.52549
  21489638.320   112928921.62909  21489636.640    87996596.83448
 15 03 06 02 57  0.0000000  0 10G01G04G11G14G16G18G19G22G27G32
  23292686.100   122403923.30408  23292687.460    95379698.50646
  21161202.740   111202968.15909  21161200.660    86651686.74348
  22275524.080   117058687.69309  22275520.800    91214568.40746
  23481080.980   123393913.59008  23481078.500    96151103.80445
  23209839.420   121968525.73808  23209837.140    95040400.18046
  24369599.840   128063260.10808  24369596.440    99789601.62145
  20530192.960   107886914.20309  20530187.860    84067717.30449
  21486449.280   112912178.42409  21486443.820    87983562.69348
  20545629.520   107968048.74509  20545628.800    84130991.82249
  21473260.380   112842855.02909  21473258.720    87929531.98348
 15 03 06 02 57 30.0000000  0 10G01G04G11G14G16G18G19G22G27G32
  23279497.680   122334618.42808  23279499.080    95325694.75346
  21152582.080   111157666.54509  21152580.060    86616386.78248
  22261398.080   116984455.13509  22261394.740    91156724.86146
  23469827.340   123334775.17908  23469824.900    96105021.93545
  23229426.200   122071454.75108  23229423.880    95120604.54346
  24386784.480   128153565.60908  24386781.120    99859969.49344
  20526275.220   107866326.35609  20526270.140    84051674.82249
  21497713.100   112971370.02409  21497707.620    88029686.00948
  20551162.100   107997122.51709  20551161.360    84153646.69649
  21456960.800   112757200.27609  21456959.140    87862788.04548
 15 03 06 02 58  0.0000000  0 10G01G04G11G14G16G18G19G22G27G32
  23266334.180   122265443.89708  23266335.460    95271792.56046
  21144006.720   111112602.77609  21144004.700    86581272.18348
  22247299.620   116910367.20409  22247296.240    91098994.03347
  23458630.040   123275932.37108  23458627.620    96059170.40346
  23249041.900   122174535.83508  23249039.560    95200927.40846
  24403988.060   128243970.77808  24403984.440    99930415.08544
  20522427.420   107846106.02809  20522422.340    84035918.72649
  21509045.520   113030922.17509  21509040.000    88076090.28748
  20556775.040   108026618.67409  20556774.340    84176630.71249
  21440739.800   112671958.48809  21440738.140    87796365.90348
 15 03 06 02 58 30.0000000  0 10G01G04G11G14G16G18G19G22G27G32
  23253196.080   122196402.76808  23253197.400    95217994.33347
  21135477.200   111067779.78609  21135475.180    86546345.19048
  22233229.500   116836428.14309  22233226.100    91041379.18847
  23447489.860   123217390.98408  23447487.340    96013553.76946
  23268686.600   122277768.95508  23268684.240    95281368.75546
  24421210.820   128334476.84208  24421207.180   100000939.29144
  20518650.440   107826257.98209  20518645.380    84020452.71549
  21520446.720   113090835.86509  21520441.180    88122776.27648
  20562469.000   108056540.70709  20562468.360    84199946.56949
  21424598.400   112587135.03709  21424596.760    87730269.73048
 15 03 06 02 59  0.0000000  0 10G01G04G11G14G16G18G19G22G27G32
  23240082.880   122127492.28508  23240084.180    95164297.89446
  21126993.000   111023194.97209  21126990.960    86511603.78348
  22219187.400   116762636.19909  22219183.940    90983878.98747
  23436407.200   123159151.08408  23436404.600    95968172.02246
  23288359.160   122381148.93708  23288356.800    95361924.52446
  24438451.920   128425079.29308  24438448.260   100071538.58344
  20514944.120   107806781.14209  20514939.080    84005275.95449
  21531915.800   113151106.21809  21531910.240    88169740.18648
  20568243.540   108086886.13809  20568242.940    84223592.34949
  21408536.480   112502729.23309  21408534.820    87664498.99848
 15 03 06 02 59 30.0000000  0 10G01G04G11G14G16G18G19G22G27G32
  23226994.740   122058713.46608  23226996.080    95110704.06046
  21118554.280   110978849.32809  21118552.240    86477048.73348
  22205173.640   116688993.31509  22205170.160    90926494.92746
  23425382.560   123101216.57008  23425380.200    95923028.28646
  23308059.340   122484673.85608  23308057.040    95442593.22446
  24455711.180   128515777.20008  24455707.460   100142212.27543
  20511308.840   107787677.63509  20511303.800    83990390.09849
  21543452.560   113211732.23809  21543446.980    88216981.23148
  20574098.900   108117656.31509  20574098.340    84247569.09449
  21392554.640   112418744.27809  21392553.020    87599056.19848
 15 03 06 03 00  0.0000000  0 10G01G04G11G14G16G18G19G22G27G32
  23213931.600   121990066.15208  23213932.820    95057212.69446
  21110161.020   110934742.57509  21110159.020    86442679.83748
  22191188.260   116615499.74709  22191184.700    90869227.23447
  23414416.460   123043589.72208  23414414.020    95878124.26546
  23327786.380   122588340.45008  23327784.240    95523372.32946
  24472988.260   128606568.51408  24472984.420   100212958.80044
  20507744.860   107768948.68009  20507739.800    83975796.11049
  21555056.560   113272711.72009  21555051.000    88264497.71448
  20580035.120   108148851.36409  20580034.600    84271876.91949
  21376653.220   112335182.15909  21376651.620    87533942.89648
 15 03 06 03 00 30.0000000  0 10G01G04G11G14G16G18G19G22G27G32
  23200893.600   121921551.22608  23200894.820    95003824.48947
  21101813.440   110890875.98209  21101811.440    86408498.07548
  22177231.540   116542157.07709  22177228.140    90812077.13647
  23403509.880   122986274.38808  23403507.240    95833462.95546
  23347540.100   122692146.65008  23347537.940    95604260.21946
  24490282.860   128697452.29208  24490279.000   100283777.28844
  20504252.540   107750596.35209  20504247.460    83961495.59649
  21566727.600   113334043.36809  21566722.060    88312288.60848
  20586052.420   108180472.47909  20586051.900    84296516.74049
  21360832.820   112252045.84009  21360831.280    87469161.37548
 15 03 06 03 01  0.0000000  0 10G01G04G11G14G16G18G19G22G27G32
  23187880.580   121853167.43608  23187881.740    94950538.45647
  21093511.320   110847248.18609  21093509.320    86374502.40048
  22163303.460   116468964.86709  22163300.140    90755044.26247
  23392662.540   122929272.11108  23392660.320    95789045.67346
  23367319.600   122796088.57408  23367317.580    95685253.85947
  24507594.480   128788425.29907  24507590.340   100354665.41645
  20500831.960   107732620.94909  20500826.860    83947488.78649
  21578465.100   113395724.39909  21578459.580    88360351.74548
  20592150.640   108212518.72809  20592150.100    84321487.83749
  21345093.660   112169336.25609  21345092.180    87404712.37948
 15 03 06 03 01 30.0000000  0 10G01G04G11G14G16G18G19G22G27G32
  23174892.640   121784915.63208  23174893.780    94897355.27947
  21085254.860   110803860.06509  21085252.800    86340693.48248
  22149404.360   116395925.18609  22149401.100    90698130.23346
  23381875.700   122872586.17308  23381873.200    95744874.79546
  23387124.660   122900164.54908  23387122.540    95766351.95046
  24524922.760   128879486.67408  24524918.580   100425622.22644
  20497483.480   107715024.62509  20497478.380    83933777.36449
  21590268.780   113457753.20109  21590263.280    88408685.86448
  20598329.940   108244991.17409  20598329.420    84346791.02749
  21329436.280   112087056.27409  21329434.800    87340598.12648
 15 03 06 03 02  0.0000000  0 10G01G04G11G14G16G18G19G22G27G32
  23161929.260   121716792.95408  23161930.360    94844272.72247
  21077043.480   110760708.76709  21077041.340    86307069.09248
  22135533.940   116323035.86309  22135530.700    90641333.38547
  23371148.980   122816216.69508  23371146.280    95700950.53546
  23406954.100   123004368.57008  23406952.080    95847549.81546
  24542267.060   128970631.55107  24542263.000   100496644.26144
  20494206.780   107697805.54509  20494201.680    83920359.89949
  21602137.680   113520124.67509  21602132.180    88457287.01748
  20604589.880   108277887.19109  20604589.320    84372424.28249
  21313860.520   112005205.11609  21313859.060    87276818.02948
 15 03 06 03 02 30.0000000  0 10G01G04G11G14G16G18G19G22G27G32
  23148990.920   121648801.93108  23148992.000    94791292.75147
  21068877.680   110717796.99309  21068875.480    86273631.35748
  22121692.780   116250300.26309  22121689.560    90584656.31246
  23360483.260   122760168.85608  23360480.980    95657276.96046
  23426807.960   123108700.72008  23426805.840    95928847.54546
  24559627.380   129061860.89608  24559623.640   100567731.99444
  20491002.660   107680967.92009  20490997.580    83907239.66949
  21614071.800   113582839.11509  21614066.360    88506155.40448
  20610930.940   108311209.61609  20610930.380    84398389.79149
  21298367.240   111923787.25409  21298365.680    87213375.56248
 15 03 06 03 03  0.0000000  0 10G01G04G11G14G16G18G19G22G27G32
  23136077.940   121580944.13908  23136079.040    94738416.59447
  21060757.700   110675126.09009  21060755.440    86240381.32448
  22107881.340   116177720.69309  22107878.080    90528100.82747
  23349879.920   122704447.07708  23349877.400    95613857.39045
  23446685.780   123213158.94408  23446683.720    96010243.48346
  24577003.820   129153174.49107  24577000.200   100638885.47844
  20487871.660   107664514.70909  20487866.660    83894418.98549
  21626071.240   113645896.90009  21626065.920    88555291.34048
  20617353.460   108344960.21009  20617352.880    84424688.95749
  21282957.120   111842806.41609  21282955.500    87150273.64448
 15 03 06 03 03 30.0000000  0 10G01G04G11G14G16G18G19G22G27G32
  23123189.480   121513215.04808  23123190.580    94685640.71047
  21052682.720   110632691.84909  21052680.420    86207315.68248
  22094098.780   116105292.94109  22094095.520    90471663.63647
  23339337.960   122649049.45808  23339335.380    95570690.43246
  23466586.280   123317736.14108  23466584.100    96091732.15146
  24594394.980   129244566.21907  24594391.780   100710099.76245
  20484813.260   107648442.73209  20484808.260    83881895.36749
  21638134.640   113709290.63609  21638129.320    88604689.05148
  20623856.680   108379134.63809  20623856.020    84451318.36949
  21267629.680   111762260.07309  21267628.000    87087510.27848
 15 03 06 03 04  0.0000000  0 10G01G04G11G14G16G18G19G22G27G32
  23110326.520   121445620.08408  23110327.600    94632969.34647
  21044653.800   110590499.77609  21044651.540    86174438.75748
  22080346.500   116033024.46609  22080343.320    90415350.56847
  23328859.280   122593984.08008  23328857.040    95527782.38846
  23486510.060   123422435.71508  23486507.820    96173316.16146
  24611801.640   129336038.97608  24611798.380   100781377.19344
  20481828.640   107632758.56909  20481823.660    83869673.93749
  21650262.620   113773023.88809  21650257.360    88654351.31848
  20630441.640   108413738.57409  20630440.920    84478282.46949
  21252386.360   111682155.79109  21252384.620    87025091.38148
 15 03 06 03 04 30.0000000  0 10G01G04G11G14G16G18G19G22G27G32
  23097488.400   121378155.59408  23097489.580    94580399.64947
  21036670.220   110548546.05309  21036668.020    86141747.54848
  22066623.940   115960912.09209  22066620.800    90359159.12647
  23318443.780   122539249.84008  23318441.400    95485132.33546
  23506455.780   123527250.63808  23506453.460    96254990.05946
  24629222.860   129427587.55408  24629219.400   100852713.87445
  20478917.400   107617460.07309  20478912.460    83857753.02549
  21662454.260   113837091.24109  21662448.980    88704273.91948
  20637107.680   108448768.52209  20637106.880    84505578.51449
  21237226.820   111602491.75209  21237225.040    86963015.51948
 15 03 06 03 05  0.0000000  0 10G01G04G11G14G16G18G19G22G27G32
  23084675.040   121310820.84908  23084676.180    94527931.04347
  21028731.920   110506830.15509  21028729.740    86109241.66048
  22052931.080   115888955.63209  22052927.920    90303089.18047
  23308091.520   122484848.94608  23308089.120    95442742.04946
  23526422.720   123632177.21908  23526420.460    96336750.94546
  24646658.060   129519209.73507  24646654.400   100924107.73244
  20476079.680   107602547.88809  20476074.780    83846133.13449
  21674708.880   113901489.54909  21674703.580    88754454.41348
  20643854.640   108484223.90209  20643853.820    84533206.07349
  21222151.260   111523269.21009  21222149.460    86901283.67948
 15 03 06 03 05 30.0000000  0 10G01G04G11G14G16G18G19G22G27G32
  23071886.440   121243616.02108  23071887.540    94475563.68347
  21020838.920   110465352.19709  21020836.760    86076921.18548
  22039268.140   115817156.34809  22039264.960    90247141.70647
  23297803.300   122430784.20008  23297801.020    95400613.69246
  23546410.440   123737212.83708  23546408.040    96418596.83246
  24664106.900   129610903.84308  24664103.720   100995557.55544
  20473315.720   107588023.29309  20473310.880    83834815.26649
  21687026.100   113966217.01609  21687020.800    88804891.39648
  20650682.640   108520105.11609  20650681.800    84561165.45449
  21207160.180   111444490.49509  21207158.360    86839897.69648
 15 03 06 03 06  0.0000000  0 10G01G04G11G14G16G18G19G22G27G32
  23059123.200   121176544.84208  23059124.260    94423300.46247
  21012991.900   110424116.06809  21012989.780    86044789.15048
  22025635.980   115745518.70609  22025632.760    90191320.18947
  23287580.180   122377061.73908  23287578.020    95358752.06846
  23566419.040   123842358.57108  23566416.720    96500528.48546
  24681569.740   129702671.54208  24681566.380   101067064.94544
  20470626.520   107573891.36509  20470621.660    83823803.37249
  21699406.200   114031275.02009  21699400.920    88855585.93648
  20657592.360   108556415.92709  20657591.540    84589459.58849
  21192254.580   111366161.07009  21192252.760    86778861.80648
 15 03 06 03 06 30.0000000  0 10G01G04G11G14G16G18G19G22G27G32
  23046384.680   121109603.52808  23046385.780    94371138.44047
  21005190.200   110383117.90209  21005188.060    86012842.53448
  22012034.020   115674039.90809  22012030.820    90135622.43947
  23277422.000   122323680.74908  23277419.820    95317156.50946
  23586447.300   123947607.42008  23586444.920    96582540.51846
  24699045.480   129794507.36208  24699041.960   101138625.31044
  20468011.580   107560149.58609  20468006.660    83813095.48649
  21711848.160   114096658.06909  21711842.820    88906533.76348
  20664583.160   108593152.75209  20664582.320    84618085.67649
  21177434.120   111288279.25809  21177432.320    86718174.70348
 15 03 06 03 07  0.0000000  0 10G01G04G11G14G16G18G19G22G27G32
  23033671.360   121042794.87208  23033672.400    94319079.78846
  20997434.320   110342360.47209  20997432.160    85981083.51048
  21998462.920   115602723.46909  21998459.680    90080051.21947
  23267329.820   122270646.64008  23267327.820    95275831.26146
  23606495.200   124052959.74308  23606492.800    96664633.15545
  24716534.380   129886412.29407  24716531.080   101210239.55544
  20465471.700   107546802.31409  20465466.720    83802695.01249
  21724352.060   114162366.61209  21724346.780    88957735.21948
  20671655.560   108630318.47809  20671654.720    84647045.97649
  21162699.700   111210849.57909  21162697.880    86657839.90748
 15 03 06 03 07 30.0000000  0 10G01G04G11G14G16G18G19G22G27G32
  23020982.720   120976115.75608  23020983.680    94267122.06546
  20989723.720   110301840.86409  20989721.540    85949509.78848
  21984922.340   115531567.32009  21984919.120    90024604.88547
  23257303.600   122217958.80808  23257301.580    95234775.83346
  23626561.620   124158409.74408  23626559.260    96746801.89545
  24734035.600   129978381.92007  24734032.280   101281904.22244
  20463006.460   107533847.44009  20463001.480    83792600.29549
  21736916.980   114228395.68609  21736911.680    89009186.43348
  20678808.980   108667910.06509  20678808.180    84676338.10749
  21148051.120   111133871.07709  21148049.340    86597856.67648
 15 03 06 03 08  0.0000000  0 10G01G04G11G14G16G18G19G22G27G32
  23008319.140   120909568.24108  23008320.100    94215266.90247
  20982058.780   110261561.06009  20982056.520    85918122.94548
  21971412.820   115460574.46109  21971409.560    89969285.79647
  23247344.340   122165622.00208  23247342.220    95193993.90646
  23646646.500   124263956.16508  23646644.200    96829045.79646
  24751549.040   130070415.83707  24751545.860   101353618.99544
  20460616.520   107521288.21009  20460611.540    83782813.88249
  21749542.820   114294744.91809  21749537.500    89060887.13148
  20686043.840   108705929.67909  20686043.100    84705963.77249
  21133489.100   111057347.44709  21133487.320    86538227.90548
 15 03 06 03 08 30.0000000  0 10G01G04G11G14G16G18G19G22G27G32
  22995680.160   120843150.14208  22995681.160    94163512.57647
  20974439.100   110221519.20309  20974436.820    85886921.50948
  21957934.100   115389743.24809  21957930.820    89914092.65647
  23237451.780   122113636.32508  23237449.920    95153485.63146
  23666748.760   124369594.45408  23666746.500    96911361.25646
  24769074.120   130162510.70908  24769071.120   101425381.17744
  20458301.740   107509123.97009  20458296.760    83773335.25149
  21762228.840   114361410.21709  21762223.440    89112834.11348
  20693359.780   108744375.22909  20693359.080    84735921.33749
  21119013.620   110981278.53609  21119011.860    86478953.45348
 15 03 06 03 09  0.0000000  0 10G01G04G11G14G16G18G19G22G27G32
  22983065.800   120776861.30608  22983066.740    94111858.97147
  20966864.660   110181715.09409  20966862.320    85855905.32848
  21944486.420   115319075.04009  21944483.060    89859026.52647
  23227626.540   122062004.30608  23227624.700    95113252.91846
  23686867.980   124475321.65508  23686866.000    96993745.98646
  24786610.380   130254664.19607  24786607.160   101497189.10843
  20456062.300   107497355.63809  20456057.340    83764165.11949
  21774974.540   114428389.18509  21774969.080    89165025.50948
  20700756.780   108783246.59809  20700756.080    84766210.70549
  21104625.020   110905665.98009  21104623.260    86420034.59748
 15 03 06 03 09 30.0000000  0 10G01G04G11G14G16G18G19G22G27G32
  22970476.720   120710705.12908  22970477.560    94060308.71347
  20959336.120   110142152.22909  20959333.780    85825077.13848
  21931070.500   115248573.79409  21931067.080    89804090.49247
  23217869.840   122010732.31508  23217867.680    95073300.73146
  23707004.240   124581138.42608  23707002.260    97076200.54545
  24804158.180   130346878.07108  24804154.900   101569044.10844
  20453899.160   107485988.20809  20453894.180    83755307.38349
  21787780.220   114495683.26209  21787774.700    89217462.45048
  20708235.480   108822547.26909  20708234.780    84796834.59649
  21090324.300   110830515.17909  21090322.500    86361475.55748
 15 03 06 03 10  0.0000000  0 10G01G04G11G14G16G18G19G22G27G32
  22957912.720   120644680.73208  22957913.500    94008861.12247
  20951853.260   110102829.44509  20951850.920    85794436.01848
  21917686.300   115178239.48509  21917682.880    89749284.55147
  23208181.720   121959821.63108  23208179.780    95033630.10546
  23727156.780   124687040.89608  23727154.920    97158721.83846
  24821716.940   130439149.82808  24821713.400   101640944.19744
  20451812.340   107475021.76909  20451807.320    83746762.09649
  21800645.320   114563289.53509  21800639.780    89270142.66048
  20715795.680   108862276.40109  20715795.020    84827792.34949
  21076111.620   110755826.98909  21076109.780    86303276.98648
 15 03 06 03 10 30.0000000  0 10G01G04G11G14G16G18G19G22G27G32
  22945373.140   120578784.73608  22945373.940    93957513.61647
  20944415.500   110063743.67109  20944413.180    85763979.59148
  21904333.360   115108069.46409  21904329.980    89694606.62747
  23198562.440   121909271.57708  23198560.560    94994240.46946
  23747324.440   124793022.30008  23747322.540    97241304.68445
  24839285.580   130531474.28807  24839282.240   101712885.26344
  20449801.360   107464453.97109  20449796.340    83738527.45449
  21813568.760   114631202.32609  21813563.160    89323061.72348
  20723436.740   108902430.48909  20723436.140    84859081.24649
  21061986.680   110681599.83309  21061984.820    86245437.68548
 15 03 06 03 11  0.0000000  0 10G01G04G11G14G16G18G19G22G27G32
  22932858.660   120513020.93108  22932859.600    93906269.11747
  20937023.540   110024898.66609  20937021.220    85733710.76748
  21891012.680   115038068.92309  21891009.260    89640060.76247
  23189012.900   121859088.42108  23189010.780    94955136.72146
  23767507.500   124899084.77208  23767505.760    97323950.65046
  24856864.720   130623853.46307  24856861.400   101784869.04844
  20447867.260   107454290.15509  20447862.220    83730607.59749
  21826550.860   114699423.40709  21826545.200    89376221.00248
  20731159.420   108943013.40709  20731158.860    84890704.28049
  21047950.480   110607839.22309  21047948.640    86187961.91348
 15 03 06 03 11 30.0000000  0 10G01G04G11G14G16G18G19G22G27G32
  22920368.500   120447385.13308  22920369.480    93855124.36647
  20929676.540   109986290.31009  20929674.280    85703626.34548
  21877723.500   114968234.03209  21877720.080    89585643.97747
  23179532.900   121809270.66908  23179530.800    94916317.72146
  23787704.560   125005220.30308  23787702.740    97406653.58146
  24874453.000   130716281.52507  24874450.100   101856890.90445
  20446009.460   107444527.21309  20446004.400    83723000.10849
  21839590.440   114767946.57609  21839584.740    89429615.67748
  20738962.900   108984020.93209  20738962.340    84922658.18949
  21034002.580   110534542.79209  21034000.800    86130847.85048
 15 03 06 03 12  0.0000000  0 11G01G03G04G11G14G16G18G19G22G27G32
  22907903.960   120381883.83108  22907904.960    93804084.41147
  24628817.600   129425318.76308  24628822.280   100850904.86645
  20922375.820   109947925.14809  20922373.600    85673731.42048
  21864467.320   114898572.82909  21864463.960    89531362.52947
  23170124.140   121759827.24608  23170122.140    94877790.40146
  23807916.240   125111432.77108  23807914.560    97489416.43846
  24892051.720   130808763.12107  24892049.100   101928954.41844
  20444229.420   107435172.80609  20444224.320    83715710.95849
  21852688.300   114836775.92709  21852682.540    89483248.93848
  20746848.400   109025459.52709  20746847.840    84954947.99449
  21020144.560   110461718.80209  21020142.800    86074101.92148
 15 03 06 03 12 30.0000000  0 11G01G03G04G11G14G16G18G19G22G27G32
  22895464.380   120316513.59108  22895465.380    93753146.59047
  24608602.280   129319088.20007  24608607.160   100768128.03246
  20915120.740   109909799.74809  20915118.540    85644023.32448
  21851243.640   114829082.46109  21851240.360    89477214.20247
  23160786.460   121710757.34108  23160784.120    94839554.11746
  23828141.420   125217716.42008  23828139.720    97572234.76646
  24909659.740   130901293.14207  24909656.360   102001055.97643
  20442526.680   107426224.58209  20442521.560    83708738.31549
  21865843.340   114905905.95609  21865837.580    89537116.48848
  20754815.280   109067325.66709  20754814.720    84987570.94349
  21006376.080   110389365.47409  21006374.360    86017722.73548
 15 03 06 03 13  0.0000000  0 10G01G03G04G11G14G16G19G22G27G32
  22883048.480   120251267.75408  22883049.480    93702305.71547
  24588408.400   129212969.59808  24588412.920   100685438.37645
  20907910.080   109871907.71309  20907907.900    85614497.06948
  21838051.480   114759757.25009  21838048.240    89423194.55847
  23151518.980   121662056.61308  23151516.700    94801605.51846
  23848378.440   125324061.94208  23848376.820    97655101.30045
  20440900.200   107417677.19309  20440895.060    83702078.00449
  21879053.980   114975327.93809  21879048.180    89591211.53748
  20762862.220   109109612.73309  20762861.680    85020521.89149
  20992696.280   110317477.97609  20992694.600    85961706.52648
 15 03 06 03 13 30.0000000  0 10G01G03G04G11G14G16G19G22G27G32
  22870657.820   120186154.19108  22870658.700    93651567.90047
  24568237.720   129106972.52208  24568242.240   100602843.49546
  20900745.300   109834256.77109  20900743.160    85585158.67548
  21824892.400   114690605.73109  21824889.140    89369310.26347
  23142323.840   121613735.46008  23142321.660    94763952.70546
  23868628.020   125430473.86708  23868626.360    97738019.57545
  20439351.740   107409539.82809  20439346.560    83695737.20149
  21892321.200   115045047.52909  21892315.400    89645538.48348
  20770990.740   109152328.41509  20770990.180    85053806.82649
  20979106.940   110246065.82309  20979105.340    85906060.71448
 15 03 06 03 14  0.0000000  0 10G01G03G04G11G14G16G19G22G27G32
  22858292.100   120121172.03008  22858293.000    93600932.49047
  24548090.400   129001098.11608  24548094.920   100520344.19646
  20893626.260   109796846.13909  20893624.160    85556007.54248
  21811766.520   114621628.54309  21811763.180    89315561.80947
  23133201.180   121565795.35408  23133198.780    94726596.78646
  23888889.660   125536948.82908  23888887.900    97820987.00346
  20437881.280   107401812.47709  20437876.080    83689715.88849
  21905644.480   115115061.93509  21905638.660    89700095.16348
  20779200.620   109195471.81209  20779200.080    85087425.05349
  20965608.240   110175129.85409  20965606.680    85850785.96648
 15 03 06 03 14 30.0000000  0 10G01G03G04G11G14G16G19G22G27G32
  22845951.320   120056320.84108  22845952.180    93550399.11847
  24527966.520   128895347.56607  24527971.040   100437941.37746
  20886552.920   109759675.58409  20886550.840    85527043.47748
  21798673.900   114552825.92109  21798670.500    89261949.38147
  23124151.380   121518238.45708  23124149.100    94689539.49246
  23909162.500   125643483.03508  23909160.800    97904000.54845
  20436489.040   107394496.20409  20436483.840    83684014.89249
  21919023.320   115185368.59709  21919017.640    89754879.56348
  20787491.800   109239042.34609  20787491.260    85121376.10549
  20952200.420   110104671.30009  20952198.840    85795883.21348
 15 03 06 03 15  0.0000000  0 10G01G03G04G11G14G16G19G22G27G32
  22833634.980   119991598.06908  22833635.780    93499965.81647
  24507866.200   128789720.29208  24507870.580   100355634.56346
  20879524.800   109722742.55109  20879522.720    85498264.49248
  21785614.180   114484196.36209  21785610.720    89208471.80847
  23115174.600   121471064.76808  23115172.240    94652780.78246
  23929445.800   125750072.02308  23929443.980    97987056.80445
  20435174.740   107387589.57709  20435169.560    83678633.10249
  21932456.900   115255962.81009  21932451.340    89809888.03448
  20795863.740   109283037.38709  20795863.220    85155657.93949
  20938883.260   110034689.22109  20938881.700    85741351.74748
 15 03 06 03 15 30.0000000  0 10G01G03G04G11G14G16G19G22G27G32
  22821343.940   119927008.41208  22821344.640    93449636.23347
  24487790.660   128684222.87508  24487794.960   100273428.98646
  20872542.780   109686051.70109  20872540.720    85469674.22848
  21772588.420   114415745.44709  21772584.920    89155133.45347
  23106271.960   121424281.32908  23106269.600    94616326.18546
  23949739.820   125856717.41908  23949738.040    98070157.02645
  20433939.480   107381098.22809  20433934.280    83673574.91149
  21945945.660   115326847.06609  21945940.240    89865122.52448
  20804317.340   109327461.47909  20804316.840    85190274.11049
  20925658.000   109965190.13409  20925656.480    85687196.64348
 15 03 06 03 16  0.0000000  0 10G01G03G04G11G14G16G19G22G27G32
  22809077.360   119862546.98608  22809078.060    93399406.54747
  24467738.980   128578852.04808  24467743.420   100191322.13846
  20865605.940   109649598.32409  20865603.880    85441268.99948
  21759595.880   114347469.06709  21759592.320    89101931.08047
  23097442.980   121377885.60908  23097440.760    94580173.70046
  23970043.140   125963411.53908  23970041.300    98153295.19145
  20432782.520   107375018.61709  20432777.360    83668837.54849
  21959488.320   115398014.33009  21959482.960    89920577.52248
  20812851.640   109372309.54609  20812851.140    85225220.63949
  20912523.960   109896170.54209  20912522.480    85633415.16248
 15 03 06 03 16 30.0000000  0 10G01G03G04G11G14G16G19G22G27G32
  22796835.360   119798214.91308  22796836.140    93349277.69147
  24447712.040   128473610.98807  24447716.320   100109316.25746
  20858714.520   109613383.49709  20858712.400    85413049.66348
  21746637.020   114279369.56709  21746633.400    89048866.54447
  23088688.520   121331881.01008  23088686.180    94544325.96146
  23990355.400   126070152.63208  23990353.640    98236469.96845
  20431704.300   107369352.75909  20431699.180    83664422.58949
  21973084.660   115469463.62109  21973079.320    89976252.29048
  20821466.780   109417582.51209  20821466.280    85260498.26549
  20899481.740   109827633.23509  20899480.220    85580009.49248
 15 03 06 03 17  0.0000000  0 10G01G03G04G11G14G16G19G22G27G32
  22784618.580   119734015.32208  22784619.240    93299252.04247
  24427710.760   128368504.45608  24427715.100   100027415.26046
  20851869.100   109577410.38309  20851866.940    85385018.66348
  21733712.540   114211450.79309  21733708.880    88995942.82647
  23080009.660   121286273.17808  23080007.380    94508787.41246
  24010676.580   126176940.84608  24010674.820    98319681.44745
  20430705.640   107364104.90209  20430700.540    83660333.34449
  21986734.860   115541195.84609  21986729.540    90032147.52248
  20830163.380   109463283.40709  20830162.880    85296109.33749
  20886532.260   109759582.97409  20886530.640    85526983.32848
 15 03 06 03 17 30.0000000  0 10G01G03G04G11G14G16G19G22G27G32
  22772426.560   119669945.97208  22772427.140    93249327.89547
  24407735.020   128263532.16107  24407739.380    99945618.87846
  20845069.220   109541676.76709  20845067.020    85357174.29548
  21720822.300   114143711.96409  21720818.620    88943159.32547
  23071406.260   121241062.45508  23071404.120    94473558.31146
  24031005.800   126283771.34508  24031004.120    98402925.89545
  20429786.320   107359273.91109  20429781.280    83656568.92949
  22000438.080   115613206.63209  22000432.720    90088259.81548
  20838940.920   109509409.71709  20838940.460    85332051.90249
  20873675.320   109692018.94709  20873673.560    85474336.04148
 15 03 06 03 18  0.0000000  0 10G01G03G04G11G14G16G19G22G27G32
  22760259.080   119606005.72208  22760259.780    93199504.34047
  24387784.840   128158694.62408  24387789.180    99863927.50546
  20838314.720   109506181.70909  20838312.540    85329515.81948
  21707966.160   114076152.54209  21707962.480    88890515.63247
  23062878.760   121196249.73008  23062876.340    94438639.30246
  24051342.360   126390640.53108  24051340.900    98486200.46745
  20428946.380   107354859.75209  20428941.320    83653129.32349
  22014193.740   115685492.94009  22014188.320    90144586.81448
  20847799.200   109555960.09509  20847798.720    85368324.91649
  20860911.000   109624941.56909  20860909.140    85422067.96748
 15 03 06 03 18 30.0000000  0 10G01G03G04G11G14G16G19G22G27G32
  22748116.480   119542196.10908  22748117.240    93149782.57147
  24367861.000   128053995.22307  24367865.560    99782343.74947
  20831605.940   109470926.91309  20831603.760    85302044.55448
  21695144.580   114008774.84809  21695140.980    88838013.53947
  23054427.620   121151838.90808  23054425.340    94404033.49346
  24071686.060   126497547.04408  24071684.620    98569504.12745
  20428186.280   107350865.08409  20428181.180    83650016.58249
  22028001.640   115758054.03909  22027996.220    90201127.91848
  20856738.400   109602935.86409  20856737.900    85404929.39349
  20848239.860   109558353.96909  20848237.920    85370181.53448
 15 03 06 03 19  0.0000000  0 10G01G03G04G11G14G16G19G22G27G32
  22735998.800   119478517.43708  22735999.620    93100162.86047
  24347963.840   127949436.10607  24347968.560    99700869.33346
  20824942.880   109435912.41209  20824940.720    85274760.54548
  21682357.820   113941580.43309  21682354.300    88785654.27147
  23046053.440   121107832.57308  23046051.280    94369742.87046
  24092036.400   126604488.28508  24092034.920    98652834.88845
  20427506.260   107347291.25609  20427501.120    83647231.78349
  22041861.440   115830887.99209  22041856.080    90257881.65648
  20865758.520   109650336.99009  20865758.020    85441865.33249
  20835662.220   109492257.92709  20835660.240    85318678.15848
 15 03 06 03 19 30.0000000  0 10G01G03G04G11G14G16G19G22G27G32
  22723905.460   119414966.75808  22723906.360    93050642.88847
  24328093.160   127845016.08107  24328097.600    99619503.22046
  20818325.060   109401135.62809  20818322.880    85247661.75948
  21669605.640   113874567.49309  21669602.120    88733436.41447
  23037756.180   121064230.28308  23037753.920    94335767.06546
  24112392.280   126711458.61008  24112390.620    98736188.26745
  20426905.960   107344136.42109  20426900.780    83644773.46049
  22055772.220   115903989.59009  22055766.860    90314843.93648
  20874858.980   109698160.35409  20874858.520    85479130.27649
  20823177.840   109426651.98609  20823175.820    85267556.65548
 15 03 06 03 20  0.0000000  0 10G01G03G04G11G14G16G19G22G27G32
  22711837.240   119351548.06508  22711838.300    93001225.77047
  24308250.080   127740740.99007  24308254.780    99538250.19146
  20811753.240   109366600.45509  20811751.060    85220751.25248
  21656888.860   113807740.74609  21656885.400    88681363.64547
  23029536.940   121021038.29508  23029534.740    94302111.00346
  24132753.920   126818458.95408  24132752.360    98819565.05046
  20426386.340   107341405.63409  20426381.140    83642645.57849
  22069734.320   115977360.91509  22069729.000    90372016.39348
  20884040.520   109746409.68609  20884040.100    85516727.15549
  20810787.700   109361541.58409  20810785.740    85216821.31248
 15 03 06 03 20 30.0000000  0 10G01G03G04G11G14G16G19G22G27G32
  22699793.300   119288256.90108  22699794.200    92951908.02747
  24288434.160   127636608.03507  24288438.660    99457107.82746
  20805226.520   109332302.29909  20805224.340    85194025.43548
  21644206.900   113741096.62309  21644203.420    88629433.17147
  23021395.440   120978254.19008  23021393.200    94268772.75646
  24153119.880   126925482.17408  24153118.480    98902959.65645
  20425946.620   107339094.89009  20425941.460    83640844.99649
  22083746.520   116050995.47109  22083741.160    90429393.97148
  20893302.180   109795080.07709  20893301.760    85554652.12749
  20798491.280   109296923.60609  20798489.340    85166469.65748
 15 03 06 03 21  0.0000000  0 10G01G03G04G11G14G16G19G22G27G32
  22687774.460   119225097.46008  22687775.360    92902692.91747
  24268646.420   127532623.28007  24268650.680    99376080.98046
  20798745.760   109298245.61009  20798743.560    85167487.75948
  21631560.700   113674640.41409  21631557.240    88577649.11347
  23013332.780   120935884.61808  23013330.560    94235757.51346
  24173490.600   127032530.30708  24173489.120    98986373.69246
  20425587.940   107337210.22909  20425582.820    83639376.41549
  22097809.180   116124895.19509  22097803.760    90486978.16448
  20902644.720   109844175.53709  20902644.320    85592908.30849
  20786289.660   109232803.85209  20786287.740    85116506.22248
 15 03 06 03 21 30.0000000  0 10G01G03G04G11G14G16G19G22G27G32
  22675780.120   119162066.94708  22675781.020    92853578.25847
  24248886.740   127428785.67307  24248890.960    99295168.82247
  20792310.440   109264427.72209  20792308.220    85141136.16148
  21618949.940   113608370.62009  21618946.520    88526010.31447
  23005348.880   120893929.16908  23005346.580    94203064.97646
  24193864.920   127139597.51908  24193863.520    99069802.53346
  20425309.920   107335749.46109  20425304.840    83638238.14449
  22111921.340   116199055.14409  22111915.980    90544765.12248
  20912067.560   109893692.88509  20912067.180    85631493.23849
  20774182.520   109169180.71409  20774180.640    85066929.76448
 15 03 06 03 22  0.0000000  0 10G01G03G04G11G14G16G19G22G27G32
  22663810.780   119099168.01608  22663811.680    92804566.14947
  24229155.880   127325099.65907  24229159.800    99214374.82446
  20785921.080   109230851.39309  20785918.820    85114972.80848
  21606375.280   113542290.67009  21606371.960    88474519.45647
  22997444.780   120852392.50908  22997442.400    94170698.76446
  24214242.720   127246683.43408  24214241.280    99153245.96845
  20425113.260   107334716.24209  20425108.200    83637433.04249
  22126083.040   116273475.42709  22126077.720    90602754.96148
  20921571.160   109943634.46709  20921570.780    85670408.75249
  20762170.700   109106058.38409  20762168.820    85017743.55748
 15 03 06 03 22 30.0000000  0 10G01G03G04G11G14G16G19G22G27G32
  22651865.960   119036397.68908  22651866.800    92755654.23947
  24209453.560   127221563.91207  24209457.440    99133697.89547
  20779577.120   109197513.66909  20779574.880    85088995.36848
  21593836.420   113476398.66009  21593833.100    88423175.04347
  22989620.200   120811274.12108  22989618.000    94138658.49146
  24234623.060   127353782.39408  24234621.720    99236699.59446
  20424997.620   107334108.63909  20424992.580    83636959.58149
  22140293.440   116348151.69809  22140288.140    90660944.25848
  20931154.860   109993996.97709  20931154.480    85709652.25449
  20750253.860   109043435.23009  20750252.000    84968946.31148
 15 03 06 03 23  0.0000000  0 10G01G03G04G11G14G16G19G22G27G32
  22639945.960   118973757.99808  22639946.820    92706844.12847
  24189780.440   127118182.22208  24189784.240    99053141.00046
  20773278.920   109164416.44109  20773276.700    85063205.33548
  21581333.820   113410697.27709  21581330.540    88371979.17747
  22981876.040   120770577.98608  22981873.740    94106947.22946
  24255005.860   127460894.11308  24255004.380    99320163.20445
  20424963.560   107333929.57109  20424958.480    83636820.04249
  22154552.440   116423083.45909  22154547.180    90719332.64148
  20940818.980   110044781.98909  20940818.560    85749224.98749
  20738432.620   108981314.57809  20738430.780    84920540.63048
 15 03 06 03 23 30.0000000  0 10G01G03G04G11G14G16G19G22G27G32
  22628050.540   118911247.20108  22628051.380    92658134.44047
  24170136.660   127014954.58908  24170140.340    98972704.14346
  20767026.220   109131558.27009  20767024.000    85037601.57448
  21568867.480   113345186.18709  21568864.180    88320931.58047
  22974212.300   120730304.50108  22974209.960    94075565.30846
  24275390.060   127568013.70808  24275388.700    99403632.87545
  20425010.920   107334178.30009  20425005.820    83637013.85449
  22168859.240   116498266.60509  22168854.020    90777916.90048
  20950563.100   110095987.36509  20950562.620    85789125.27349
  20726706.960   108919695.84509  20726705.120    84872526.05248
 15 03 06 03 24  0.0000000  0 10G01G03G04G11G14G16G19G22G27G32
  22616179.520   118848864.66508  22616180.340    92609524.69747
  24150522.400   126911882.20208  24150526.220    98892388.30346
  20760818.860   109098938.35009  20760816.660    85012183.46848
  21556437.460   113279865.79109  21556434.100    88270032.58747
  22966629.200   120690455.18308  22966626.780    94044513.91946
  24295775.120   127675137.38508  24295773.860    99487105.74745
  20425139.680   107334854.87809  20425134.580    83637541.06249
  22183213.480   116573698.75609  22183208.240    90836695.20448
  20960387.000   110147612.07609  20960386.460    85829352.31349
  20715077.000   108858579.93309  20715075.160    84824903.28148
 15 03 06 03 24 30.0000000  0 10G01G03G04G11G14G16G19G22G27G32
  22604333.880   118786615.80908  22604334.760    92561019.12647
  24130939.000   126808972.25707  24130942.600    98812199.05647
  20754657.900   109066562.19209  20754655.720    84986955.30448
  21544044.880   113214742.16809  21544041.440    88219286.91647
  22959128.360   120651037.80608  22959125.880    94013799.10646
  24316161.620   127782268.95807  24316160.400    99570584.77645
  20425351.100   107335965.76109  20425345.980    83638406.68149
  22197615.720   116649382.98309  22197610.500    90895669.92048
  20970291.620   110199661.12209  20970291.080    85869910.00349
  20703544.000   108797973.41909  20703542.120    84777677.43948
 15 03 06 03 25  0.0000000  0 10G01G03G04G11G14G16G19G22G27G32
  22592512.720   118724495.28308  22592513.580    92512613.55247
  24111385.780   126706220.91107  24111389.420    98732133.46447
  20748542.340   109034424.72009  20748540.140    84961913.12848
  21531688.960   113149811.37809  21531685.500    88168691.50647
  22951709.040   120612048.96608  22951706.480    93983418.20646
  24336547.880   127889399.50907  24336546.840    99654062.96445
  20425644.380   107337506.85509  20425639.240    83639607.53149
  22212064.520   116725311.81309  22212059.240    90954835.23848
  20980275.860   110252128.68109  20980275.360    85910793.80949
  20692107.180   108737872.29309  20692105.240    84730845.41548
 15 03 06 03 25 30.0000000  0 10G01G03G04G11G14G16G19G22G27G32
  22580716.140   118662503.95508  22580716.960    92464308.65047
  24091863.240   126603630.93908  24091866.880    98652193.59446
  20742472.360   109002526.77609  20742470.140    84937057.59548
  21519370.080   113085075.13709  21519366.620    88118247.68247
  22944371.820   120573491.76508  22944369.240    93953373.65446
  24356933.840   127996527.68407  24356932.800    99737539.38045
  20426019.840   107339479.79309  20426014.680    83641144.87949
  22226559.580   116801483.73409  22226554.240    91014189.97548
  20990339.780   110305015.17409  20990339.320    85952004.04949
  20680766.900   108678278.47809  20680764.860    84684408.69048
 15 03 06 03 26  0.0000000  0 10G01G03G04G11G14G16G19G22G27G32
  22568944.780   118600644.95408  22568945.600    92416106.85947
  24072372.300   126501206.90808  24072375.860    98572382.98347
  20736448.540   108970871.42509  20736446.320    84912391.10048
  21507088.920   113020537.44709  21507085.520    88067958.58347
  22937117.700   120535371.00408  22937115.140    93923669.18246
  24377319.440   128103653.77108  24377318.340    99821014.11245
  20426478.120   107341888.14909  20426472.980    83643021.52349
  22241101.180   116877900.09709  22241095.760    91073735.19648
  21000483.940   110358323.20209  21000483.520    85993542.75849
  20669523.960   108619196.43209  20669521.900    84638370.75748
 15 03 06 03 26 30.0000000  0 10G01G03G04G11G14G16G19G22G27G32
  22557198.140   118538916.18008  22557198.980    92368006.54547
  24052912.880   126398948.54008  24052916.480    98492701.51246
  20730470.520   108939456.74909  20730468.280    84887912.14748
  21494845.400   112956197.54109  21494842.000    88017823.60047
  22929946.640   120497687.05308  22929944.060    93894305.08847
  24397703.520   128210772.77708  24397702.620    99904483.29145
  20427019.120   107344731.22009  20427013.980    83645236.90149
  22255688.400   116954556.46109  22255683.000    91133467.42148
  21010707.860   110412050.22509  21010707.440    86035407.95449
  20658378.220   108560625.17609  20658376.140    84592730.83348
 15 03 06 03 27  0.0000000  0 10G01G03G04G11G14G16G19G22G27G32
  22545475.960   118477315.96108  22545476.860    92320006.40547
  24033485.060   126296855.98108  24033488.520    98413149.20446
  20724537.960   108908281.06509  20724535.740    84863619.41848
  21482639.340   112892054.41609  21482635.940    87967841.94547
  22922858.780   120460440.36508  22922856.240    93865281.71647
  24418085.500   128317880.21308  24418084.580    99987943.52445
  20427642.640   107348007.95109  20427637.520    83647790.19349
  22270320.600   117031449.07309  22270315.200    91193383.73848
  21021011.120   110466194.03209  21021010.700    86077597.92249
  20647329.540   108502564.19909  20647327.500    84547488.53948
 15 03 06 03 27 30.0000000  0 10G01G03G04G11G14G16G19G22G27G32
  22533778.260   118415844.20608  22533779.240    92272106.35747
  24014089.080   126194930.65308  24014092.460    98333727.21946
  20718650.900   108877344.51109  20718648.700    84839513.02248
  21470470.960   112828109.11009  21470467.540    87918014.44947
  22915854.480   120423632.69108  22915851.920    93836600.43246
  24438464.760   128424973.53808  24438463.680   100071392.73544
  20428348.780   107351719.01509  20428343.720    83650681.92749
  22284997.320   117108575.69909  22284991.920    91253482.39948
  21031393.600   110520754.03109  21031393.140    86120112.18849
  20636378.180   108445014.61609  20636376.140    84502644.72648
 15 03 06 03 28  0.0000000  0 10G01G03G04G11G14G16G19G22G27G32
  22522105.800   118354505.06708  22522106.760    92224309.65247
  23994725.980   126093178.30508  23994729.140    98254440.00346
  20712810.100   108846651.12609  20712807.900    84815596.10948
  21458341.280   112764367.12209  21458337.840    87868345.37847
  22908934.860   120387270.18708  22908932.280    93808266.04046
  24458841.520   128532053.98207  24458840.660   100154831.87245
  20429138.540   107355869.61009  20429133.540    83653916.15749
  22299718.940   117185938.25809  22299713.540    91313764.90748
  21041855.940   110575733.76009  21041855.480    86162953.52449
  20625525.160   108387981.67709  20625523.100    84458203.50148
 15 03 06 03 28 30.0000000  0 10G01G03G04G11G14G16G19G22G27G32
  22510457.520   118293293.13708  22510458.520    92176612.06647
  23975395.060   125991595.39508  23975398.260    98175284.87246
  20707014.580   108816195.50509  20707012.380    84791864.47348
  21446249.460   112700823.93209  21446245.980    87818831.21047
  22902099.300   120351349.50208  22902096.740    93780275.91246
  24479214.440   128639113.41107  24479213.520   100238254.71245
  20430011.060   107360454.99109  20430006.100    83657489.18149
  22314484.020   117263529.23309  22314478.640    91374225.40648
  21052397.060   110631127.33309  21052396.560    86206117.33349
  20614769.600   108331461.01909  20614767.560    84414161.45148
 15 03 06 03 29  0.0000000  0 10G01G03G04G11G14G16G19G22G27G32
  22498834.200   118232212.57508  22498835.240    92129016.85447
  23956097.580   125890187.76708  23956100.600    98096266.29546
  20701265.160   108785981.97509  20701262.920    84768321.47148
  21434196.440   112637484.55909  21434192.900    87769475.86047
  22895348.940   120315876.76208  22895346.620    93752634.83846
  24499583.540   128746153.33608  24499582.660   100321662.27445
  20430967.280   107365480.03709  20430962.320    83661404.79549
  22329292.960   117341350.58509  22329287.520    91434865.41548
  21063017.560   110686938.22209  21063017.040    86249606.32149
  20604112.540   108275457.90909  20604110.500    84370522.68248
 15 03 06 03 29 30.0000000  0 10G01G03G04G11G14G16G19G22G27G32
  22487235.880   118171263.15808  22487236.960    92081523.83047
  23936833.600   125788956.45308  23936836.520    98017385.05546
  20695561.800   108756010.39809  20695559.500    84744967.01748
  21422182.360   112574349.87709  21422178.760    87720280.02747
  22888684.200   120280853.61608  22888681.860    93725344.09646
  24519948.520   128853170.90908  24519947.700   100405052.46545
  20432007.320   107370945.30509  20432002.340    83665663.45049
  22344145.320   117419400.06909  22344139.860    91495683.19748
  21073717.340   110743165.63509  21073716.780    86293419.88249
  20593554.100   108219973.09309  20593552.080    84327287.78948
 15 03 06 03 30  0.0000000  0 10G01G03G04G11G14G16G19G22G27G32
  22475662.020   118110442.17908  22475663.060    92034130.88047
  23917603.060   125687900.61108  23917605.900    97938640.48846
  20689903.880   108726277.89109  20689901.600    84721798.83248
  21410206.880   112511418.26609  21410203.260    87671242.41647
  22882104.860   120246279.29608  22882102.600    93698403.08946
  24540308.080   128960160.70408  24540307.300   100488420.94845
  20433130.800   107376849.05909  20433125.800    83670263.77049
  22359040.180   117497672.97909  22359034.720    91556675.06748
  21084495.720   110799806.27009  21084495.140    86337555.43249
  20583094.020   108165004.97309  20583091.960    84284455.50848
 15 03 06 03 30 30.0000000  0 10G01G03G04G11G14G16G19G22G27G32
  22464112.840   118049751.09608  22464113.840    91986839.15247
  23898406.500   125587023.37108  23898409.320    97860035.07746
  20684291.760   108696786.16609  20684289.500    84698818.27648
  21398270.460   112448692.23609  21398266.860    87622364.99447
  22875611.680   120212157.53808  22875609.480    93671814.73246
  24560662.320   129067121.63307  24560661.100   100571767.04745
  20434338.140   107383193.40609  20434333.100    83675207.40849
  22373977.340   117576168.44509  22373971.920    91617840.35147
  21095352.920   110856860.98109  21095352.280    86382013.63449
  20572732.700   108110555.98909  20572730.660    84242027.74748
 15 03 06 03 31  0.0000000  0 10G01G03G04G11G14G16G19G22G27G32
  22452588.460   117989190.29408  22452589.380    91939648.93547
  23879244.360   125486326.74908  23879247.120    97781570.40546
  20678725.560   108667535.76709  20678723.300    84676025.76748
  21386373.480   112386173.27909  21386369.840    87573648.93447
  22869205.020   120178490.18208  22869202.800    93645580.44646
  24581010.440   129174051.02607  24581009.380   100655088.45446
  20435629.560   107389979.55409  20435624.480    83680495.30549
  22388956.460   117654884.63009  22388951.100    91679177.63248
  21106288.840   110914329.48109  21106288.140    86426794.26549
  20562470.460   108056627.56709  20562468.420    84200005.61348
 15 03 06 03 31 30.0000000  0 10G01G03G04G11G14G16G19G22G27G32
  22441089.120   117928760.88008  22441090.040    91892561.10747
  23860117.140   125385813.43608  23860119.920    97703248.56246
  20673205.480   108638527.60609  20673203.220    84653422.01548
  21374516.280   112323863.43509  21374512.680    87525095.82947
  22862885.400   120145280.12308  22862883.080    93619702.50146
  24601352.300   129280947.52808  24601351.580   100738384.23545
  20437005.340   107397209.16109  20437000.240    83686128.76149
  22403977.400   117733820.42909  22403972.080    91740686.04448
  21117303.600   110972212.19209  21117302.840    86471897.66749
  20552307.640   108003221.63209  20552305.640    84158390.62148
 15 03 06 03 32  0.0000000  0 10G01G03G04G11G14G16G19G22G27G32
  22429614.040   117868459.17008  22429615.000    91845572.78347
  23841024.460   125285481.34508  23841027.180    97625067.92546
  20667730.840   108609758.21309  20667728.560    84631004.31348
  21362698.440   112261760.22209  21362694.880    87476703.71947
  22856652.520   120112525.80008  22856650.080    93594179.66446
  24621686.740   129387804.99907  24621686.140   100821649.65745
  20438464.920   107404879.17909  20438459.800    83692105.39149
  22419039.040   117812970.12309  22419033.760    91802361.11848
  21128396.340   111030504.71609  21128395.540    86517320.40149
  20542243.740   107950335.51509  20542241.720    84117180.67648
 15 03 06 03 32 30.0000000  0 10G01G03G04G11G14G16G19G22G27G32
  22418164.140   117808289.28408  22418165.020    91798687.17747
  23821967.400   125185336.27408  23821970.040    97547032.99946
  20662302.420   108581231.90409  20662300.200    84608776.02648
  21350920.880   112199868.74209  21350917.320    87428476.59847
  22850507.440   120080233.14908  22850504.860    93569016.58047
  24642013.940   129494624.48608  24642013.220   100904885.44745
  20440009.260   107412994.83309  20440004.160    83698429.26949
  22434141.760   117892335.72009  22434136.540    91864204.42447
  21139567.720   111089210.54609  21139566.860    86563065.19149
  20532279.720   107897974.21309  20532277.700    84076379.68248
 15 03 06 03 33  0.0000000  0 11G01G03G04G11G14G16G19G22G27G28G32
  22406738.660   117748247.92908  22406739.500    91751901.73648
  23802945.560   125085376.39708  23802948.160    97469142.38446
  20656919.600   108552945.22309  20656917.420    84586734.47148
  21339183.140   112138186.63909  21339179.620    87380412.63647
  22844449.880   120048400.44108  22844447.240    93544211.88547
  24662332.800   129601400.27708  24662332.140   100988087.23945
  20441637.840   107421553.11509  20441632.780    83705098.06249
  22449284.580   117971912.02109  22449279.440    91926211.93348
  21150816.920   111148325.59309  21150816.060    86609128.86049
  25079475.560   131793527.50507  25079470.340   102696243.35444
  20522415.120   107846135.37409  20522413.080    84035985.80048
 15 03 06 03 33 30.0000000  0 11G01G03G04G11G14G16G19G22G27G28G32
  22395337.100   117688332.47408  22395337.900    91705214.38547
  23783958.840   124985600.84108  23783961.280    97391395.35646
  20651581.820   108524895.43309  20651579.740    84564877.49448
  21327485.000   112076712.47209  21327481.480    87332510.69847
  22838479.800   120017027.19108  22838477.140    93519765.21146
  24682642.280   129708126.71808  24682641.660   101071250.57745
  20443350.280   107430552.27409  20443345.280    83712110.38449
  22464466.580   118051693.93009  22464461.380    91988379.64247
  21162143.340   111207846.56309  21162142.520    86655508.82149
  25065647.660   131720861.84408  25065642.880   102639620.82744
  20512649.580   107794817.23609  20512647.540    83995997.65948
 15 03 06 03 34  0.0000000  0 11G01G03G04G11G14G16G19G22G27G28G32
  22383961.180   117628551.34608  22383961.840    91658631.69947
  23765009.000   124886019.43808  23765011.340    97313799.65946
  20646290.840   108497091.27709  20646288.800    84543211.93048
  21315828.220   112015455.67209  21315824.660    87284778.13947
  22832598.980   119986123.38108  22832596.300    93495684.33446
  24702943.560   129814810.22808  24702942.940   101154380.51145
  20445148.340   107440001.17509  20445143.360    83719473.15749
  22479688.920   118131687.52509  22479683.640    92050712.31047
  21173548.440   111267781.07809  21173547.700    86702211.03049
  25051884.500   131648535.51907  25051880.560   102583262.65445
  20502984.860   107744029.03409  20502982.860    83956422.45748
 15 03 06 03 34 30.0000000  0 11G01G03G04G11G14G16G19G22G27G28G32
  22372610.560   117568903.26408  22372611.100    91612152.69747
  23746096.160   124786632.54208  23746098.420    97236355.50746
  20641046.420   108469531.55109  20641044.340    84521736.82148
  21304212.720   111954415.98609  21304209.200    87237214.75847
  22826807.580   119955689.51008  22826805.000    93471969.64446
  24723235.700   129921446.06807  24723235.020   101237473.34045
  20447031.920   107449899.35709  20447026.900    83727186.02349
  22494950.940   118211889.62109  22494945.600    92113207.44447
  21185031.880   111328127.13909  21185031.200    86749233.92449
  25038185.840   131576548.89607  25038182.220   102527169.21444
  20493420.920   107693770.28509  20493418.920    83917259.81148
 15 03 06 03 35  0.0000000  0 11G01G03G04G11G14G16G19G22G27G28G32
  22361284.560   117509384.63808  22361285.000    91565774.55947
  23727219.900   124687438.14008  23727222.120    97159061.35046
  20635847.820   108442212.55509  20635845.660    84500449.29848
  21292638.080   111893591.04509  21292634.580    87189818.71647
  22821105.260   119925723.72208  22821102.780    93448619.71246
  24743517.600   130028028.73408  24743516.980   101320524.62945
  20449000.400   107460243.79209  20448995.400    83735246.61949
  22510251.580   118292294.78809  22510246.140    92175860.81847
  21196592.760   111388880.28609  21196592.180    86796574.03049
  25024551.500   131504900.52308  25024548.060   102471339.35244
  20483957.180   107644038.20309  20483955.180    83878507.56048
 15 03 06 03 35 30.0000000  0 11G01G03G04G11G14G16G19G22G27G28G32
  22349983.060   117449994.77008  22349983.440    91519496.75347
  23708380.440   124588437.02408  23708382.600    97081917.80646
  20630694.940   108415133.77009  20630692.700    84479348.95648
  21281104.380   111832980.94509  21281100.860    87142590.06947
  22815492.220   119896227.14708  22815489.740    93425635.38046
  24763788.780   130134554.27308  24763788.160   101403531.50244
  20451053.780   107471034.30609  20451048.720    83743654.80349
  22525590.300   118372900.24509  22525584.820    92238670.25947
  21208230.860   111450039.06409  21208230.360    86844230.20749
  25010982.020   131433592.00108  25010978.380   102415774.18244
  20474593.700   107594832.87809  20474591.680    83840165.76148
 15 03 06 03 36  0.0000000  0 11G01G03G04G11G14G16G19G22G27G28G32
  22338706.560   117390736.25509  22338706.920    91473321.31147
  23689578.600   124489633.35308  23689580.700    97004928.09446
  20625588.280   108388297.93309  20625586.020    84458437.92448
  21269612.300   111772589.52609  21269608.740    87095531.82648
  22809969.300   119867203.98808  22809966.680    93403019.95046
  24784049.120   130241022.68607  24784048.500   101486493.87945
  20453192.640   107482273.93309  20453187.520    83752412.95149
  22540967.120   118453705.77809  22540961.560    92301635.61147
  21219946.540   111511605.24709  21219946.060    86892203.84349
  24997477.920   131362627.54207  24997474.200   102360477.24644
  20465331.100   107546157.55809  20465329.100    83802236.96048
 15 03 06 03 36 30.0000000  0 11G01G03G04G11G14G16G19G22G27G28G32
  22327454.700   117331607.28709  22327455.040    91427246.79047
  23670814.300   124391026.88208  23670816.240    96928092.03446
  20620527.540   108361703.20209  20620525.180    84437714.76248
  21258161.700   111712415.95609  21258158.060    87048643.33447
  22804536.420   119838654.12208  22804533.760    93380773.31346
  24804297.760   130347429.50308  24804297.260   101569408.15544
  20455416.740   107493961.52409  20455411.580    83761520.15849
  22556381.300   118534707.75409  22556375.700    92364754.02647
  21231739.240   111573576.20609  21231738.780    86940492.88449
  24984039.300   131292007.60608  24984035.620   102305448.75144
  20456169.180   107498011.35409  20456167.160    83764720.45048
 15 03 06 03 37  0.0000000  0 11G01G03G04G11G14G16G19G22G27G28G32
  22316228.240   117272611.83109  22316228.620    91381276.32247
  23652088.620   124292623.04508  23652090.460    96851413.87846
  20615513.400   108335353.50009  20615510.960    84417182.53748
  21246753.560   111652465.41309  21246749.860    87001928.62647
  22799194.640   119810583.02508  22799191.940    93358899.74446
  24824534.900   130453776.36308  24824534.460   101652275.70143
  20457727.000   107506101.77009  20457721.800    83770980.08449
  22571833.220   118615908.13309  22571827.660    92428027.03947
  21243609.540   111635955.02709  21243609.100    86989099.74649
  24970667.380   131221737.90508  24970663.380   102250693.08544
  20447108.800   107450398.75109  20447106.780    83727619.74148
 15 03 06 03 37 30.0000000  0 11G01G03G04G11G14G16G19G22G27G28G32
  22305026.520   117213746.29309  22305026.920    91335407.08347
  23633401.100   124194419.72508  23633402.800    96774891.97246
  20610545.220   108309245.25209  20610542.720    84396838.45748
  21235387.340   111592735.34309  21235383.580    86955385.72047
  22793943.660   119782988.81608  22793940.880    93337397.78146
  24844759.480   130560056.61008  24844758.800   101735091.45144
  20460122.800   107518691.60809  20460117.580    83780790.34149
  22587321.840   118697301.27309  22587316.260    92491450.26047
  21255556.600   111698737.21709  21255556.160    87038020.91649
  24957361.520   131151816.84207  24957357.780   102196209.19844
  20438149.420   107403316.85509  20438147.380    83690932.57448
 15 03 06 03 38  0.0000000  0 11G01G03G04G11G14G16G19G22G27G28G32
  22293849.600   117155011.05809  22293850.020    91289639.38848
  23614752.100   124096418.83108  23614753.760    96698527.78447
  20605623.060   108283379.02409  20605620.540    84376682.96948
  21224063.300   111533227.09809  21224059.500    86909015.66348
  22788783.720   119755873.25608  22788781.040    93316268.79346
  24864970.900   130666268.31508  24864970.340   101817853.80245
  20462604.300   107531731.97309  20462599.060    83790951.66449
  22602846.740   118778885.03109  22602841.160    92555022.01647
  21267580.280   111761922.28409  21267579.880    87087256.02949
  24944122.380   131082246.98307  24944119.180   102141998.94944
  20429291.160   107356766.70709  20429289.140    83654659.75848
 15 03 06 03 38 30.0000000  0 11G01G03G04G11G14G16G19G22G27G28G32
  22282696.980   117096403.41609  22282697.380    91243971.10848
  23596141.340   123998619.13208  23596142.940    96622320.36147
  20600746.380   108257752.04209  20600743.860    84356713.89748
  21212781.100   111473938.84709  21212777.320    86862817.02248
  22783714.620   119729235.28608  22783712.060    93295511.95147
  24885168.360   130772406.02408  24885167.960   101900558.47045
  20465171.100   107545220.56609  20465165.840    83801462.24949
  22618407.020   118860654.89709  22618401.500    92618738.78847
  21279679.920   111825506.60309  21279679.600    87136802.23549
  24930950.240   131013027.71908  24930947.340   102088061.85044
  20420533.700   107310746.20209  20420531.720    83618799.64048
 15 03 06 03 39  0.0000000  0 11G01G03G04G11G14G16G19G22G27G28G32
  22271569.640   117037928.99709  22271570.100    91198406.64048
  23577570.180   123901027.82108  23577571.760    96546275.32547
  20595916.340   108232370.16809  20595913.860    84336935.82148
  21201542.080   111414877.59009  21201538.360    86816795.26548
  22778737.860   119703082.32008  22778735.320    93275133.03047
  24905352.260   130878472.44108  24905351.800   101983207.69345
  20467824.300   107559163.30809  20467819.040    83812326.71649
  22634003.340   118942614.16709  22633997.800    92682603.14847
  21291856.440   111889494.93409  21291856.180    87186663.25649
  24917846.400   130944166.39907  24917843.040   102034403.61144
  20411878.240   107265261.65209  20411876.260    83583357.15348
 15 03 06 03 39 30.0000000  0 11G01G03G04G11G14G16G19G22G27G28G32
  22260466.960   116979584.06709  22260467.420    91152943.07448
  23559038.220   123803642.52308  23559039.800    96470390.81346
  20591132.260   108207229.67909  20591129.800    84317345.84448
  21190345.700   111356040.38209  21190342.020    86770948.10247
  22773852.960   119677412.08408  22773850.440    93255130.27546
  24925521.320   130984461.48807  24925520.560   102065796.66145
  20470563.300   107573556.83709  20470558.080    83823542.45549
  22649634.600   119024757.05309  22649629.120    92746610.58847
  21304108.980   111953882.53709  21304108.800    87236835.40449
  24904810.420   130875660.86307  24904806.880   101981022.63544
  20403324.200   107220309.81609  20403322.180    83548329.78348
 15 03 06 03 40  0.0000000  0 11G01G03G04G11G14G16G19G22G27G28G32
  22249389.400   116921371.13809  22249389.840    91107582.35747
  23540546.240   123706467.24008  23540547.780    96394669.93846
  20586394.540   108182332.82409  20586392.120    84297945.69948
  21179192.720   111297431.28109  21179189.040    86725278.67747
  22769060.600   119652228.30409  22769058.040    93235506.56546
  24945675.560   131090373.02008  24945674.860   102148325.06545
  20473388.720   107588404.56909  20473383.540    83835112.10649
  22665300.920   119107084.05409  22665295.460    92810761.49247
  21316437.800   112018670.95809  21316437.680    87287319.86949
  24891842.960   130807515.60708  24891839.600   101927922.44044
  20394872.140   107175893.73109  20394870.060    83513719.86048
 15 03 06 03 40 30.0000000  0 10G01G03G04G11G14G19G22G27G28G32
  22238338.220   116863296.89309  22238338.640    91062329.70648
  23522095.800   123609510.15708  23522097.360    96319119.09747
  20581704.480   108157686.71309  20581702.140    84278740.94648
  21168084.580   111239057.67209  21168080.920    86679792.75048
  22764362.540   119627539.67708  22764359.900    93216268.69047
  20476301.840   107603713.31309  20476296.720    83847040.99349
  22681003.080   119189599.53809  22680997.700    92875059.26947
  21328844.020   112083865.97909  21328843.900    87338121.17049
  24878945.700   130739739.52807  24878942.120   101875109.90145
  20386523.340   107132020.62009  20386521.280    83479533.04148
 15 03 06 03 41  0.0000000  0 10G01G03G04G11G14G19G22G27G28G32
  22227310.740   116805347.09409  22227311.180    91017174.02348
  23503684.460   123512758.40308  23503685.860    96243728.23747
  20577059.440   108133277.03109  20577057.140    84259720.41248
  21157018.740   111180906.42209  21157015.100    86634480.08948
  22759756.140   119603332.91308  22759753.480    93197406.28546
  20479300.140   107619469.51709  20479295.020    83859318.54149
  22696737.980   119272287.25609  22696732.600    92939491.24147
  21341324.720   112149452.29009  21341324.600    87389227.36249
  24866116.160   130672319.89607  24866112.680   101822575.12445
  20378275.260   107088676.76609  20378273.220    83445758.62448
 15 03 06 03 41 30.0000000  0 10G01G03G04G11G14G19G22G27G28G32
  22216307.820   116747526.43009  22216308.280    90972118.98347
  23485313.320   123416218.08608  23485314.800    96168502.15346
  20572460.240   108109108.35109  20572457.980    84240887.69348
  21145996.340   111122983.47609  21145992.720    86589345.33947
  22755242.660   119579614.36608  22755240.080    93178924.32346
  20482384.500   107635677.95109  20482379.400    83871948.49449
  22712506.140   119355149.60409  22712500.820    93004059.30247
  21353880.580   112215433.55809  21353880.440    87440641.32749
  24853355.740   130605263.53308  24853352.240   101770323.40744
  20370128.880   107045867.33209  20370126.820    83412400.64848
 15 03 06 03 42  0.0000000  0 10G01G03G04G11G14G19G22G27G28G32
  22205330.560   116689840.63109  22205331.000    90927169.02448
  23466983.760   123319896.45008  23466985.260    96093446.44946
  20567908.020   108085186.58309  20567905.820    84222247.35648
  21135018.660   111065295.52609  21135015.060    86544393.69348
  22750823.440   119556391.24008  22750820.840    93160828.38646
  20485556.060   107652344.60609  20485550.960    83884935.48749
  22728308.260   119438190.47309  22728303.000    93068766.45947
  21366512.500   112281814.51209  21366512.320    87492366.72549
  24840665.780   130538577.93707  24840662.420   101718360.62144
  20362085.380   107003598.46509  20362083.280    83379463.88348
 15 03 06 03 42 30.0000000  0 10G01G03G04G11G14G19G22G27G28G32
  22194377.900   116632284.08609  22194378.360    90882319.78248
  23448695.020   123223789.16608  23448696.440    96018557.76347
  20563401.780   108061506.28409  20563399.580    84203795.18248
  21124084.800   111007837.88509  21124081.240    86499621.51848
  22746497.640   119533659.13108  22746495.080    93143115.07746
  20488813.880   107669464.64209  20488808.820    83898275.77349
  22744142.900   119521402.09109  22744137.680    93133606.67347
  21379219.180   112348588.52209  21379218.980    87544398.40949
  24828045.600   130472259.51307  24828042.720   101666683.99744
  20354143.740   106961865.01709  20354141.620    83346944.33448
 15 03 06 03 43  0.0000000  0 10G01G03G04G11G14G19G22G27G28G32
  22183450.320   116574859.23909  22183450.820    90837573.16148
  23430447.900   123127900.13708  23430449.320    95943839.16047
  20558941.920   108038069.60909  20558939.720    84185532.84648
  21113195.500   110950614.21909  21113191.940    86455031.65548
  22742265.940   119511421.77308  22742263.500    93125787.27047
  20492158.440   107687040.41809  20492153.400    83911971.17349
  22760010.060   119604784.42509  22760004.840    93198579.90747
  21392000.900   112415756.89309  21392000.680    87596737.38149
  24815496.100   130406312.41707  24815493.580   101615296.62344
  20346304.540   106920669.73509  20346302.340    83314844.12848
 15 03 06 03 43 30.0000000  0 10G01G03G04G11G14G19G22G27G28G32
  22172547.800   116517566.27509  22172548.340    90792929.32548
  23412242.600   123032230.95208  23412244.020    95869291.85847
  20554528.500   108014877.17209  20554526.360    84167460.82948
  21102350.960   110893625.46709  21102347.340    86410624.84348
  22738128.640   119489680.65608  22738126.240    93108846.16246
  20495589.880   107705072.61009  20495584.840    83926022.22949
  22775909.380   119688335.82609  22775904.060    93263684.89347
  21404857.520   112483318.82609  21404857.260    87649383.02949
  24803017.600   130340738.49807  24803015.440   101564200.11145
  20338567.880   106880013.37009  20338565.660    83283163.85848
 15 03 06 03 44  0.0000000  0 10G01G03G04G11G14G19G22G27G28G32
  22161670.100   116460403.72309  22161670.640    90748387.09748
  23394079.160   122936781.47008  23394080.520    95794915.75147
  20550161.240   107991927.06409  20550159.120    84149577.63248
  21091551.140   110836871.76209  21091547.480    86366401.19348
  22734085.840   119468435.86908  22734083.480    93092291.79547
  20499107.980   107723560.22709  20499102.940    83940428.15849
  22791840.200   119772052.66109  22791834.900    93328918.78047
  21417788.520   112551271.63709  21417788.260    87702333.25749
  24790610.380   130275538.18808  24790608.020   101513394.64644
  20330933.480   106839894.54609  20330931.280    83251902.45948
 15 03 06 03 44 30.0000000  0 10G01G03G04G11G14G19G22G27G28G32
  22150817.620   116403373.92309  22150818.220    90703948.32548
  23375958.140   122841555.37508  23375959.440    95720713.70547
  20545840.660   107969222.19709  20545838.540    84131885.53448
  21080796.660   110780356.34309  21080792.940    86322363.20948
  22730138.220   119447691.01008  22730135.800    93076126.98247
  20502713.240   107742505.87509  20502708.180    83955190.99149
  22807802.540   119855935.13509  22807797.200    93394281.74547
  21430794.160   112619616.65509  21430793.880    87755589.09749
  24778275.220   130210715.54608  24778272.400   101462883.46044
  20323401.920   106800316.09409  20323399.760    83221062.12148
 15 03 06 03 45  0.0000000  0 10G01G03G04G11G14G19G22G27G28G32
  22139990.260   116346475.84409  22139990.800    90659612.18648
  23357879.720   122746552.99108  23357881.060    95646685.97447
  20541566.480   107946761.20609  20541564.360    84114383.47348
  21070087.480   110724079.20409  21070083.740    86278510.90948
  22726285.760   119427446.19308  22726283.360    93060351.82146
  20506405.440   107761908.60909  20506400.420    83970310.00049
  22823795.760   119939979.94709  22823790.420    93459771.20347
  21443874.060   112688351.65809  21443873.720    87809148.82849
  24766011.840   130146271.21507  24766008.840   101412667.09644
  20315973.040   106761277.21309  20315970.900    83190642.22448
 15 03 06 03 45 30.0000000  0 10G01G03G04G11G14G19G22G27G28G32
  22129187.900   116289709.09309  22129188.440    90615378.38348
  23339844.060   122651775.35008  23339845.400    95572833.39346
  20537338.640   107924543.85109  20537336.520    84097071.24748
  21059423.720   110668040.88809  21059420.020    86234844.70148
  22722528.620   119407702.21508  22722526.180    93044966.91146
  20510184.620   107781768.31809  20510179.600    83985785.09249
  22839819.420   120024184.88309  22839814.060    93525385.43447
  21457027.880   112757475.10109  21457027.500    87863011.23649
  24753820.780   130082206.93308  24753817.720   101362746.85844
  20308646.840   106722777.85609  20308644.700    83160642.73848
 15 03 06 03 46  0.0000000  0 10G01G03G04G11G14G19G22G27G28G32
  22118410.540   116233073.63209  22118411.000    90571246.87348
  23321851.420   122557223.67708  23321852.660    95499156.83747
  20533157.160   107902570.12009  20533155.080    84079948.86148
  21048805.620   110612242.53309  21048801.960    86191365.47348
  22718867.020   119388460.36208  22718864.560    93029973.27347
  20514050.760   107802085.23409  20514045.800    84001616.44549
  22855873.140   120108547.64609  22855867.820    93591122.64847
  21470255.400   112826985.80409  21470255.000    87917175.40449
  24741702.400   130018524.01407  24741699.440   101313123.81544
  20301423.320   106684818.17309  20301421.220    83131063.77848
 15 03 06 03 46 30.0000000  0 10G01G03G04G11G14G19G22G27G28G32
  22107658.500   116176571.41409  22107658.920    90527219.19648
  23303902.400   122462901.22208  23303903.660    95425658.91647
  20529022.460   107880842.19609  20529020.360    84063018.02148
  21038233.760   110556687.28009  21038230.140    86148075.67648
  22715301.520   119369723.79308  22715299.120    93015373.35846
  20518004.240   107822861.04609  20517999.280    84017805.38549
  22871956.860   120193067.98909  22871951.580    93656982.64547
  21483556.760   112896884.52409  21483556.320    87971641.92649
  24729657.320   129955226.30508  24729654.420   101263800.93944
  20294302.860   106647400.30309  20294300.780    83101907.01548
 15 03 06 03 47  0.0000000  0 10G01G03G04G11G14G19G22G27G28G32
  22096932.000   116120203.36009  22096932.400    90483296.05348
  23285997.460   122368810.26308  23285998.620    95352341.37847
  20524934.700   107859360.76209  20524932.560    84046279.23948
  21027708.500   110501376.96009  21027704.920    86104976.73348
  22711832.620   119351494.48008  22711830.220    93001168.71247
  20522045.420   107844097.74009  20522040.500    84034353.45249
  22888070.340   120277744.86109  22888064.980    93722964.61347
  21496931.880   112967170.95909  21496931.380    88026410.56549
  24717685.960   129892316.49207  24717683.020   101214780.31945
  20287285.740   106610525.40109  20287283.700    83073173.33948
 15 03 06 03 47 30.0000000  0 10G01G03G04G11G14G19G22G27G28G32
  22086230.240   116063965.40809  22086230.620    90439474.29148
  23268136.040   122274948.02508  23268137.140    95279202.05847
  20520893.080   107838121.76609  20520890.880    84029729.37648
  21017229.320   110446308.86309  21017225.820    86062066.54048
  22708459.660   119333769.53908  22708457.200    92987357.07546
  20526173.480   107865790.83909  20526168.560    84051257.15749
  22904212.440   120362572.14509  22904207.100    93789063.78247
  21510379.760   113037839.85709  21510379.220    88081477.22349
  24705787.960   129829792.03508  24705785.000   101166059.95144
  20280371.220   106574189.59209  20280369.220    83044859.73848
 15 03 06 03 48  0.0000000  0 10G01G03G04G11G14G19G22G27G28G32
  22075553.840   116007860.74709  22075554.220    90395756.38348
  23250318.980   122181318.94608  23250319.980    95206244.39347
  20516898.240   107817128.75009  20516896.000    84013371.18048
  21006796.980   110391486.90609  21006793.520    86019348.14048
  22705183.620   119316553.47608  22705181.060    92973941.97447
  20530389.080   107887943.89509  20530384.140    84068519.27149
  22920383.360   120447550.67209  22920377.940    93855280.80347
  21523900.780   113108893.14909  21523900.220    88136843.41749
  24693964.260   129767657.87808  24693961.220   101117643.70044
  20273559.920   106538396.11609  20273557.960    83016968.73048
 15 03 06 03 48 30.0000000  0 10G01G03G04G11G14G19G22G27G28G32
  22064902.340   115951886.95709  22064902.760    90352140.46448
  23232546.060   122087921.90408  23232546.980    95133467.58047
  20512949.680   107796378.95709  20512947.440    83997202.52048
  20996411.260   110336909.87609  20996407.800    85976820.59348
  22702004.140   119299844.77008  22702001.460    92960922.22247
  20534691.720   107910554.46609  20534686.780    84086137.88949
  22936582.180   120532676.07709  22936576.760    93921612.28847
  21537494.220   113180327.15309  21537493.640    88192506.26549
  24682214.800   129705913.21608  24682211.480   101069530.95044
  20266851.440   106503142.77609  20266849.460    82989498.61448
 15 03 06 03 49  0.0000000  0 10G01G03G04G11G14G19G22G27G28G32
  22054276.540   115896048.17209  22054276.920    90308629.73048
  23214818.320   121994762.29908  23214819.240    95060875.75547
  20509048.220   107775876.70409  20509045.980    83981226.74548
  20986073.120   110282582.64109  20986069.620    85934487.68948
  22698922.180   119283648.52708  22698919.460    92948301.78447
  20539082.280   107933626.99909  20539077.300    84104116.48249
  22952809.380   120617950.50809  22952803.920    93988059.88847
  21551160.660   113252144.74909  21551160.060    88248468.02049
  24670540.500   129644563.68007  24670537.160   101021726.12345
  20260246.600   106468433.74009  20260244.540    82962452.62848
 15 03 06 03 49 30.0000000  0 10G01G03G04G11G14G19G22G27G28G32
  22043676.580   115840345.13809  22043676.960    90265224.77548
  23197136.100   121901842.07808  23197137.020    94988470.46247
  20505194.060   107755622.92509  20505191.800    83965444.58148
  20975783.020   110228507.75409  20975779.500    85892351.41948
  22695937.860   119267966.15108  22695935.220    92936081.77747
  20543560.880   107957162.20009  20543555.900    84122455.59249
  22969064.620   120703372.38909  22969059.220    94054622.37847
  21564899.980   113324345.37809  21564899.400    88304728.23648
  24658941.720   129583611.84808  24658938.620   100974231.20144
  20253745.480   106434269.83009  20253743.360    82935831.40948
 15 03 06 03 50  0.0000000  0 10G01G03G04G11G14G19G22G27G28G32
  22033101.540   115784773.21409  22033102.020    90221921.99148
  23179498.780   121809157.87508  23179499.720    94916249.08147
  20501386.280   107735612.83709  20501384.000    83949852.30848
  20965540.160   110174680.99009  20965536.600    85850408.49248
  22693050.820   119252794.87408  22693048.180    92924260.00447
  20548126.680   107981155.68309  20548121.700    84141151.80949
  22985346.640   120788935.10509  22985341.320    94121294.61647
  21578711.080   113396923.12009  21578710.500    88361282.31548
  24647418.040   129523054.50108  24647414.980   100927043.65445
  20247347.180   106400646.38609  20247345.020    82909631.34248
 15 03 06 03 50 30.0000000  0 10G01G03G04G11G14G19G22G27G28G32
  22022551.880   115729334.66809  22022552.420    90178723.13448
  23161907.040   121716713.14108  23161908.040    94844214.29947
  20497625.300   107715848.63309  20497622.960    83934451.63148
  20955345.160   110121105.94809  20955341.600    85808661.71748
  22690261.540   119238137.44708  22690258.920    92912838.65447
  20552780.100   108005609.53609  20552775.120    84160206.74749
  23001655.460   120874638.59509  23001650.080    94188076.54347
  21592594.080   113469878.86409  21592593.520    88418130.93048
  24635970.180   129462895.84008  24635967.000   100880166.75544
  20241052.160   106367565.77809  20241049.960    82883854.25748
 15 03 06 03 51  0.0000000  0 10G01G03G04G11G14G19G22G27G28G32
  22012027.620   115674029.77609  22012028.180    90135628.41348
  23144361.220   121624509.43408  23144362.140    94772367.31447
  20493911.180   107696330.59309  20493908.820    83919242.76948
  20945198.320   110067783.95509  20945194.780    85767112.11748
  22687570.360   119223995.23808  22687567.720    92901818.75847
  20557521.200   108030524.00109  20557516.200    84179620.60149
  23017990.740   120960481.23208  23017985.340    94254966.90647
  21606548.820   113543211.59109  21606548.280    88475273.30248
  24624598.500   129403137.47408  24624595.300   100833601.77045
  20234860.460   106335028.21909  20234858.220    82858500.31948
 15 03 06 03 51 30.0000000  0 10G01G03G04G11G14G19G22G27G28G32
  22001529.160   115618860.21209  22001529.820    90092639.14148
  23126861.780   121532549.55308  23126862.700    94700710.33647
  20490244.220   107677060.63009  20490241.860    83904227.22448
  20935100.160   110014717.85809  20935096.600    85725761.92248
  22684977.780   119210370.95108  22684975.080    92891202.43746
  20562350.280   108055900.84109  20562345.260    84199394.75449
  23034352.440   121046462.76909  23034347.120    94321965.48647
  21620575.340   113616921.60609  21620574.840    88532709.67048
  24613303.540   129343782.56007  24613300.520   100787351.20845
  20228772.380   106303035.34309  20228770.120    82833570.82748
 15 03 06 03 52  0.0000000  0 10G01G03G04G11G14G19G22G27G28G32
  21991055.920   115563823.01909  21991056.600    90049753.01448
  23109408.420   121440831.75308  23109409.360    94629241.98847
  20486623.880   107658035.63109  20486621.500    83889402.55148
  20925050.300   109961905.51809  20925046.740    85684609.46648
  22682483.260   119197262.36508  22682480.600    92880987.97547
  20567266.780   108081737.11709  20567261.760    84219526.91549
  23050739.620   121132578.05409  23050734.440    94389068.30047
  21634672.820   113691004.56109  21634672.340    88590436.63948
  24602084.900   129284829.66507  24602082.220   100741413.92044
  20222787.420   106271584.22409  20222785.180    82809063.47448
 15 03 06 03 52 30.0000000  0 10G01G03G04G11G14G19G22G27G28G32
  21980608.180   115508919.96408  21980608.920    90006971.41748
  23092001.680   121349358.98508  23092002.600    94557964.56147
  20483050.480   107639257.43509  20483048.140    83874770.19648
  20915049.280   109909349.90109  20915045.700    85643657.05148
  22680087.320   119184671.85708  22680084.620    92871177.20047
  20572271.080   108108034.98309  20572266.100    84240018.74949
  23067152.240   121218826.61309  23067147.060    94456274.96347
  21648841.340   113765460.75909  21648840.880    88648454.44248
  24590943.700   129226282.35508  24590940.980   100695792.62545
  20216905.880   106240676.31709  20216903.620    82784979.40648
 15 03 06 03 53  0.0000000  0 10G01G03G04G11G14G19G22G27G28G32
  21970185.800   115454150.11709  21970186.580    89964293.61248
  23074641.660   121258131.49808  23074642.520    94486878.26947
  20479523.920   107620725.33409  20479521.600    83860329.60248
  20905097.120   109857051.15209  20905093.520    85602904.79248
  22677790.060   119172599.77208  22677787.380    92861770.39847
  20577362.980   108134793.15609  20577358.040    84260869.26749
  23083589.660   121305205.72808  23083584.420    94523583.35847
  21663080.480   113840288.04809  21663080.020    88706761.40548
  24579879.860   129168141.07408  24579876.860   100650487.72945
  20211127.540   106210310.72009  20211125.260    82761317.91648
 15 03 06 03 53 30.0000000  0 10G01G03G04G11G14G19G22G27G28G32
  21959788.940   115399514.15109  21959789.640    89921720.12648
  23057328.640   121167151.07208  23057329.380    94415984.47647
  20476044.260   107602439.63709  20476041.960    83846081.01148
  20895194.220   109805010.96109  20895190.620    85562354.00448
  22675591.780   119161047.47009  22675589.100    92852768.61347
  20582542.580   108162012.21409  20582537.640    84282078.91449
  23100051.520   121391713.31509  23100046.200    94590991.85747
  21677390.080   113915485.55009  21677389.660    88765356.84848
  24568893.620   129110407.95107  24568890.640   100605500.88245
  20205452.440   106180487.97909  20205450.180    82738079.42248
 15 03 06 03 54  0.0000000  0 10G01G03G04G11G14G19G22G27G28G32
  21949418.140   115345014.92709  21949418.800    89879253.20448
  23040063.360   121076421.68908  23040064.020    94345286.30647
  20472612.060   107584403.34109  20472609.780    83832026.75848
  20885341.180   109753232.88409  20885337.560    85522007.46148
  22673493.100   119150018.50309  22673490.380    92844174.61947
  20587810.380   108189694.68509  20587805.460    84303649.66649
  23116538.080   121478350.65409  23116532.840    94658501.45447
  21691770.360   113991054.67609  21691770.020    88824241.86948
  24557985.800   129053087.41708  24557982.980   100560835.54945
  20199881.140   106151210.68909  20199878.880    82715265.96248
 15 03 06 03 54 30.0000000  0 10G01G03G04G11G14G19G22G27G28G32
  21939073.040   115290650.60809  21939073.620    89836891.39948
  23022845.660   120985942.65308  23022846.420    94274783.22147
  20469227.020   107566614.75909  20469224.720    83818165.52848
  20875538.000   109701716.76209  20875534.360    85481865.04148
  22671493.900   119139512.39509  22671491.060    92835988.05347
  20593166.060   108217838.93609  20593161.120    84325580.23849
  23133048.540   121565113.89909  23133043.380    94726109.16147
  21706220.760   114066992.15609  21706220.460    88883413.91548
  24547156.480   128996178.86408  24547153.820   100516491.23645
  20194413.260   106122476.85409  20194411.000    82692875.97348
 15 03 06 03 55  0.0000000  0 10G01G03G04G11G14G19G22G27G28G32
  21928753.120   115236418.71309  21928753.640    89794632.78648
  23005675.380   120895712.62808  23005676.060    94204474.17047
  20465888.660   107549071.45409  20465886.340    83804495.42648
  20865784.340   109650460.97009  20865780.680    85441925.47248
  22669593.640   119129526.52108  22669590.800    92828206.88047
  20598609.120   108246442.28909  20598604.160    84347868.55849
  23149582.080   121651998.29608  23149576.960    94793811.28847
  21720740.520   114143294.02309  21720740.280    88942869.90148
  24536405.500   128939681.34708  24536402.580   100472467.19145
  20189048.280   106094283.76709  20189045.980    82670907.35248
 15 03 06 03 55 30.0000000  0 10G01G03G04G11G14G19G22G27G28G32
  21918459.300   115182324.35809  21918459.820    89752481.35548
  22988553.740   120805737.79708  22988554.320    94134363.96347
  20462597.920   107531778.37009  20462595.580    83791020.31048
  20856081.400   109599471.61609  20856077.740    85402193.52248
  22667793.540   119120066.96909  22667790.680    92820835.81447
  20604140.460   108275509.62409  20604135.500    84370518.42849
  23166139.260   121739006.88809  23166134.060    94861610.18347
  21735330.300   114219963.91409  21735330.100    89002612.66248
  24525733.820   128883601.22507  24525730.800   100428768.41544
  20183787.140   106066636.35309  20183784.840    82649363.93348
 15 03 06 03 56  0.0000000  0 10G01G03G04G11G14G19G22G27G28G32
  21908190.800   115128363.06009  21908191.320    89710433.59648
  22971480.060   120716014.76708  22971480.540    94064449.96047
  20459353.900   107514731.10309  20459351.580    83777736.72848
  20846428.460   109548745.01609  20846424.780    85362666.30848
  22666092.860   119111129.86109  22666089.960    92813871.84546
  20609759.280   108305036.52309  20609754.280    84393526.38949
  23182718.820   121826133.09009  23182713.580    94929500.70547
  21749988.980   114296995.83609  21749988.800    89062637.51448
  24515140.960   128827935.81608  24515137.940   100385392.79845
  20178628.860   106039529.72709  20178626.600    82628241.89348
 15 03 06 03 56 30.0000000  0 10G01G03G04G11G14G19G22G27G28G32
  21897948.380   115074538.81409  21897948.920    89668492.62348
  22954455.140   120626548.59208  22954455.720    93994736.12347
  20456157.400   107497933.55809  20456155.120    83764647.73448
  20836826.520   109498286.57509  20836822.840    85323348.05748
  22664492.520   119102720.33608  22664489.620    92807318.97847
  20615466.240   108335026.70609  20615461.240    84416895.35449
  23199321.160   121913378.82609  23199315.920    94997484.38747
  21764717.040   114374392.20909  21764716.900    89122946.36248
  24504628.320   128772690.47708  24504625.220   100342344.43345
  20173574.200   106012967.74509  20173572.020    82607544.25548
 15 03 06 03 57  0.0000000  0 10G01G03G04G11G14G19G22G27G28G32
  21887731.740   115020849.86909  21887732.200    89626657.09048
  22937478.960   120537338.58108  22937479.580    93925221.88147
  20453008.120   107481384.08009  20453005.840    83751752.04348
  20827275.440   109448095.51309  20827271.820    85284238.14448
  22662992.280   119094836.90808  22662989.400    92801176.06147
  20621260.920   108365477.90709  20621255.920    84440623.55349
  23215945.520   122000740.40308  23215940.420    95065558.32347
  21779513.800   114452149.76309  21779513.740    89183536.64948
  24494195.440   128717864.60308  24494192.360   100299622.99345
  20168622.760   105986948.23109  20168620.700    82587269.32348
 15 03 06 03 57 30.0000000  0 10G01G03G04G11G14G19G22G27G28G32
  21877541.720   114967300.75809  21877542.140    89584930.53148
  22920552.600   120448390.29608  22920553.340    93855911.59047
  20449906.920   107465087.09609  20449904.600    83739053.10248
  20817776.320   109398177.44309  20817772.700    85245340.95948
  22661593.140   119087484.83708  22661590.340    92795447.18347
  20627144.200   108396394.69409  20627139.220    84464714.55249
  23232592.380   122088220.11709  23232587.220    95133724.33247
  21794379.820   114530271.45109  21794379.820    89244410.68048
  24483843.100   128663463.78207  24483840.380   100257232.76145
  20163775.360   105961475.32909  20163773.360    82567420.32748
 15 03 06 03 58  0.0000000  0 10G01G03G04G11G14G19G22G27G28G32
  21867377.320   114913886.24709  21867377.680    89543308.84248
  22903675.240   120359699.57508  22903676.020    93786801.98047
  20446852.800   107449037.58909  20446850.500    83726546.99548
  20808328.340   109348528.13009  20808324.740    85206653.18948
  22660294.180   119080659.37108  22660291.380    92790128.64146
  20633115.060   108427771.59409  20633110.040    84489164.07249
  23249260.340   122175810.83308  23249255.120    95201976.82146
  21809313.860   114608750.50009  21809313.900    89305563.16748
  24473571.000   128609484.26508  24473568.400   100215170.80244
  20159030.960   105936543.49909  20159028.960    82547992.93748
 15 03 06 03 58 30.0000000  0 10G01G03G04G11G14G19G22G27G28G32
  21857238.360   114860605.68209  21857238.740    89501791.52848
  22886846.980   120271266.75308  22886847.800    93717893.34747
  20443845.660   107433234.83809  20443843.320    83714233.17048
  20798931.600   109299147.93109  20798928.000    85168175.12448
  22659095.400   119074360.42608  22659092.760    92785220.38346
  20639173.360   108459607.87109  20639168.280    84513971.55249
  23265948.900   122263509.61609  23265943.600    95270313.52747
  21824315.480   114687584.62209  21824315.560    89366992.33448
  24463379.340   128555926.99808  24463376.560   100173437.84345
  20154389.360   105912151.61609  20154387.340    82528986.29048
 15 03 06 03 59  0.0000000  0 10G01G03G04G11G14G19G22G27G28G32
  21847125.760   114807463.59909  21847126.160    89460382.12448
  22870068.880   120183097.42108  22870069.740    93649190.02947
  20440886.260   107417683.12109  20440883.900    83702114.95448
  20789587.160   109250042.42309  20789583.500    85129911.10648
  22657997.880   119068593.06109  22657995.240    92780726.33946
  20645319.800   108491907.57109  20645314.760    84539140.14749
  23282658.540   122351319.14109  23282653.260    95338736.51746
  21839385.260   114766776.78909  21839385.400    89428700.50748
  24453269.280   128502797.74908  24453266.340   100132038.39944
  20149851.340   105888303.80009  20149849.220    82510403.58848
 15 03 06 03 59 30.0000000  0 10G01G03G04G11G14G19G22G27G28G32
  21837039.180   114754458.41609  21837039.600    89419079.39248
  22853340.780   120095190.92708  22853341.580    93580691.51647
  20437974.380   107402381.08009  20437971.980    83690191.29248
  20780294.800   109201210.63409  20780291.100    85091860.37348
  22657001.340   119063356.10508  22656998.700    92776645.60547
  20651554.000   108524668.55709  20651549.000    84564668.17849
  23299388.540   122439235.80009  23299383.260    95407242.99346
  21854522.580   114846323.73809  21854522.700    89490685.12848
  24443240.520   128450096.02008  24443237.720   100090972.13145
  20145416.440   105864998.00709  20145414.260    82492243.24248
 15 03 06 04 00  0.0000000  0 10G01G03G04G11G14G19G22G27G28G32
  21826978.600   114701590.02909  21826979.040    89377883.26148
  22836662.880   120007548.12908  22836663.740    93512398.48147
  20435109.980   107387328.55409  20435107.560    83678462.06148
  20771054.840   109152654.17909  20771051.100    85054024.18248
  22656105.880   119058650.05608  22656103.200    92772978.56146
  20657875.920   108557890.52409  20657870.940    84590555.41949
  23316138.460   122527257.13208  23316133.180    95475831.03546
  21869727.100   114926223.75409  21869727.180    89552944.86448
  24433293.300   128397823.11008  24433290.620   100050240.03245
  20141084.560   105842233.71909  20141082.360    82474504.85048
 15 03 06 04 00 30.0000000  0 10G01G03G04G11G14G19G22G27G28G32
  21816943.420   114648855.18609  21816943.940    89336791.19148
  22820034.700   119920166.77408  22820035.460    93444309.15747
  20432292.440   107372522.27109  20432290.000    83666924.69648
  20761866.740   109104370.40609  20761863.040    85016400.46448
  22655310.860   119054472.15508  22655308.160    92769723.06347
  20664284.920   108591570.21209  20664279.980    84616799.31949
  23332907.320   122615378.01208  23332901.900    95544496.63647
  21884997.860   115006471.88509  21884997.900    89615475.85848
  24423427.460   128345977.02208  24423424.500   100009840.46345
  20136854.960   105820007.13609  20136852.800    82457185.44148
 15 03 06 04 01  0.0000000  0 10G01G03G04G11G14G19G22G27G28G32
  21806935.320   114596262.35809  21806935.860    89295809.78348
  22803458.080   119833056.26608  22803458.880    93376430.89647
  20429523.360   107357970.62509  20429520.920    83655585.75148
  20752732.380   109056369.07309  20752728.700    84978996.83248
  22654618.000   119050831.11208  22654615.240    92766885.89046
  20670782.560   108625715.61609  20670777.640    84643406.11449
  23349696.340   122703604.82408  23349690.960    95613244.78046
  21900336.180   115087074.94809  21900336.160    89678283.42248
  24413644.660   128294567.20208  24413641.220    99969780.85345
  20132729.220   105798326.13709  20132727.060    82440291.16448
 15 03 06 04 01 30.0000000  0 10G01G03G04G11G14G19G22G27G28G32
  21796952.880   114543804.42909  21796953.420    89254933.48748
  22786931.880   119746210.49108  22786932.640    93308758.92147
  20426801.400   107343666.70509  20426799.000    83644439.84448
  20743650.600   109008644.01809  20743646.920    84941808.49048
  22654026.020   119047720.33908  22654023.280    92764461.92146
  20677367.360   108660319.06909  20677362.480    84670369.83949
  23366503.740   122791928.29609  23366498.440    95682068.24746
  21915740.400   115168024.15009  21915740.220    89741360.71048
  24403943.660   128243587.69908  24403940.220    99930056.56445
  20128705.860   105777183.12409  20128703.680    82423816.10648
 15 03 06 04 02  0.0000000  0 10G01G03G04G11G14G19G22G27G28G32
  21786997.440   114491488.54309  21786998.060    89214167.88048
  22770457.640   119659637.39709  22770458.360    93241299.42547
  20424127.840   107329617.25009  20424125.480    83633492.21448
  20734622.900   108961203.25509  20734619.240    84904841.66848
  22653536.360   119045147.28708  22653533.700    92762456.95247
  20684040.700   108695387.47009  20684035.760    84697695.85849
  23383330.540   122880353.62208  23383325.320    95750971.08246
  21931211.460   115249324.87509  21931211.240    89804711.91248
  24394325.980   128193047.17208  24394322.960    99890674.40145
  20124786.120   105756584.56009  20124783.880    82407765.28748
