     2.11           OBSERVATION DATA    M                   RINEX VERSION / TYPE
SPIDER V4,0,0,3554                      2015 03 19 00:36    PGM / RUN BY / DATE 
ABKD                                                        MARKER NAME         
ABKD                                                        MARKER NUMBER       
                                                            OBSERVER / AGENCY   
496503              LEICA GRX1200+GNSS  8.20/4.007          REC # / TYPE / VERS 
10301028            LEIAR25         NONE                    ANT # / TYPE        
  5126847.8297   206786.8373  3776118.0908                  APPROX POSITION XYZ 
        0.0000        0.0000        0.0000                  ANTENNA: DELTA H/E/N
     1     1                                                WAVELENGTH FACT L1/2
     4    C1    L1    P2    L2                              # / TYPES OF OBSERV 
    30.000                                                  INTERVAL            
  2015    03    05    00    00    0.0000000     GPS         TIME OF FIRST OBS   
  2015    03    05    23    59   30.0000000     GPS         TIME OF LAST OBS    
    16                                                      LEAP SECONDS        
    38                                                      # OF SATELLITES     
   G 1   823   822   822   822                              PRN / # OF OBS      
   G 2   930   930   930   930                              PRN / # OF OBS      
   G 3   828   828   828   828                              PRN / # OF OBS      
   G 4   836   836   835   835                              PRN / # OF OBS      
   G 5   665   665   665   665                              PRN / # OF OBS      
   G 6   734   734   734   734                              PRN / # OF OBS      
   G 7   699   699   699   699                              PRN / # OF OBS      
   G 9   783   783   782   782                              PRN / # OF OBS      
   G10   774   773   773   773                              PRN / # OF OBS      
   G11   787   787   787   787                              PRN / # OF OBS      
   G12   808   808   808   808                              PRN / # OF OBS      
   G13   811   811   811   811                              PRN / # OF OBS      
   G14   432   432   432   432                              PRN / # OF OBS      
   G15   724   724   724   724                              PRN / # OF OBS      
   G16   685   685   685   685                              PRN / # OF OBS      
   G17   934   934   934   934                              PRN / # OF OBS      
   G18   933   932   932   932                              PRN / # OF OBS      
   G19   780   780   780   780                              PRN / # OF OBS      
   G20   782   782   782   782                              PRN / # OF OBS      
   G21   710   710   709   709                              PRN / # OF OBS      
   G22   790   789   789   789                              PRN / # OF OBS      
   G23   716   716   716   716                              PRN / # OF OBS      
   G24   828   821   818   816                              PRN / # OF OBS      
   G25   847   847   847   847                              PRN / # OF OBS      
   G27   821   821   821   821                              PRN / # OF OBS      
   G28   910   910   910   910                              PRN / # OF OBS      
   G29   731   731   730   730                              PRN / # OF OBS      
   G30   687   687   687   687                              PRN / # OF OBS      
   G31   795   795   794   794                              PRN / # OF OBS      
   G32   733   733   727   727                              PRN / # OF OBS      
   R 2    30    30    30    30                              PRN / # OF OBS      
   R 3    30    30    30    30                              PRN / # OF OBS      
   R 9    30    30    30    30                              PRN / # OF OBS      
   R15    30    30    30    30                              PRN / # OF OBS      
   R16    30    30    30    30                              PRN / # OF OBS      
   R17    30    30    30    30                              PRN / # OF OBS      
   R18    30    30    30    30                              PRN / # OF OBS      
   R19    30    30    30    30                              PRN / # OF OBS      
BIT 2 OF LLI FLAGS DATA COLLECTED UNDER A/S CONDITION       COMMENT             
SNR is mapped to RINEX snr flag value [2-9]                 COMMENT             
Lx:     = 25dBHz -> 1; 26-27dBHz -> 2; 28-31dBHz -> 3       COMMENT             
       32-35dBHz -> 4; 36-38dBHz -> 5; 39-41dBHz -> 6       COMMENT             
       42-44dBHz -> 7; 45-48dBHz -> 8; >=49dBHz -> 9        COMMENT             
                                                            END OF HEADER       
 15 03 05 00 00  0.0000000  0 15G16G18G19G21G22G27G31R02R03R09R15R16
                                R17R18R19
  21066353.140   110704460.92709  21066350.140    86263222.00948
  22335548.520   117374143.13409  22335545.600    91460375.30047
  24397186.920   128208087.15108  24397182.540    99902397.91945
  21707521.580   114074049.45908  21707517.940    88888965.28248
  23333998.500   122621018.94108  23333994.260    95548852.29546
  22199114.840   116657174.25909  22199114.520    90901703.31848
  23711216.020   124603307.86308  23711213.420    97093496.17946
  22526571.560   120206116.09308  22526574.380    93493659.01307
  22562010.160   120776218.04907  22562011.200    93937064.64607
  21548572.400   115068184.57008  21548573.580    89497485.35605
  22546358.360   120480931.14907  22546363.500    93707417.07806
  19797053.560   105752324.58908  19797056.080    82251828.84308
  22559926.500   120723054.78508  22559927.400    93895698.51907
  20053914.760   107049315.76609  20053917.180    83260644.57608
  21740191.620   116295398.85808  21740191.700    90451997.28107
 15 03 05 00 00 30.0000000  0 15G16G18G19G21G22G27G31R02R03R09R15R16
                                R17R18R19
  21056065.660   110650399.51109  21056062.540    86221096.23448
  22326411.420   117326127.48109  22326408.520    91422960.51847
  24381945.940   128127995.04807  24381941.260    99839988.52145
  21717319.920   114125540.34108  21717316.340    88929088.04048
  23316673.380   122529975.30908  23316669.100    95477909.25146
  22187953.840   116598523.00809  22187953.480    90856001.06348
  23729851.640   124701238.42808  23729849.100    97169805.66346
  22525571.340   120200779.24708  22525574.160    93489508.15607
  22544669.560   120683392.07407  22544670.520    93864866.67806
  21534147.640   114991156.98008  21534148.760    89437575.00405
  22571032.880   120612784.40407  22571037.880    93809969.54706
  19804243.140   105790729.77308  19804245.640    82281699.51908
  22574981.180   120803615.79608  22574982.240    93958357.06407
  20058848.360   107075651.45009  20058850.780    83281127.88508
  21729375.620   116237540.79808  21729375.720    90406996.62307
 15 03 05 00 01  0.0000000  0 15G16G18G19G21G22G27G31R02R03R09R15R16
                                R17R18R19
  21045847.820   110596703.95009  21045844.560    86179255.55148
  22317345.660   117278486.82409  22317342.880    91385837.94947
  24366720.340   128047985.31007  24366715.700    99777643.34845
  21727169.260   114177299.06108  21727165.680    88969419.51548
  23299368.280   122439037.23308  23299364.000    95407048.46246
  22176817.080   116539998.67109  22176816.640    90810397.71448
  23748498.500   124799228.32608  23748496.020    97246161.38346
  22524708.180   120196173.70008  22524710.960    93485926.08907
  22527394.160   120590914.87308  22527394.960    93792939.99806
  21519842.060   114914765.26508  21519843.000    89378159.23005
  22595740.140   120744812.55307  22595745.040    93912658.04706
  19811584.260   105829944.13608  19811586.680    82312199.57508
  22590033.700   120884164.80708  22590034.720    94021006.28207
  20063822.480   107102203.98709  20063825.000    83301779.86108
  21718602.200   116179910.51708  21718602.220    90362173.11307
 15 03 05 00 01 30.0000000  0 15G16G18G19G21G22G27G31R02R03R09R15R16
                                R17R18R19
  21035699.720   110543375.20909  21035696.420    86137700.69748
  22308351.340   117231221.56909  22308348.620    91349007.90047
  24351510.240   127968057.05007  24351505.720    99715361.63146
  21737069.140   114229323.04009  21737065.480    89009957.68648
  23282083.660   122348206.33608  23282079.360    95336271.19046
  22165704.280   116481600.19709  22165703.760    90764892.44348
  23767155.720   124897273.25408  23767153.440    97322559.96746
  22523982.060   120192299.20908  22523984.840    93482912.63107
  22510184.440   120498789.48508  22510184.980    93721286.95606
  21505655.980   114839011.68508  21505656.760    89319239.78905
  22620479.160   120877010.42607  22620484.120    94015478.53806
  19819076.320   105869964.40108  19819078.540    82343326.44608
  22605083.660   120964699.70708  22605084.480    94083644.52707
  20068836.620   107128970.76009  20068839.320    83322598.46208
  21707871.020   116122506.15608  21707870.900    90317525.29407
 15 03 05 00 02  0.0000000  0 15G16G18G19G21G22G27G31R02R03R09R15R16
                                R17R18R19
  21025623.040   110490421.96909  21025619.700    86096438.44248
  22299430.140   117184340.66409  22299427.400    91312477.35647
  24336316.580   127888216.82907  24336312.860    99653148.57345
  21747020.380   114281616.70209  21747016.600    89050706.00148
  23264821.260   122257491.91408  23264817.000    95265584.68546
  22154616.660   116423334.22709  22154616.060    90719490.42348
  23785824.080   124995376.85708  23785822.040    97399004.27046
  22523394.380   120189163.13708  22523397.100    93480473.49307
  22493042.380   120407027.01207  22493042.680    93649916.18306
  21491591.280   114763906.07108  21491591.800    89260824.32504
  22645250.420   121009380.28807  22645255.260    94118432.81106
  19826720.060   105910795.26008  19826722.140    82375083.76408
  22620132.180   121045226.96208  22620133.000    94146276.80607
  20073891.920   107155956.90309  20073894.740    83343587.68008
  21697183.360   116065333.72908  21697182.980    90273057.88007
 15 03 05 00 02 30.0000000  0 15G16G18G19G21G22G27G31R02R03R09R15R16
                                R17R18R19
  21015616.640   110437837.99809  21015613.240    86055463.92748
  22290580.880   117137837.41809  22290578.060    91276241.07547
  24321138.180   127808456.43907  24321135.140    99590997.68645
  21757021.060   114334170.28609  21757017.140    89091656.84348
  23247580.060   122166888.46308  23247575.780    95194984.64346
  22143552.740   116365192.67209  22143552.140    90674185.32648
  23804501.580   125093528.01608  23804499.740    97475485.62646
  22522943.660   120186758.04108  22522946.360    93478602.88507
  22475967.460   120315623.64407  22475967.620    93578824.70207
  21477646.820   114689443.40408  21477647.260    89202908.93505
  22670051.420   121141908.70107  22670056.080    94221510.40106
  19834513.600   105952426.43908  19834515.620    82407463.56208
  22635177.500   121125737.23608  22635178.400    94208895.89707
  20078986.600   107183152.74709  20078989.500    83364740.01208
  21686537.320   116008384.17408  21686536.840    90228763.81407
 15 03 05 00 03  0.0000000  0 15G16G18G19G21G22G27G31R02R03R09R15R16
                                R17R18R19
  21005682.040   110385630.96009  21005678.520    86014783.12748
  22281804.940   117091719.76309  22281802.120    91240305.26246
  24305976.200   127728781.64307  24305973.480    99528913.43645
  21767071.820   114386987.51208  21767067.880    89132813.12548
  23230361.620   122076404.65308  23230357.280    95124477.80246
  22132513.500   116307181.45309  22132513.060    90628981.80148
  23823188.820   125191729.83908  23823187.120    97552006.46446
  22522631.180   120185090.58508  22522633.920    93477306.00807
  22458961.480   120224589.92507  22458961.780    93508020.74607
  21463824.480   114615632.98608  21463824.980    89145500.86205
  22694882.700   121274598.46907  22694887.120    94324713.49406
  19842457.700   105994861.62408  19842459.680    82440468.69308
  22650220.760   121206236.17608  22650221.600    94271506.18707
  20084121.420   107210562.93009  20084124.300    83386059.04508
  21675933.860   115951663.05908  21675933.600    90184647.42108
 15 03 05 00 03 30.0000000  0 15G16G18G19G21G22G27G31R02R03R09R15R16
                                R17R18R19
  20995818.480   110333797.16109  20995814.860    85974393.15948
  22273101.640   117045983.83409  22273098.760    91204666.88847
  24290829.620   127649186.57508  24290827.140    99466891.34945
  21777171.360   114440061.31308  21777167.460    89174169.33448
  23213165.200   121986037.01708  23213160.940    95054061.52346
  22121497.860   116249294.65408  22121497.620    90583875.22148
  23841884.040   125289973.05808  23841882.380    97628559.57046
  22522455.880   120184155.39108  22522458.580    93476578.65807
  22442024.200   120133923.76007  22442024.760    93437502.64207
  21450123.680   114542471.77708  21450124.340    89088597.72205
  22719742.280   121407439.44507  22719746.440    94428034.20706
  19850550.780   106038092.54708  19850552.660    82474092.73208
  22665260.540   121286716.65908  22665261.300    94334102.11707
  20089294.980   107238179.71009  20089297.780    83407538.76708
  21665371.820   115895163.61708  21665371.820    90140703.43308
 15 03 05 00 04  0.0000000  0 15G16G18G19G21G22G27G31R02R03R09R15R16
                                R17R18R19
  20986026.800   110282341.35909  20986023.120    85934297.74248
  22264471.760   117000633.80509  22264468.960    91169329.22047
  24275698.860   127569674.12308  24275696.740    99404933.66445
  21787319.820   114493392.24808  21787316.000    89215725.91148
  23195991.860   121895790.93708  23195987.680    94983739.96446
  22110506.520   116191535.22709  22110506.260    90538867.91248
  23860587.140   125388257.82908  23860585.520    97705145.05146
  22522418.580   120183955.86808  22522421.180    93476423.50907
  22425156.860   120043632.36308  22425157.700    93367276.04207
  21436545.620   114469965.93708  21436546.320    89032204.30405
  22744629.720   121540429.70307  22744633.820    94531471.01006
  19858792.860   106082120.17108  19858794.640    82508336.43108
  22680297.340   121367181.29208  22680298.240    94396685.70407
  20094507.560   107266004.63709  20094510.280    83429180.39008
  21654851.600   115838888.12308  21654851.660    90096933.63307
 15 03 05 00 04 30.0000000  0 15G16G18G19G21G22G27G31R02R03R09R15R16
                                R17R18R19
  20976306.920   110231263.07109  20976303.200    85894496.49348
  22255915.380   116955669.64109  22255912.540    91134292.22547
  24260583.520   127490241.65008  24260581.400    99343038.29445
  21797516.280   114546975.45908  21797512.540    89257479.06047
  23178841.740   121805666.69708  23178837.520    94913513.33346
  22099539.000   116133900.75209  22099538.700    90493957.96248
  23879296.920   125486578.67008  23879295.460    97781758.63046
  22522518.740   120184490.05008  22522521.280    93476838.99807
  22408359.980   119953718.03408  22408361.000    93297342.70607
  21423090.440   114398115.94208  21423091.120    88976320.98805
  22769543.760   121673562.23707  22769547.860    94635018.46106
  19867183.120   106126939.25808  19867184.820    82543195.70608
  22695330.580   121447626.82908  22695331.440    94459254.44706
  20099758.380   107294033.82609  20099761.060    83450980.87208
  21644372.480   115782833.16708  21644372.660    90053335.37408
 15 03 05 00 05  0.0000000  0 15G16G18G19G21G22G27G31R02R03R09R15R16
                                R17R18R19
  20966659.820   110180567.22109  20966656.060    85854993.24148
  22247433.260   116911095.77809  22247430.500    91099559.36147
  24245484.080   127410892.27008  24245481.660    99281207.67446
  21807761.000   114600812.18808  21807757.300    89299429.76348
  23161715.880   121715669.82408  23161711.540    94843385.95146
  22088595.860   116076394.25009  22088595.520    90449147.71948
  23898013.480   125584935.65508  23898012.120    97858400.37146
  22522757.080   120185761.84608  22522759.540    93477828.19407
  22391634.920   119864187.81008  22391635.940    93227708.12307
  21409759.280   114326928.08808  21409759.920    88920952.67405
  22794484.400   121806837.22207  22794488.560    94738676.70006
  19875721.680   106172550.76308  19875723.440    82578671.30708
  22710360.480   121528055.29907  22710361.180    94521809.89806
  20105047.760   107322268.76709  20105050.400    83472941.38608
  21633935.100   115727001.05108  21633935.280    90009910.44307
 15 03 05 00 05 30.0000000  0 15G16G18G19G21G22G27G31R02R03R09R15R16
                                R17R18R19
  20957086.140   110130257.13009  20957082.360    85815790.58348
  22239026.100   116866915.76009  22239023.260    91065133.38747
  24230400.660   127331627.08608  24230397.520    99219442.65645
  21818053.960   114654902.25808  21818050.280    89341577.87147
  23144615.080   121625804.44008  23144610.500    94773361.01947
  22077677.300   116019017.30009  22077676.960    90404438.42848
  23916736.700   125683327.10108  23916735.320    97935068.97945
  22523133.840   120187772.87808  22523136.460    93479392.36107
  22374982.740   119775047.26107  22374983.640    93158376.59807
  21396552.980   114256406.82008  21396553.680    88866102.81905
  22819450.900   121940250.35107  22819455.200    94842442.38406
  19884408.380   106218953.75808  19884410.120    82614762.51108
  22725387.420   121608467.99907  22725388.040    94584353.10706
  20110375.700   107350709.60409  20110378.280    83495062.04608
  21623539.580   115671392.67108  21623539.780    89966659.52007
 15 03 05 00 06  0.0000000  0 15G16G18G19G21G22G27G31R02R03R09R15R16
                                R17R18R19
  20947586.160   110080334.48009  20947582.420    85776889.83748
  22230694.120   116823130.77209  22230691.220    91031015.24847
  24215333.120   127252446.06608  24215329.500    99157743.23945
  21828394.740   114709243.34009  21828391.040    89383921.58947
  23127539.620   121536072.66308  23127535.060    94703440.21546
  22066783.300   115961769.51709  22066783.080    90359829.79848
  23935465.920   125781749.60808  23935464.560    98011761.80346
  22523649.020   120190523.21808  22523651.800    93481531.54907
  22358404.060   119686300.49007  22358404.860    93089351.39807
  21383471.980   114186554.82508  21383472.860    88811773.50905
  22844442.660   122073798.68807  22844447.120    94946313.24606
  19893242.700   106266145.14008  19893244.320    82651466.91208
  22740411.200   121688863.66808  22740411.880    94646883.07007
  20115741.840   107379354.56209  20115744.520    83517341.47108
  21613185.860   115616007.07908  21613186.000    89923581.85408
 15 03 05 00 06 30.0000000  0 15G16G18G19G21G22G27G31R02R03R09R15R16
                                R17R18R19
  20938160.000   110030800.08709  20938156.340    85738291.61948
  22222437.380   116779741.45009  22222434.420    90997205.40547
  24200281.260   127173347.82108  24200277.020    99096108.29845
  21838782.760   114763832.59309  21838779.080    89426458.67248
  23110489.880   121446476.20008  23110485.520    94633624.85946
  22055913.760   115904649.94809  22055913.640    90315321.07248
  23954200.260   125880199.29808  23954199.040    98088475.76546
  22524302.800   120194012.25708  22524305.600    93484245.26707
  22341899.620   119597950.88007  22341900.340    93020635.05907
  21370516.620   114117373.96808  21370517.560    88757966.19105
  22869458.580   122207476.21207  22869463.280    95050284.56206
  19902224.000   106314121.84308  19902225.660    82688782.11008
  22755431.620   121769240.95908  22755432.280    94709398.73906
  20121145.800   107408201.07009  20121148.460    83539777.63808
  21602873.440   115560842.36108  21602873.560    89880676.00808
 15 03 05 00 07  0.0000000  0 15G16G18G19G21G22G27G31R02R03R09R15R16
                                R17R18R19
  20928808.820   109981659.71209  20928805.160    85700000.43248
  22214256.980   116736753.36809  22214253.980    90963708.20247
  24185245.780   127094336.36908  24185241.240    99034540.99845
  21849218.320   114818671.78309  21849214.720    89469190.51147
  23093467.140   121357021.83108  23093462.940    94563920.20946
  22045069.380   115847662.48309  22045069.260    90270915.28248
  23972939.980   125978677.15708  23972938.600    98165211.68546
  22525095.960   120198244.20208  22525098.680    93487536.82107
  22325470.960   119510006.50007  22325471.580    92952233.92707
  21357688.280   114048871.32408  21357689.000    88704686.36305
  22894498.360   122341281.29207  22894503.360    95154355.08906
  19911352.460   106362884.91908  19911354.300    82726708.94608
  22770449.180   121849602.90507  22770449.940    94771902.43106
  20126588.020   107437251.63109  20126590.540    83562372.52908
  21592602.800   115505901.64408  21592603.120    89837944.36808
 15 03 05 00 07 30.0000000  0 15G16G18G19G21G22G27G31R02R03R09R15R16
                                R17R18R19
  20919532.500   109932912.33409  20919528.800    85662015.47148
  22206152.780   116694165.54709  22206149.780    90930522.89747
  24170226.100   127015408.83907  24170221.880    98973039.08046
  21859700.520   114873756.03508  21859696.980    89512113.30848
  23076471.340   121267708.99208  23076467.180    94494325.83146
  22034249.700   115790804.32909  22034249.440    90226610.24748
  23991684.000   126077176.99508  23991682.340    98241964.73246
  22526027.780   120203216.46008  22526030.520    93491404.14707
  22309118.080   119422468.47207  22309118.680    92884148.83407
  21344986.980   113981046.97408  21344987.440    88651934.08605
  22919560.940   122475208.13407  22919566.220    95258520.31507
  19920627.120   106412428.96808  19920629.040    82765243.18808
  22785463.260   121929946.13308  22785464.120    94834391.58706
  20132067.620   107466501.90209  20132070.140    83585122.74208
  21582373.340   115451181.42208  21582373.780    89795384.22108
 15 03 05 00 08  0.0000000  0 15G16G18G19G21G22G27G31R02R03R09R15R16
                                R17R18R19
  20910331.700   109884561.85409  20910328.080    85624339.78048
  22198125.440   116651981.43309  22198122.360    90897652.17747
  24155222.580   126936567.19307  24155218.940    98911604.11546
  21870229.340   114929085.36009  21870225.860    89555227.06248
  23059503.320   121178542.15208  23059499.200    94424845.22146
  22023454.940   115734077.49809  22023454.600    90182407.55048
  24010432.100   126175697.84308  24010430.020    98318734.16345
  22527098.720   120208931.40608  22527101.500    93495849.14507
  22292842.380   119335343.45407  22292843.020    92816384.96007
  21332413.540   113913905.44908  21332414.000    88599712.90405
  22944645.820   122609254.38107  22944651.240    95362778.42206
  19930047.820   106462753.21808  19930049.840    82804384.24808
  22800474.060   122010271.87008  22800474.880    94896867.15206
  20137584.740   107495952.40209  20137587.180    83608028.68808
  21572185.340   115396682.77008  21572185.740    89752996.41608
 15 03 05 00 08 30.0000000  0 15G16G18G19G21G22G27G31R02R03R09R15R16
                                R17R18R19
  20901206.500   109836608.76409  20901202.940    85586973.74448
  22190175.040   116610201.59409  22190171.860    90865096.46747
  24140235.060   126857809.60607  24140232.080    98850234.63245
  21880804.180   114984656.40109  21880800.640    89598529.17447
  23042563.340   121089522.48708  23042559.240    94355479.28947
  22012684.860   115677480.66909  22012684.540    90138306.16248
  24029183.440   126274235.80408  24029180.920    98395516.93646
  22528308.580   120215387.81408  22528311.180    93500870.80807
  22276644.240   119248634.00007  22276644.920    92748944.30607
  21319968.220   113847448.65608  21319968.940    88548024.30805
  22969751.940   122743414.20607  22969757.440    95467124.86706
  19939613.900   106513853.85308  19939615.960    82844129.17808
  22815481.300   122090578.26008  22815481.960    94959327.68406
  20143138.880   107525600.51709  20143141.280    83631088.34408
  21562038.400   115342403.56408  21562038.520    89710779.28407
 15 03 05 00 09  0.0000000  0 15G16G18G19G21G22G27G31R02R03R09R15R16
                                R17R18R19
  20892156.640   109789051.57909  20892153.120    85549916.20648
  22182301.160   116568824.28009  22182298.020    90832854.41647
  24125263.320   126779133.07008  24125260.580    98788928.29745
  21891424.020   115040463.94809  21891420.420    89642015.57848
  23025651.360   121000649.67708  23025647.260    94286227.81646
  22001938.980   115621010.71709  22001938.520    90094303.63548
  24047936.760   126372784.23908  24047933.980    98472307.86045
  22529656.780   120222582.55008  22529659.340    93506466.72907
  22260523.800   119162340.87907  22260524.580    92681827.47807
  21307650.920   113781675.89308  21307652.000    88496867.73105
  22994877.980   122877680.37507  22994883.480    95571554.03506
  19949324.320   106565725.02108  19949326.460    82884473.41208
  22830484.180   122170861.46908  22830484.820    95021770.19006
  20148729.100   107555441.42409  20148731.540    83654297.93408
  21551931.840   115288339.89708  21551931.760    89668729.80108
 15 03 05 00 09 30.0000000  0 15G16G18G19G21G22G27G31R02R03R09R15R16
                                R17R18R19
  20883182.380   109741891.44009  20883178.820    85513168.05448
  22174503.980   116527850.08509  22174500.920    90800926.47747
  24110307.200   126700536.59708  24110304.360    98727684.33446
  21902088.380   115096505.39808  21902084.720    89685684.24548
  23008767.700   120911925.11908  23008763.560    94217091.84647
  21991217.120   115564666.70809  21991216.600    90050399.23848
  24066691.480   126471339.68308  24066688.640    98549104.24345
  22531143.220   120230514.71908  22531145.860    93512636.22607
  22244481.940   119076467.85107  22244482.680    92615037.37907
  21295462.080   113716589.21108  21295463.380    88446244.77705
  23020022.860   123012047.24107  23020028.360    95676061.51606
  19959178.280   106618362.69808  19959180.400    82925413.80508
  22845482.360   122251119.80808  22845482.960    95084193.33907
  20154355.020   107585472.82309  20154357.400    83677655.70108
  21541865.300   115234489.98008  21541865.100    89626846.57308
 15 03 05 00 10  0.0000000  0 15G16G18G19G21G22G27G31R02R03R09R15R16
                                R17R18R19
  20874285.600   109695138.30909  20874282.000    85476737.05748
  22166785.300   116487288.47409  22166782.320    90769320.04147
  24095367.960   126622028.06408  24095365.020    98666508.91146
  21912798.420   115152786.97008  21912794.740    89729540.02347
  22991914.300   120823359.20308  22991910.080    94148079.49947
  21980520.740   115508456.61509  21980520.220    90006599.19148
  24085448.280   126569906.55408  24085445.620    98625909.52646
  22532769.420   120239192.58608  22532771.900    93519385.71607
  22228520.660   118991026.51507  22228521.380    92548583.05207
  21283403.860   113652199.24808  21283405.100    88396163.71905
  23045187.240   123146518.69207  23045192.880    95780650.32206
  19969176.760   106671772.11308  19969178.760    82966954.45908
  22860477.300   122331360.92408  22860477.900    95146603.08707
  20160017.780   107615701.33809  20160020.180    83701166.76408
  21531840.000   115180861.17108  21531839.800    89585135.30908
 15 03 05 00 10 30.0000000  0 15G16G18G19G21G22G27G31R02R03R09R15R16
                                R17R18R19
  20865465.920   109648790.37309  20865462.320    85440621.79248
  22159144.960   116447138.30309  22159142.000    90738034.20347
  24080444.540   126543603.92508  24080441.700    98605399.29246
  21923553.040   115209303.09008  21923549.340    89773578.56447
  22975090.920   120734951.40208  22975086.580    94079190.36847
  21969849.180   115452377.19409  21969848.740    89962900.96548
  24104206.040   126668478.92508  24104203.620    98702719.09246
  22534534.740   120248612.43108  22534537.200    93526712.28507
  22212640.420   118906018.21308  22212641.200    92482465.51507
  21271476.220   113588505.58708  21271477.140    88346624.20505
  23070369.980   123281087.34407  23070375.600    95885314.73606
  19979318.500   106725947.33408  19979320.460    83009090.72908
  22875468.320   122411580.76108  22875468.960    95208996.28807
  20165716.640   107646122.24009  20165718.980    83724827.46608
  21521855.140   115127449.37808  21521855.200    89543592.83908
 15 03 05 00 11  0.0000000  0 15G16G18G19G21G22G27G31R02R03R09R15R16
                                R17R18R19
  20856724.280   109602852.92109  20856720.740    85404826.37548
  22151583.780   116407403.82609  22151580.820    90707072.28247
  24065537.660   126465268.03308  24065534.740    98544358.37946
  21934352.420   115266054.26208  21934348.700    89817800.24847
  22958298.660   120646707.71708  22958294.240    94010429.08746
  21959203.100   115396431.89709  21959202.740    89919307.25048
  24122964.840   126767056.93208  24122962.580    98779533.04346
  22536439.680   120258778.01808  22536442.320    93534618.88807
  22196842.520   118821450.58708  22196843.300    92416690.71807
  21259680.120   113525514.25708  21259680.680    88297630.94805
  23095570.820   123415752.66307  23095576.300    95990054.32506
  19989603.620   106780888.81308  19989605.640    83051822.97008
  22890455.960   122491782.20108  22890456.680    95271375.14307
  20171451.900   107676737.45309  20171454.280    83748639.29408
  21511911.260   115074257.06908  21511911.680    89502221.06608
 15 03 05 00 11 30.0000000  0 15G16G18G19G21G22G27G31R02R03R09R15R16
                                R17R18R19
  20848060.400   109557324.16109  20848056.880    85369349.42948
  22144101.440   116368083.39109  22144098.500    90676432.99047
  24050646.640   126387016.25907  24050643.500    98483383.01846
  21945195.720   115323036.16408  21945191.980    89862201.74147
  22941537.420   120558627.15808  22941532.940    93941794.93946
  21948581.860   115340617.30109  21948581.460    89875815.38148
  24141723.440   126865634.12508  24141721.460    98856346.36046
  22538483.760   120269685.67108  22538486.380    93543102.64307
  22181126.980   118737323.79508  22181127.860    92351258.81907
  21248015.260   113463224.29308  21248015.780    88249183.21605
  23120788.240   123550506.46107  23120793.640    96094862.71406
  20000030.880   106836589.82108  20000033.020    83095145.96808
  22905439.500   122571961.13108  22905440.020    95333736.50007
  20177222.640   107707542.29509  20177225.140    83772598.62208
  21502007.760   115021280.06808  21502008.240    89461016.76508
 15 03 05 00 12  0.0000000  0 15G16G18G19G21G22G27G31R02R03R09R15R16
                                R17R18R19
  20839474.860   109512206.86209  20839471.300    85334193.10148
  22136698.300   116329179.11309  22136695.300    90646117.98447
  24035771.700   126308849.40907  24035768.240    98422473.86646
  21956082.700   115380247.61508  21956078.920    89906782.09647
  22924807.800   120470713.02408  22924803.300    93873290.46847
  21937985.640   115284934.32509  21937985.120    89832426.07248
  24160481.620   126964208.76108  24160479.680    98933157.68146
  22540667.060   120281336.16208  22540669.640    93552164.15707
  22165494.720   118653642.99808  22165495.500    92286173.78507
  21236482.360   113401639.57108  21236483.120    88201283.99605
  23146021.660   123685345.03407  23146026.960    96199737.06206
  20010600.100   106893048.62808  20010602.220    83139058.35208
  22920418.740   122652117.90107  22920419.260    95396080.65106
  20183028.740   107738536.03309  20183031.280    83796704.85208
  21492144.480   114968518.07408  21492144.660    89419979.69807
 15 03 05 00 12 30.0000000  0 15G16G18G19G21G22G27G31R02R03R09R15R16
                                R17R18R19
  20830968.200   109467503.98309  20830964.560    85299359.69748
  22129374.960   116290694.33109  22129371.860    90616129.86547
  24020913.080   126230768.76008  24020909.200    98361631.84845
  21967013.240   115437688.16108  21967009.540    89951540.96147
  22908110.640   120382969.26608  22908106.120    93804918.74347
  21927414.660   115229384.25709  21927414.160    89789140.31348
  24179238.940   127062778.65908  24179236.980    99009965.32845
  22542989.840   120293730.67108  22542992.360    93561804.35907
  22149946.840   118570413.64208  22149947.520    92221439.88807
  21225082.340   113340763.77508  21225083.120    88153936.15405
  23171270.680   123820266.75507  23171275.760    96304676.06606
  20021310.900   106950263.37408  20021312.940    83183558.69008
  22935393.880   122732253.43507  22935394.600    95458408.26307
  20188870.320   107769718.69309  20188872.780    83820958.03008
  21482321.620   114915972.19308  21482321.480    89379110.72608
 15 03 05 00 13  0.0000000  0 15G16G18G19G21G22G27G31R02R03R09R15R16
                                R17R18R19
  20822540.140   109423214.23109  20822536.420    85264848.21248
  22122130.940   116252626.97009  22122127.900    90586467.01547
  24006070.360   126152770.92208  24006066.300    98300854.38646
  21977986.240   115495351.69408  21977982.580    89996473.59547
  22891445.700   120295394.91208  22891441.280    93736679.03847
  21916868.500   115173963.78809  21916867.920    89745955.55348
  24197994.200   127161337.82408  24197992.340    99086764.60246
  22545451.320   120306865.57808  22545453.860    93572020.42707
  22134483.360   118487636.41708  22134484.000    92157057.64107
  21213814.900   113280596.01708  21213815.560    88107139.01405
  23196533.660   123955262.82507  23196538.380    96409672.90806
  20032161.980   107008227.46808  20032164.040    83228641.86808
  22950364.280   122812363.65307  22950365.240    95520716.19607
  20194746.440   107801085.41709  20194748.800    83845354.38808
  21472538.220   114863637.81208  21472537.880    89338406.25207
 15 03 05 00 13 30.0000000  0 15G16G18G19G21G22G27G31R02R03R09R15R16
                                R17R18R19
  20814191.240   109379340.55809  20814187.520    85230660.93848
  22114966.820   116214979.99809  22114963.980    90557131.73247
  23991243.980   126074857.16508  23991239.740    98240142.41745
  21989001.620   115553238.01208  21988998.000    90041579.81247
  22874813.860   120207994.11809  22874809.480    93668574.56246
  21906347.320   115118674.36509  21906346.760    89702872.92048
  24216747.000   127259884.69008  24216745.320    99163554.28145
  22548051.700   120320741.85608  22548054.320    93582813.09007
  22119105.360   118405316.66408  22119105.900    92093031.20407
  21202680.760   113221140.33908  21202681.380    88060895.71905
  23221809.980   124090330.32207  23221814.420    96514725.29106
  20043153.080   107066939.45208  20043155.140    83274306.72808
  22965329.980   122892449.18307  22965331.080    95583004.91806
  20200657.040   107832636.40909  20200659.360    83869894.04608
  21462794.320   114811515.56008  21462794.260    89297866.75708
 15 03 05 00 14  0.0000000  0 15G16G18G19G21G22G27G31R02R03R09R15R16
                                R17R18R19
  20805922.240   109335886.78809  20805918.540    85196800.86248
  22107883.280   116177756.81909  22107880.660    90528126.69047
  23976434.020   125997029.44108  23976429.840    98179497.51345
  22000059.360   115611347.06208  22000055.700    90086859.59947
  22858215.980   120120771.63108  22858211.700    93600609.02447
  21895851.500   115063518.17209  21895850.900    89659894.10948
  24235497.200   127358418.03107  24235495.680    99240333.42946
  22550791.420   120335361.50308  22550794.080    93594183.96607
  22103813.940   118323460.68808  22103814.540    92029365.46207
  21191680.760   113162401.41708  21191681.540    88015209.90705
  23247099.220   124225467.93407  23247103.700    96619832.18306
  20054283.920   107126398.32708  20054285.960    83320552.49408
  22980291.660   122972511.91607  22980292.800    95645275.91306
  20206602.240   107864372.34709  20206604.580    83894577.56108
  21453090.420   114759606.92308  21453090.820    89257493.40408
 15 03 05 00 14 30.0000000  0 15G16G18G19G21G22G27G31R02R03R09R15R16
                                R17R18R19
  20797733.740   109292855.94809  20797730.120    85163270.33348
  22100880.960   116140960.11409  22100878.400    90499453.94847
  23961640.640   125919289.12908  23961636.560    98118920.69146
  22011159.480   115669678.38908  22011155.780    90132312.57748
  22841652.640   120033730.95209  22841648.500    93532785.15147
  21885381.200   115008496.50309  21885380.600    89617020.10448
  24254244.500   127456936.39608  24254243.140    99317100.86745
  22553670.540   120350725.49508  22553673.260    93606133.74407
  22088610.080   118242073.72208  22088610.600    91966064.50507
  21180815.660   113104382.83508  21180816.580    87970084.35005
  23272400.860   124360671.91707  23272405.480    96724990.70106
  20065554.200   107186602.00908  20065556.240    83367377.56108
  22995249.280   123052552.47507  22995250.260    95707529.65506
  20212582.020   107896292.90409  20212584.400    83919404.65908
  21443426.560   114707912.05108  21443427.140    89217286.30508
 15 03 05 00 15  0.0000000  0  7G16G18G19G21G22G27G31
  20789625.900   109250248.60709  20789622.300    85130069.82248
  22093959.960   116104590.24509  22093957.380    90471113.82747
  23946863.500   125841634.72408  23946859.480    98058410.81246
  22022301.300   115728228.66209  22022297.540    90177936.17948
  22825124.140   119946873.55808  22825120.100    93465104.10447
  21874936.220   114953608.28009  21874935.640    89574250.08948
  24272988.400   127555435.71208  24272986.980    99393853.49045
 15 03 05 00 15 30.0000000  0  7G16G18G19G21G22G27G31
  20781598.700   109208064.92609  20781595.020    85097199.41948
  22087120.160   116068646.97709  22087117.480    90443106.11947
  23932102.420   125764064.59608  23932098.540    97997966.59446
  22033484.200   115786994.79309  22033480.400    90223727.96647
  22808630.720   119860200.25608  22808626.540    93397566.50947
  21864516.320   114898851.96609  21864515.920    89531582.85248
  24291728.020   127653911.16408  24291726.460    99470587.52546
 15 03 05 00 16  0.0000000  0  7G16G18G19G21G22G27G31
  20773652.680   109166308.40109  20773649.000    85064661.88248
  22080362.240   116033133.64409  22080359.380    90415433.43547
  23917357.620   125686580.60908  23917353.840    97937589.51246
  22044708.000   115845976.25008  22044704.180    90269687.55747
  22792173.280   119773715.67808  22792168.840    93330175.98047
  21854121.880   114844229.52209  21854121.740    89489019.94148
  24310462.940   127752362.01208  24310461.160    99547302.38645
 15 03 05 00 16 30.0000000  0  7G16G18G19G21G22G27G31
  20765788.580   109124982.74709  20765784.980    85032460.07148
  22073686.580   115998052.88809  22073683.620    90388097.80747
  23902629.540   125609184.63808  23902625.860    97877281.00446
  22055972.760   115905173.14708  22055968.940    90315815.00947
  22775752.600   119687424.21208  22775748.020    93262935.92647
  21843753.320   114789742.78709  21843753.340    89446562.77148
  24329192.800   127850786.93808  24329190.820    99623997.03746
 15 03 05 00 17  0.0000000  0  7G16G18G19G21G22G27G31
  20758006.460   109084087.78509  20758002.940    85000593.87348
  22067093.280   115963404.87609  22067090.280    90361099.38547
  23887917.800   125531874.62908  23887914.180    97817039.48646
  22067277.660   115964581.27308  22067273.880    90362107.05347
  22759368.720   119601326.44909  22759364.180    93195846.78847
  21833410.300   114735390.11009  21833410.320    89404210.04948
  24347916.760   127949181.05208  24347914.760    99700667.68345
 15 03 05 00 17 30.0000000  0  7G16G18G19G21G22G27G31
  20750307.040   109043627.37309  20750303.600    84969066.27748
  22060582.900   115929192.57909  22060579.840    90334440.48147
  23873222.820   125454652.35108  23873219.180    97756866.29946
  22078622.800   116024200.64408  22078619.040    90408563.71047
  22743022.480   119515426.72208  22743018.060    93128911.97547
  21823093.220   114681173.49409  21823093.100    89361963.35148
  24366634.600   128047543.44008  24366632.840    99777313.58746
 15 03 05 00 18  0.0000000  0  7G16G18G19G21G22G27G31
  20742690.300   109003601.11809  20742686.920    84937876.99248
  22054155.280   115895415.36609  22054152.160    90308120.60547
  23858544.180   125377515.64008  23858540.520    97696759.83046
  22090007.600   116084028.10908  22090003.820    90455182.52047
  22726714.120   119429726.04808  22726709.820    93062132.26847
  21812801.860   114627091.26509  21812801.520    89319821.38148
  24385345.320   128145869.43408  24385344.040    99853931.12445
 15 03 05 00 18 30.0000000  0  7G16G18G19G21G22G27G31
  20735156.380   108964010.08509  20735153.020    84907026.84548
  22047810.680   115862074.42609  22047807.480    90282140.68947
  23843881.940   125300464.59208  23843877.960    97636720.09546
  22101431.520   116144061.09808  22101427.740    90501961.47247
  22710444.060   119344226.45809  22710439.780    92995509.25447
  21802536.040   114573143.09209  21802535.500    89277783.86648
  24404048.420   128244155.69207  24404047.360    99930517.68746
 15 03 05 00 19  0.0000000  0  7G16G18G19G21G22G27G31
  20727706.180   108924859.20409  20727702.860    84876519.66748
  22041549.940   115829174.19409  22041546.760    90256504.17947
  23829236.460   125223501.79908  23829232.380    97576749.12946
  22112894.680   116204300.15008  22112890.940    90548900.98747
  22694213.340   119258933.26809  22694208.960    92929047.07147
  21792296.220   114519331.95409  21792295.660    89235853.13048
  24422743.960   128342402.27407  24422743.060   100007073.34546
 15 03 05 00 19 30.0000000  0  7G16G18G19G21G22G27G31
  20720339.880   108886149.17809  20720336.560    84846356.01048
  22035373.140   115796714.65709  22035369.940    90231211.06047
  23814607.600   125146626.71308  23814603.620    97516846.49546
  22124396.560   116264742.85609  22124392.880    90595999.19247
  22678022.260   119173848.32609  22678017.820    92862747.15547
  21782082.360   114465657.29009  21782081.720    89194028.73148
  24441431.400   128440605.60208  24441430.540   100083595.25546
 15 03 05 00 20  0.0000000  0  7G16G18G19G21G22G27G31
  20713057.880   108847882.21209  20713054.580    84816537.60948
  22029280.600   115764698.14509  22029277.460    90206263.16447
  23799995.360   125069839.31708  23799991.660    97457012.18946
  22135936.860   116325387.26109  22135933.160    90643254.58047
  22661871.320   119088974.40309  22661866.860    92796611.67647
  21771894.540   114412119.56709  21771893.780    89152311.04748
  24460110.320   128538762.88608  24460109.320   100160081.35445
 15 03 05 00 20 30.0000000  0  7G16G18G19G21G22G27G31
  20705860.300   108810058.67409  20705856.960    84787064.72248
  22023272.300   115733124.42409  22023269.200    90181660.29247
  23785399.620   124993138.77708  23785396.300    97397245.57246
  22147515.080   116386231.21708  22147511.320    90690665.46047
  22645760.760   119004312.90009  22645756.320    92730641.70847
  21761732.540   114358717.82809  21761731.800    89110699.32348
  24478779.740   128636870.23608  24478778.560   100236528.51345
 15 03 05 00 21  0.0000000  0  7G16G18G19G21G22G27G31
  20698747.620   108772680.90509  20698744.220    84757939.17648
  22017348.580   115701995.30409  22017345.500    90157403.84247
  23770820.620   124916525.07108  23770817.240    97337546.60446
  22159130.880   116447272.83208  22159127.120    90738230.33847
  22629691.220   118919867.23609  22629686.760    92664839.91747
  21751596.480   114305452.65209  21751595.740    89069194.00148
  24497439.100   128734925.24308  24497437.740   100312934.85445
 15 03 05 00 21 30.0000000  0  7G16G18G19G21G22G27G31
  20691719.940   108735749.73709  20691716.460    84729161.64348
  22011509.520   115671310.94709  22011506.380    90133493.97447
  23756258.120   124839997.75008  23756254.320    97277914.94846
  22170783.760   116508509.28208  22170780.020    90785947.05647
  22613663.040   118835638.95209  22613658.540    92599207.52947
  21741486.300   114252323.57609  21741485.520    89027794.73348
  24516087.900   128832924.46108  24516086.380   100389297.78245
 15 03 05 00 22  0.0000000  0  7G16G18G19G21G22G27G31
  20684778.860   108699273.74309  20684775.320    84700738.79448
  22005756.720   115641079.83409  22005753.580    90109937.28547
  23741713.160   124763563.50608  23741709.360    97218355.84646
  22182474.680   116569945.33908  22182470.960    90833819.30647
  22597678.020   118751637.25509  22597673.440    92533751.69747
  21731403.360   114199337.61809  21731402.480    88986506.98848
  24534726.820   128930872.06108  24534725.340   100465620.47145
 15 03 05 00 22 30.0000000  0  7G16G18G19G21G22G27G31
  20677923.180   108663246.21509  20677919.460    84672665.39048
  22000088.820   115611294.58509  22000085.640    90086728.00247
  23727184.400   124687214.13408  23727180.560    97158862.85146
  22194201.820   116631571.67608  22194198.060    90881839.82947
  22581735.060   118667856.81308  22581730.440    92468468.27147
  21721346.120   114146486.66509  21721345.180    88945324.43548
  24553353.640   129028756.51308  24553352.180   100541893.90645
 15 03 05 00 23  0.0000000  0  7G16G18G19G21G22G27G31
  20671153.500   108627670.72909  20671149.620    84644944.23748
  21994506.500   115581958.93009  21994503.180    90063869.07047
  23712672.260   124610951.69308  23712668.080    97099437.61446
  22205965.160   116693388.21908  22205961.340    90930008.54947
  22565834.960   118584302.02508  22565830.460    92403360.67547
  21711315.040   114093772.93909  21711314.040    88904248.81948
  24571968.300   129126577.23307  24571966.860   100618117.66845
 15 03 05 00 23 30.0000000  0  7G16G18G19G21G22G27G31
  20664470.500   108592551.23709  20664466.600    84617578.40248
  21989010.240   115553075.48909  21989006.740    90041362.49547
  23698177.060   124534778.31408  23698172.640    97040081.76746
  22217764.640   116755394.75308  22217760.780    90978325.33547
  22549978.640   118500977.43309  22549974.280    92338432.44247
  21701310.540   114041198.81309  21701309.640    88863281.98448
  24590570.840   129224333.69107  24590569.340   100694291.41745
 15 03 05 00 24  0.0000000  0  7G16G18G19G21G22G27G31
  20657874.660   108557890.05909  20657870.820    84590569.69148
  21983600.480   115524646.73809  21983596.980    90019210.23447
  23683698.800   124458694.55708  23683694.280    96980795.76146
  22229600.020   116817590.28908  22229596.180    91026789.37747
  22534166.940   118417886.71509  22534162.620    92273686.44847
  21691332.740   113988765.23909  21691331.920    88822424.66248
  24609160.740   129322023.56308  24609159.340   100770413.20845
 15 03 05 00 24 30.0000000  0  7G16G18G19G21G22G27G31
  20651365.900   108523686.98809  20651362.200    84563917.95648
  21978277.020   115496671.96709  21978273.560    89997411.72947
  23669237.220   124382698.73808  23669232.800    96921578.28546
  22241470.700   116879971.28809  22241466.860    91075397.94847
  22518399.900   118335030.38409  22518395.560    92209123.10847
  21681381.380   113936470.64109  21681380.460    88781675.64748
  24627737.240   129419642.49408  24627736.080   100846479.74445
 15 03 05 00 25  0.0000000  0  7G16G18G19G21G22G27G31
  20644945.200   108489946.72809  20644941.640    84537626.83848
  21973040.680   115469155.18509  21973037.320    89975970.10147
  23654792.960   124306793.95008  23654788.580    96862431.72846
  22253376.940   116942538.97508  22253373.060    91124151.98747
  22502678.440   118252413.87209  22502674.140    92144746.63847
  21671457.100   113884318.27109  21671456.100    88741037.45148
  24646300.180   129517190.31208  24646299.380   100922490.83045
 15 03 05 00 25 30.0000000  0  7G16G18G19G21G22G27G31
  20638612.340   108456667.83309  20638608.820    84511695.23448
  21967891.120   115442094.62909  21967887.820    89954883.97747
  23640365.500   124230977.18608  23640361.240    96803353.77346
  22265317.860   117005288.75008  22265313.940    91173047.91747
  22487002.580   118170036.99209  22486998.300    92080556.88647
  21661559.340   113832305.44909  21661558.420    88700507.99648
  24664848.520   129614661.75307  24664847.880   100998442.42846
 15 03 05 00 26  0.0000000  0  7G16G18G19G21G22G27G31
  20632367.820   108423853.20609  20632364.420    84486125.38848
  21962828.820   115415492.56709  21962825.620    89934155.11247
  23625955.040   124155249.91508  23625950.940    96744345.53246
  22277293.140   117068219.42608  22277289.240    91222084.79647
  22471373.220   118087903.72809  22471368.860    92016556.95347
  21651688.420   113780433.60909  21651687.620    88660088.37648
  24683381.960   129712055.15408  24683381.380   101074333.15945
 15 03 05 00 26 30.0000000  0  7G16G18G19G21G22G27G31
  20626212.340   108391506.53409  20626209.100    84460920.19148
  21957854.540   115389352.84709  21957851.460    89913786.52147
  23611562.100   124079614.73108  23611557.880    96685409.06646
  22289303.040   117131331.91808  22289299.200    91271263.35747
  22455791.180   118006018.74609  22455786.540    91952750.50847
  21641844.800   113728705.34109  21641844.060    88619780.64548
  24701900.460   129809370.19708  24701899.980   101150162.85845
 15 03 05 00 27  0.0000000  0  6G16G18G19G21G22G27
  20620143.380   108359614.16309  20620140.180    84436068.99148
  21952965.500   115363660.97309  21952962.420    89893766.88747
  23597183.700   124004056.17308  23597179.420    96626532.30646
  22301344.340   117194609.28008  22301340.520    91320570.39647
  22440253.960   117924369.14709  22440248.900    91889127.47147
  21632025.680   113677105.74309  21632024.960    88579573.17448
 15 03 05 00 27 30.0000000  0  6G16G18G19G21G22G27
  20614166.620   108328206.14009  20614163.420    84411595.20748
  21948167.260   115338445.96509  21948164.160    89874118.84147
  23582825.100   123928602.26108  23582820.740    96567737.10646
  22313422.020   117258077.86108  22313418.220    91370026.41947
  22424767.340   117842986.13209  22424762.120    91825712.15847
  21622236.540   113625663.35309  21622235.760    88539488.20148
 15 03 05 00 28  0.0000000  0  6G16G18G19G21G22G27
  20608278.580   108297264.37309  20608275.360    84387484.74148
  21943456.320   115313689.85009  21943453.240    89854828.37647
  23568482.760   123853233.59908  23568478.240    96509008.32746
  22325531.940   117321716.08608  22325528.220    91419614.64647
  22409328.060   117761852.46709  22409322.980    91762491.15847
  21612473.580   113574358.67209  21612472.760    88499510.54048
 15 03 05 00 28 30.0000000  0  6G16G18G19G21G22G27
  20602480.880   108266797.24009  20602477.660    84363744.12548
  21938834.200   115289400.55109  21938831.120    89835901.66047
  23554158.040   123777957.22608  23554153.460    96450351.46246
  22337675.160   117385529.30608  22337671.540    91469339.21347
  22393937.960   117680977.67409  22393933.140    91699471.86547
  21602738.300   113523199.15709  21602737.400    88459645.98548
 15 03 05 00 29  0.0000000  0  6G16G18G19G21G22G27
  20596773.440   108236804.61209  20596770.240    84340373.24148
  21934300.760   115265577.26209  21934297.660    89817338.08147
  23539850.560   123702771.30008  23539846.120    96391765.08646
  22349851.060   117449514.15008  22349847.480    91519197.52947
  22378597.300   117600362.62909  22378592.600    91636654.96947
  21593030.420   113472183.44709  21593029.400    88419893.49348
 15 03 05 00 29 30.0000000  0  6G16G18G19G21G22G27
  20591156.020   108207284.96209  20591152.860    84317370.91748
  21929855.580   115242217.63909  21929852.560    89799135.78347
  23525559.880   123627673.18308  23525555.720    96333247.11846
  22362058.660   117513665.47608  22362055.020    91569185.57147
  22363305.920   117520006.30709  22363301.260    91574039.66247
  21583349.300   113421308.60009  21583348.220    88380250.77048
 15 03 05 00 30  0.0000000  0  6G16G18G19G21G22G27
  20585630.420   108178247.62309  20585627.240    84294744.41848
  21925500.320   115219330.65909  21925497.340    89781301.78347
  23511287.300   123552670.65208  23511283.380    96274803.61646
  22374299.160   117577989.53308  22374295.460    91619308.20747
  22348065.840   117439919.27209  22348061.180    91511634.21147
  21573696.420   113370582.91909  21573695.500    88340724.27648
 15 03 05 00 30 30.0000000  0  6G16G18G19G21G22G27
  20580195.900   108149688.60709  20580192.640    84272490.64448
  21921234.140   115196912.01809  21921231.200    89763832.71947
  23497031.740   123477758.24808  23497028.180    96216430.34946
  22386571.100   117642478.88408  22386567.300    91669559.64747
  22332876.480   117360098.77609  22332871.860    91449436.44847
  21564070.940   113320001.12509  21564070.160    88301309.89448
 15 03 05 00 31  0.0000000  0  6G16G18G19G21G22G27
  20574853.100   108121611.72009  20574849.760    84250612.54648
  21917057.660   115174964.65409  21917054.700    89746730.88947
  23482793.780   123402938.35408  23482790.400    96158129.17046
  22398874.520   117707133.75108  22398870.700    91719940.05047
  22317738.780   117280550.12209  22317734.280    91387450.50447
  21554473.400   113269565.89009  21554472.740    88262009.72048
 15 03 05 00 31 30.0000000  0  6G16G18G19G21G22G27
  20569601.620   108094015.09309  20569598.340    84229108.69548
  21912970.500   115153486.70709  21912967.520    89729994.84447
  23468572.980   123328207.90008  23468569.560    96099897.68446
  22411208.580   117771949.82608  22411204.800    91770446.07947
  22302652.560   117201272.11009  22302648.200    91325675.46747
  21544903.160   113219274.18409  21544902.560    88222821.39648
 15 03 05 00 32  0.0000000  0  6G16G18G19G21G22G27
  20564441.760   108066900.10009  20564438.520    84207980.11748
  21908972.780   115132478.37009  21908969.680    89713624.71647
  23454369.260   123253566.46708  23454365.440    96041735.56546
  22423572.900   117836924.88708  22423569.120    91821075.97847
  22287618.380   117122266.90609  22287614.060    91264112.97947
  21535360.240   113169126.28709  21535359.700    88183745.11248
 15 03 05 00 32 30.0000000  0  6G16G18G19G21G22G27
  20559374.920   108040273.89409  20559371.700    84187232.42448
  21905065.700   115111946.27209  21905062.500    89697625.69847
  23440183.680   123179019.90308  23440179.520    95983647.37446
  22435968.240   117902062.92508  22435964.520    91871832.89547
  22272637.640   117043542.47809  22272633.280    91202769.30547
  21525845.820   113119128.26909  21525845.420    88144785.64448
 15 03 05 00 33  0.0000000  0  6G16G18G19G21G22G27
  20554400.960   108014135.53209  20554397.760    84166864.86348
  21901249.020   115091889.57009  21901245.820    89681997.11047
  23426015.660   123104566.05808  23426011.560    95925631.43946
  22448393.800   117967359.66808  22448390.120    91922713.45747
  22257710.480   116965099.64109  22257705.980    91141645.02147
  21516359.600   113069278.16909  21516359.300    88105941.41948
 15 03 05 00 33 30.0000000  0  6G16G18G19G21G22G27
  20549520.080   107988486.18509  20549516.800    84146878.36148
  21897522.800   115072308.15109  21897519.560    89666738.90147
  23411865.180   123030205.00208  23411861.220    95867687.78147
  22460849.220   118032813.12408  22460845.540    91973716.14447
  22242837.320   116886940.76109  22242832.720    91080742.02047
  21506901.620   113019576.00209  21506901.280    88067212.46248
 15 03 05 00 34  0.0000000  0  6G16G18G19G21G22G27
  20544733.060   107963329.88309  20544729.700    84127276.04448
  21893887.820   115053206.28409  21893884.520    89651854.34547
  23397732.820   122955939.21708  23397729.060    95809818.37947
  22473334.620   118098424.00408  22473330.900    92024841.49847
  22228019.100   116809070.43909  22228014.420    91020063.85747
  21497472.440   112970024.77209  21497471.940    88028601.11848
 15 03 05 00 34 30.0000000  0  6G16G18G19G21G22G27
  20540038.640   107938660.47909  20540035.300    84108053.12848
  21890342.640   115034576.62409  21890339.400    89637337.74547
  23383617.260   122881761.49108  23383613.580    95752017.58047
  22485848.320   118164183.62108  22485844.520    92076082.75147
  22213254.900   116731483.71909  22213250.160    90959606.69347
  21488070.700   112920617.38809  21488069.940    87990101.86248
 15 03 05 00 35  0.0000000  0  6G16G18G19G21G22G27
  20535438.600   107914487.13209  20535435.260    84089216.74748
  21886889.040   115016428.00409  21886885.920    89623195.98247
  23369520.000   122807679.56908  23369516.220    95694291.43247
  22498391.480   118230097.84608  22498387.520    92127444.47947
  22198546.520   116654190.80209  22198541.860    90899378.46147
  21478697.840   112871361.97509  21478696.920    87951721.03548
 15 03 05 00 35 30.0000000  0  6G16G18G19G21G22G27
  20530932.600   107890807.80609  20530929.260    84070765.32648
  21883526.520   114998757.80509  21883523.440    89609427.02947
  23355440.420   122733690.10108  23355436.180    95636637.34646
  22510963.040   118296161.39309  22510959.040    92178922.56647
  22183893.820   116577190.98509  22183889.340    90839378.62647
  21469353.280   112822255.52409  21469352.240    87913456.28648
 15 03 05 00 36  0.0000000  0  6G16G18G19G21G22G27
  20526521.280   107867625.93709  20526517.920    84052701.52648
  21880255.580   114981568.71609  21880252.420    89596032.95547
  23341378.760   122659795.38008  23341374.020    95579057.07446
  22523563.080   118362374.68809  22523559.120    92230517.32647
  22169297.840   116500488.74709  22169293.460    90779610.65847
  21460037.440   112773300.51209  21460036.360    87875309.52848
 15 03 05 00 36 30.0000000  0  6G16G18G19G21G22G27
  20522204.620   107844941.56209  20522201.220    84035025.38148
  21877076.100   114964860.57509  21877072.900    89583013.63547
  23327334.840   122585994.66808  23327329.960    95521550.06546
  22536191.020   118428734.60808  22536187.080    92282226.34347
  22154758.840   116424085.62609  22154754.440    90720075.77947
  21450750.280   112724496.24909  21450749.200    87837280.24648
 15 03 05 00 37  0.0000000  0  6G16G18G19G21G22G27
  20517982.840   107822755.84509  20517979.380    84017737.80648
  21873988.200   114948633.71609  21873985.040    89570369.34847
  23313308.760   122512287.38508  23313303.980    95464115.81947
  22548846.440   118495239.43408  22548842.560    92334048.26847
  22140277.080   116347983.48009  22140272.620    90660775.42847
  21441491.780   112675842.87109  21441490.780    87799368.53348
 15 03 05 00 37 30.0000000  0  6G16G18G19G21G22G27
  20513857.040   107801074.23109  20513853.520    84000843.03948
  21870992.840   114932892.99009  21870989.680    89558103.86247
  23299301.160   122438677.56808  23299296.760    95406757.54046
  22561529.940   118561892.03608  22561526.060    92385985.35747
  22125853.880   116272189.10209  22125849.400    90601714.88848
  21432262.780   112627344.77609  21432261.920    87761577.81248
 15 03 05 00 38  0.0000000  0  6G16G18G19G21G22G27
  20509826.220   107779891.80809  20509822.720    83984337.25148
  21868088.780   114917632.16509  21868085.680    89546212.32647
  23285311.040   122365159.39108  23285306.780    95349470.67547
  22574239.820   118628683.40308  22574235.980    92438030.56847
  22111488.540   116196698.57009  22111484.100    90542891.13047
  21423062.240   112578995.97709  21423061.520    87723903.43248
 15 03 05 00 38 30.0000000  0  6G16G18G19G21G22G27
  20505891.760   107759216.05509  20505888.300    83968226.27348
  21865277.620   114902859.12809  21865274.440    89534700.89347
  23271339.600   122291739.26708  23271335.540    95292260.22047
  22586977.140   118695618.93108  22586973.340    92490188.11647
  22097182.660   116121520.60809  22097178.240    90484310.91448
  21413891.440   112530803.38509  21413890.760    87686350.77048
 15 03 05 00 39  0.0000000  0  6G16G18G19G21G22G27
  20502053.060   107739043.76609  20502049.640    83952507.60848
  21862558.420   114888569.72209  21862555.200    89523566.29947
  23257386.040   122218412.77708  23257381.800    95235122.72646
  22599740.620   118762692.07608  22599736.880    92542452.88347
  22082935.800   116046653.01409  22082931.400    90425972.55847
  21404749.620   112482762.92009  21404748.960    87648916.65848
 15 03 05 00 39 30.0000000  0  6G16G18G19G21G22G27
  20498310.760   107719377.83409  20498307.320    83937183.49348
  21859931.680   114874766.41509  21859928.480    89512810.47447
  23243450.600   122145181.99808  23243446.340    95178059.81046
  22612530.340   118829903.02008  22612526.720    92594825.04047
  22068748.800   115972100.03909  22068744.380    90367879.35147
  21395637.180   112434876.88209  21395636.480    87611602.87348
 15 03 05 00 40  0.0000000  0  6G16G18G19G21G22G27
  20494665.600   107700222.32309  20494662.140    83922257.11448
  21857398.060   114861452.31309  21857394.920    89502435.85647
  23229533.840   122072049.96308  23229529.760    95121073.85246
  22625346.640   118897253.34908  22625343.100    92647305.79547
  22054622.720   115897867.05009  22054618.200    90310035.47647
  21386554.660   112387148.49809  21386554.020    87574411.92248
 15 03 05 00 40 30.0000000  0  6G16G18G19G21G22G27
  20491117.080   107681574.57709  20491113.600    83907726.40448
  21854957.000   114848624.39309  21854953.860    89492440.09547
  23215635.120   121999012.72908  23215631.360    95064161.74047
  22638188.340   118964737.13808  22638184.900    92699890.55147
  22040557.240   115823952.49909  22040552.700    90252439.74847
  21377501.460   112339574.08909  21377500.900    87537340.95648
 15 03 05 00 41  0.0000000  0  6G16G18G19G21G22G27
  20487665.180   107663434.54409  20487661.700    83893591.30748
  21852608.340   114836281.86209  21852605.100    89482822.55547
  23201754.360   121926069.37408  23201750.720    95007322.77447
  22651054.920   119032351.41208  22651051.580    92752576.98047
  22026552.580   115750357.49509  22026548.040    90195093.00948
  21368477.460   112292153.03009  21368476.960    87500389.49448
 15 03 05 00 41 30.0000000  0  6G16G18G19G21G22G27
  20484310.460   107645805.41609  20484306.980    83879854.31448
  21850352.520   114824427.32209  21850349.260    89473585.26147
  23187892.060   121853222.12508  23187888.240    94950558.69846
  22663946.440   119100096.69108  22663943.160    92805365.49347
  22012609.580   115677086.74309  22012605.040    90137998.93347
  21359483.200   112244887.99309  21359482.640    87463559.59748
 15 03 05 00 42  0.0000000  0  6G16G18G19G21G22G27
  20481053.000   107628687.74809  20481049.600    83866515.87348
  21848189.460   114813060.63509  21848186.280    89464728.12347
  23174047.920   121780469.90608  23174044.040    94893868.70047
  22676862.320   119167969.99608  22676859.100    92858253.77047
  21998728.520   115604141.39609  21998723.980    90081158.42948
  21350518.560   112197778.37309  21350517.980    87426850.81948
 15 03 05 00 42 30.0000000  0  6G16G18G19G21G22G27
  20477893.660   107612085.57509  20477890.340    83853579.10448
  21846119.940   114802185.30509  21846116.760    89456253.84847
  23160222.600   121707816.00808  23160218.460    94837255.28847
  22689802.920   119235973.22408  22689799.700    92911243.28047
  21984910.540   115531527.18009  21984905.940    90024575.93548
  21341584.220   112150827.66409  21341583.580    87390265.84048
 15 03 05 00 43  0.0000000  0  6G16G18G19G21G22G27
  20474832.940   107596001.33309  20474829.640    83841045.92548
  21844144.260   114791803.26309  21844141.080    89448163.96447
  23146416.200   121635261.98308  23146411.800    94780719.71047
  22702768.260   119304106.28808  22702764.900    92964333.97347
  21971156.260   115459247.78709  21971151.640    89968254.35348
  21332680.460   112104037.85309  21332679.840    87353806.25348
 15 03 05 00 43 30.0000000  0  6G16G18G19G21G22G27
  20471870.360   107580432.74409  20471867.060    83828914.55948
  21842261.840   114781911.49709  21842258.660    89440456.10847
  23132628.200   121562805.00708  23132623.620    94724259.76447
  22715757.300   119372363.99108  22715753.820    93017521.79047
  21957465.440   115387302.26109  21957460.860    89912192.93748
  21323806.780   112057406.18409  21323806.140    87317469.90048
 15 03 05 00 44  0.0000000  0  6G16G18G19G21G22G27
  20469006.680   107565383.89109  20469003.340    83817188.16748
  21840473.320   114772513.28609  21840470.240    89433132.84047
  23118859.100   121490448.26108  23118854.500    94667877.90447
  22728770.260   119440747.40508  22728766.600    93070807.54847
  21943839.080   115315695.60309  21943834.480    89856395.55748
  21314963.740   112010935.82109  21314963.040    87281259.23648
 15 03 05 00 44 30.0000000  0  6G16G18G19G21G22G27
  20466241.660   107550853.31009  20466238.280    83805865.63548
  21838778.500   114763606.87609  21838775.380    89426192.79447
  23105108.440   121418189.06708  23105104.040    94611572.05747
  22741806.400   119509252.61208  22741802.640    93124188.22147
  21930277.360   115244428.10709  21930272.680    89800862.46848
  21306151.060   111964624.92309  21306150.300    87245172.83248
 15 03 05 00 45  0.0000000  0  6G16G18G19G21G22G27
  20463576.300   107536846.16309  20463572.780    83794950.97148
  21837178.120   114755196.52009  21837174.920    89419639.27047
  23091377.180   121346031.69608  23091372.920    94555345.54947
  22754866.180   119577882.05408  22754862.400    93177665.68846
  21916781.320   115173505.38609  21916776.500    89745598.03547
  21297369.560   111918477.80009  21297368.740    87209214.04148
 15 03 05 00 45 30.0000000  0  6G16G18G19G21G22G27
  20461010.080   107523360.33109  20461006.540    83784442.52448
  21835671.600   114747279.69409  21835668.380    89413470.32947
  23077664.720   121273973.27608  23077660.800    94499196.18447
  22767948.620   119646631.06308  22767944.980    93231236.32247
  21903350.840   115102927.44309  21903345.940    89690602.24948
  21288618.840   111872492.10909  21288618.000    87173381.04548
 15 03 05 00 46  0.0000000  0  6G16G18G19G21G22G27
  20458542.880   107510395.18409  20458539.440    83774339.80848
  21834258.720   114739854.77009  21834255.440    89407684.68847
  23063970.780   121202012.23108  23063967.100    94443122.68147
  22781053.220   119715496.21208  22781049.660    93284897.47047
  21889985.940   115032694.49309  21889981.040    89635875.30048
  21279898.580   111826666.54409  21279897.720    87137672.82748
 15 03 05 00 46 30.0000000  0  6G16G18G19G21G22G27
  20456175.520   107497954.85909  20456172.120    83764646.03648
  21832940.000   114732924.97809  21832936.760    89402284.85347
  23050295.960   121130151.58108  23050292.320    94387127.38647
  22794180.240   119784478.92008  22794176.720    93338650.21447
  21876687.680   114962812.05909  21876682.820    89581421.47048
  21271209.440   111781004.61409  21271208.520    87102092.10848
 15 03 05 00 47  0.0000000  0  6G16G18G19G21G22G27
  20453907.940   107486038.79809  20453904.620    83755360.79248
  21831715.460   114726489.65909  21831712.160    89397270.32947
  23036640.160   121058390.47208  23036636.560    94331209.65347
  22807329.020   119853575.77608  22807325.460    93392491.89547
  21863456.240   114893280.72809  21863451.400    89527241.23448
  21262551.260   111735505.51009  21262550.320    87066638.27248
 15 03 05 00 47 30.0000000  0  6G16G18G19G21G22G27
  20451740.060   107474646.43109  20451736.800    83746483.61648
  21830584.800   114720547.60909  21830581.480    89392640.17447
  23023003.220   120986727.65908  23022999.520    94275368.53547
  22820499.220   119922785.10808  22820495.580    93446421.24346
  21850291.900   114824101.75109  21850287.120    89473335.55648
  21253923.860   111690168.33309  21253922.960    87031310.60948
 15 03 05 00 48  0.0000000  0  6G16G18G19G21G22G27
  20449671.940   107463778.33409  20449668.740    83738014.96649
  21829547.920   114715098.76509  21829544.600    89388394.33847
  23009385.000   120915163.10108  23009381.240    94219603.97747
  22833690.360   119992104.27608  22833686.580    93500436.17347
  21837194.960   114755277.08809  21837190.260    89419705.96348
  21245327.320   111644993.29909  21245326.440    86996109.29548
 15 03 05 00 48 30.0000000  0  6G16G18G19G21G22G27
  20447705.760   107453445.77609  20447702.500    83729963.60748
  21828606.780   114710153.41209  21828603.480    89384540.81847
  22995787.460   120843706.88908  22995783.660    94163923.82847
  22846903.820   120061541.05708  22846900.020    93554542.73447
  21824167.720   114686818.82909  21824163.060    89366361.88548
  21236763.740   111599991.10209  21236762.860    86961042.65548
 15 03 05 00 49  0.0000000  0  6G16G18G19G21G22G27
  20445839.680   107443639.37509  20445836.340    83722322.24448
  21827759.580   114705701.59809  21827756.340    89381071.88047
  22982208.600   120772349.32708  22982204.780    94108320.55047
  22860137.480   120131084.31708  22860133.620    93608732.27847
  21811208.680   114618719.04509  21811204.020    89313297.14148
  21228231.180   111555151.94909  21228230.260    86926103.06248
 15 03 05 00 49 30.0000000  0  6G16G18G19G21G22G27
  20444074.420   107434362.75609  20444071.040    83715093.70748
  21827006.900   114701746.39809  21827003.700    89377989.91747
  22968648.940   120701092.94908  22968645.040    94052796.11747
  22873391.580   120200735.42708  22873387.720    93663005.85246
  21798318.880   114550982.87809  21798314.200    89260515.73548
  21219730.180   111510479.20809  21219729.320    86891293.14648
 15 03 05 00 50  0.0000000  0  6G16G18G19G21G22G27
  20442410.040   107425616.41409  20442406.680    83708278.35148
  21826348.640   114698287.52109  21826345.460    89375294.67747
  22955108.560   120629937.57508  22955104.600    93997350.37547
  22886665.720   120270492.04808  22886661.960    93717361.63947
  21785498.620   114483611.92309  21785493.900    89208018.89148
  21211260.840   111465972.86209  21211260.000    86856612.88348
 15 03 05 00 50 30.0000000  0  6G16G18G19G21G22G27
  20440847.040   107417402.60409  20440843.660    83701877.96649
  21825785.200   114695326.85209  21825782.000    89372987.66947
  22941587.880   120558885.26508  22941583.700    93941984.96047
  22899960.060   120340354.58308  22899956.360    93771799.95847
  21772748.640   114416610.10809  21772743.880    89155809.70348
  21202823.640   111421635.23709  21202822.800    86822064.09048
 15 03 05 00 51  0.0000000  0  6G16G18G19G21G22G27
  20439385.940   107409724.48509  20439382.540    83695895.01848
  21825316.920   114692865.94009  21825313.680    89371070.08947
  22928087.260   120487938.69908  22928082.960    93886701.96047
  22913274.660   120410323.44408  22913271.000    93826321.15547
  21760069.620   114349981.33709  21760064.840    89103891.21148
  21194419.000   111377468.89209  21194418.180    86787648.78148
 15 03 05 00 51 30.0000000  0  6G16G18G19G21G22G27
  20438026.360   107402579.72809  20438022.880    83690327.66248
  21824943.400   114690902.79509  21824940.120    89369540.37647
  22914605.860   120417094.06808  22914601.660    93831498.35847
  22926608.600   120480393.62508  22926604.900    93880921.27946
  21747461.440   114283725.31909  21747456.780    89052263.15148
  21186046.440   111333471.23909  21186045.720    86753364.89848
 15 03 05 00 52  0.0000000  0  6G16G18G19G21G22G27
  20436768.760   107395970.85109  20436765.280    83685177.88248
  21824664.980   114689439.02609  21824661.540    89368399.78747
  22901144.460   120346354.48308  22901140.380    93776376.61847
  22939961.920   120550565.77108  22939958.260    93935600.86147
  21734924.940   114217845.91409  21734920.380    89000928.56848
  21177706.480   111289644.86309  21177705.840    86719214.48748
 15 03 05 00 52 30.0000000  0  6G16G18G19G21G22G27
  20435613.300   107389898.90509  20435609.820    83680446.48548
  21824481.560   114688474.99309  21824478.040    89367648.60347
  22887703.060   120275719.68308  22887699.020    93721336.54547
  22953334.360   120620838.42308  22953330.740    93990358.74746
  21722460.600   114152345.62009  21722456.040    88949889.39248
  21169399.220   111245990.56409  21169398.740    86685198.15448
 15 03 05 00 53  0.0000000  0  6G16G18G19G21G22G27
  20434558.800   107384357.69609  20434555.400    83676128.64748
  21824391.940   114688003.96509  21824388.480    89367281.56647
  22874280.560   120205183.48408  22874276.480    93666373.28947
  22966724.260   120691202.78008  22966720.600    94045188.09846
  21710067.480   114087219.27709  21710062.800    88899141.60048
  21161123.500   111202501.97109  21161123.180    86651310.94348
 15 03 05 00 53 30.0000000  0  6G16G18G19G21G22G27
  20433607.420   107379358.04709  20433604.060    83672232.80348
  21824397.960   114688035.53509  21824394.500    89367306.17247
  22860878.720   120134755.74508  22860874.580    93611494.55647
  22980133.460   120761668.25508  22980129.800    94100096.25447
  21697747.920   114022479.59409  21697743.180    88848695.11148
  21152881.380   111159189.65409  21152881.080    86617561.09648
 15 03 05 00 54  0.0000000  0  6G16G18G19G21G22G27
  20432758.500   107374896.74309  20432755.100    83668756.45848
  21824498.960   114688566.25709  21824495.440    89367719.73847
  22847496.820   120064433.25508  22847492.740    93556697.84147
  22993560.920   120832229.31608  22993557.160    94155078.88947
  21685501.600   113958124.68809  21685496.780    88798548.45548
  21144672.280   111116050.46109  21144671.960    86583946.16148
 15 03 05 00 54 30.0000000  0  7G04G16G18G19G21G22G27
  24592606.520   129235023.21107                                
  20432012.860   107370978.22009  20432009.440    83665703.04948
  21824695.640   114689599.87509  21824692.080    89368525.15947
  22834135.480   119994219.52808  22834131.500    93501985.86247
  23007006.900   120902887.67708  23007003.020    94210137.33846
  21673329.480   113894159.89709  21673324.680    88748705.78148
  21136496.940   111073088.58309  21136496.620    86550469.36948
 15 03 05 00 55  0.0000000  0  7G04G16G18G19G21G22G27
  24573389.280   129134034.37507  24573390.980   100623920.28545
  20431375.620   107367629.48609  20431372.220    83663093.63448
  21824992.940   114691162.62309  21824989.480    89369742.89747
  22820799.980   119924141.24708  22820795.920    93447379.41347
  23020476.080   120973668.32008  23020472.160    94265291.06746
  21661237.120   113830614.20809  21661232.420    88699189.67548
  21128360.460   111030330.92109  21128360.080    86517151.71448
 15 03 05 00 55 30.0000000  0  7G04G16G18G19G21G22G27
  24554191.760   129033150.34807  24554193.400   100545309.51144
  20430834.360   107364785.38409  20430830.980    83660877.45548
  21825378.480   114693189.08009  21825375.160    89371321.96747
  22807477.920   119854133.27308  22807473.640    93392827.78047
  23033955.720   121044504.12808  23033951.780    94320487.78846
  21649212.420   113767423.96409  21649207.840    88649950.55248
  21120250.480   110987712.57309  21120250.100    86483942.62848
 15 03 05 00 56  0.0000000  0  7G04G16G18G19G21G22G27
  24535021.700   128932411.39407  24535023.200   100466811.77244
  20430396.640   107362485.55009  20430393.280    83659085.35748
  21825859.580   114695717.64309  21825856.300    89373292.28147
  22794176.820   119784234.99708  22794172.380    93338361.61047
  23047452.940   121115432.54208  23047448.960    94375756.66446
  21637263.140   113704629.87209  21637258.580    88601020.10948
  21112174.580   110945273.01409  21112174.140    86450872.83848
 15 03 05 00 56 30.0000000  0  7G04G16G18G19G21G22G27
  24515879.040   128831815.23108  24515880.260   100388425.25144
  20430062.040   107360727.52709  20430058.760    83657715.46448
  21826435.720   114698745.22909  21826432.300    89375651.44447
  22780895.980   119714443.08208  22780891.500    93283978.31747
  23060966.900   121186448.90208  23060962.920    94431094.08546
  21625389.100   113642231.10809  21625384.460    88552397.71448
  21104132.160   110903009.58109  21104131.640    86417940.29449
 15 03 05 00 57  0.0000000  0  7G04G16G18G19G21G22G27
  24496764.580   128731367.85007  24496765.600   100310154.66744
  20429831.680   107359516.95609  20429828.480    83656772.16248
  21827107.880   114702277.19909  21827104.340    89378403.63847
  22767636.280   119644763.21908  22767632.020    93229682.34347
  23074498.300   121257557.01008  23074494.320    94486502.99446
  21613591.700   113580235.08709  21613586.960    88504089.16148
  21096124.320   110860928.22109  21096123.780    86385149.62948
 15 03 05 00 57 30.0000000  0  7G04G16G18G19G21G22G27
  24477677.740   128631065.87108  24477678.540   100231997.37544
  20429704.760   107358849.70609  20429701.460    83656252.21248
  21827875.040   114706308.56509  21827871.540    89381544.96947
  22754397.000   119575190.98408  22754393.000    93175470.22947
  23088045.940   121328750.57508  23088042.040    94541978.47146
  21601870.300   113518638.80109  21601865.540    88456092.06548
  21088150.420   110819024.89709  21088149.840    86352497.69648
 15 03 05 00 58  0.0000000  0  7G04G16G18G19G21G22G27
  24458618.740   128530910.27807  24458619.480   100153954.16744
  20429681.440   107358726.96709  20429678.040    83656156.56748
  21828737.240   114710839.71709  21828733.820    89385075.74847
  22741178.320   119505726.97508  22741174.460    93121342.45247
  23101609.640   121400028.74708  23101605.840    94597519.88746
  21590225.440   113457444.86409  21590220.740    88408408.50948
  21080210.640   110777300.54309  21080209.940    86319985.21848
 15 03 05 00 58 30.0000000  0  7G04G16G18G19G21G22G27
  24439588.120   128430903.73708  24439588.700   100076027.10745
  20429762.060   107359150.46009  20429758.580    83656486.55348
  21829694.720   114715871.53209  21829691.360    89388996.64347
  22727980.660   119436373.24208  22727976.720    93067300.60747
  23115189.360   121471391.11708  23115185.720    94653126.89646
  21578657.760   113396656.39509  21578653.060    88361040.89348
  21072305.240   110735757.12009  21072304.400    86287613.73048
 15 03 05 00 59  0.0000000  0  7G04G16G18G19G21G22G27
  24420585.400   128331043.17108  24420586.080    99998213.76945
  20429945.980   107360116.60909  20429942.360    83657239.39048
  21830746.800   114721400.07609  21830743.460    89393304.60847
  22714803.220   119367125.43508  22714799.080    93013341.30147
  23128784.120   121542832.31708  23128780.560    94708795.33346
  21567166.900   113336271.69709  21567162.160    88313987.89848
  21064433.640   110694391.41709  21064432.800    86255380.72148
 15 03 05 00 59 30.0000000  0  7G04G16G18G19G21G22G27
  24401611.660   128231335.60408  24401612.220    99920519.64944
  20430234.320   107361631.76409  20430230.760    83658420.01749
  21831894.500   114727431.17009  21831891.120    89398004.16647
  22701647.260   119297989.91008  22701642.960    92959469.48647
  23142394.840   121614357.07908  23142391.340    94764528.88746
  21555754.320   113276298.65209  21555749.540    88267255.67048
  21056597.120   110653210.10609  21056596.300    86223291.39049
 15 03 05 01 00  0.0000000  0  7G04G16G18G19G21G22G27
  24382666.420   128131778.25307  24382666.800    99842942.58544
  20430626.560   107363693.15709  20430623.080    83660026.29348
  21833137.060   114733961.16109  21833133.660    89403092.47947
  22688512.160   119228963.95508  22688507.740    92905683.05047
  23156020.520   121685960.30308  23156017.000    94820323.59546
  21544419.840   113216735.70709  21544415.000    88220843.01048
  21048795.140   110612210.21909  21048794.320    86191343.43049
 15 03 05 01 00 30.0000000  0  7G04G16G18G19G21G22G27
  24363750.340   128032374.22308  24363750.700    99765484.99744
  20431123.240   107366303.28009  20431119.800    83662060.14348
  21834474.840   114740991.43409  21834471.460    89408570.62047
  22675398.300   119160049.83308  22675393.780    92851983.77347
  23169661.280   121757642.69708  23169657.700    94876179.99546
  21533164.100   113157586.63409  21533159.220    88174752.84148
  21041028.200   110571394.45909  21041027.340    86159538.94449
 15 03 05 01 01  0.0000000  0  7G04G16G18G19G21G22G27
  24344863.400   127933123.53207  24344863.880    99688146.88645
  20431724.140   107369461.32309  20431720.780    83664520.94148
  21835907.600   114748520.71509  21835904.260    89414437.59647
  22662305.460   119091246.44408  22662300.840    92798370.76147
  23183316.600   121829401.60408  23183313.080    94932096.00046
  21521987.380   113098852.99409  21521982.540    88128986.38148
  21033296.180   110530762.45909  21033295.280    86127877.64548
 15 03 05 01 01 30.0000000  0  7G04G16G18G19G21G22G27
  24326006.200   127834030.06707  24326006.680    99610931.27944
  20432429.860   107373170.20309  20432426.580    83667410.96748
  21837435.940   114756552.35309  21837432.700    89420696.01547
  22649234.240   119022557.18708  22649229.600    92744846.68747
  23196986.800   121901238.64508  23196983.320    94988072.90747
  21510890.560   113040539.28709  21510885.820    88083547.15548
  21025599.800   110490317.76209  21025598.900    86096362.29248
 15 03 05 01 02  0.0000000  0  7G04G16G18G19G21G22G27
  24307178.300   127735090.03008  24307178.600    99533835.22444
  20433239.760   107377426.68209  20433236.600    83670727.69248
  21839058.860   114765081.06009  21839055.680    89427341.76547
  22636184.000   118953978.09708  22636179.380    92691408.47447
  23210670.780   121973148.03808  23210667.200    95044106.18846
  21499873.220   112982642.88709  21499868.540    88038433.09048
  21017938.380   110450056.78509  21017937.460    86064990.10948
 15 03 05 01 02 30.0000000  0  7G04G16G18G19G21G22G27
  24288380.320   127636306.64807  24288380.300    99456861.21445
  20434154.320   107382232.95609  20434151.200    83674472.82648
  21840776.860   114774109.03509  21840773.680    89434376.55347
  22623155.160   118885511.34108  22623150.680    92638057.77547
  23224368.620   122045130.39808  23224365.020    95100196.31446
  21488936.060   112925167.77609  21488931.420    87993647.29548
  21010312.420   110409982.08509  21010311.460    86033763.07449
 15 03 05 01 03  0.0000000  0  7G04G16G18G19G21G22G27
  24269612.560   127537681.61708  24269612.300    99380010.63044
  20435173.700   107387589.76309  20435170.540    83678646.94748
  21842589.800   114783636.11309  21842586.660    89441800.26047
  22610147.880   118817158.17208  22610143.600    92584795.58047
  23238080.160   122117184.94508  23238076.560    95156342.70446
  21478079.640   112868116.76209  21478075.020    87949191.98248
  21002722.160   110370095.19609  21002721.220    86002682.39048
 15 03 05 01 03 30.0000000  0  7G04G16G18G19G21G22G27
  24250875.400   127439217.04208  24250874.940    99303285.01644
  20436298.220   107393498.75109  20436294.940    83683251.34748
  21844497.920   114793663.24309  21844494.740    89449613.61647
  22597162.560   118748920.30408  22597158.480    92531623.23647
  23251805.360   122189311.57908  23251801.860    95212545.24546
  21467304.540   112811492.82709  21467299.840    87905069.45048
  20995168.040   110330397.93809  20995167.100    85971749.46048
 15 03 05 01 04  0.0000000  0  7G04G16G18G19G21G22G27
  24232168.700   127340912.53908  24232168.160    99226684.16444
  20437527.560   107399958.69809  20437524.240    83688285.05548
  21846500.800   114804188.78209  21846497.600    89457815.34347
  22584198.980   118680796.34209  22584194.880    92478539.64147
  23265543.600   122261507.35508  23265540.220    95268801.66246
  21456610.780   112755296.27409  21456605.960    87861279.94748
  20987649.900   110290889.59609  20987648.920    85940963.74348
 15 03 05 01 04 30.0000000  0  7G04G16G18G19G21G22G27
  24213492.700   127242768.86108  24213492.000    99150208.63245
  20438861.860   107406970.30509  20438858.580    83693748.63548
  21848598.460   114815212.39909  21848595.300    89466405.18347
  22571257.200   118612786.64709  22571252.940    92425545.11747
  23279294.820   122333771.02208  23279291.380    95325110.99846
  21445998.620   112699529.05509  21445993.740    87817824.98348
  20980167.820   110251570.89609  20980166.840    85910325.79449
 15 03 05 01 05  0.0000000  0  7G04G16G18G19G21G22G27
  24194847.320   127144785.87108  24194846.680    99073858.31344
  20440300.840   107414532.11209  20440297.540    83699640.94048
  21850790.640   114826732.54009  21850787.480    89475381.92247
  22558337.080   118544890.43309  22558332.600    92372639.00947
  23293058.540   122406100.17108  23293055.060    95381471.36646
  21435468.220   112644191.76809  21435463.440    87774705.03148
  20972721.660   110212441.35009  20972720.720    85879835.23749
 15 03 05 01 05 30.0000000  0  7G04G16G18G19G21G22G27
  24176232.860   127046965.00108  24176232.120    98997634.29445
  20441844.720   107422645.37209  20441841.440    83705962.94848
  21853077.360   114838749.52709  21853074.240    89484745.81847
  22545438.780   118477108.99709  22545434.100    92319822.32047
  23306834.580   122478493.95208  23306831.100    95437882.08846
  21425020.140   112589286.94009  21425015.420    87731922.06948
  20965311.800   110173502.43809  20965310.840    85849493.23449
 15 03 05 01 06  0.0000000  0  7G04G16G18G19G21G22G27
  24157650.480   126949313.03208  24157649.760    98921541.89745
  20443494.680   107431315.89109  20443491.420    83712719.19348
  21855459.600   114851268.36609  21855456.440    89494500.76047
  22532563.340   118409448.25509  22532558.640    92267099.69347
  23320623.860   122550956.79508  23320620.540    95494346.62946
  21414655.840   112534822.26509  21414651.120    87689482.07048
  20957939.440   110134760.63009  20957938.540    85819304.81648
 15 03 05 01 06 30.0000000  0  7G04G16G18G19G21G22G27
  24139098.900   126851823.39208  24139098.260    98845576.02245
  20445249.200   107440535.99309  20445245.960    83719903.68048
  21857935.760   114864280.64909  21857932.620    89504640.20547
  22519709.480   118341901.22508  22519704.820    92214465.66347
  23334424.660   122623479.90508  23334421.260    95550858.15346
  21404374.260   112480791.90309  21404369.480    87647380.50848
  20950603.280   110096209.07709  20950602.480    85789264.64949
 15 03 05 01 07  0.0000000  0  7G04G16G18G19G21G22G27
  24120579.380   126754502.89407  24120578.820    98769741.88245
  20447109.600   107450312.38209  20447106.420    83727521.62948
  21860507.080   114877792.50409  21860503.900    89515168.92747
  22506878.380   118274474.15908  22506873.800    92161925.11348
  23348237.760   122696067.86008  23348234.300    95607420.17346
  21394176.800   112427203.65309  21394171.960    87605623.45248
  20943304.600   110057854.51509  20943303.900    85759377.97549
 15 03 05 01 07 30.0000000  0  7G04G16G18G19G21G22G27
  24102091.580   126657349.73008  24102091.060    98694038.18745
  20449075.320   107460642.16809  20449072.120    83735570.80948
  21863172.860   114891800.97009  21863169.680    89526084.63047
  22494069.740   118207164.72208  22494065.320    92109476.21747
  23362062.420   122768716.67608  23362058.900    95664029.62446
  21384063.260   112374056.43409  21384058.360    87564210.04948
  20936043.060   110019694.92009  20936042.380    85729643.24649
 15 03 05 01 08  0.0000000  0  7G04G16G18G19G21G22G27
  24083635.440   126560363.53608  24083635.080    98618464.58745
  20451146.160   107471524.53209  20451142.980    83744050.56148
  21865932.700   114906303.79309  21865929.400    89537385.53747
  22481283.380   118139972.20408  22481279.040    92057118.43448
  23375898.160   122841423.79408  23375894.660    95720684.49646
  21374033.680   112321350.87909  21374028.740    87523140.80148
  20928818.580   109981729.86609  20928817.820    85700060.08449
 15 03 05 01 08 30.0000000  0  7G04G16G18G19G21G22G27
  24065212.200   126463550.89808  24065211.980    98543026.24245
  20453323.220   107482964.98109  20453320.040    83752965.18448
  21868787.680   114921306.58309  21868784.320    89549076.02947
  22468520.480   118072902.45409  22468516.080    92004856.32047
  23389745.920   122914194.15108  23389742.420    95777388.65646
  21364089.680   112269094.58109  21364084.680    87482421.61748
  20921632.380   109943965.96209  20921631.520    85670633.65949
 15 03 05 01 09  0.0000000  0  7G04G16G18G19G21G22G27
  24046821.340   126366907.81608  24046821.360    98467719.96545
  20455605.600   107494958.67709  20455602.360    83762310.90548
  21871736.540   114936802.98109  21871733.220    89561151.14847
  22455780.140   118005951.02209  22455775.580    91952686.39947
  23403604.360   122987020.36408  23403600.860    95834136.34646
  21354230.500   112217284.12709  21354225.480    87442049.84748
  20914483.580   109906398.66009  20914482.640    85641360.44448
 15 03 05 01 09 30.0000000  0  7G04G16G18G19G21G22G27
  24028463.200   126270436.48508  24028463.320    98392547.58045
  20457993.520   107507507.13409  20457990.300    83772088.91748
  21874779.600   114952794.44609  21874776.300    89573612.04447
  22443062.560   117939119.73808  22443057.860    91900610.10147
  23417473.540   123059902.81308  23417469.940    95890927.86146
  21344456.680   112165922.44809  21344451.680    87402027.77848
  20907372.580   109869030.22309  20907371.620    85612242.19448
 15 03 05 01 10  0.0000000  0  7G04G16G18G19G21G22G27
  24010137.640   126174135.42708  24010137.520    98317507.83045
  20460486.620   107520608.13209  20460483.320    83782297.47948
  21877916.280   114969277.70309  21877912.920    89586456.15147
  22430367.380   117872406.55308  22430362.700    91848625.82947
  23431352.640   123132837.90208  23431349.180    95947760.37446
  21334768.100   112115008.95609  21334763.140    87362354.94148
  20900299.140   109831859.16909  20900298.160    85583277.75449
 15 03 05 01 10 30.0000000  0  7G04G16G18G19G21G22G27
  23991845.680   126078010.42808  23991845.440    98242605.27545
  20463085.820   107534266.54709  20463082.400    83792940.38348
  21881147.320   114986257.45809  21881143.960    89599687.12747
  22417695.680   117805817.06908  22417691.100    91796737.93447
  23445242.540   123205829.76208  23445239.160    96004637.11946
  21325166.100   112064550.29209  21325161.160    87323036.50448
  20893264.300   109794891.23409  20893263.340    85554471.55848
 15 03 05 01 11  0.0000000  0  7G04G16G18G19G21G22G27
  23973586.820   125982059.17208  23973586.520    98167838.11745
  20465790.420   107548479.14309  20465786.960    83804015.13348
  21884472.120   115003729.66009  21884468.760    89613301.84047
  22405047.020   117739348.45308  22405042.520    91744944.24447
  23459142.320   123278873.56708  23459138.820    96061554.37246
  21315650.400   112014545.09309  21315645.520    87284071.43448
  20886267.620   109758123.91909  20886266.800    85525821.70549
 15 03 05 01 11 30.0000000  0  7G04G16G18G19G21G22G27
  23955361.040   125886281.43908  23955360.640    98093206.19545
  20468600.220   107563244.95709  20468596.880    83815520.95648
  21887890.400   115021692.79309  21887887.040    89627299.08847
  22392421.340   117673000.26408  22392416.780    91693244.37747
  23473051.440   123351966.96708  23473047.900    96118510.25146
  21306221.100   111964993.93609  21306216.160    87245460.16248
  20879309.100   109721557.04909  20879308.440    85497328.04749
 15 03 05 01 12  0.0000000  0  7G04G16G18G19G21G22G27
  23937169.260   125790682.88808  23937168.660    98018713.86145
  20471516.100   107578568.49309  20471512.840    83827461.37048
  21891402.720   115040150.44509  21891399.440    89641681.68347
  22379819.500   117606777.40808  22379814.960    91641642.16648
  23486970.680   123425113.57608  23486967.180    96175507.57545
  21296879.420   111915903.08709  21296874.420    87207207.57548
  20872389.780   109685196.03209  20872389.200    85468994.79349
 15 03 05 01 12 30.0000000  0  7G04G16G18G19G21G22G27
  23919011.480   125695263.09708  23919010.740    97944360.83045
  20474537.900   107594448.64309  20474534.680    83839835.49848
  21895008.900   115059101.36709  21895005.700    89656448.63747
  22367241.400   117540679.37009  22367236.940    91590137.22447
  23500899.700   123498311.19408  23500896.140    96232544.66745
  21287625.460   111867273.07609  21287620.400    87169314.08048
  20865509.620   109649040.71309  20865509.060    85440821.82749
 15 03 05 01 13  0.0000000  0  7G04G16G18G19G21G22G27
  23900887.220   125600019.22608  23900886.280    97870144.88045
  20477664.920   107610881.32309  20477661.700    83852640.17248
  21898708.100   115078540.77609  21898704.920    89671596.23447
  22354686.400   117474702.54409  22354682.020    91538726.72747
  23514837.460   123571554.48608  23514833.760    96289617.36645
  21278458.700   111819101.52709  21278453.700    87131777.82648
  20858668.060   109613087.85709  20858667.400    85412806.62348
 15 03 05 01 13 30.0000000  0  7G04G16G18G19G21G22G27
  23882797.260   125504955.86008  23882796.280    97796069.59545
  20480897.840   107627870.31709  20480894.640    83865878.34048
  21902500.840   115098471.64609  21902497.620    89687126.78547
  22342155.420   117408851.50009  22342151.080    91487414.25147
  23528784.440   123644846.07408  23528780.720    96346727.67046
  21269380.140   111771393.79009  21269375.260    87094602.97448
  20851865.920   109577342.23309  20851865.160    85384952.89249
 15 03 05 01 14  0.0000000  0  7G04G16G18G19G21G22G27
  23864741.860   125410074.17108  23864740.900    97722135.88045
  20484236.740   107645416.01309  20484233.540    83879550.29948
  21906387.120   115118893.49709  21906383.700    89703039.91947
  22329648.520   117343126.93408  22329644.180    91436200.32548
  23542740.420   123718185.01008  23542736.700    96403874.88945
  21260390.200   111724151.84309  21260385.420    87057791.08048
  20845103.400   109541804.87209  20845102.580    85357261.44848
 15 03 05 01 14 30.0000000  0  7G04G16G18G19G21G22G27
  23846720.980   125315373.84508  23846719.860    97648343.46445
  20487681.300   107663517.25309  20487678.080    83893655.16248
  21910366.440   115139804.57609  21910362.960    89719334.27547
  22317165.520   117277528.11409  22317161.160    91385084.38748
  23556705.000   123791569.11008  23556701.200    96461057.30746
  21251489.140   111677376.52009  21251484.340    87021342.79548
  20838380.480   109506475.73609  20838379.660    85329732.25949
 15 03 05 01 15  0.0000000  0  7G04G16G18G19G21G22G27
  23828734.840   125220856.83208  23828733.780    97574693.93045
  20491231.540   107682174.03709  20491228.340    83908192.90148
  21914438.800   115161205.38709  21914435.420    89736010.22747
  22304706.760   117212056.82809  22304702.440    91334067.82348
  23570678.120   123864997.97308  23570674.340    96518274.58646
  21242677.260   111631069.89409  21242672.360    86985259.72248
  20831697.480   109471356.38609  20831696.700    85302366.51849
 15 03 05 01 15 30.0000000  0  7G04G16G18G19G21G22G27
  23810783.560   125126522.89108  23810782.540    97501187.01745
  20494887.460   107701386.01109  20494884.260    83923163.25848
  21918603.920   115183093.64809  21918600.620    89753066.01947
  22292272.200   117146712.59809  22292267.920    91283150.26448
  23584659.380   123938469.72508  23584655.640    96575525.27546
  21233954.640   111585232.30309  21233949.620    86949542.13148
  20825054.460   109436446.90209  20825053.740    85275164.31849
 15 03 05 01 16  0.0000000  0  7G04G16G18G19G21G22G27
  23792867.320   125032373.17908  23792866.540    97427823.68045
  20498649.060   107721153.29709  20498645.880    83938566.32448
  21922861.820   115205469.28409  21922858.560    89770501.58647
  22279861.960   117081496.09909  22279857.660    91232332.23048
  23598648.620   124011983.49608  23598644.880    96632808.70846
  21225321.720   111539866.14709  21225316.720    86914191.89248
  20818451.640   109401748.36809  20818450.880    85248126.49549
 15 03 05 01 16 30.0000000  0  7G04G16G18G19G21G22G27
  23774986.620   124938408.86808  23774985.820    97354604.78745
  20502516.420   107741475.93009  20502513.180    83954402.13048
  21927212.360   115228331.57809  21927209.100    89788316.37147
  22267476.140   117016408.12409  22267471.820    91181614.35748
  23612645.640   124085538.08308  23612641.920    96690123.96546
  21216778.860   111494973.18309  21216773.940    86879210.38248
  20811889.180   109367261.94809  20811888.320    85221253.96349
 15 03 05 01 17  0.0000000  0  7G04G16G18G19G21G22G27
  23757141.360   124844630.35308  23757140.360    97281530.68645
  20506489.380   107762353.28509  20506485.980    83970670.18648
  21931655.360   115251679.76909  21931652.120    89806509.76947
  22255114.800   116951448.99809  22255110.480    91130996.87748
  23626650.220   124159132.36908  23626646.600    96747470.13346
  21208326.200   111450554.08909  21208321.300    86844598.11548
  20805367.160   109332988.23109  20805366.200    85194547.16849
 15 03 05 01 17 30.0000000  0  7G04G16G18G19G21G22G27
  23739331.840   124751039.38808  23739330.360    97208602.71645
  20510567.920   107783785.56609  20510564.420    83987370.65748
  21936190.800   115275513.65409  21936187.660    89825081.62947
  22242778.180   116886620.11409  22242773.980    91080480.89048
  23640662.200   124232765.73408  23640658.660    96804846.76146
  21199964.260   111406611.44009  21199959.220    86810357.10748
  20798885.900   109298928.75609  20798884.900    85168007.32249
 15 03 05 01 18  0.0000000  0  7G04G16G18G19G21G22G27
  23721558.100   124657637.48008  23721556.460    97135822.07345
  20514752.060   107805773.28109  20514748.480    84004503.92648
  21940818.640   115299832.94709  21940815.500    89844031.73147
  22230466.660   116821922.65009  22230462.440    91030067.29648
  23654681.560   124306438.15808  23654678.080    96862253.81346
  21191693.380   111363147.54609  21191688.300    86776489.15448
  20792445.800   109265085.47909  20792444.760    85141635.94149
 15 03 05 01 18 30.0000000  0  7G04G16G18G19G21G22G27
  23703819.720   124564421.98008  23703818.100    97063186.67145
  20519041.120   107828312.63509  20519037.540    84022067.05148
  21945537.920   115324632.99909  21945534.800    89863356.44147
  22218179.600   116757353.50909  22218175.220    90979753.69648
  23668707.380   124380144.73908  23668704.000    96919687.48246
  21183513.200   111320160.07109  21183508.080    86742992.42848
  20786046.220   109231455.47009  20786045.240    85115430.73749
 15 03 05 01 19  0.0000000  0  7G04G16G18G19G21G22G27
  23686118.100   124471400.12708  23686116.620    96990702.18245
  20523436.500   107851410.47909  20523432.900    84040065.35948
  21950349.840   115349919.89309  21950346.640    89883060.52147
  22205918.360   116692920.18709  22205913.900    90929545.93848
  23682740.760   124453890.82208  23682737.440    96977151.94046
  21175425.300   111277657.37909  21175420.060    86709873.45548
  20779688.600   109198046.30109  20779687.720    85089397.61849
 15 03 05 01 19 30.0000000  0  8G04G07G16G18G19G21G22G27
  23668452.700   124378568.14708  23668451.300    96918365.60845
  24525407.920   128881887.33408  24525407.460   100427443.65645
  20527937.040   107875060.95509  20527933.400    84058494.28548
  21955253.260   115375687.97009  21955250.100    89903139.53547
  22193682.080   116628618.30409  22193677.580    90879440.59748
  23696780.600   124527670.90508  23696777.440    97034642.87746
  21167428.960   111235636.05009  21167423.680    86677129.57748
  20773372.280   109164854.16209  20773371.460    85063533.61049
 15 03 05 01 20  0.0000000  0  8G04G07G16G18G19G21G22G27
  23650825.600   124285937.32108  23650824.380    96846185.82245
  24522227.640   128865174.26708  24522227.160   100414420.49345
  20532544.780   107899274.83409  20532541.200    84077362.23548
  21960250.140   115401946.59709  21960246.860    89923600.81147
  22181472.820   116564458.89309  22181468.360    90829446.27748
  23710828.620   124601494.02108  23710825.460    97092167.37346
  21159526.420   111194107.74309  21159521.100    86644769.87048
  20767099.380   109131890.30209  20767098.600    85037847.48949
 15 03 05 01 20 30.0000000  0  8G04G07G16G18G19G21G22G27
  23633232.840   124193486.92208  23633231.740    96774146.62045
  24519144.700   128848972.29608  24519143.900   100401795.56245
  20537255.420   107924029.65609  20537251.940    84096651.69648
  21965336.220   115428673.85409  21965332.840    89944427.25647
  22169286.700   116500421.30108  22169282.320    90779546.87948
  23724880.640   124675337.83508  23724877.340    97149707.99345
  21151713.800   111153052.26109  21151708.480    86612778.61148
  20760866.060   109099134.51209  20760865.340    85012323.49549
 15 03 05 01 21  0.0000000  0  8G04G07G16G18G19G21G22G27
  23615677.000   124101230.43408  23615675.920    96702258.49445
  24516161.520   128833294.00308  24516159.800   100389578.69445
  20542071.440   107949338.20109  20542068.040    84116372.62648
  21970513.500   115455880.73409  21970510.140    89965627.42647
  22157126.340   116436518.66709  22157122.080    90729752.63948
  23738938.820   124749213.88008  23738935.600    97207273.70746
  21143993.900   111112483.88909  21143988.480    86581166.91148
  20754674.960   109066600.14609  20754674.220    84986972.03749
 15 03 05 01 21 30.0000000  0  8G04G07G16G18G19G21G22G27
  23598158.200   124009169.06708  23598157.220    96630522.43645
  24513278.000   128818139.78908  24513275.460   100377770.19345
  20546992.840   107975200.52709  20546989.480    84136525.07148
  21975782.080   115483567.42709  21975778.720    89987201.48047
  22144992.020   116372752.21909  22144987.820    90680064.53148
  23753003.120   124823121.74208  23752999.660    97264864.24945
  21136367.040   111072404.24909  21136361.500    86549936.04148
  20748526.300   109034288.67309  20748525.560    84961794.27049
 15 03 05 01 22  0.0000000  0  8G04G07G16G18G19G21G22G27
  23580676.580   123917303.57208  23580675.840    96558938.98146
  24510493.960   128803509.49408  24510491.280   100366369.94745
  20552019.500   108001615.90109  20552016.160    84157108.46748
  21981141.700   115511732.54609  21981138.300    90009148.32947
  22132883.680   116309122.39809  22132879.500    90630482.87048
  23767073.280   124897060.19908  23767069.720    97322478.59446
  21128833.320   111032814.65309  21128827.880    86519087.01048
  20742420.200   109002200.95109  20742419.500    84936790.83949
 15 03 05 01 22 30.0000000  0  8G04G07G16G18G19G21G22G27
  23563232.900   123825638.28608  23563232.280    96487511.54045
  24507810.200   128789406.47407  24507807.800   100355380.54245
  20557151.980   108028587.26309  20557148.660    84178125.09248
  21986592.880   115540378.56409  21986589.480    90031469.90947
  22120802.040   116245633.27709  22120797.860    90581010.84248
  23781149.680   124971031.64408  23781145.960    97380118.69046
  21121393.780   110993720.14309  21121388.480    86488623.77548
  20736357.560   108970341.44409  20736356.860    84911965.25649
 15 03 05 01 23  0.0000000  0  8G04G07G16G18G19G21G22G27
  23545826.360   123734168.50808  23545826.000    96416236.45845
  24505225.620   128775824.83007  24505223.240   100344797.45745
  20562389.180   108056108.77509  20562385.800    84199570.41448
  21992134.320   115569498.88109  21992131.020    90054161.06747
  22108746.240   116182280.02009  22108741.980    90531644.69248
  23795231.040   125045029.57808  23795227.400    97437779.38645
  21114047.600   110955116.27409  21114042.420    86458542.85748
  20730337.460   108938705.57909  20730336.760    84887313.92449
 15 03 05 01 23 30.0000000  0  8G04G07G16G18G19G21G22G27
  23528457.500   123642895.94108  23528457.380    96345115.03246
  24502740.480   128762765.43108  24502738.020   100334621.25745
  20567731.160   108084180.93009  20567727.720    84221444.80648
  21997766.000   115599093.83209  21997762.760    90077222.07047
  22096716.660   116119064.19509  22096712.240    90482385.62248
  23809317.380   125119054.02508  23809313.660    97495460.76445
  21106795.260   110917005.51409  21106790.200    86428846.17948
  20724360.240   108907295.26509  20724359.640    84862838.34749
 15 03 05 01 24  0.0000000  0  8G04G07G16G18G19G21G22G27
  23511126.220   123551819.85708  23511126.060    96274146.69845
  24500354.560   128750226.68008  24500351.980   100324850.80145
  20573177.460   108112801.51609  20573174.040    84243746.54348
  22003487.500   115629160.61809  22003484.300    90100650.72247
  22084713.300   116055985.44209  22084708.660    90433233.36648
  23823408.280   125193102.57008  23823404.660    97553160.89945
  21099636.680   110879387.48709  21099631.760    86399533.44848
  20718425.900   108876110.17709  20718425.360    84838538.27449
 15 03 05 01 24 30.0000000  0  8G04G07G16G18G19G21G22G27
  23493833.780   123460947.10908  23493833.420    96203336.80846
  24498068.780   128738214.21808  24498066.240   100315490.43345
  20578729.040   108141975.40509  20578725.640    84266479.42748
  22009299.720   115659704.18209  22009296.420    90124450.90447
  22072737.220   115993049.90809  22072732.480    90384192.70848
  23837504.680   125267179.87808  23837501.080    97610883.46345
  21092573.300   110842269.47409  21092568.440    86370610.33548
  20712535.720   108845157.03009  20712535.180    84814418.92049
 15 03 05 01 25  0.0000000  0  8G04G07G16G18G19G21G22G27
  23476579.060   123370272.38608  23476578.360    96132681.22145
  24495881.840   128726721.39708  24495879.520   100306534.95645
  20584384.940   108171697.34209  20584381.580    84289639.36648
  22015201.380   115690717.33309  22015198.080    90148617.00047
  22060787.220   115930251.99509  22060782.520    90335259.28248
  23851605.240   125341278.82308  23851601.700    97668622.88445
  21085604.100   110805646.31709  21085599.280    86342072.82948
  20706688.720   108814430.62209  20706688.160    84790476.26149
 15 03 05 01 25 30.0000000  0  8G04G07G16G18G19G21G22G27
  23459363.080   123279801.44108  23459362.220    96062184.43346
  24493794.740   128715753.24508  24493792.280   100297988.31145
  20590145.940   108201971.43309  20590142.560    84313229.56148
  22021193.180   115722204.09209  22021189.780    90173152.13747
  22048864.560   115867598.06709  22048859.960    90286438.05448
  23865710.720   125415403.87808  23865707.280    97726382.64545
  21078730.360   110769524.62009  21078725.580    86313926.07048
  20700886.180   108783937.33309  20700885.520    84766715.27549
 15 03 05 01 26  0.0000000  0  8G04G07G16G18G19G21G22G27
  23442184.960   123189529.71908  23442183.960    95991842.88345
  24491806.360   128705304.38707  24491803.400   100289846.30945
  20596010.860   108232791.59309  20596007.480    84337245.25148
  22027273.880   115754158.27309  22027270.540    90198051.49947
  22036968.320   115805083.23509  22036963.780    90237725.21248
  23879819.980   125489548.70008  23879816.720    97784157.80346
  21071951.260   110733900.16109  21071946.460    86286166.76848
  20695127.140   108753672.79509  20695126.420    84743132.51649
 15 03 05 01 26 30.0000000  0  8G04G07G16G18G19G21G22G27
  23425045.780   123099462.74908  23425044.640    95921660.88245
  24489917.440   128695378.78708  24489914.380   100282112.05245
  20601980.380   108264161.63509  20601977.020    84361689.43248
  22033444.160   115786583.44509  22033440.840    90223317.87247
  22025099.600   115742712.98709  22025095.140    90189125.03848
  23893933.700   125563716.86308  23893930.600    97841951.15946
  21065267.860   110698778.86209  21065263.040    86258799.54248
  20689412.580   108723642.59309  20689411.860    84719732.35249
 15 03 05 01 27  0.0000000  0  8G04G07G16G18G19G21G22G27
  23407945.040   123009598.27908  23407943.860    95851636.66146
  24488127.420   128685973.54007  24488124.420   100274783.31545
  20608053.820   108296077.70709  20608050.520    84386559.08648
  22039703.320   115819475.45309  22039699.980    90248948.00647
  22013257.960   115680484.77309  22013253.480    90140635.53248
  23908051.160   125637904.21608  23908048.020    97899759.46446
  21058679.840   110664158.77809  21058675.000    86231822.86448
  20683742.220   108693844.67909  20683741.500    84696513.19249
 15 03 05 01 27 30.0000000  0  8G04G07G16G18G19G21G22G27
  23390883.700   122919941.02908  23390882.700    95781773.92946
  24486437.180   128677091.70508  24486434.840   100267862.35445
  20614231.900   108328543.58409  20614228.660    84411857.16048
  22046051.740   115852836.65409  22046048.380    90274943.75247
  22001444.280   115618403.47809  22001439.760    90092260.51048
  23922172.960   125712113.88008  23922169.660    97957585.16246
  21052188.220   110630045.16109  21052183.380    86205240.84348
  20678117.040   108664284.11909  20678116.320    84673478.98849
 15 03 05 01 28  0.0000000  0  8G04G07G16G18G19G21G22G27
  23373860.720   122830485.27508  23373859.860    95712068.21145
  24484845.460   128668726.64708  24484843.700   100261344.12145
  20620513.220   108361552.16209  20620510.020    84437578.11348
  22052488.080   115886659.87009  22052484.660    90301299.50947
  21989657.420   115556463.31109  21989652.960    90043995.46048
  23936297.580   125786338.93908  23936294.220    98015422.85246
  21045791.960   110596432.65609  21045787.120    86179049.30348
  20672535.980   108634955.39609  20672535.200    84650625.43949
 15 03 05 01 28 30.0000000  0  8G04G07G16G18G19G21G22G27
  23356877.560   122741238.23208  23356876.700    95642525.09545
  24483353.420   128660884.51608  24483351.820   100255233.32845
  20626898.900   108395109.24709  20626895.740    84463726.47948
  22059013.300   115920950.42909  22059009.960    90328019.42747
  21977898.780   115494671.53509  21977894.400    89995846.02948
  23950426.060   125860584.60708  23950422.760    98073276.60145
  21039492.540   110563328.92309  21039487.660    86153254.19848
  20667000.480   108605866.19709  20666999.600    84627958.53749
 15 03 05 01 29  0.0000000  0  8G04G07G16G18G19G21G22G27
  23339934.080   122652199.22108  23339933.060    95573144.09345
  24481960.320   128653563.29508  24481958.220   100249528.48945
  20633388.520   108429212.35109  20633385.360    84490300.31648
  22065626.920   115955705.51309  22065623.620    90355101.31647
  21966168.280   115433027.53309  21966163.900    89947811.75848
  23964557.840   125934847.98008  23964554.640    98131144.16245
  21033289.820   110530733.44609  21033284.900    86127855.15248
  20661510.420   108577015.93609  20661509.520    84605477.81549
 15 03 05 01 29 30.0000000  0  8G04G07G16G18G19G21G22G27
  23323030.020   122563367.16808  23323028.800    95503924.36146
  24480665.620   128646760.73007  24480663.320   100244227.75745
  20639981.620   108463859.10009  20639978.500    84517297.76248
  22072328.400   115990922.27009  22072325.160    90382542.94347
  21954465.700   115371530.00009  21954461.220    89899891.61448
  23978692.580   126009127.06308  23978689.440    98189023.94145
  21027183.660   110498645.40609  21027178.720    86102851.49348
  20656065.700   108548403.80009  20656064.780    84583182.63349
 15 03 05 01 30  0.0000000  0  8G04G07G16G18G19G21G22G27
  23306165.660   122474743.28408  23306164.180    95434866.82145
  24479469.640   128640476.69908  24479467.300   100239331.08044
  20646678.120   108499049.36909  20646674.960    84544718.73448
  22079117.680   116026599.97209  22079114.360    90410343.75647
  21942791.340   115310180.40109  21942786.720    89852086.74648
  23992830.220   126083421.21208  23992827.060    98246915.46745
  21021174.360   110467066.37609  21021169.400    86078244.46548
  20650666.620   108520031.44809  20650665.760    84561074.30349
 15 03 05 01 30 30.0000000  0  8G04G07G16G18G19G21G22G27
  23289340.600   122386326.27708  23289339.160    95365970.50345
  24478372.180   128634708.92708  24478369.860   100234836.69145
  20653477.420   108534780.18109  20653474.320    84572560.90948
  22085994.080   116062735.40609  22085990.780    90438501.23547
  21931144.840   115248977.52509  21931140.200    89804396.20248
  24006970.340   126157727.89008  24006967.340    98304816.75345
  21015261.860   110435995.41709  21015256.820    86054033.34648
  20645313.000   108491897.88009  20645312.160    84539152.05149
 15 03 05 01 31  0.0000000  0  8G04G07G16G18G19G21G22G27
  23272555.800   122298121.54708  23272554.420    95297239.59246
  24477373.740   128629461.51108  24477371.860   100230747.77245
  20660380.240   108571055.09709  20660377.240    84600827.05748
  22092958.160   116099331.95709  22092954.840    90467018.02647
  21919527.240   115187926.55909  21919522.560    89756824.03348
  24021113.500   126232050.46108  24021110.480    98362730.43545
  21009447.180   110405438.24709  21009442.000    86030222.57948
  20640005.920   108464008.75509  20640005.000    84517420.27349
 15 03 05 01 31 30.0000000  0  8G04G07G16G18G19G21G22G27
  23255811.140   122210128.11208  23255810.100    95228673.32446
  24476473.700   128624732.01608  24476472.280   100227062.46945
  20667386.300   108607872.30609  20667383.320    84629515.77948
  22100009.520   116136386.76509  22100006.160    90495891.90447
  21907938.360   115127026.82309  21907933.660    89709369.71448
  24035259.240   126306386.63408  24035256.020    98420654.72645
  21003730.060   110375394.35809  21003724.800    86006811.77348
  20634745.220   108436363.52709  20634744.280    84495878.54149
 15 03 05 01 32  0.0000000  0  8G04G07G16G18G19G21G22G27
  23239106.720   122122346.27308  23239105.920    95160271.92446
  24475672.200   128620519.88408  24475670.940   100223780.28745
  20674495.340   108645230.34009  20674492.300    84658625.90948
  22107147.780   116173898.08009  22107144.420    90525121.49747
  21896378.320   115066278.63109  21896373.700    89662033.47548
  24049407.260   126380734.77608  24049403.980    98478588.34145
  20998110.620   110345864.02009  20998105.360    85983801.12848
  20629530.980   108408962.84509  20629530.120    84474527.35649
 15 03 05 01 32 30.0000000  0  8G04G07G16G18G19G21G22G27
  23222442.260   122034774.28608  23222441.540    95092034.04746
  24474968.760   128616821.89508  24474967.080   100220898.69745
  20681706.640   108683125.39409  20681703.420    84688154.50648
  22114372.120   116211862.08809  22114368.700    90554703.83447
  21884846.800   115005680.36909  21884842.280    89614814.05648
  24063556.980   126455091.83107  24063553.820    98536528.85645
  20992588.620   110316845.93509  20992583.400    85961189.64348
  20624362.940   108381805.17409  20624362.160    84453365.53649
 15 03 05 01 33  0.0000000  0  8G04G07G16G18G19G21G22G27
  23205818.660   121947416.74108  23205817.960    95023963.29446
  24474363.800   128613640.89808  24474361.300   100218419.96045
  20689020.820   108721560.92609  20689017.360    84718104.25948
  22121683.080   116250281.49509  22121679.700    90584641.04147
  21873344.720   114945236.61909  21873340.220    89567715.03648
  24077708.920   126529460.76107  24077705.780    98594478.65245
  20987164.960   110288344.69609  20987159.820    85938980.89148
  20619242.100   108354895.48209  20619241.380    84432396.95049
 15 03 05 01 33 30.0000000  0  8G04G07G16G18G19G21G22G27
  23189236.000   121860274.91908  23189235.280    94956060.60846
  24473856.800   128610977.09707  24473854.000   100216344.25245
  20696437.780   108760536.36309  20696434.060    84748474.71548
  22129080.640   116289155.81909  22129077.280    90614932.71647
  21861872.380   114884948.81109  21861867.740    89520737.52948
  24091863.100   126603841.67107  24091860.020    98652437.78445
  20981840.040   110260361.84509  20981834.860    85917176.08548
  20614168.860   108328235.55709  20614168.140    84411622.98049
 15 03 05 01 34  0.0000000  0  8G04G07G16G18G19G21G22G27
  23172695.020   121773352.61708  23172694.300    94888329.01246
  24473448.160   128608832.70607  24473446.180   100214673.30345
  20703957.880   108800054.08509  20703954.080    84779267.73748
  22136564.980   116328486.42309  22136561.660    90645579.94647
  21850430.400   114824820.56609  21850425.640    89473884.36648
  24106019.940   126678236.31007  24106017.000    98710407.59745
  20976614.400   110232901.01009  20976609.220    85895778.04248
  20609143.980   108301829.27009  20609143.180    84391046.65049
 15 03 05 01 34 30.0000000  0  8G04G07G16G18G19G21G22G27
  23156194.220   121686640.98508  23156193.460    94820761.53146
  24473136.820   128607198.06707  24473135.360   100213399.54546
  20711579.060   108840103.46709  20711575.280    84810475.02948
  22144134.040   116368262.46409  22144130.820    90676574.25547
  21839017.220   114764843.79009  21839012.340    89427149.21848
  24120177.420   126752634.25408  24120174.540    98768379.99045
  20971486.560   110205954.27909  20971481.400    85874780.59548
  20604165.820   108275668.38109  20604164.940    84370661.53649
 15 03 05 01 35  0.0000000  0  8G04G07G16G18G19G21G22G27
  23139734.300   121600143.60308  23139733.420    94753361.00646
  24472923.100   128606074.78507  24472921.620   100212524.23645
  20719301.720   108880686.48209  20719297.940    84842098.15448
  22151788.200   116408485.61209  22151785.000    90707916.96847
  21827633.460   114705021.64109  21827628.580    89380534.57548
  24134336.000   126827037.86808  24134333.100    98826356.80245
  20966457.240   110179525.26609  20966452.060    85854186.57848
  20599235.080   108249756.78709  20599234.080    84350470.68949
 15 03 05 01 35 30.0000000  0  8G04G07G16G18G19G21G22G27
  23123315.380   121513861.86708  23123314.380    94686128.49946
  24472806.840   128605463.28008  24472804.600   100212047.69644
  20727125.820   108921802.99409  20727122.140    84874136.98048
  22159527.340   116449155.19109  22159524.140    90739607.55347
  21816279.460   114645356.08409  21816274.720    89334041.94548
  24148495.720   126901447.23108  24148492.700    98884338.11345
  20961526.680   110153615.29209  20961521.480    85833997.00048
  20594352.160   108224096.34609  20594351.080    84330475.55349
 15 03 05 01 36  0.0000000  0  8G04G07G16G18G19G21G22G27
  23106938.580   121427801.48008  23106937.560    94619068.50046
  24472788.680   128605367.77507  24472785.620   100211973.26245
  20735052.100   108963456.85109  20735048.660    84906594.50848
  22167352.160   116490274.98909  22167348.900    90771648.95047
  21804956.280   114585852.66109  21804951.660    89287675.65748
  24162657.220   126975866.30308  24162654.100    98942326.96845
  20956696.060   110128230.16309  20956690.840    85814216.38448
  20589518.140   108198693.16809  20589517.040    84310680.86949
 15 03 05 01 36 30.0000000  0  8G04G07G16G18G19G21G22G27
  23090602.640   121341955.72808  23090601.600    94552175.74946
  24472866.900   128605779.76507  24472864.040   100212294.28345
  20743079.060   109005639.82509  20743075.860    84939464.34648
  22175261.000   116531836.43709  22175257.860    90804034.48747
  21793662.720   114526505.03009  21793658.180    89241430.77348
  24176819.020   127050286.79608  24176815.820    99000316.95646
  20951964.080   110103363.41909  20951958.880    85794839.71348
  20584731.840   108173540.99509  20584730.780    84291081.77149
 15 03 05 01 37  0.0000000  0  8G04G07G16G18G19G21G22G27
  23074308.260   121256327.98108  23074307.040    94485452.86646
  24473042.260   128606701.45808  24473040.380   100213012.47945
  20751206.960   109048353.22608  20751204.020    84972747.49548
  22183254.020   116573840.07509  22183250.840    90836764.60747
  21782399.420   114467316.46809  21782394.960    89195309.82848
  24190981.600   127124711.13908  24190978.320    99058309.92046
  20947331.400   110079018.29009  20947326.200    85775869.49348
  20579994.020   108148643.49609  20579992.940    84271681.12249
 15 03 05 01 37 30.0000000  0  8G04G07G16G18G19G21G22G27
  23058055.820   121170920.67708  23058054.480    94418901.75546
  24473315.080   128608133.59708  24473314.060   100214128.46745
  20759435.960   109091597.94009  20759433.280    85006444.65648
  22191331.360   116616286.88809  22191328.200    90869840.04047
  21771167.080   114408290.05409  21771162.580    89149315.23648
  24205145.080   127199140.15808  24205141.720    99116306.53245
  20942798.420   110055197.40909  20942793.280    85757307.78748
  20575305.160   108124003.58109  20575304.100    84252481.18449
 15 03 05 01 38  0.0000000  0  8G04G07G16G18G19G21G22G27
  23041845.860   121085736.74108  23041844.640    94352524.69946
  24473685.500   128610078.13408  24473684.420   100215643.65945
  20767766.400   109135375.30009  20767763.940    85040556.85448
  22199493.100   116659177.54908  22199490.000    90903261.32847
  21759966.200   114349428.84309  21759961.700    89103449.36048
  24219309.540   127273574.69808  24219305.980    99174307.45845
  20938365.780   110031903.94709  20938360.700    85739157.04248
  20570666.000   108099624.69609  20570664.960    84233484.64249
 15 03 05 01 38 30.0000000  0  9G04G07G11G16G18G19G21G22G27
  23025676.040   121000763.59608  23025674.780    94286311.88346
  24474150.460   128612520.32207  24474148.560   100217546.62445
  24682865.980   129709342.44707  24682865.200   101072220.99744
  20776195.500   109179670.42209  20776193.200    85075072.50948
  22207736.500   116702497.23209  22207733.420    90937016.92547
  21748794.360   114290720.38109  21748789.820    89057702.51848
  24233472.540   127348001.63407  24233469.000    99232302.45045
  20934031.080   110009125.38609  20934026.040    85721407.53048
  20566074.160   108075494.53209  20566073.120    84214681.91349
 15 03 05 01 39  0.0000000  0  9G04G07G11G16G18G19G21G22G27
  23009551.000   120916026.20608  23009549.800    94220282.78846
  24474714.380   128615484.02308  24474711.500   100219855.99945
  24665380.120   129617452.99707  24665380.000   101000618.92045
  20784727.820   109224507.51709  20784725.420    85110010.49348
  22216066.140   116746269.21509  22216062.940    90971124.97547
  21737656.340   114232189.98009  21737651.800    89012094.42748
  24247638.480   127422444.29107  24247635.020    99290309.69945
  20929799.140   109986886.58009  20929794.080    85704078.60148
  20561534.560   108051638.77309  20561533.480    84196093.01249
 15 03 05 01 39 30.0000000  0  9G04G07G11G16G18G19G21G22G27
  22993467.360   120831506.56808  22993466.300    94154423.37046
  24475373.560   128618949.35108  24475370.740   100222556.25345
  24647908.640   129525638.65408  24647908.380   100929075.33244
  20793359.500   109269866.21909  20793356.900    85145354.91548
  22224477.920   116790473.18609  22224474.660    91005569.62347
  21726548.820   114173819.56309  21726544.240    88966610.99648
  24261803.560   127496882.96607  24261800.160    99348313.83945
  20925666.560   109965169.67309  20925661.460    85687156.34248
  20557043.800   108028039.69409  20557042.720    84177704.12149
 15 03 05 01 40  0.0000000  0  9G04G07G11G16G18G19G21G22G27
  22977426.260   120747210.49408  22977425.260    94088738.15646
  24476129.180   128622920.67107  24476126.940   100225650.76146
  24630452.360   129433904.41107  24630452.180   100857594.14945
  20802091.240   109315750.52209  20802088.420    85181108.91348
  22232972.640   116835112.70809  22232969.300    91040353.67047
  21715473.080   114115615.69409  21715468.320    88921257.35648
  24275968.780   127571322.48507  24275965.520    99406318.62445
  20921634.400   109943980.39309  20921629.260    85670645.22748
  20552603.040   108004703.67109  20552602.020    84159520.21149
 15 03 05 01 40 30.0000000  0  9G04G07G11G16G18G19G21G22G27
  22961427.460   120663136.76808  22961426.540    94023226.19946
  24476980.660   128627395.49408  24476979.020   100229137.57545
  24613011.020   129342249.13807  24613010.560   100786174.50544
  20810922.460   109362157.43509  20810919.360    85217270.12848
  22241549.700   116880184.77409  22241546.200    91075474.76347
  21704428.820   114057577.17709  21704423.920    88876032.54248
  24290133.640   127645760.31207  24290130.520    99464322.08345
  20917702.360   109923317.08409  20917697.120    85654543.94948
  20548212.180   107981629.91909  20548211.240    84141540.66849
 15 03 05 01 41  0.0000000  0  9G04G07G11G16G18G19G21G22G27
  22945471.400   120579287.35408  22945470.440    93957889.01846
  24477928.060   128632373.89108  24477926.600   100233016.84945
  24595584.580   129250674.61707  24595584.200   100714817.87644
  20819853.140   109409087.05409  20819849.760    85253838.64448
  22250209.060   116925689.32409  22250205.460    91110932.85647
  21693416.360   113999706.15909  21693411.440    88830938.26148
  24304298.340   127720196.61607  24304295.220    99522324.41344
  20913871.000   109903182.82809  20913865.640    85638854.93548
  20543871.740   107958820.95509  20543870.900    84123767.45449
 15 03 05 01 41 30.0000000  0  9G04G07G11G16G18G19G21G22G27
  22929557.760   120495660.58008  22929556.760    93892725.33546
  24478970.620   128637852.63608  24478969.100   100237286.00346
  24578173.280   129159179.20207  24578172.480   100643522.76444
  20828882.500   109456535.72009  20828878.880    85290811.61448
  22258949.780   116971622.17809  22258946.240    91146724.69447
  21682435.400   113942001.49009  21682430.620    88785973.58848
  24318462.420   127794629.02208  24318459.360    99580323.67745
  20910139.780   109883575.20009  20910134.420    85623576.27848
  20539581.460   107936275.63609  20539580.740    84106199.67349
 15 03 05 01 42  0.0000000  0  9G04G07G11G16G18G19G21G22G27
  22913687.340   120412260.53208  22913686.220    93827738.31546
  24480108.780   128643833.98608  24480107.520   100241946.78346
  24560777.720   129067765.92107  24560776.820   100572291.66044
  20838010.920   109504505.76509  20838007.240    85328190.86048
  22267772.300   117017985.12309  22267768.780    91182851.67247
  21671486.860   113884467.10509  21671482.180    88741141.61648
  24332626.160   127869059.75208  24332623.260    99638321.63645
  20906509.440   109864497.93709  20906504.160    85608710.88448
  20535342.140   107913998.17709  20535341.520    84088840.60849
 15 03 05 01 42 30.0000000  0  9G04G07G11G16G18G19G21G22G27
  22897859.600   120329084.30308  22897858.260    93762925.70046
  24481341.940   128650313.69708  24481340.460   100246995.88845
  24543397.540   128976432.61407  24543396.700   100501122.92345
  20847237.640   109552992.72909  20847233.900    85365972.88948
  22276675.780   117064773.54409  22276672.360    91219310.17247
  21660570.380   113827101.09009  21660565.780    88696440.83648
  24346788.880   127943484.82308  24346785.940    99696315.15845
  20902979.620   109845948.77809  20902974.360    85594257.00048
  20531153.480   107891986.68609  20531152.900    84071688.78049
 15 03 05 01 43  0.0000000  0  9G04G07G11G16G18G19G21G22G27
  22882075.340   120246137.11008  22882073.920    93698291.55846
  24482670.800   128657295.16908  24482668.700   100252435.97445
  24526033.440   128885183.93607  24526032.480   100430020.16244
  20856563.200   109601999.68409  20856559.600    85404160.11148
  22285660.780   117111990.19509  22285657.400    91256102.37647
  21649686.920   113769908.22509  21649682.320    88651874.99148
  24360951.240   128017908.08008  24360948.220    99754307.29345
  20899551.200   109827932.36709  20899545.900    85580218.25348
  20527016.520   107870246.56209  20527015.860    84054748.41449
 15 03 05 01 43 30.0000000  0  9G04G07G11G16G18G19G21G22G27
  22866333.980   120163416.02808  22866332.500    93633833.60946
  24484094.320   128664774.36708  24484092.020   100258263.90645
  24508685.000   128794017.09508  24508683.500   100358981.15344
  20865986.740   109651521.70909  20865983.360    85442748.68548
  22294726.380   117159630.29209  22294723.000    91293224.54447
  21638836.240   113712887.04609  21638831.580    88607442.92648
  24375112.460   128092325.34408  24375109.300    99812294.75744
  20896223.700   109810446.27109  20896218.380    85566592.74648
  20522930.780   107848775.69609  20522930.020    84038017.87349
 15 03 05 01 44  0.0000000  0  8G04G11G16G18G19G21G22G27
  22850636.080   120080923.10708  22850634.420    93569553.42546
  24491352.600   128702933.68607  24491350.700   100288007.11144
  20875508.380   109701559.20909  20875505.160    85481738.91448
  22303872.560   117207693.72209  22303869.120    91330676.57147
  21628018.580   113656039.18109  21628013.760    88563145.90148
  24389272.780   128166737.83708  24389269.500    99870278.50145
  20892997.380   109793492.05009  20892992.140    85553381.66548
  20518896.700   107827576.48409  20518895.980    84021498.99849
 15 03 05 01 44 30.0000000  0  8G04G11G16G18G19G21G22G27
  22834981.320   119998656.77708  22834979.620    93505449.84146
  24474035.840   128611932.49108  24474033.860   100217097.16344
  20885127.380   109752108.15109  20885124.340    85521127.68448
  22313098.480   117256176.39009  22313095.100    91368455.27347
  21617233.640   113599363.51609  21617228.800    88518983.06948
  24403431.500   128241142.10808  24403428.240    99928255.85345
  20889871.980   109777067.72309  20889866.720    85540583.50848
  20514914.120   107806647.92609  20514913.480    84005191.04349
 15 03 05 01 45  0.0000000  0  8G04G11G16G18G19G21G22G27
  22819371.320   119916625.49708  22819369.760    93441529.40446
  24456736.180   128521021.27407  24456734.180   100146257.34144
  20894845.140   109803175.55109  20894842.220    85560920.44848
  22322405.420   117305084.70309  22322402.080    91406565.64747
  21606483.020   113542869.06809  21606478.300    88474961.43248
  24417590.120   128315545.96908  24417586.920    99986232.87145
  20886848.960   109761181.76609  20886843.740    85528204.84948
  20510984.760   107785998.93509  20510984.120    83989100.92649
 15 03 05 01 45 30.0000000  0  8G04G11G16G18G19G21G22G27
  22803804.240   119834819.79508  22803802.660    93377784.72646
  24439451.940   128430190.81808  24439449.860   100075480.48444
  20904659.420   109854750.00109  20904656.580    85601108.30548
  22331791.100   117354406.92309  22331787.840    91444998.55247
  21595765.160   113486546.87509  21595760.540    88431074.02148
  24431746.540   128389938.25308  24431743.440   100044200.85245
  20883926.560   109745824.76909  20883921.420    85516238.36148
  20507106.920   107765620.72909  20507106.240    83973221.80749
 15 03 05 01 46  0.0000000  0  8G04G11G16G18G19G21G22G27
  22788280.640   119753242.56708  22788279.020    93314218.08746
  24422183.680   128339444.10708  24422181.560   100004768.81244
  20914570.500   109906832.36309  20914567.580    85641691.94548
  22341255.840   117404144.35209  22341252.640    91483754.98647
  21585080.680   113430399.86909  21585076.080    88387323.12148
  24445901.260   128464321.82708  24445898.160   100102162.06644
  20881105.360   109730999.57809  20881100.200    85504686.27148
  20503281.300   107745516.74309  20503280.620    83957556.36749
 15 03 05 01 46 30.0000000  0  8G04G11G16G18G19G21G22G27
  22772801.760   119671900.25608  22772800.040    93250834.49946
  24404932.360   128248786.92607  24404930.160    99934126.90144
  20924579.040   109959426.88109  20924576.000    85682674.66848
  22350800.240   117454300.63909  22350797.000    91522837.80947
  21574430.920   113374434.99409  21574426.220    88343714.13748
  24460055.060   128538700.33807  24460052.020   100160119.31945
  20878386.520   109716712.15809  20878381.280    85493553.22348
  20499509.220   107725694.10509  20499508.540    83942110.15049
 15 03 05 01 47  0.0000000  0  8G04G11G16G18G19G21G22G27
  22757367.220   119590790.98308  22757365.540    93187632.49246
  24387697.340   128158216.89408  24387695.640    99863552.95344
  20934684.320   110012529.76909  20934681.160    85724053.51948
  22360423.600   117504871.99409  22360420.420    91562244.06047
  21563815.460   113318650.38909  21563810.740    88300245.62948
  24474207.320   128613070.85808  24474204.380   100218070.36045
  20875769.580   109702960.03309  20875764.300    85482837.28548
  20495790.380   107706151.14309  20495789.660    83926881.86449
 15 03 05 01 47 30.0000000  0  8G04G11G16G18G19G21G22G27
  22741976.540   119509912.70308  22741974.880    93124610.48246
  24370478.500   128067732.59008  24370476.880    99793045.76145
  20944885.380   110066136.44309  20944882.220    85765824.94848
  22370125.140   117555854.12009  22370121.960    91601970.38647
  21553234.100   113263044.96609  21553229.440    88256916.74148
  24488357.540   128687430.63007  24488354.620   100276013.00644
  20873254.200   109689741.45609  20873248.920    85472537.11048
  20492124.460   107686886.54609  20492123.700    83911870.48749
 15 03 05 01 48  0.0000000  0  9G04G11G16G18G19G21G22G27G32
  22726629.900   119429266.32208  22726628.380    93061769.18246
  24353276.160   127977334.54208  24353274.400    99722605.82844
  20955182.140   110120246.43509  20955179.040    85807988.55348
  22379904.580   117607245.53709  22379901.440    91642015.64447
  21542687.040   113207620.13609  21542682.500    88213728.56248
  24502505.620   128761779.74107  24502502.700   100333947.34645
  20870840.520   109677056.95709  20870835.200    85462653.08048
  20488511.800   107667901.96509  20488511.020    83897077.28949
  24496499.160   128729981.35107                                
 15 03 05 01 48 30.0000000  0  9G04G11G16G18G19G21G22G27G32
  22711326.100   119348845.18508  22711324.620    92999103.38946
  24336089.040   127887016.19008  24336086.800    99652227.96144
  20965573.060   110174851.44009  20965570.140    85850537.89948
  22389760.260   117659037.48309  22389757.060    91682373.00647
  21532173.200   113152369.86809  21532168.680    88170676.43348
  24516650.200   128836110.18407  24516647.340   100391867.13745
  20868527.140   109664899.78909  20868521.820    85453179.97948
  20484951.240   107649191.24609  20484950.480    83882497.50849
  24473856.980   128610994.24207  24473856.500   100216356.94244
 15 03 05 01 49  0.0000000  0  9G04G11G16G18G19G21G22G27G32
  22696068.740   119268667.47208  22696067.160    92936627.27846
  24318920.480   127796795.36808  24318918.120    99581926.14044
  20976061.200   110229967.15009  20976058.340    85893485.19248
  22399695.140   117711245.90509  22399691.960    91723054.87147
  21521696.080   113097312.67209  21521691.500    88127774.72648
  24530794.680   128910439.71307  24530791.680   100449786.24845
  20866317.420   109653287.88509  20866312.160    85444131.75048
  20481446.400   107630773.32709  20481445.600    83868145.87849
  24451219.720   128492035.07908  24451219.180   100123661.72244
 15 03 05 01 49 30.0000000  0  9G04G11G16G18G19G21G22G27G32
  22680855.700   119188722.25509  22680854.080    92874332.35146
  24301768.520   127706661.11308  24301766.120    99511691.70145
  20986644.080   110285580.48409  20986641.140    85936820.23748
  22409706.840   117763857.71009  22409703.620    91764051.08646
  21511253.660   113042437.96009  21511249.100    88085015.22348
  24544936.360   128984754.47707  24544933.420   100507693.80945
  20864209.280   109642209.83409  20864204.000    85435499.51148
  20477995.300   107612637.70309  20477994.500    83854014.23049
  24428586.160   128373095.32008  24428585.480   100030981.53444
 15 03 05 01 50  0.0000000  0  9G04G11G16G18G19G21G22G27G32
  22665687.340   119109011.98008  22665685.820    92812220.47946
  24284633.520   127616616.36708  24284631.360    99441527.05644
  20997321.840   110341692.05509  20997318.780    85980543.51248
  22419795.440   117816873.31409  22419792.080    91805361.93847
  21500846.720   112987749.19009  21500842.200    88042400.60648
  24559075.680   129059056.82207  24559072.760   100565591.69745
  20862203.260   109631668.17709  20862197.920    85427285.23748
  20474598.520   107594787.65909  20474597.820    83840105.08849
  24405957.160   128254179.54807  24405956.480    99938320.01844
 15 03 05 01 50 30.0000000  0  9G04G11G16G18G19G21G22G27G32
  22650563.780   119029537.59508  22650562.500    92750292.41146
  24267515.460   127526661.31607  24267513.560    99371432.29745
  21008094.060   110398300.17009  21008090.840    86024653.71748
  22429960.560   117870291.40409  22429957.200    91846986.42446
  21490475.360   112933247.16209  21490470.860    87999931.50248
  24573212.620   129133346.73507  24573209.640   100623479.91144
  20860299.420   109621663.17309  20860294.020    85419489.13648
  20471256.360   107577224.44509  20471255.740    83826419.45649
  24383333.200   128135290.53808  24383332.660    99845679.38944
 15 03 05 01 51  0.0000000  0  9G04G11G16G18G19G21G22G27G32
  22635484.940   118950298.75708  22635483.880    92688547.89946
  24250414.320   127436795.74308  24250412.820    99301407.24444
  21018960.360   110455402.95909  21018957.160    86069149.39148
  22440201.660   117924108.91009  22440198.400    91888922.15447
  21480139.620   112878932.14809  21480134.980    87957608.13948
  24587346.880   129207622.55007  24587343.860   100681357.15444
  20858497.560   109612194.23309  20858492.120    85412110.74948
  20467968.860   107559948.49409  20467968.240    83812957.68149
  24360714.800   128016430.42208  24360714.120    99753061.24344
 15 03 05 01 51 30.0000000  0  9G04G11G16G18G19G21G22G27G32
  22620451.480   118871297.84408  22620450.500    92626988.76046
  24233330.680   127347021.75408  24233329.420    99231453.54844
  21029920.720   110512999.91309  21029917.520    86114030.11848
  22450518.860   117978326.40409  22450515.640    91931169.55546
  21469840.060   112824807.08509  21469835.260    87915432.77848
  24601478.700   129281885.82007  24601475.620   100739224.62344
  20856798.020   109603263.10809  20856792.580    85405151.43748
  20464736.640   107542962.71709  20464735.900    83799722.00049
  24338102.720   127897603.62008  24338102.120    99660469.04344
 15 03 05 01 52  0.0000000  0  9G04G11G16G18G19G21G22G27G32
  22605462.880   118792532.53208  22605461.940    92565613.23346
  24216264.040   127257337.10407  24216263.100    99161569.48945
  21040974.460   110571087.37809  21040971.260    86159293.06948
  22460911.360   118032939.26009  22460908.080    91973725.03046
  21459576.320   112770870.17909  21459571.400    87873404.03048
  24615607.640   129356133.44607  24615604.600   100797079.89445
  20855200.380   109594867.20609  20855194.920    85398609.19248
  20461559.380   107526265.55609  20461558.540    83786711.23249
  24315496.920   127778810.07208  24315496.440    99567902.77544
 15 03 05 01 52 30.0000000  0  9G04G11G16G18G19G21G22G27G32
  22590519.620   118714005.44908  22590518.600    92504423.32946
  24199214.720   127167744.42407  24199214.200    99091757.09644
  21052121.680   110629665.86509  21052118.460    86204938.61948
  22471379.180   118087947.85209  22471375.840    92016588.86046
  21449348.960   112717124.71609  21449344.060    87831524.45148
  24629733.860   129430366.78907  24629730.780   100854924.01944
  20853705.040   109587009.29109  20853699.680    85392486.14448
  20458437.600   107509860.34509  20458436.740    83773927.94149
  24292898.420   127660054.68908  24292898.040    99475366.20744
 15 03 05 01 53  0.0000000  0  9G04G11G16G18G19G21G22G27G32
  22575621.740   118635716.43808  22575620.460    92443418.95046
  24182182.780   127078243.38007  24182182.620    99022016.10844
  21063361.740   110688732.59809  21063358.520    86250964.64148
  22481921.780   118143349.37409  22481918.200    92059758.89546
  21439158.000   112663571.03309  21439153.140    87789794.32348
  24643856.920   129504583.91807  24643853.780   100912755.52145
  20852311.860   109579688.52509  20852306.640    85386781.66148
  20455371.360   107493747.38409  20455370.500    83761372.38849
  24270307.400   127541339.29707  24270307.500    99382860.86345
 15 03 05 01 53 30.0000000  0  9G04G11G16G18G19G21G22G27G32
  22560769.440   118557667.15908  22560768.000    92382601.34846
  24165168.880   126988835.95907  24165168.560    98952348.03545
  21074694.660   110748287.69709  21074691.460    86297371.18548
  22492539.140   118199143.71209  22492535.520    92103234.99446
  21429004.060   112610211.67609  21428999.180    87748215.60548
  24657977.040   129578785.90708  24657973.920   100970575.21445
  20851021.120   109572905.84809  20851015.940    85381496.45648
  20452361.200   107477929.06709  20452360.340    83749046.41249
  24247724.800   127422667.94807  24247725.220    99290389.77145
 15 03 05 01 54  0.0000000  0  9G04G11G16G18G19G21G22G27G32
  22545961.680   118479852.40408  22545960.200    92321966.51946
  24148172.020   126899516.22107  24148171.380    98882748.29244
  21086118.820   110808322.75409  21086115.760    86344151.73848
  22503229.780   118255323.23109  22503226.100    92147011.25746
  21418886.220   112557041.84509  21418881.200    87706784.58848
  24672093.320   129652967.17808  24672090.080   101028378.82244
  20849831.780   109566655.67709  20849826.560    85376626.20148
  20449406.180   107462400.70309  20449405.400    83736946.38649
  24225150.080   127304037.55307  24225150.480    99197950.62145
 15 03 05 01 54 30.0000000  0  9G04G11G16G18G19G21G22G27G32
  22531200.040   118402279.56408  22531198.400    92261520.17646
  24131193.420   126810292.14308  24131192.300    98813223.12145
  21097635.440   110868843.57109  21097632.480    86391310.80048
  22513994.720   118311893.13009  22513991.000    92191091.72346
  21408805.940   112504069.54509  21408800.860    87665507.48548
  24686206.720   129727133.59008  24686203.320   101086170.84044
  20848745.180   109560945.42709  20848739.940    85372176.66348
  20446507.960   107447170.58009  20446507.260    83725078.75649
  24202585.200   127185458.01408  24202585.660    99105551.09345
 15 03 05 01 55  0.0000000  0  9G04G11G16G18G19G21G22G27G32
  22516483.440   118324943.59608  22516481.820    92201258.43346
  24114232.180   126721158.62008  24114230.620    98743768.50544
  21109243.120   110929843.15309  21109240.400    86438842.92348
  22524832.440   118368845.83109  22524828.840    92235470.44246
  21398762.260   112451290.15209  21398757.260    87624380.69848
  24700316.200   129801279.19007  24700312.940   101143946.62344
  20847760.180   109555769.21709  20847754.920    85368143.25748
  20443665.680   107432234.23509  20443665.000    83713440.04549
  24180029.520   127066926.40908  24180029.780    99013188.90845
 15 03 05 01 55 30.0000000  0  9G04G11G16G18G19G21G22G27G32
  22501812.920   118247849.57408  22501811.220    92141185.19446
  24097289.080   126632120.53308  24097286.900    98674388.25644
  21120942.560   110991324.44609  21120939.960    86486750.41448
  22535743.700   118426184.63409  22535740.000    92280150.05246
  21388756.380   112398709.54409  21388751.520    87583408.81648
  24714422.580   129875408.52507  24714419.260   101201709.74045
  20846877.640   109551131.77109  20846872.400    85364529.68048
  20440880.400   107417597.49509  20440879.780    83702034.79649
  24157484.400   126948450.13408  24157484.360    98920869.81845
 15 03 05 01 56  0.0000000  0  9G04G11G16G18G19G21G22G27G32
  22487188.280   118170997.05108  22487186.640    92081300.13346
  24080364.060   126543177.45208  24080361.320    98605082.02944
  21132733.140   111053284.38809  21132730.540    86535030.86248
  22546727.900   118483906.88909  22546724.360    92325128.42546
  21378788.320   112346327.85509  21378783.620    87542591.93248
  24728525.540   129949519.82007  24728522.100   101259458.76045
  20846097.420   109547031.91609  20846092.200    85361334.98348
  20438152.180   107403260.50809  20438151.560    83690863.10949
  24134950.120   126830030.99908  24134949.960    98828595.25645
 15 03 05 01 56 30.0000000  0  9G04G11G16G18G19G21G22G27G32
  22472609.460   118094385.40508  22472607.880    92021602.79246
  24063457.060   126454328.87008  24063454.020    98535849.41745
  21144614.300   111115719.70609  21144611.620    86583681.74148
  22557784.280   118542009.00008  22557780.780    92370402.79046
  21368858.140   112294145.15609  21368853.580    87501930.10348
  24742624.620   130023610.91808  24742621.260   101317192.05045
  20845419.320   109543468.81609  20845414.180    85358558.54848
  20435480.960   107389223.28009  20435480.340    83679925.01249
  24112426.900   126711670.52408  24112426.620    98736366.39345
 15 03 05 01 57  0.0000000  0  9G04G11G16G18G19G21G22G27G32
  22458076.900   118018016.90108  22458075.460    91962094.89846
  24046568.420   126365576.97308  24046564.880    98466692.15845
  21156586.140   111178631.42709  21156583.280    86632703.84548
  22568913.040   118600491.31009  22568909.600    92415973.41946
  21358966.380   112242164.36309  21358962.000    87461425.59948
  24756720.180   130097683.84507  24756716.880   101374911.19045
  20844843.780   109540444.25909  20844838.660    85356201.76248
  20432867.340   107375488.97709  20432866.720    83669222.95149
  24089915.540   126593373.43308  24089915.280    98644186.93745
 15 03 05 01 57 30.0000000  0  9G04G11G16G18G19G21G22G27G32
  22443590.520   117941891.05208  22443589.180    91902776.08946
  24029697.840   126276920.88608  24029693.980    98397609.56244
  21168647.880   111242015.83409  21168644.880    86682094.27748
  22580113.580   118659351.04109  22580110.200    92461838.14746
  21349113.140   112190385.50309  21349108.760    87421078.45248
  24770812.060   130171737.46907  24770808.780   101432615.27545
  20844370.520   109537957.06909  20844365.340    85354263.69848
  20430311.400   107362057.44809  20430310.780    83658756.82749
  24067416.460   126475141.27008  24067416.220    98552058.06144
 15 03 05 01 58  0.0000000  0  9G04G11G16G18G19G21G22G27G32
  22429150.620   117866009.06708  22429149.320    91843647.30947
  24012845.520   126188362.24508  24012841.640    98328602.87445
  21180799.460   111305872.56509  21180796.380    86731852.74948
  22591385.780   118718586.92608  22591382.480    92507995.97946
  21339298.760   112138810.62709  21339294.360    87380890.25748
  24784900.220   130245771.43107  24784897.100   101490304.06845
  20843999.580   109536007.78209  20843994.380    85352744.78248
  20427813.500   107348930.95309  20427812.880    83648528.38549
  24044930.440   126356977.89108  24044930.360    98459982.79644
 15 03 05 01 58 30.0000000  0  9G04G11G16G18G19G21G22G27G32
  22414756.780   117790369.13008  22414755.500    91784707.13947
  23996011.140   126099899.34308  23996007.620    98259670.78545
  21193040.120   111370197.50009  21193037.020    86781976.06048
  22602728.840   118778195.38709  22602725.660    92554444.11847
  21329523.060   112087438.83309  21329518.600    87340860.30048
  24798984.160   130319783.15107  24798981.120   101547975.49545
  20843730.560   109534594.10909  20843725.320    85351643.22748
  20425373.460   107336108.33309  20425372.800    83638536.72949
  24022457.700   126238883.84307  24022457.600    98367961.51845
 15 03 05 01 59  0.0000000  0  9G04G11G16G18G19G21G22G27G32
  22400409.860   117714974.98608  22400408.420    91725958.47046
  23979195.500   126011535.63808  23979192.660    98190815.99945
  21205369.980   111434991.34109  21205366.900    86832464.74948
  22614143.000   118838177.57308  22614139.960    92601183.47247
  21319786.800   112036274.16809  21319782.320    87300991.72848
  24813064.480   130393775.58207  24813061.520   101605631.90444
  20843564.040   109533719.46909  20843558.860    85350961.69348
  20422992.060   107323593.86209  20422991.360    83628785.18149
  23999999.340   126120864.88808  23999999.160    98275998.75744
 15 03 05 01 59 30.0000000  0  9G04G11G16G18G19G21G22G27G32
  22386108.760   117639821.63608  22386107.300    91667397.46547
  23962397.860   125923266.32408  23962395.760    98122034.78545
  21217787.820   111500247.74609  21217784.780    86883313.88348
  22625626.900   118898525.80109  22625623.880    92648208.06147
  21310089.200   111985312.30009  21310084.580    87261281.19648
  24827140.160   130467743.52207  24827137.280   101663269.25644
  20843499.080   109533378.16209  20843493.920    85350695.74648
  20420668.420   107311383.30409  20420667.760    83619270.45649
  23977554.940   126002918.42508  23977554.540    98184092.49345
 15 03 05 02 00  0.0000000  0  9G04G11G16G18G19G21G22G27G32
  22371854.300   117564913.51208  22371852.840    91609027.52547
  23945619.200   125835095.75207  23945617.500    98053330.45545
  21230293.980   111565968.07609  21230290.940    86934524.51048
  22637181.020   118959242.73809  22637177.960    92695519.96047
  21300431.220   111934558.60009  21300426.420    87221732.87048
  24841211.720   130541689.86107  24841208.780   101720889.76844
  20843536.300   109533573.51809  20843531.080    85350847.97548
  20418403.600   107299481.75809  20418402.940    83609996.52249
  23955125.680   125885051.30608  23955125.120    98092248.05845
 15 03 05 02 00 30.0000000  0  9G04G11G16G18G19G21G22G27G32
  22357646.940   117490253.01109  22357645.500    91550850.53847
  23928859.880   125747026.31807  23928858.620    97984704.97245
  21242888.580   111632152.86509  21242885.540    86986097.06048
  22648805.340   119020328.26109  22648801.940    92743119.07147
  21290813.460   111884016.45909  21290808.500    87182349.39948
  24855279.380   130615615.88706  24855276.620   101778494.44344
  20843676.060   109534307.78109  20843670.800    85351420.13248
  20416198.260   107287892.44209  20416197.560    83600965.88649
  23932712.360   125767268.24408  23932711.580    98000469.11444
 15 03 05 02 01  0.0000000  0  9G04G11G16G18G19G21G22G27G32
  22343485.460   117415833.45109  22343484.060    91492861.30747
  23912118.780   125659051.65308  23912117.600    97916153.32245
  21255569.800   111698793.11209  21255566.800    87038024.49748
  22660498.040   119081773.28609  22660494.420    92790998.30146
  21281234.660   111833679.32309  21281229.560    87143125.66748
  24869341.900   130689514.72606  24869339.080   101836077.91343
  20843916.940   109535573.41609  20843911.660    85352406.34648
  20414051.240   107276609.44409  20414050.500    83592173.94249
  23910314.200   125649565.09008  23910313.320    97908752.43445
 15 03 05 02 01 30.0000000  0  9G04G11G16G18G19G21G22G27G32
  22329370.940   117341660.53009  22329369.440    91435064.26447
  23895397.020   125571177.56008  23895395.680    97847680.04544
  21268338.320   111765892.11909  21268335.360    87090309.42348
  22672259.880   119143581.61809  22672256.080    92839160.64047
  21271696.260   111783554.15409  21271691.020    87104067.11048
  24883400.080   130763390.78006  24883397.160   101893643.64443
  20844259.880   109537375.72009  20844254.640    85353810.75148
  20411963.700   107265639.15309  20411962.880    83583625.66549
  23887932.580   125531949.83208  23887931.760    97817104.24845
 15 03 05 02 02  0.0000000  0  9G04G11G16G18G19G21G22G27G32
  22315303.500   117267734.80609  22315301.880    91377459.83547
  23878694.580   125483404.54708  23878692.820    97779285.53945
  21281193.740   111833447.82309  21281190.860    87142950.20148
  22684090.400   119205751.16609  22684086.680    92887604.44146
  21262198.380   111733642.10909  21262193.100    87065174.61948
  24897453.860   130837243.95806  24897451.140   101951191.56943
  20844704.820   109539714.36909  20844699.660    85355633.07448
  20409935.880   107254982.76909  20409935.020    83575321.97749
  23865568.220   125414425.34308  23865567.540    97725526.78045
 15 03 05 02 02 30.0000000  0  9G04G11G16G18G19G21G22G27G32
  22301282.780   117194055.03609  22301281.140    91320047.05447
  23862011.260   125395731.52408  23862008.760    97710968.93345
  21294135.500   111901456.96309  21294132.640    87195944.31948
  22695988.980   119268278.56809  22695985.440    92936327.07846
  21252740.920   111683942.81009  21252735.720    87026447.90548
  24911502.980   130911072.35505  24911500.160   102008720.14242
  20845251.500   109542587.27009  20845246.340    85357871.70748
  20407967.760   107244640.03409  20407966.900    83567262.70349
  23843221.360   125296992.90208  23843220.900    97634021.05845
 15 03 05 02 03  0.0000000  0  9G04G11G16G18G19G21G22G27G32
  22287308.560   117120620.28008  22287306.980    91262825.18647
  23845346.760   125308157.05708  23845343.720    97642729.13345
  21307162.840   111969915.85809  21307159.960    87249288.89448
  22707954.940   119331160.21409  22707951.380    92985325.76146
  21243323.860   111634455.97609  21243318.680    86987886.74248
  24925547.020   130984874.30205  24925543.700   102066228.06444
  20845899.480   109545992.56709  20845894.360    85360525.19548
  20406059.180   107234610.38909  20406058.340    83559447.39349
  23820892.280   125179653.74408  23820892.020    97542588.00645
 15 03 05 02 03 30.0000000  0  9G04G11G16G18G19G21G22G27G32
  22273381.680   117047435.30609  22273380.280    91205797.96147
  23828702.020   125220686.66108  23828698.580    97574570.44244
  21320276.260   112038827.03509  21320273.320    87302985.89548
  22719988.820   119394398.95709  22719985.200    93034602.70346
  21233948.260   111585187.19109  21233943.080    86949495.48948
  24939586.740   131058654.10704  24939583.440   102123718.84444
  20846649.720   109549935.17909  20846644.580    85363597.36248
  20404211.180   107224899.57209  20404210.460    83551880.51749
  23798582.480   125062415.24208  23798582.340    97451233.40046
 15 03 05 02 04  0.0000000  0  9G04G11G16G18G19G21G22G27G32
  22259501.060   116974493.26208  22259499.760    91148960.03947
  23812075.620   125133313.08308  23812071.800    97506487.17444
  21333474.000   112108181.41909  21333471.020    87357028.26048
  22732088.880   119457985.54809  22732085.280    93084150.69646
  21224612.960   111536130.43709  21224607.860    86911269.45048
  24953620.720   131132403.75304  24953619.320   102180889.09843
  20847500.520   109554406.44709  20847495.440    85367081.47148
  20402422.700   107215501.35109  20402422.100    83544557.22149
  23776290.980   124945272.80608  23776290.860    97359953.64645
 15 03 05 02 04 30.0000000  0  9G04G11G16G18G19G21G22G27G32
  22245668.660   116901804.47309  22245667.360    91092319.44546
  23795469.580   125046047.19708  23795465.740    97438487.83345
  21346757.660   112177986.98809  21346754.560    87411422.19548
  22744256.620   119521928.08108  22744253.140    93133976.03346
  21215320.100   111487296.66609  21215315.100    86873217.15848
  24967650.920   131206132.42604  24967646.320   102238331.03441
  20848454.040   109559417.16209  20848449.000    85370985.92748
  20400695.860   107206426.93509  20400695.320    83537486.23149
  23754020.220   124828239.25908  23754020.100    97268758.71045
 15 03 05 02 05  0.0000000  0  9G04G11G16G18G19G21G22G27G32
  22231883.780   116829365.24408  22231882.360    91035873.31947
  23778883.020   124958885.04208  23778879.320    97370569.31045
  21360125.940   112248237.57109  21360122.740    87466162.89748
  22756491.000   119586220.32108  22756487.480    93184073.89846
  21206069.180   111438682.93809  21206064.240    86835336.33048
  24981676.280   131279835.66704                                
  20849509.180   109564961.69809  20849504.120    85375306.35048
  20399030.020   107197673.14409  20399029.540    83530665.08949
  23731769.900   124711313.17508  23731769.740    97177647.51645
 15 03 05 02 05 30.0000000  0  8G04G11G16G18G19G22G27G32
  22218146.180   116757173.96309  22218144.620    90979620.40547
  23762315.660   124871825.08308  23762312.260    97302730.43645
  21373577.940   112318928.77609  21373574.840    87521246.93648
  22768791.180   119650858.40608  22768787.740    93234441.22346
  21196860.080   111390288.85609  21196855.180    86797626.66048
  20850665.480   109571038.18209  20850660.340    85380041.28348
  20397425.120   107189239.35609  20397424.640    83524093.30549
  23709540.140   124594495.52808  23709540.080    97086620.83846
 15 03 05 02 06  0.0000000  0  8G04G11G16G18G19G22G27G32
  22204456.020   116685232.17008  22204454.360    90923561.88847
  23745768.040   124784869.18808  23745765.360    97234972.64546
  21387113.660   112390060.10509  21387110.620    87576673.93448
  22781157.140   119715841.91708  22781153.680    93285077.72146
  21187693.320   111342116.77909  21187688.380    86760089.99148
  20851923.180   109577647.51109  20851917.940    85385191.41848
  20395881.660   107181127.91709  20395881.120    83517772.69549
  23687331.900   124477790.50508  23687331.640    96995681.92645
 15 03 05 02 06 30.0000000  0  8G04G11G16G18G19G22G27G32
  22190813.160   116613538.60208  22190811.520    90867696.79047
  23729240.020   124698016.45608  23729238.040    97167295.22645
  21400732.400   112461627.71409  21400729.540    87632440.87748
  22793588.080   119781166.69308  22793584.660    93335980.12746
  21178568.700   111294166.10709  21178563.720    86722725.83148
  20853281.840   109584787.38909  20853276.540    85390754.95948
  20394399.440   107173338.20709  20394398.820    83511702.77249
  23665145.320   124361199.03808  23665144.920    96904831.49645
 15 03 05 02 07  0.0000000  0  8G04G11G16G18G19G22G27G32
  22177218.040   116542095.72209  22177216.360    90812027.03247
  23712732.180   124611268.97108  23712730.560    97099699.83045
  21414434.140   112533631.49809  21414431.520    87688547.70148
  22806084.000   119846832.99009  22806080.680    93387148.65446
  21169486.720   111246439.99609  21169481.800    86685536.65448
  20854741.700   109592459.21209  20854736.420    85396733.01848
  20392978.960   107165873.22709  20392978.300    83505885.90949
  23642981.240   124244725.82708  23642980.540    96814073.21245
 15 03 05 02 07 30.0000000  0  8G04G11G16G18G19G22G27G32
  22163670.400   116470902.18508  22163668.620    90756551.57847
  23696244.360   124524625.52808  23696243.040    97032185.49245
  21428218.240   112606068.06009  21428215.880    87744991.76348
  22818644.180   119912837.38908  22818641.020    93438580.64946
  21160447.340   111198938.20609  21160442.500    86648522.27848
  20856302.440   109600661.09009  20856297.220    85403124.09448
  20391620.120   107158732.65109  20391619.500    83500321.81549
  23620839.880   124128372.29808  23620838.940    96723408.19145
 15 03 05 02 08  0.0000000  0  8G04G11G16G18G19G22G27G32
  22150170.400   116399958.85209  22150168.520    90701271.09547
  23679776.780   124438087.22208  23679775.500    96964753.08346
  21442084.420   112678935.33309  21442082.140    87801771.43248
  22831268.420   119979178.31309  22831265.340    93490274.86346
  21151451.000   111151662.50909  21151446.160    86611684.08348
  20857964.000   109609392.52409  20857958.820    85409927.81248
  20390323.280   107151918.03409  20390322.680    83495011.72049
  23598721.900   124012141.64108  23598720.860    96632838.91245
 15 03 05 02 08 30.0000000  0  8G04G11G16G18G19G22G27G32
  22136717.780   116329264.37109  22136715.780    90646184.50547
  23663329.280   124351653.12108  23663327.660    96897401.86045
  21456031.920   112752229.57209  21456029.620    87858883.80648
  22843955.980   120045851.93509  22843952.900    93542228.32346
  21142497.640   111104612.46609  21142492.800    86575021.71448
  20859726.080   109618652.18809  20859720.940    85417143.13948
  20389088.320   107145428.83209  20389087.760    83489955.18949
  23576627.660   123896035.10108  23576626.340    96542366.33445
 15 03 05 02 09  0.0000000  0  8G04G11G16G18G19G22G27G32
  22123313.200   116258822.37309  22123311.200    90591294.65347
  23646902.240   124265326.85108  23646900.360    96830134.70645
  21470061.100   112825952.46709  21470058.680    87916330.19948
  22856707.260   120112860.01709  22856704.060    93594442.40146
  21133588.080   111057792.49609  21133583.200    86538538.61948
  20861589.080   109628442.26609  20861583.900    85424771.77348
  20387916.180   107139269.49209  20387915.700    83485155.68749
  23554558.240   123780058.85408  23554556.740    96451995.27245
 15 03 05 02 09 30.0000000  0  9G01G04G11G16G18G19G22G27G32
  24595213.020                                                  
  22109956.780   116188633.47009  22109954.880    90536602.02647
  23630495.840   124179108.93208  23630493.340    96762951.94945
  21484171.400   112900101.71209  21484168.780    87974108.81948
  22869521.820   120180200.35909  22869518.460    93646915.39246
  21124722.640   111011204.08209  21124717.700    86502235.95648
  20863553.000   109638762.35709  20863547.680    85432813.40748
  20386807.140   107133441.25809  20386806.640    83480614.19649
  23532514.140   123664215.82508  23532512.680    96361728.03545
 15 03 05 02 10  0.0000000  0  9G01G04G11G16G18G19G22G27G32
  24579095.520   129164022.75507  24579098.760   100647293.95644
  22096650.420   116118708.03209  22096648.640    90482114.69047
  23614111.960   124093010.12608  23614109.280    96695861.99746
  21498364.240   112974685.16309  21498361.420    88032225.77448
  22882401.120   120247881.34008  22882397.900    93699653.79946
  21115903.520   110964858.57909  21115898.440    86466122.58148
  20865619.620   109649622.13009  20865614.180    85441275.57148
  20385763.300   107127955.42909  20385762.760    83476339.51849
  23510497.680   123548518.93508  23510496.320    96271574.65446
 15 03 05 02 10 30.0000000  0  9G01G04G11G16G18G19G22G27G32
  24563002.220   129079451.17607  24563005.620   100581394.06845
  22083389.340   116049020.92009  22083387.900    90427813.06547
  23597745.720   124007005.30108  23597743.120    96628845.32045
  21512634.380   113049674.67209  21512631.440    88090659.14148
  22895339.940   120315875.04108  22895336.580    93752635.90346
  21107126.040   110918731.99009  21107120.880    86430179.79148
  20867783.940   109660995.31109  20867778.420    85450137.78948
  20384779.880   107122787.46209  20384779.400    83472312.51449
  23488504.560   123432945.50308  23488503.420    96181517.49145
 15 03 05 02 11  0.0000000  0  9G01G04G11G16G18G19G22G27G32
  24546935.580   128995019.26707  24546938.780   100515603.05745
  22070176.960   115979589.92509  22070175.780    90373711.01347
  23581400.540   123921112.38508  23581398.040    96561915.82845
  21526984.680   113125085.76609  21526981.720    88149421.01648
  22908341.160   120384197.26808  22908337.960    93805873.97746
  21098393.640   110872842.59809  21098388.440    86394421.82748
  20870049.100   109672898.70009  20870043.600    85459413.16848
  20383860.460   107117955.93009  20383860.060    83468547.68149
  23466538.760   123317515.76608  23466537.800    96091572.30346
 15 03 05 02 11 30.0000000  0  9G01G04G11G16G18G19G22G27G32
  24530894.600   128910720.82008  24530897.220   100449916.03345
  22057012.120   115910408.60509  22057011.140    90319803.50547
  23565075.360   123835325.40808  23565072.900    96495068.85345
  21541413.540   113200910.16009  21541410.600    88208504.93148
  22921403.340   120452839.50308  22921400.000    93859361.42946
  21089705.240   110827185.04409  21089700.080    86358844.51348
  20872413.700   109685324.84609  20872408.220    85469095.88648
  20383004.040   107113455.26009  20383003.660    83465040.65249
  23444599.600   123202225.88208  23444598.800    96001736.06745
 15 03 05 02 12  0.0000000  0  9G01G04G11G16G18G19G22G27G32
  24514879.900   128826561.44107  24514882.100   100384337.42945
  22043895.860   115841482.55609  22043894.940    90266094.90247
  23548771.240   123749649.93208  23548769.080    96428308.76645
  21555921.600   113277150.77409  21555918.700    88267913.17948
  22934527.080   120521804.84908  22934523.720    93913100.64846
  21081062.280   110781766.14309  21081057.140    86323453.16348
  20874878.660   109698278.51409  20874873.180    85479189.64948
  20382211.800   107109291.92409  20382211.420    83461796.48549
  23422688.680   123087084.07908  23422688.060    95912015.23145
 15 03 05 02 12 30.0000000  0  9G01G04G11G16G18G19G22G27G32
  24498891.280   128742540.26807  24498892.920   100318866.47344
  22030827.980   115772810.93509  22030826.960    90212584.56447
  23532488.280   123664085.26108  23532486.720    96361635.04446
  21570508.120   113353803.70409  21570505.240    88327642.71648
  22947711.580   120591089.92208  22947708.160    93967089.01046
  21072464.760   110736585.68909  21072459.600    86288247.62548
  20877443.620   109711757.73509  20877438.200    85489692.94848
  20381483.720   107105465.63509  20381483.260    83458814.96449
  23400806.280   122972091.84808  23400805.880    95822410.96545
 15 03 05 02 13  0.0000000  0  9G01G04G11G16G18G19G22G27G32
  24482928.320   128658654.48908  24482929.660   100253501.00745
  22017807.900   115704390.63909  22017806.680    90159270.05647
  23516226.420   123578628.83808  23516225.020    96295045.64445
  21585172.200   113430863.88809  21585169.280    88387689.58848
  22960955.920   120660689.76408  22960952.640    94021322.63046
  21063912.220   110691641.92509  21063907.120    86253226.51048
  20880107.860   109725758.86809  20880102.520    85500602.92648
  20380819.420   107101974.42909  20380818.880    83456094.52549
  23378952.340   122857248.93908  23378952.000    95732923.03245
 15 03 05 02 13 30.0000000  0  9G01G04G11G16G18G19G22G27G32
  24466991.340   128574905.62707  24466992.820   100188242.23445
  22004836.080   115636223.37509  22004834.760    90106152.71547
  23499985.840   123493282.12008  23499984.060    96228541.74145
  21599913.540   113508329.91409  21599910.520    88448052.70148
  22974260.080   120730603.40408  22974256.580    94075800.78846
  21055405.160   110646937.18909  21055400.140    86218391.65648
  20882871.560   109740282.14309  20882866.220    85511919.76448
  20380219.300   107098820.45609  20380218.680    83453636.87049
  23357127.640   122742559.19608  23357127.300    95643554.42845
 15 03 05 02 14  0.0000000  0  9G01G04G11G16G18G19G22G27G32
  24451081.440   128491299.59507  24451083.440   100123094.78446
  21991913.640   115568314.96109  21991912.120    90053237.09747
  23483767.380   123408051.30108  23483764.940    96162128.15945
  21614732.780   113586205.36409  21614729.740    88508734.84948
  22987624.580   120800834.44408  22987621.080    94130526.25746
  21046944.900   110602478.38509  21046939.900    86183748.43948
  20885735.660   109755332.43909  20885730.200    85523647.27848
  20379684.620   107096010.39409  20379683.940    83451447.20949
  23335333.740   122628031.14708  23335333.400    95554311.85246
 15 03 05 02 14 30.0000000  0  9G01G04G11G16G18G19G22G27G32
  24435196.860   128407827.10007  24435199.100   100058051.41945
  21979038.760   115500656.21109  21979037.000    90000516.01647
  23467569.200   123322927.24708  23467566.320    96095797.76545
  21629627.580   113664478.08009  21629624.660    88569726.55948
  23001047.280   120871371.14808  23001043.580    94185489.92546
  21038529.820   110558257.09609  21038524.820    86149290.28648
  20888697.960   109770899.29109  20888692.440    85535777.29648
  20379213.760   107093535.70409  20379213.020    83449518.87249
  23313569.360   122513657.93008  23313569.000    95465189.92646
 15 03 05 02 15  0.0000000  0  9G01G04G11G16G18G19G22G27G32
  24419339.340   128324495.33308  24419341.440    99993117.64345
  21966212.620   115433253.77009  21966210.540    89947994.65847
  23451392.600   123237917.00608  23451389.580    96029556.06245
  21644598.800   113743152.47709  21644596.080    88631031.26448
  23014529.000   120942218.04408  23014525.500    94240695.28846
  21030161.460   110514281.59609  21030156.480    86115023.66448
  20891759.600   109786988.77309  20891754.180    85548314.55548
  20378808.160   107091404.14309  20378807.380    83447857.91649
  23291836.320   122399449.15908  23291835.780    95376196.13245
 15 03 05 02 15 30.0000000  0  9G01G04G11G16G18G19G22G27G32
  24403508.780   128241303.67908  24403510.120    99928292.95645
  21953435.020   115366107.24709  21953432.860    89895672.70647
  23435237.300   123153020.41808  23435234.300    95963402.90845
  21659645.860   113822225.14809  21659643.300    88692646.30848
  23028069.180   121013372.15508  23028065.780    94296140.04946
  21021840.060   110470552.25109  21021835.060    86080948.86048
  20894920.360   109803598.91809  20894915.020    85561257.52748
  20378467.820   107089615.86209  20378467.100    83446464.44249
  23270134.900   122285406.73108  23270134.200    95287331.94346
 15 03 05 02 16  0.0000000  0  9G01G04G11G16G18G19G22G27G32
  24387704.480   128158250.83907  24387705.840    99863576.53546
  21940705.800   115299215.24109  21940703.840    89843549.08147
  23419103.180   123068236.37208  23419100.360    95897337.43445
  21674768.120   113901692.98209  21674765.660    88754569.26548
  23041667.260   121084830.29009  23041663.920    94351821.70346
  21013565.340   110427068.51209  21013560.420    86047065.42948
  20898179.720   109820727.19309  20898174.420    85574604.23548
  20378192.760   107088170.42509  20378192.060    83445338.11849
  23248465.280   122171531.89708  23248464.500    95198598.35746
 15 03 05 02 16 30.0000000  0  9G01G04G11G16G18G19G22G27G32
  24371926.800   128075339.58007  24371928.260    99798970.48846
  21928025.420   115232580.56409  21928024.020    89791625.97547
  23402991.080   122983567.87908  23402988.580    95831361.98445
  21689965.520   113981555.52709  21689963.060    88816799.79948
  23055323.260   121156592.51509  23055319.860    94407740.30246
  21005338.020   110383833.89509  21005333.200    86013376.11748
  20901538.020   109838375.61209  20901532.840    85588356.25048
  20377983.600   107087071.23009  20377982.940    83444481.59949
  23226828.380   122057829.90808  23226827.560    95109999.45646
 15 03 05 02 17  0.0000000  0  9G01G04G11G16G18G19G22G27G32
  24356176.040   127992569.69208  24356177.480    99734474.55145
  21915393.980   115166202.78109  21915392.980    89739903.04647
  23386900.900   122899014.67908  23386898.880    95765476.41546
  21705237.500   114061810.02709  21705234.940    88879335.75248
  23069036.560   121228656.27208  23069033.060    94463893.88146
  20997158.300   110340849.42109  20997153.500    85979881.72848
  20904995.020   109856542.44309  20904989.880    85602512.22048
  20377840.400   107086318.71909  20377839.780    83443895.22149
  23205224.760   121944302.98608  23205224.000    95021536.95846
 15 03 05 02 17 30.0000000  0  9G01G04G11G16G18G19G22G27G32
  24340452.120   127909940.07908  24340452.960    99670087.90645
  21902811.320   115100080.84009  21902810.380    89688379.46247
  23370832.500   122814575.98308  23370830.740    95699680.06246
  21720583.320   114142452.73709  21720580.620    88942174.19748
  23082806.560   121301018.30008  23082803.180    94520279.85246
  20989026.220   110298114.92609  20989021.400    85946582.11948
  20908550.340   109875225.68409  20908545.220    85617070.59048
  20377763.100   107085912.61509  20377762.500    83443578.77349
  23183654.660   121830952.62708  23183654.060    94933212.05546
 15 03 05 02 18  0.0000000  0  9G01G04G11G16G18G19G22G27G32
  24324754.860   127827450.76807  24324755.020    99605810.57844
  21890277.420   115034214.70109  21890276.460    89637055.20847
  23354786.140   122730252.10508  23354784.220    95633973.16645
  21736002.440   114223480.78009  21735999.680    89005312.91348
  23096632.860   121373676.00708  23096629.460    94576896.24546
  20980941.980   110255631.56109  20980937.080    85913478.20148
  20912203.700   109894423.95009  20912198.560    85632030.28548
  20377751.860   107085853.62209  20377751.240    83443532.81249
  23162118.640   121717781.36608  23162118.160    94845026.71646
 15 03 05 02 18 30.0000000  0  9G01G04G11G16G18G19G22G27G32
  24309083.880   127745100.25807  24309084.080    99541641.42745
  21877791.920   114968602.71209  21877790.940    89585929.00047
  23338761.520   122646041.53308  23338759.360    95568354.56745
  21751494.060   114304890.20509  21751491.260    89068748.80748
  23110514.700   121446625.77708  23110511.600    94633740.18846
  20972905.380   110213398.74609  20972900.380    85880569.50648
  20915954.460   109914134.25609  20915949.340    85647388.96348
  20377806.500   107086140.94109  20377805.900    83443756.69549
  23140617.000   121604790.25008  23140616.580    94756981.73546
 15 03 05 02 19  0.0000000  0  9G01G04G11G16G18G19G22G27G32
  24293440.460   127662893.62808  24293441.000    99477584.39146
  21865355.820   114903249.96309  21865354.660    89535004.79347
  23322759.360   122561949.28608  23322757.280    95502828.19846
  21767058.620   114386682.88809  21767055.780    89132483.34448
  23124452.560   121519870.03808  23124449.420    94690813.63046
  20964917.600   110171422.64709  20964912.560    85847860.85548
  20919803.340   109934360.47209  20919798.240    85663149.65648
  20377928.200   107086780.36909  20377927.600    83444254.95049
  23119151.260   121491986.75108  23119150.660    94669082.94846
 15 03 05 02 19 30.0000000  0  9G01G04G11G16G18G19G22G27G32
  24277823.920   127580827.68108  24277824.580    99413636.95145
  21852968.460   114838153.13809  21852967.060    89484280.00447
  23306779.280   122477972.96508  23306777.280    95437392.13546
  21782695.220   114468853.71509  21782692.400    89196512.54848
  23138445.420   121593403.41808  23138442.400    94748112.33946
  20956978.180   110129700.89209  20956973.140    85815350.39948
  20923749.560   109955098.17709  20923744.460    85679308.90248
  20378116.400   107087769.40009  20378115.880    83445025.61849
  23097721.160   121379370.24308  23097720.280    94581329.85646
 15 03 05 02 20  0.0000000  0  9G01G04G11G16G18G19G22G27G32
  24262234.240   127498903.48807  24262234.940    99349800.00345
  21840629.980   114773313.38609  21840628.280    89433755.54747
  23290821.500   122394113.91308  23290819.420    95372047.44445
  21798403.480   114551400.76109  21798400.740    89260834.90547
  23152493.100   121667224.44608  23152489.960    94805635.21046
  20949087.580   110088235.57509  20949082.520    85783039.77248
  20927793.120   109976347.55109  20927788.100    85695866.86448
  20378371.500   107089109.98909  20378371.020    83446070.24149
  23076327.400   121266944.32408  23076326.240    94493725.28446
 15 03 05 02 20 30.0000000  0  9G01G04G11G16G18G19G22G27G32
  24246671.700   127417122.93407  24246672.240    99286074.96045
  21828340.720   114708732.41309  21828338.820    89383432.72147
  23274886.240   122310373.87208  23274884.040    95306795.49646
  21814183.140   114634322.71409  21814180.440    89325449.39748
  23166595.460   121741332.65908  23166592.380    94863381.85346
  20941246.320   110047029.74409  20941241.260    85750931.32648
  20931934.080   109998108.75609  20931929.140    85712823.64548
  20378693.940   107090804.49909  20378693.440    83447390.62449
  23054970.760   121154713.46208  23054969.420    94406272.69546
 15 03 05 02 21  0.0000000  0  9G01G04G11G16G18G19G22G27G32
  24231136.120   127335483.35408  24231136.740    99222459.75845
  21816100.080   114644407.36609  21816098.080    89333309.32247
  23258973.100   122226750.33308  23258971.080    95241634.34245
  21830033.240   114717615.00509  21830030.580    89390352.47348
  23180751.500   121815723.05408  23180748.340    94921348.37846
  20933454.120   110006081.83709  20933449.120    85719023.87348
  20936171.720   110020377.88309  20936166.820    85730176.22248
  20379083.400   107092851.09609  20379082.820    83448985.37349
  23033651.100   121042677.43308  23033649.660    94318971.92646
 15 03 05 02 21 30.0000000  0  9G01G04G11G16G18G19G22G27G32
  24215627.920   127253987.44408  24215628.840    99158956.51745
  21803908.620   114580341.10309  21803906.700    89283387.55947
  23243082.800   122143246.38708  23243080.960    95176566.35346
  21845953.560   114801276.84409  21845951.000    89455543.49948
  23194961.220   121890395.96508  23194958.000    94979535.04245
  20925711.700   109965395.39309  20925706.840    85687320.14148
  20940506.360   110043156.61709  20940501.420    85747925.88748
  20379540.480   107095253.18109  20379539.860    83450857.12149
  23012369.480   120930841.58908  23012368.040    94231827.14746
 15 03 05 02 22  0.0000000  0  9G01G04G11G16G18G19G22G27G32
  24200147.560   127172638.17407  24200148.800    99095567.52845
  21791766.920   114516536.41509  21791765.080    89233669.62647
  23227215.780   122059865.30208  23227214.100    95111594.11746
  21861944.280   114885308.93909  21861941.780    89521023.02147
  23209224.820   121965352.00708  23209221.780    95037942.31846
  20918019.800   109924974.45909  20918015.080    85655823.30148
  20944938.200   110066446.13309  20944933.220    85766073.55548
  20380065.940   107098014.47809  20380065.300    83453008.77449
  22991126.900   120819211.44508  22991125.580    94144842.65346
 15 03 05 02 22 30.0000000  0  9G01G04G11G16G18G19G22G27G32
  24184693.680   127091428.58708  24184695.040    99032287.41345
  21779673.660   114452986.40909  21779671.920    89184150.16847
  23211370.920   121976600.37908  23211369.180    95046712.39645
  21878003.580   114969701.55009  21878001.060    89586783.48148
  23223540.680   122040582.03808  23223537.620    95096563.12445
  20910377.360   109884813.30709  20910372.680    85624528.89448
  20949465.840   110090238.76609  20949460.740    85784613.27148
  20380658.600   107101128.60409  20380657.900    83455435.36349
  22969922.560   120707782.50108  22969921.360    94058014.96546
 15 03 05 02 23  0.0000000  0 10G01G04G11G14G16G18G19G22G27G32
  24169267.400   127010363.31108  24169268.520    98969119.69846
  21767629.620   114389695.49509  21767628.020    89134832.58847
  23195549.180   121893456.23208  23195547.360    94981924.76646
  24712436.920   129864731.01908  24712435.460   101193287.33645
  21894131.840   115054456.38909  21894129.280    89652826.17848
  23237908.940   122116088.04808  23237906.180    95155398.93546
  20902785.400   109844917.29309  20902780.660    85593441.08048
  20954089.740   110114537.20909  20954084.520    85803547.12148
  20381319.460   107104600.98009  20381318.660    83458141.09249
  22948757.900   120596561.85408  22948756.820    93971349.56746
 15 03 05 02 23 30.0000000  0 10G01G04G11G14G16G18G19G22G27G32
  24153868.800   126929442.81007  24153869.840    98906064.80746
  21755635.020   114326664.05309  21755633.580    89085717.22347
  23179750.580   121810433.91108  23179748.600    94917232.07645
  24698473.140   129791350.08207  24698471.540   101136107.37145
  21910328.720   115139571.32609  21910325.980    89719149.48747
  23252329.400   122191868.25608  23252326.500    95214448.46245
  20895244.240   109805288.05109  20895239.480    85562561.15048
  20958809.680   110139340.60909  20958804.440    85822874.44948
  20382048.680   107108432.77809  20382047.860    83461126.91149
  22927633.580   120485552.68208  22927632.420    93884848.96146
 15 03 05 02 24  0.0000000  0 10G01G04G11G14G16G18G19G22G27G32
  24138497.820   126848668.78407  24138499.220    98843124.09245
  21743690.240   114263893.87609  21743688.820    89036805.43547
  23163975.500   121727535.24308  23163973.180    94852635.74045
  24684520.160   129718027.86206  24684518.600   101078973.20745
  21926593.860   115225044.81109  21926590.940    89785752.17648
  23266801.980   122267921.96708  23266799.120    95273711.08646
  20887754.460   109765928.51909  20887749.620    85531891.38448
  20963625.760   110164649.24609  20963620.520    85842595.46948
  20382846.720   107112626.42809  20382845.960    83464394.67349
  22906550.320   120374759.10608  22906549.060    93798516.33746
 15 03 05 02 24 30.0000000  0 10G01G04G11G14G16G18G19G22G27G32
  24123154.500   126768040.67208  24123156.180    98780297.04145
  21731795.020   114201384.24409  21731793.660    88988096.65847
  23148224.040   121644759.98908  23148221.100    94788135.55945
  24670578.680   129644766.39807  24670577.340   101021886.37444
  21942926.700   115310874.00009  21942923.680    89852632.03948
  23281326.020   122344246.49108  23281323.100    95333184.72946
  20880316.080   109726839.19009  20880311.120    85501432.15848
  20968537.700   110190461.51709  20968532.460    85862708.92648
  20383713.620   107117182.11309  20383712.920    83467944.54349
  22885508.420   120264183.19108  22885507.120    93712353.32346
 15 03 05 02 25  0.0000000  0 10G01G04G11G14G16G18G19G22G27G32
  24107837.760   126687551.81907  24107839.420    98717578.46845
  21719948.120   114139128.44909  21719946.820    88939585.67147
  23132494.820   121562101.60808  23132491.460    94723726.47245
  24656648.340   129571561.86807  24656647.080   100964843.92245
  21959325.500   115397049.91509  21959322.440    89919782.09547
  23295899.880   122420832.58708  23295896.960    95392862.20246
  20872928.020   109688014.42609  20872923.000    85471179.10548
  20973543.920   110216768.99709  20973538.640    85883208.27348
  20384648.300   107122093.77909  20384647.580    83471771.82249
  22864507.140   120153820.81408  22864505.840    93626356.71946
 15 03 05 02 25 30.0000000  0 10G01G04G11G14G16G18G19G22G27G32
  24092549.020   126607210.14907  24092550.760    98654974.61446
  21708151.100   114077134.38509  21708149.700    88891278.63347
  23116789.360   121479568.29308  23116785.960    94659414.82146
  24642730.880   129498424.76207  24642729.400   100907853.95145
  21975791.140   115483577.41109  21975788.220    89987206.09547
  23310524.680   122497685.85908  23310521.780    95452747.85246
  20865591.940   109649463.33009  20865587.040    85441139.28548
  20978645.640   110243578.26009  20978640.300    85904098.60148
  20385652.280   107127370.12109  20385651.640    83475883.23749
  22843548.380   120043682.43608  22843547.080    93540534.63946
 15 03 05 02 26  0.0000000  0 10G01G04G11G14G16G18G19G22G27G32
  24077286.920   126527009.44207  24077289.140    98592480.62746
  21696402.700   114015395.62209  21696401.120    88843170.54347
  23101106.640   121397154.40208  23101103.140    94595196.22146
  24628825.640   129425351.49707  24628824.100   100850913.78345
  21992321.940   115570447.32009  21992319.160    90054896.91147
  23325198.760   122574797.98708  23325195.820    95512835.22746
  20858306.920   109611180.58909  20858302.140    85411308.58348
  20983841.340   110270881.70609  20983835.960    85925374.02248
  20386724.580   107133005.60509  20386724.020    83480274.51749
  22822631.520   119933764.51708  22822630.300    93454884.36646
 15 03 05 02 26 30.0000000  0 10G01G04G11G14G16G18G19G22G27G32
  24062053.600   126446959.20307  24062056.120    98530103.91046
  21684704.640   113953921.78409  21684702.880    88795268.87147
  23085448.280   121314869.70408  23085445.020    94531078.31146
  24614934.800   129352354.30307  24614933.140   100794032.85144
  22008919.080   115657666.07409  22008916.380    90122859.55147
  23339923.360   122652176.13008  23339920.460    95573129.85946
  20851075.040   109573177.06009  20851070.360    85381695.43848
  20989132.640   110298687.37009  20989127.180    85947040.76948
  20387867.180   107139010.37909  20387866.700    83484953.55349
  22801758.860   119824078.96008  22801757.760    93369415.13546
 15 03 05 02 27  0.0000000  0 10G01G04G11G14G16G18G19G22G27G32
  24046848.000   126367053.03107  24046850.520    98467839.40346
  21673055.620   113892706.36709  21673053.820    88747568.57547
  23069813.180   121232707.79708  23069810.320    94467056.07046
  24601057.680   129279429.48206  24601056.000   100737208.32245
  22025580.860   115745224.65009  22025578.180    90191086.99547
  23354696.880   122729811.34708  23354693.920    95633624.83546
  20843895.300   109535447.12209  20843890.580    85352295.49548
  20994517.980   110326987.27809  20994512.460    85969092.64848
  20389079.000   107145378.75709  20389078.580    83489915.92249
  22780929.800   119714622.03108  22780928.780    93284124.06346
 15 03 05 02 27 30.0000000  0 10G01G04G11G14G16G18G19G22G27G32
  24031669.960   126287291.66407  24031672.120    98405687.74345
  21661455.980   113831750.10509  21661454.180    88700070.20747
  23054201.700   121150670.17508  23054199.160    94403130.68546
  24587194.860   129206580.28906  24587193.420   100680442.77845
  22042306.980   115833121.24809  22042304.300    90259577.82447
  23369518.980   122807701.78208  23369516.000    95694318.66846
  20836768.100   109497992.97409  20836763.260    85323110.44448
  20999997.240   110355780.91809  20999991.700    85991529.25548
  20390360.240   107152112.19109  20390359.900    83495162.74349
  22760144.900   119605397.02008  22760143.940    93199013.71046
 15 03 05 02 28  0.0000000  0 10G01G04G11G14G16G18G19G22G27G32
  24016520.040   126207678.57607  24016522.220    98343651.61845
  21649906.300   113771056.27909  21649904.600    88652776.35047
  23038614.500   121068760.24908  23038612.200    94339304.79646
  24573347.680   129133813.02006  24573346.140   100623741.05044
  22059097.580   115921356.41209  22059094.880    90328332.46547
  23384389.880   122885848.86808  23384386.840    95755212.48346
  20829694.180   109460818.94709  20829689.300    85294143.67648
  21005570.780   110385070.24509  21005565.340    86014352.10448
  20391711.820   107159214.78709  20391711.460    83500697.22549
  22739405.320   119496409.90008  22739404.380    93114088.73246
 15 03 05 02 28 30.0000000  0 10G01G04G11G14G16G18G19G22G27G32
  24001397.900   126128210.77308  24001400.180    98281728.71446
  21638406.000   113710621.85309  21638404.440    88605684.60947
  23023051.180   120986975.47008  23023049.080    94275576.41746
  24559516.060   129061127.27907  24559514.460   100567102.82545
  22075951.620   116009924.37309  22075948.760    90397346.42947
  23399308.620   122964247.36308  23399305.480    95816302.19346
  20822673.100   109423923.17509  20822668.240    85265393.72648
  21011237.680   110414850.42109  21011232.360    86037557.43048
  20393133.300   107166684.28609  20393132.820    83506517.60849
  22718710.980   119387660.29108  22718710.100    93029348.80746
 15 03 05 02 29  0.0000000  0 10G01G04G11G14G16G18G19G22G27G32
  23986303.920   126048889.91508  23986306.240    98219920.31045
  21626955.400   113650448.45709  21626953.940    88558796.27147
  23007512.200   120905318.01008  23007510.240    94211947.27446
  24545700.700   128988527.52707  24545699.220   100510531.58845
  22092868.840   116098824.23909  22092865.860    90466619.03047
  23414275.060   123042896.67008  23414271.880    95877587.36745
  20815705.420   109387308.47109  20815700.660    85236862.80048
  21016998.120   110445121.92909  21016992.780    86061145.62048
  20394625.080   107174522.98409  20394624.520    83512625.68449
  22698062.680   119279152.35308  22698061.800    92944797.21746
 15 03 05 02 29 30.0000000  0 10G01G04G11G14G16G18G19G22G27G32
  23971237.560   125969713.95008  23971239.440    98158224.78946
  21615554.140   113590534.05509  21615552.620    88512109.73947
  22991997.220   120823785.98508  22991995.220    94148415.85346
  24531901.880   128916014.50107  24531900.660   100454027.94645
  22109848.300   116188051.18109  22109845.300    90536146.48647
  23429288.380   123121792.20408  23429285.300    95939064.38446
  20808791.060   109350974.07109  20808786.460    85208550.28048
  21022851.360   110475881.05209  21022846.000    86085113.76648
  20396186.840   107182729.56509  20396186.180    83519020.41549
  22677460.480   119170886.69608  22677459.540    92860434.40446
 15 03 05 02 30  0.0000000  0 10G01G04G11G14G16G18G19G22G27G32
  23956199.220   125890686.01008  23956200.800    98096644.64145
  21604202.740   113530881.57809  21604200.980    88465627.31047
  22976506.860   120742383.02908  22976504.660    94084985.00746
  24518120.720   128843594.00407  24518119.500   100397596.42445
  22126889.960   116277605.15409  22126886.920    90605928.77847
  23444348.800   123200934.97708  23444345.840    96000734.04946
  20801930.880   109314924.08109  20801926.400    85180459.37748
  21028797.740   110507129.45009  21028792.360    86109463.16548
  20397819.280   107191307.86109  20397818.540    83525704.80149
  22656905.380   119062869.04808  22656904.440    92776264.84346
 15 03 05 02 30 30.0000000  0 10G01G04G11G14G16G18G19G22G27G32
  23941188.700   125811805.23508  23941190.160    98035179.13846
  21592900.960   113471490.23609  21592899.100    88419348.36347
  22961040.880   120661108.24608  22961038.540    94021654.03746
  24504357.640   128771268.06207  24504356.260   100341238.51545
  22143993.080   116367482.26509  22143990.020    90675962.87447
  23459455.680   123280321.80708  23459452.620    96062593.91745
  20795124.920   109279158.87209  20795120.560    85152590.38748
  21034836.680   110538864.38109  21034831.320    86134191.68348
  20399522.400   107200257.61509  20399521.560    83532678.63149
  22636397.700   118955101.12408  22636396.820    92692289.87246
 15 03 05 02 31  0.0000000  0 10G01G04G11G14G16G18G19G22G27G32
  23926206.320   125733073.22408  23926208.120    97973829.56746
  21581649.060   113412361.35209  21581647.180    88373273.92047
  22945599.660   120579963.71408  22945597.180    93958424.55046
  24490613.260   128699040.66407  24490611.820   100284957.42945
  22161157.520   116457682.00909  22161154.560    90746248.36447
  23474608.800   123359951.77508  23474605.780    96124643.21345
  20788373.780   109243681.22109  20788369.400    85124945.45448
  21040968.300   110571086.51609  21040962.920    86159299.83248
  20401296.580   107209581.07809  20401295.720    83539943.66349
  22615938.320   118847586.98408  22615937.500    92608512.64147
 15 03 05 02 31 30.0000000  0 10G01G04G11G14G16G18G19G22G27G32
  23911251.740   125654487.42908  23911253.720    97912593.92846
  21570446.680   113353492.45609  21570444.700    88327402.06347
  22930182.840   120498947.47808  22930180.380    93895295.03746
  24476887.620   128626912.24108  24476886.080   100228753.44344
  22178382.100   116548198.24709  22178379.300    90816780.46747
  23489807.340   123439820.31608  23489804.240    96186878.43045
  20781677.220   109208489.83009  20781672.700    85097523.59548
  21047191.820   110603791.41909  21047186.400    86184784.16848
  20403141.500   107219276.40609  20403140.720    83547498.45849
  22595527.240   118740326.71808  22595526.500    92524933.25046
 15 03 05 02 32  0.0000000  0 10G01G04G11G14G16G18G19G22G27G32
  23896325.260   125576048.50508  23896327.140    97851472.72746
  21559293.940   113294884.11209  21559291.820    88281733.23647
  22914790.620   120418060.34108  22914788.080    93832266.11546
  24463181.520   128554886.29108  24463179.880   100172629.32244
  22195666.680   116639029.63009  22195663.940    90887558.15247
  23505050.860   123519925.46008  23505047.680    96249298.00645
  20775035.420   109173586.23909  20775030.740    85070325.99648
  21053507.040   110636978.12909  21053501.620    86210643.94648
  20405057.400   107229344.89609  20405056.800    83555344.02749
  22575165.120   118633323.48408  22575164.340    92441554.13746
 15 03 05 02 32 30.0000000  0 10G01G04G11G14G16G18G19G22G27G32
  23881426.920   125497757.30008  23881428.480    97790466.63646
  21548190.900   113236537.24609  21548188.720    88236268.16847
  22899423.260   120337303.82808  22899420.580    93769338.97846
  24449495.660   128482966.22008  24449494.020   100116587.71844
  22213010.800   116730173.77009  22213008.100    90958579.53147
  23520339.200   123600266.20208  23520335.920    96311901.17445
  20768448.760   109138972.59709  20768443.960    85043354.32348
  21059913.840   110670645.91709  21059908.380    86236878.59048
  20407044.560   107239788.06809  20407044.120    83563481.55549
  22554852.620   118526580.73908  22554851.780    92358378.00246
 15 03 05 02 33  0.0000000  0 10G01G04G11G14G16G18G19G22G27G32
  23866556.780   125419614.42608  23866558.280    97729576.12546
  21537137.680   113178452.23809  21537135.540    88191007.13747
  22884080.900   120256678.68508  22884078.000    93706514.20446
  24435830.680   128411155.59308  24435828.960   100060631.39644
  22230414.080   116821628.74109  22230411.320    91029843.12747
  23535671.900   123680840.56608  23535668.580    96374686.38846
  20761917.600   109104650.83909  20761912.660    85016610.09548
  21066411.980   110704793.78609  21066406.540    86263487.32848
  20409103.280   107250607.16409  20409102.920    83571912.00949
  22534590.340   118420101.72808  22534589.340    92275407.37346
 15 03 05 02 33 30.0000000  0 10G01G04G11G14G16G18G19G22G27G32
  23851714.820   125341620.17708  23851716.540    97668801.43146
  21526134.280   113120629.56409  21526132.340    88145950.51047
  22868763.660   120176185.48608  22868760.420    93643792.24146
  24422187.020   128339457.19507  24422185.180   100004762.48744
  22247875.960   116913391.62709  22247873.100    91101346.64947
  23551048.760   123761646.57108  23551045.440    96437652.09645
  20755442.160   109070622.29809  20755437.240    84990094.34748
  21073001.180   110739420.30809  21072995.740    86290469.02748
  20411233.840   107261803.14309  20411233.440    83580636.13449
  22514378.740   118313889.19008  22514377.640    92192644.38946
 15 03 05 02 34  0.0000000  0 10G01G04G11G14G16G18G19G22G27G32
  23836901.220   125263774.62508  23836902.980    97608142.59546
  21515180.660   113063068.87209  21515178.980    88101098.03747
  22853471.500   120095824.64808  22853468.060    93581173.42946
  24408565.160   128267873.97108  24408563.200    99948983.34844
  22265395.960   117005459.80609  22265393.000    91173088.06947
  23566469.240   123842681.85608  23566465.960    96500796.46645
  20749022.720   109036888.08909  20749017.840    84963807.95548
  21079681.200   110774524.10309  21079675.780    86317822.64948
  20413436.300   107273376.65409  20413435.820    83589654.45749
  22494218.460   118207945.92808  22494217.140    92110091.23346
 15 03 05 02 34 30.0000000  0 10G01G04G11G14G16G18G19G22G27G32
  23822116.220   125186078.76508  23822117.920    97547600.41346
  21504277.240   113005771.61009  21504275.700    88056450.81347
  22838204.780   120015598.13908  22838201.460    93518659.27646
  24394965.900   128196409.59807  24394964.080    99893296.81144
  22282973.720   117097831.27509  22282970.640    91245065.81547
  23581933.040   123923944.92308  23581929.760    96564118.32445
  20742659.740   109003450.51709  20742654.940    84937752.69148
  21086451.920   110810104.51109  21086446.540    86345547.64448
  20415710.900   107285329.43709  20415710.360    83598968.29749
  22474110.020   118102275.24708  22474108.560    92027750.46746
 15 03 05 02 35  0.0000000  0 10G01G04G11G14G16G18G19G22G27G32
  23807359.220   125108529.85207  23807360.940    97487172.73646
  21493423.540   112948734.64209  21493421.920    88012006.42947
  22822963.040   119935503.31608  22822960.000    93456247.74046
  24381389.320   128125064.35707  24381387.600    99837703.10944
  22300608.200   117190501.06409  22300605.140    91317276.01547
  23597439.460   124005431.48908  23597436.080    96627614.32345
  20736352.980   108970308.06409  20736348.160    84911927.39949
  21093312.420   110846157.02309  21093307.140    86373640.50348
  20418057.320   107297659.37709  20418056.680    83608576.02649
  22454053.480   117996877.28908  22454051.920    91945622.20646
 15 03 05 02 35 30.0000000  0 10G01G04G11G14G16G18G19G22G27G32
  23792631.020   125031132.14808  23792632.720    97426862.88146
  21482620.260   112891962.04809  21482618.420    87967768.05847
  22807747.120   119855544.36308  22807744.520    93393942.06646
  24367836.680   128053845.22107  24367834.900    99782207.67644
  22318299.640   117283469.97509  22318296.620    91389719.30847
  23612988.660   124087143.06808  23612985.280    96691285.67145
  20730103.420   108937466.07909  20730098.560    84886336.24048
  21100263.240   110882684.21509  21100258.040    86402103.24848
  20420476.460   107310371.28909  20420475.680    83618481.41549
  22434050.000   117891758.58308  22434048.500    91863711.56246
 15 03 05 02 36  0.0000000  0 10G01G04G11G14G16G18G19G22G27G32
  23777930.980   124953883.48108  23777932.700    97366669.13746
  21471866.880   112835451.95309  21471864.820    87923734.22647
  22792556.900   119775720.23508  22792554.500    93331741.46546
  24354308.180   127982752.77807  24354306.420    99726810.99044
  22336046.920   117376733.03109  22336044.160    91462391.78947
  23628579.880   124169075.26708  23628576.420    96755128.92845
  20723910.900   108904923.85409  20723905.940    84860978.66048
  21107303.780   110919682.38709  21107298.520    86430932.99048
  20422967.860   107323463.67909  20422967.100    83628683.26349
  22414099.700   117786919.74308  22414098.420    91782018.99446
 15 03 05 02 36 30.0000000  0 10G01G04G11G14G16G18G19G22G27G32
  23763258.660   124876781.10407  23763260.480    97306589.38046
  21461162.640   112779201.07309  21461160.600    87879902.37847
  22777391.920   119696028.46808  22777389.520    93269644.00946
  24340803.880   127911787.09507  24340801.980    99671513.03744
  22353849.180   117470285.10309  22353846.680    91535289.47747
  23644212.220   124251223.51308  23644208.760    96819140.54145
  20717775.060   108872679.62109  20717770.060    84835853.27848
  21114433.040   110957146.87509  21114427.780    86460126.10048
  20425531.200   107336934.41409  20425530.540    83639179.93349
  22394202.680   117682360.53909  22394201.460    91700544.32846
 15 03 05 02 37  0.0000000  0 10G01G04G11G14G16G18G19G22G27G32
  23748615.140   124799829.87508  23748617.280    97246627.41046
  21450508.620   112723214.63009  21450506.660    87836276.58447
  22762253.220   119616474.26208  22762250.820    93207653.75246
  24327325.240   127840955.78607  24327323.420    99616319.81344
  22371706.840   117564127.80609  22371704.420    91608413.63247
  23659886.000   124333589.68808  23659882.660    96883321.96245
  20711697.060   108840739.55209  20711692.080    84810964.90848
  21121651.700   110995081.24209  21121646.480    86489685.34748
  20428167.580   107350788.99709  20428167.020    83649975.70349
  22374360.360   117578088.35909  22374359.100    91619293.29546
 15 03 05 02 37 30.0000000  0 10G01G04G11G14G16G18G19G22G27G32
  23733999.960   124723026.99508  23734002.500    97186781.05146
  21439904.320   112667489.55309  21439902.500    87792854.45047
  22747140.280   119537055.11908  22747137.900    93145768.73146
  24313872.060   127770258.85507  24313870.440    99561231.33445
  22389618.800   117658255.53109  22389616.360    91681759.88647
  23675600.440   124416169.44908  23675597.300    96947669.81345
  20705676.540   108809101.69509  20705671.600    84786312.02948
  21128958.880   111033480.61109  21128953.680    86519606.93348
  20430876.580   107365025.11609  20430876.060    83661068.78249
  22354572.640   117474102.90509  22354571.280    91538265.69346
 15 03 05 02 38  0.0000000  0 10G01G04G11G14G16G18G19G22G27G32
  23719413.700   124646375.87908  23719416.560    97127052.95546
  21429350.500   112612029.31209  21429348.820    87749638.68447
  22732053.740   119457774.81008  22732051.380    93083991.89746
  24300445.620   127699702.36607  24300444.120    99506252.29145
  22407585.260   117752669.21409  22407582.700    91755328.95747
  23691355.700   124498963.34208  23691352.560    97012184.52245
  20699714.460   108777770.78209  20699709.520    84761898.32848
  21136354.920   111072346.94009  21136349.740    86549892.38248
  20433658.960   107379646.89009  20433658.460    83672462.36949
  22334840.660   117370410.19609  22334839.180    91457466.20846
 15 03 05 02 38 30.0000000  0 10G01G04G11G14G16G18G19G22G27G32
  23704855.480   124569871.87408  23704858.300    97067439.47846
  21418846.300   112556829.17109  21418844.620    87706625.59647
  22716992.780   119378629.33608  22716990.480    93022320.12946
  24287045.580   127629284.61007  24287043.960    99451381.32445
  22425604.680   117847360.99609  22425601.980    91829114.73547
  23707150.420   124581964.65408  23707147.260    97076860.86545
  20693810.160   108746743.60509  20693805.260    84737721.30549
  21143838.620   111111673.91709  21143833.440    86580536.77848
  20436514.000   107394650.25309  20436513.460    83684153.29949
  22315163.980   117267008.25309  22315162.400    91376893.28647
 15 03 05 02 39  0.0000000  0 10G01G04G11G14G16G18G19G22G27G32
  23690326.100   124493519.29408  23690328.700    97007944.01445
  21408392.380   112501893.20409  21408390.660    87663818.35347
  22701958.520   119299623.63808  22701956.000    92960757.29046
  24273673.280   127559012.63107  24273671.600    99396623.95244
  22443677.280   117942332.44809  22443674.460    91903118.44647
  23722985.020   124665175.63408  23722981.820    97141700.57845
  20687964.640   108716025.65509  20687959.900    84713785.24448
  21151410.440   111151463.95309  21151405.260    86611542.00548
  20439442.640   107410040.10509  20439442.040    83696145.38849
  22295543.880   117163903.79709  22295542.320    91296552.19947
 15 03 05 02 39 30.0000000  0 10G01G04G11G14G16G18G19G22G27G32
  23675825.340   124417316.84708  23675827.460    96948565.51746
  21397988.540   112447220.50609  21397986.720    87621216.25247
  22686950.700   119220756.60908  22686947.920    92899302.48846
  24260328.880   127488888.12107  24260327.420    99341981.52845
  22461802.300   118037579.28809  22461799.300    91977336.74047
  23738858.740   124748592.44908  23738855.620    97206700.68145
  20682178.040   108685616.69609  20682173.300    84690089.93748
  21159069.740   111191713.84609  21159064.540    86642905.55048
  20442444.660   107425815.76109  20442444.080    83708438.09549
  22275980.580   117061098.17509  22275979.040    91216443.95547
 15 03 05 02 40  0.0000000  0 10G01G04G11G14G16G18G19G22G27G32
  23661353.300   124341265.19608  23661355.100    96889304.52046
  21387634.860   112392811.36909  21387633.040    87578819.54547
  22671969.560   119142029.50208  22671966.700    92837956.71246
  24247013.140   127418914.31207  24247011.780    99287456.48345
  22479979.260   118133099.31409  22479976.140    92051767.91047
  23754771.300   124832213.86008  23754768.240    97271860.21045
  20676450.740   108655518.91909  20676445.840    84666637.13048
  21166816.360   111232422.67509  21166811.160    86674626.71548
  20445520.280   107441978.41309  20445519.760    83721032.36349
  22256474.680   116958594.50409  22256473.160    91136570.99547
 15 03 05 02 40 30.0000000  0 10G01G04G11G14G16G18G19G22G27G32
  23646909.640   124265362.89808  23646911.300    96830159.92246
  21377330.980   112338664.17409  21377329.100    87536626.94847
  22657014.820   119063441.28408  22657012.000    92776719.16746
  24233726.480   127349092.89007  24233725.140    99233050.18344
  22498207.280   118228888.40309  22498204.240    92126408.73647
  23770722.100   124916036.16608  23770719.080    97337176.26845
  20670782.520   108625731.89109  20670777.460    84643426.45948
  21174649.680   111273587.25109  21174644.440    86706703.00848
  20448669.400   107458527.26909  20448668.940    83733927.56749
  22237026.500   116856393.93009  22237024.960    91056934.21547
 15 03 05 02 41  0.0000000  0 10G01G04G11G14G16G18G19G22G27G32
  23632494.460   124189610.57608  23632496.000    96771132.17246
  21367077.160   112284779.75509  21367075.220    87494639.09147
  22642086.780   118984993.23508  22642084.040    92715590.84146
  24220469.580   127279427.23907  24220468.280    99178765.27545
  22516485.880   118324943.66909  22516483.080    92201256.96147
  23786710.780   125000057.53308  23786707.720    97402647.45545
  20665173.720   108596257.45609  20665168.680    84620459.36049
  21182569.500   111315206.24709  21182564.160    86739133.39048
  20451892.220   107475463.45509  20451891.820    83747124.59149
  22217636.660   116754499.64709  22217635.140    90977536.10547
 15 03 05 02 41 30.0000000  0 10G01G04G11G14G16G18G19G22G27G32
  23618108.080   124114009.86308  23618109.580    96712222.56646
  21356873.620   112231159.55409  21356871.720    87452857.13148
  22627185.740   118906687.36009  22627182.920    92654573.31346
  24207243.100   127209921.70407  24207241.860    99124605.14345
  22534815.100   118421265.36609  22534812.540    92276312.79447
  23802737.260   125084277.62708  23802734.160    97468273.48545
  20659624.880   108567098.56209  20659620.040    84597738.14049
  21190575.800   111357279.59509  21190570.420    86771917.81848
  20455189.200   107492789.24909  20455188.780    83760625.20149
  22198305.800   116652915.75909  22198304.420    90898379.87647
 15 03 05 02 42  0.0000000  0 10G01G04G11G14G16G18G19G22G27G32
  23603750.300   124038559.32708  23603751.640    96653429.97546
  21346720.040   112177802.16009  21346718.180    87411279.94547
  22612311.500   118828522.70409  22612308.520    92593665.83446
  24194047.440   127140577.72808  24194046.020    99070570.89145
  22553194.080   118517848.28909  22553191.660    92351572.18747
  23818800.800   125168692.57808  23818797.780    97534051.35145
  20654135.960   108538254.69009  20654131.280    84575262.39149
  21198668.000   111399804.33009  21198662.640    86805053.97548
  20458560.160   107510503.65009  20458559.680    83774428.61949
  22179034.280   116551643.45909  22179032.900    90819466.41647
 15 03 05 02 42 30.0000000  0 10G01G04G11G14G16G18G19G22G27G32
  23589421.480   123963260.67308  23589422.780    96594755.73846
  21336616.680   112124709.20709  21336614.920    87369908.83547
  22597464.500   118750501.40209  22597461.180    92532870.05546
  24180883.420   127071399.96008  24180881.840    99016666.15045
  22571622.640   118614691.55109  22571620.340    92427034.44947
  23834901.420   125253302.09908  23834898.440    97599980.85445
  20648707.600   108509729.07709  20648703.060    84553034.63948
  21206846.060   111442780.20209  21206840.720    86838541.67148
  20462005.580   107528609.02109  20462005.000    83788536.70049
  22159822.800   116450686.92809  22159821.380    90740799.01846
 15 03 05 02 43  0.0000000  0 10G01G04G11G14G16G18G19G22G27G32
  23575120.640   123888109.41408  23575122.080    96536196.34346
  21326562.760   112071876.02909  21326561.100    87328740.10947
  22582643.940   118672619.48608  22582640.560    92472182.87246
  24167750.640   127002386.39408  24167749.020    98962889.34545
  22590099.220   118711786.85709  22590097.020    92502693.09747
  23851037.840   125338099.31408  23851034.840    97666056.59345
  20643339.260   108481518.40509  20643334.740    84531052.29148
  21215108.720   111486200.83409  21215103.440    86872375.91948
  20465524.580   107547101.40909  20465523.980    83802946.33949
  22140671.040   116350044.27109  22140669.660    90662376.17847
 15 03 05 02 43 30.0000000  0 10G01G04G11G14G16G18G19G22G27G32
  23560848.740   123813110.93008  23560850.380    96477756.00846
  21316559.420   112019308.06209  21316557.660    87287778.04047
  22567851.080   118594882.77309  22567847.780    92411608.84146
  24154650.580   126933545.41307  24154648.960    98909247.05345
  22608624.540   118809137.81909  22608622.280    92578550.97047
  23867210.640   125423087.64408  23867207.640    97732281.26045
  20638032.180   108453629.30609  20638027.640    84509320.53649
  21223456.680   111530069.77309  21223451.420    86906559.50648
  20469118.320   107565986.67209  20469117.680    83817662.13249
  22121580.540   116249723.31009  22121579.200    90584204.03447
 15 03 05 02 44  0.0000000  0 10G01G04G11G14G16G18G19G22G27G32
  23546606.000   123738266.14807  23546607.740    96419435.40746
  21306606.820   111967006.30509  21306604.880    87247023.41047
  22553086.240   118517292.80509  22553083.180    92351149.14246
  24141584.100   126864880.72908  24141582.420    98855742.10444
  22627198.100   118906742.00409  22627195.820    92654606.15147
  23883419.620   125508265.78908  23883416.560    97798653.82645
  20632786.740   108426064.06809  20632782.160    84487841.11549
  21231889.840   111574386.29309  21231884.580    86941091.86248
  20472787.100   107585266.32809  20472786.460    83832685.23649
  22102551.960   116149727.51609  22102550.640    90506285.25547
 15 03 05 02 44 30.0000000  0 10G01G04G11G14G16G18G19G22G27G32
  23532391.700   123663571.16308  23532393.620    96361231.58246
  21296704.100   111914966.71109  21296702.100    87206473.09347
  22538348.800   118439846.51209  22538345.880    92290801.39846
  24128550.980   126796391.17407  24128549.360    98802373.62045
  22645818.600   119004592.70409  22645816.400    92730853.41747
  23899663.420   125593627.41008  23899660.460    97865169.37345
  20627602.320   108398819.78309  20627597.740    84466611.79649
  21240407.060   111619144.68409  21240401.880    86975968.52248
  20476530.300   107604936.98409  20476529.660    83848013.01249
  22083584.980   116050055.46309  22083583.680    90428618.75647
 15 03 05 02 45  0.0000000  0 10G01G04G11G14G16G18G19G22G27G32
  23518206.040   123589025.89708  23518207.980    96303144.38646
  21286851.140   111863189.03309  21286849.200    87166126.86748
  22523638.600   118362543.90508  22523635.700    92230565.62146
  24115551.700   126728079.94008  24115550.240    98749144.11445
  22664485.520   119102687.26609  22664483.260    92807290.71147
  23915941.720   125679170.35708  23915938.760    97931826.18845
  20622479.240   108371897.72409  20622474.620    84445633.57249
  21249007.960   111664342.86309  21249002.860    87011187.87448
  20480347.960   107624999.06209  20480347.340    83863645.79449
  22064680.060   115950709.64009  22064678.800    90351206.45947
 15 03 05 02 45 30.0000000  0 10G01G04G11G14G16G18G19G22G27G32
  23504049.380   123514632.44908  23504051.180    96245175.49446
  21277048.420   111811675.43409  21277046.560    87125986.41248
  22508956.140   118285387.70408  22508953.200    92170443.92446
  24102587.320   126659951.66308  24102585.960    98696057.15945
  22683198.600   119201024.33709  22683196.260    92883916.97447
  23932254.520   125764894.66008  23932251.420    97998624.33645
  20617418.100   108345301.14309  20617413.440    84424908.95649
  21257692.620   111709981.07009  21257687.480    87046750.10948
  20484240.560   107645455.18409  20484240.020    83879585.62949
  22045838.100   115851694.65109  22045836.920    90274051.95447
 15 03 05 02 46  0.0000000  0 10G01G04G11G14G16G18G19G22G27G32
  23489921.980   123440392.42108  23489923.780    96187326.16346
  21267296.220   111760427.31109  21267294.400    87086052.84148
  22494301.920   118208380.29608  22494298.980    92110438.16546
  24089658.680   126592010.88408  24089657.060    98643116.27845
  22701957.660   119299603.29009  22701955.280    92960731.70847
  23948601.660   125850799.54508  23948598.260    98065563.20345
  20612419.500   108319032.87109  20612414.740    84404440.17049
  21266460.940   111756059.01309  21266455.800    87082654.99548
  20488208.580   107666307.45909  20488208.120    83895834.16149
  22027059.860   115753014.61708  22027058.820    90197158.44247
 15 03 05 02 46 30.0000000  0 10G01G04G11G14G16G18G19G22G27G32
  23475823.120   123366301.88408  23475824.880    96129593.32446
  21257593.820   111709440.93109  21257591.920    87046323.21647
  22479675.460   118131518.18708  22479672.420    92050545.63846
  24076765.520   126524256.36608  24076763.740    98590320.58244
  22720761.380   119398417.29008  22720759.020    93037729.59947
  23964982.020   125936878.99408  23964978.500    98132638.10344
  20607482.900   108293090.47109  20607478.100    84384225.31449
  21275311.900   111802571.16609  21275306.800    87118898.23048
  20492251.380   107687552.46109  20492250.960    83912388.69449
  22008345.100   115654668.14209  22008344.140    90120524.86047
 15 03 05 02 47  0.0000000  0 10G01G04G11G14G16G18G19G22G27G32
  23461753.040   123292362.09208  23461754.640    96071977.91246
  21247941.440   111658717.23209  21247939.460    87006798.25447
  22465077.080   118054803.18208  22465073.900    91990767.72646
  24063908.520   126456692.30208  24063906.820    98537673.25344
  22739609.360   119497464.10409  22739606.940    93114908.90247
  23981395.440   126023132.27208  23981391.720    98199848.41844
  20602608.680   108267476.13609  20602603.860    84364266.08549
  21284245.280   111849516.55809  21284240.300    87155479.04848
  20496369.280   107709191.89109  20496368.860    83929250.57749
  21989694.560   115556658.85609  21989693.480    90044154.01047
 15 03 05 02 47 30.0000000  0 10G01G04G11G14G16G18G19G22G27G32
  23447711.980   123218574.83608  23447713.320    96014481.37546
  21238339.420   111608258.17909  21238337.360    86967479.53848
  22450507.180   117978237.66708  22450503.900    91931106.32146
  24051088.540   126389323.07008  24051086.820    98485177.76045
  22758501.380   119596742.79408  22758498.880    93192268.88746
  23997841.940   126109559.19108  23997838.280    98267194.08044
  20597797.460   108242193.08309  20597792.600    84344564.99949
  21293261.160   111896895.28209  21293256.200    87192397.53748
  20500562.660   107731228.03309  20500562.200    83946421.59749
  21971109.060   115458991.10809  21971107.740    89968049.31047
 15 03 05 02 48  0.0000000  0 10G01G04G11G14G16G18G19G22G27G32
  23433699.920   123144939.97308  23433701.200    95957103.59146
  21228787.660   111558063.57809  21228785.640    86928366.88248
  22435965.720   117901821.85508  22435962.400    91871561.55146
  24038306.200   126322151.76707  24038304.560    98432836.51445
  22777437.060   119696251.00508  22777434.540    93269807.72347
  24014321.080   126196157.29908  24014317.340    98334673.11744
  20593049.560   108217242.50009  20593044.600    84325122.98449
  21302359.120   111944705.24609  21302354.040    87229652.05648
  20504831.640   107753661.26709  20504831.140    83963902.03949
  21952589.060   115361667.20209  21952587.420    89892212.51347
 15 03 05 02 48 30.0000000  0 10G01G04G11G14G16G18G19G22G27G32
  23419716.360   123071455.18608  23419717.600    95899842.75747
  21219285.720   111508130.88209  21219283.780    86889458.30548
  22421452.400   117825554.11708  22421449.280    91812132.16746
  24025561.660   126255178.95208  24025560.260    98380649.92345
  22796415.440   119795983.26508  22796412.860    93347521.14347
  24030831.920   126282921.88108  24030828.240    98402281.85645
  20588364.680   108192623.08509  20588359.660    84305939.02249
  21311538.360   111992942.41209  21311533.200    87267239.45448
  20509175.800   107776489.70909  20509175.280    83981690.43549
  21934134.440   115264687.33309  21934132.680    89816643.81047
 15 03 05 02 49  0.0000000  0 10G01G04G11G14G16G18G19G22G27G32
  23405761.500   122998121.70708  23405762.740    95842699.83146
  21209833.860   111458461.26709  21209831.980    86850754.72147
  22406967.560   117749436.34008  22406964.500    91752819.62746
  24012855.660   126188408.38708  24012854.040    98328620.93844
  22815436.160   119895937.93908  22815433.460    93425407.86946
  24047374.220   126369852.07808  24047370.620    98470019.66245
  20583743.340   108168337.46409  20583738.300    84287015.15749
  21320798.680   112041605.95809  21320793.540    87305159.08848
  20513595.440   107799715.04709  20513594.920    83999788.10649
  21915746.000   115168055.17309  21915744.220    89741346.05347
 15 03 05 02 49 30.0000000  0 10G01G04G11G14G16G18G19G22G27G32
  23391836.740   122924946.84408  23391837.880    95785680.49246
  21200433.500   111409062.21309  21200431.640    86812261.96847
  22392512.780   117673476.34209  22392509.820    91693630.03346
  24000190.040   126121850.34408  24000188.300    98276757.55044
  22834500.000   119996119.04409  22834497.260    93503471.04046
  24063948.920   126456952.81708  24063945.500    98537890.36945
  20579187.180   108144394.25109  20579182.080    84268358.09849
  21330141.160   112090701.16609  21330136.060    87343415.09748
  20518092.100   107823345.03209  20518091.500    84018201.08149
  21897425.560   115071780.56409  21897423.800    89666326.90947
 15 03 05 02 50  0.0000000  0 10G01G04G11G14G16G18G19G22G27G32
  23377939.940   122851918.75108  23377940.900    95728775.52646
  21191082.320   111359921.71409  21191080.520    86773970.68248
  22378085.920   117597662.97008  22378082.980    91634554.69946
  23987563.200   126055495.76208  23987561.420    98225052.70444
  22853604.320   120096512.53209  22853601.560    93581699.70547
  24080553.460   126544210.52908  24080550.200    98605883.37545
  20574694.100   108120782.76909  20574688.980    84249959.54349
  21339563.280   112140214.53109  21339558.140    87381996.93748
  20522663.540   107847368.24209  20522662.880    84036920.46049
  21879171.360   114975854.04609  21879169.520    89591578.99547
 15 03 05 02 50 30.0000000  0 10G01G04G11G14G16G18G19G22G27G32
  23364072.200   122779043.22508  23364073.020    95671989.44046
  21181781.400   111311045.48309  21181779.620    86735885.32048
  22363688.200   117522002.54508  22363685.200    91575598.53847
  23974976.760   125989353.44208  23974974.740    98173513.27745
  22872749.520   120197120.79308  22872746.720    93660095.73047
  24097188.580   126631628.93808  24097185.500    98674001.60545
  20570265.420   108097509.85409  20570260.380    84231824.80649
  21349065.700   112190149.73009  21349060.500    87420907.48448
  20527310.980   107871790.95209  20527310.320    84055951.13849
  21860984.940   114880283.95009  21860983.220    89517108.81447
 15 03 05 02 51  0.0000000  0 10G01G04G11G14G16G18G19G22G27G32
  23350233.760   122706322.15308  23350234.560    95615323.69046
  21172531.200   111262435.54109  21172529.300    86698007.45948
  22349320.160   117446497.55509  22349317.040    91516763.48746
  23962431.520   125923427.81108  23962429.500    98122142.68845
  22891935.300   120297942.25608  22891932.500    93738657.87647
  24113854.260   126719207.68508  24113851.240    98742244.76945
  20565901.800   108074578.75009  20565896.760    84213956.41549
  21358648.400   112240506.72309  21358643.080    87460146.69548
  20532034.880   107896615.41309  20532034.300    84075294.85849
  21842867.140   114785074.44709  21842865.540    89442919.60947
 15 03 05 02 51 30.0000000  0 10G01G04G11G14G16G18G19G22G27G32
  23336424.160   122633754.03308  23336425.260    95558777.13646
  21163331.380   111214090.07309  21163329.480    86660335.69747
  22334981.580   117371146.77809  22334978.240    91458048.59646
  23949927.740   125857720.20108  23949925.840    98070941.96344
  22911160.980   120398973.67608  22911158.360    93817383.63147
  24130549.780   126806943.02508  24130546.740    98810609.95645
  20561603.080   108051989.12909  20561598.060    84196354.10949
  21368310.740   112291282.03909  21368305.320    87499711.87948
  20536835.040   107921840.60009  20536834.560    84094950.84449
  21824818.180   114690226.71709  21824816.660    89369012.30947
 15 03 05 02 52  0.0000000  0 10G01G04G11G14G16G18G19G22G27G32
  23322643.000   122561335.71408  23322644.520    95502347.30946
  21154181.260   111166005.94409  21154179.400    86622867.56148
  22320671.900   117295948.19609  22320668.580    91399452.31847
  23937465.420   125792230.45908  23937463.600    98019911.01645
  22930425.400   120500209.18108  22930422.920    93896268.39946
  24147274.100   126894829.98508  24147271.100    98879093.28645
  20557369.040   108029739.46909  20557364.080    84179016.70549
  21378051.660   112342470.27809  21378046.120    87539598.82248
  20541710.980   107947463.75909  20541710.500    84114916.93849
  21806837.900   114595739.73109  21806836.400    89295386.11147
 15 03 05 02 52 30.0000000  0 10G01G04G11G14G16G18G19G22G27G32
  23308891.160   122489070.19708  23308892.840    95446036.55046
  21145081.460   111118186.33309  21145079.680    86585605.55348
  22306391.700   117220905.28809  22306388.600    91340977.32946
  23925045.760   125726964.64708  23925043.880    97969054.56645
  22949728.540   120601648.11608  22949726.060    93975311.69846
  24164027.380   126982869.31308  24164024.420    98947695.34945
  20553200.460   108007833.57209  20553195.540    84161947.17449
  21387871.480   112394073.33409  21387865.880    87579808.99448
  20546663.300   107973488.26109  20546662.800    84135195.76849
  21788927.340   114501619.12909  21788925.800    89222045.40347
 15 03 05 02 53  0.0000000  0 10G01G04G11G14G16G18G19G22G27G32
  23295168.620   122416958.60908  23295170.440    95389845.73746
  21136032.160   111070632.11109  21136030.360    86548550.33348
  22292141.340   117146019.94208  22292138.380    91282625.11447
  23912669.460   125661926.52308  23912667.440    97918375.54144
  22969070.220   120703289.30708  22969067.700    94054512.59646
  24180809.460   127071059.99108  24180806.360    99016415.35345
  20549097.780   107986273.97509  20549092.880    84145147.47749
  21397769.880   112446089.80109  21397764.260    87620341.29948
  20551692.260   107999915.61309  20551691.800    84155788.50449
  21771087.180   114407868.36709  21771085.640    89148992.87947
 15 03 05 02 53 30.0000000  0 10G01G04G11G14G16G18G19G22G27G32
  23281475.040   122344998.66508  23281476.920    95333773.09546
  21127032.920   111023340.92309  21127031.060    86511700.07148
  22277920.540   117071290.22709  22277917.740    91224394.18147
  23900336.500   125597116.41508  23900334.360    97867874.21344
  22988449.380   120805127.43008  22988446.820    94133866.95746
  24197619.540   127159397.81208  24197616.440    99085250.00545
  20545060.740   107965059.63609  20545055.900    84128616.82349
  21407746.120   112498515.56409  21407740.480    87661192.54548
  20556797.520   108026743.95909  20556797.100    84176693.70749
  21753317.380   114314487.61909  21753315.880    89076228.69247
 15 03 05 02 54  0.0000000  0 10G01G04G11G14G16G18G19G22G27G32
  23267810.400   122273189.94808  23267812.080    95277818.27346
  21118083.680   110976312.31509  21118081.740    86475054.40848
  22263729.580   116996716.37609  22263726.640    91166284.69146
  23888047.380   125532537.17408  23888045.360    97817552.77645
  23007865.160   120907157.98708  23007862.640    94213371.25046
  24214457.140   127247880.04508  24214453.920    99154197.18544
  20541089.600   107944191.52709  20541084.860    84112355.96449
  21417799.820   112551348.10309  21417794.140    87702360.76248
  20561979.100   108053973.19909  20561978.660    84197911.29049
  21735618.280   114221478.77509  21735616.840    89003754.29947
 15 03 05 02 54 30.0000000  0 10G01G04G11G14G16G18G19G22G27G32
  23254174.920   122201533.93508  23254176.240    95221982.46946
  21109184.700   110929547.74409  21109182.720    86438614.47748
  22249568.840   116922300.66509  22249565.880    91108298.45146
  23875803.020   125468193.04808  23875800.940    97767414.52945
  23027317.740   121009381.79608  23027315.240    94293026.13146
  24231322.180   127336506.33608  24231318.740    99223256.63744
  20537184.840   107923672.16209  20537180.200    84096366.84349
  21427930.840   112604586.84409  21427925.160    87743845.50348
  20567237.320   108081605.19009  20567236.840    84219442.70149
  21717990.740   114128845.93109  21717989.320    88931572.89147
 15 03 05 02 55  0.0000000  0 10G01G04G11G14G16G18G19G22G27G32
  23240568.520   122130030.59608  23240569.460    95166265.61046
  21100335.980   110883047.29309  21100334.000    86402380.38048
  22235438.280   116848043.61109  22235435.200    91050435.82446
  23863603.920   125404086.47408  23863601.980    97717461.38945
  23046806.280   121111794.61808  23046803.860    94372828.30446
  24248214.260   127425274.58408  24248210.780    99292426.69244
  20533346.720   107903502.70009  20533342.080    84080650.36749
  21438138.760   112658229.99909  21438133.160    87785645.35248
  20572572.200   108109640.32309  20572571.760    84241288.24549
  21700435.140   114036591.22709  21700433.800    88859686.12947
 15 03 05 02 55 30.0000000  0 10G01G04G11G14G16G18G19G22G27G32
  23226991.080   122058679.92808  23226991.800    95110667.71246
  21091537.480   110836810.73809  21091535.520    86366351.91448
  22221337.940   116773945.95509  22221334.640    90992697.40646
  23851450.500   125340220.01508  23851448.620    97667695.36645
  23066330.300   121214394.09308  23066327.980    94452775.91846
  24265132.960   127514182.87908  24265129.500    99361705.88344
  20529575.520   107883684.62609  20529570.780    84065207.70449
  21448423.160   112712275.39809  21448417.680    87827758.64448
  20577983.860   108138078.85709  20577983.460    84263448.13349
  21682951.960   113944717.04309  21682950.740    88788095.88047
 15 03 05 02 56  0.0000000  0 10G01G04G11G14G16G18G19G22G27G32
  23213442.880   121987483.48108  23213443.720    95055190.00047
  21082789.460   110790839.55109  21082787.560    86330530.23248
  22207268.280   116700009.81309  22207264.980    90935084.84446
  23839343.680   125276598.61208  23839341.900    97618120.29245
  23085889.560   121317178.69808  23085887.320    94532867.78146
  24282078.140   127603230.23608  24282074.700    99431093.44044
  20525871.640   107864220.50309  20525866.880    84050040.85949
  21458784.020   112766722.69709  21458778.640    87870185.11148
  20583472.660   108166922.72709  20583472.280    84285923.87249
  21665541.960   113853227.36109  21665540.820    88716805.23847
 15 03 05 02 56 30.0000000  0 10G01G04G11G14G16G18G19G22G27G32
  23199923.440   121916438.99608  23199924.700    94999830.69447
  21074091.520   110745131.69409  21074089.700    86294913.74548
  22193229.100   116626233.65109  22193225.860    90877596.95146
  23827283.640   125213222.62608  23827281.900    97568736.44045
  23105483.040   121420142.92808  23105480.800    94613099.62846
  24299049.020   127692412.62008  24299045.460    99500586.20744
  20522234.860   107845109.35809  20522230.120    84035149.04949
  21469220.580   112821567.62909  21469215.260    87912921.41748
  20589038.200   108196169.93909  20589037.800    84308713.89849
  21648205.160   113762122.19909  21648204.080    88645814.22547
 15 03 05 02 57  0.0000000  0 10G01G04G11G14G16G18G19G22G27G32
  23186432.940   121845547.18808  23186434.640    94944590.35746
  21065443.820   110699687.52109  21065441.980    86259502.71148
  22179220.680   116552618.72809  22179217.520    90820234.69246
  23815271.000   125150095.85108  23815269.180    97519546.76745
  23125110.400   121523285.22208  23125108.120    94693470.21946
  24316045.280   127781728.58008  24316041.700    99570183.05744
  20518665.580   107826352.98309  20518660.880    84020533.68649
  21479732.600   112876808.95909  21479727.320    87955966.60348
  20594680.720   108225821.54509  20594680.300    84331819.03749
  21630942.280   113671404.75209  21630941.140    88575125.32447
 15 03 05 02 57 30.0000000  0 10G01G04G11G14G16G18G19G22G27G32
  23172971.980   121774810.80008  23172973.900    94889471.11047
  21056846.880   110654509.99909  21056844.920    86224299.47648
  22165243.620   116479168.77708  22165240.520    90763000.99347
  23803306.880   125087223.95208  23803304.900    97470555.70645
  23144771.460   121626604.96908  23144769.240    94773979.08546
  24333067.080   127871178.76608  24333063.560    99639884.49444
  20515164.640   107807955.62109  20515159.980    84006198.06349
  21490320.200   112932447.33509  21490314.960    87999321.18048
  20600400.800   108255880.65609  20600400.340    84355241.70849
  21613754.160   113581080.06009  21613752.920    88504742.47147
 15 03 05 02 58  0.0000000  0 10G01G04G11G14G16G18G19G22G27G32
  23159539.660   121704223.98708  23159541.660    94834468.42347
  21048299.420   110609592.87809  21048297.460    86189299.13648
  22151296.920   116405878.31009  22151293.800    90705891.54947
  23791390.540   125024603.30508  23791388.520    97421760.41245
  23164464.740   121730094.19008  23164462.520    94854620.00246
  24350112.980   127960755.28108  24350109.560    99709684.37444
  20511731.160   107789912.48309  20511726.420    83992138.46949
  21500981.920   112988474.72109  21500976.580    88042978.87748
  20606197.340   108286341.67909  20606196.840    84378977.55849
  21596640.140   113491144.57909  21596638.660    88434662.88847
 15 03 05 02 58 30.0000000  0 10G01G04G11G14G16G18G19G22G27G32
  23146136.700   121633790.62308  23146138.660    94779585.33547
  21039802.260   110564940.37409  21039800.420    86154505.00048
  22137381.400   116332752.02509  22137378.320    90648910.05646
  23779523.320   124962240.68708  23779521.200    97373166.19645
  23184190.440   121833753.39308  23184188.200    94935393.39346
  24367183.340   128050460.38908  24367180.040    99779584.45845
  20508366.100   107772228.72609  20508361.280    83978358.91849
  21511718.060   113044893.12309  21511712.620    88086941.27248
  20612071.180   108317208.73309  20612070.620    84403029.81049
  21579601.320   113401604.54209  21579599.680    88364891.45147
 15 03 05 02 59  0.0000000  0 10G01G04G11G14G16G18G19G22G27G32
  23132763.280   121563512.33808  23132765.100    94724823.07646
  21031355.760   110520554.00909  21031353.960    86119918.24448
  22123497.560   116259792.18909  22123494.260    90592058.26146
  23767705.960   124900140.62708  23767704.020    97324776.58645
  23203948.220   121937581.25908  23203945.960    95016298.19146
  24384278.060   128140293.33108  24384274.900    99849584.15645
  20505070.020   107754907.16809  20505065.080    83964861.60249
  21522528.540   113101702.16409  21522523.020    88131208.06148
  20618022.660   108348483.76909  20618022.100    84427399.96049
  21562638.440   113312463.81109  21562636.660    88295431.16447
 15 03 05 02 59 30.0000000  0 10G01G04G11G14G16G18G19G22G27G32
  23119418.680   121493385.82308  23119420.440    94670179.08446
  21022959.240   110476430.32109  21022957.440    86085536.16048
  22109644.960   116186996.33209  22109641.500    90535334.22346
  23755938.540   124838302.87208  23755936.660    97276591.34945
  23223736.980   122041571.63208  23223734.680    95097329.62846
  24401396.180   128230249.08108  24401393.100    99919679.53944
  20501842.460   107737945.75509  20501837.480    83951644.91549
  21533412.280   113158896.40609  21533406.700    88175775.00848
  20624051.180   108380163.74509  20624050.640    84452085.64349
  21545751.340   113223721.41009  21545749.480    88226281.25547
 15 03 05 03 00  0.0000000  0 10G01G04G11G14G16G18G19G22G27G32
  23106102.840   121423410.69308  23106104.400    94615653.04346
  21014612.600   110432568.83109  21014610.820    86051358.39048
  22095823.720   116114364.82409  22095820.200    90478738.25447
  23744221.500   124776729.58208  23744219.860    97228612.19945
  23243556.080   122145721.67208  23243553.860    95178485.45746
  24418537.200   128320325.08408  24418534.000    99989868.64145
  20498683.480   107721345.30609  20498678.580    83938709.50049
  21544368.780   113216473.43609  21544363.260    88220640.22048
  20630156.760   108412248.50109  20630156.220    84477086.73749
  21528940.300   113135379.34809  21528938.540    88157443.30947
 15 03 05 03 00 30.0000000  0 10G01G04G11G14G16G18G19G22G27G32
  23092816.720   121353591.36208  23092818.080    94561248.40447
  21006316.820   110388974.01109  21006314.980    86017388.42548
  22082034.720   116041902.69109  22082031.300    90422274.26547
  23732556.160   124715427.97808  23732554.400    97180844.73945
  23263405.820   122250032.78808  23263403.640    95259766.80446
  24435701.480   128410523.59308  24435698.260   100060153.18745
  20495594.300   107705111.59209  20495589.440    83926059.85149
  21555398.580   113274435.71009  21555393.160    88265805.63048
  20636340.320   108444742.72909  20636339.680    84502406.90449
  21512206.660   113047444.13809  21512205.040    88088922.38547
 15 03 05 03 01  0.0000000  0 10G01G04G11G14G16G18G19G22G27G32
  23079559.440   121283923.48308  23079560.700    94506961.77847
  20998071.020   110345641.38809  20998068.960    85983622.75548
  22068277.280   115969606.17509  22068273.840    90365939.32847
  23720942.260   124654396.45608  23720940.340    97133287.74046
  23283284.680   122354497.21808  23283282.540    95341167.63246
  24452887.820   128500838.34808  24452884.600   100130528.31245
  20492574.280   107689241.26109  20492569.360    83913693.35749
  21566500.460   113332776.62009  21566495.180    88311266.07148
  20642600.980   108477642.25109  20642600.240    84528042.88449
  21495550.080   112959913.85309  21495548.560    88020716.99447
 15 03 05 03 01 30.0000000  0 10G01G04G11G14G16G18G19G22G27G32
  23066331.280   121214409.40108  23066332.500    94452794.99847
  20989875.480   110302573.36109  20989873.240    85950063.28048
  22054551.860   115897478.35609  22054548.580    90309735.85347
  23709380.800   124593640.09208  23709378.600    97085945.15845
  23303192.780   122459115.46808  23303190.800    95422688.32146
  24470096.420   128591270.09908  24470093.280   100200994.62844
  20489624.060   107673737.87909  20489619.120    83901612.80249
  21577674.520   113391496.79109  21577669.320    88357022.05948
  20648939.200   108510949.59909  20648938.400    84553996.65749
  21478971.460   112872793.06609  21478970.020    87952830.70047
 15 03 05 03 02  0.0000000  0 10G01G04G11G14G16G18G19G22G27G32
  23053132.000   121145047.39408  23053133.200    94398746.70247
  20981729.880   110259768.18109  20981727.640    85916708.59248
  22040858.260   115825518.28409  22040855.100    90253663.08247
  23697871.920   124533160.21208  23697869.700    97038818.00545
  23323129.300   122563882.41108  23323127.260    95504324.87046
  24487326.440   128681814.46008  24487323.300   100271548.65344
  20486743.540   107658600.87609  20486738.620    83889817.73649
  21588920.000   113450592.32909  21588914.780    88403070.52248
  20655354.660   108544663.46809  20655353.920    84580267.19249
  21462470.840   112786082.29309  21462469.520    87885263.89647
 15 03 05 03 02 30.0000000  0 10G01G04G11G14G16G18G19G22G27G32
  23039962.020   121075838.65908  23039963.140    94344817.85146
  20973634.460   110217226.91909  20973632.300    85883559.55748
  22027196.800   115753727.64909  22027193.760    90197722.35647
  23686416.280   124472960.53308  23686414.080    96991909.20945
  23343093.820   122668796.13408  23343091.700    95586075.80246
  24504577.780   128772471.10308  24504574.680   100342190.19144
  20483933.220   107643832.64209  20483928.300    83878310.03049
  21600236.680   113510062.02309  21600231.480    88449410.53548
  20661847.700   108578785.09409  20661847.060    84606855.46849
  21446048.960   112699784.91209  21446047.640    87818019.21147
 15 03 05 03 03  0.0000000  0 10G01G04G11G14G16G18G19G22G27G32
  23026821.100   121006782.12208  23026822.240    94291007.59447
  20965589.080   110174948.48509  20965587.040    85850615.32448
  22013567.600   115682106.40809  22013564.420    90141913.59346
  23675014.340   124413042.83508  23675012.060    96945220.12645
  23363085.640   122773853.15508  23363083.340    95667938.39446
  24521849.880   128863236.75607  24521846.740   100412916.67044
  20481193.160   107629433.27709  20481188.200    83867089.74349
  21611624.000   113569903.05909  21611618.880    88496039.90548
  20668418.220   108613313.64609  20668417.640    84633760.81749
  21429706.000   112613902.10909  21429704.700    87751097.57547
 15 03 05 03 03 30.0000000  0 10G01G04G11G14G16G18G19G22G27G32
  23013709.680   120937880.93508  23013710.860    94237318.37947
  20957594.280   110132936.05809  20957592.420    85817878.37948
  21999971.500   115610658.56309  21999968.260    90086239.93947
  23663667.100   124353413.04108  23663664.900    96898755.40945
  23383104.720   122879053.53208  23383102.400    95749912.69746
  24539142.860   128954112.57807  24539139.780   100483728.99744
  20478524.200   107615407.32209  20478519.120    83856160.43049
  21623082.180   113630116.34909  21623077.120    88542959.34548
  20675066.860   108648252.45609  20675066.280    84660985.84949
  21413442.980   112528439.32309  21413441.680    87684503.22048
 15 03 05 03 04  0.0000000  0 10G01G04G11G14G16G18G19G22G27G32
  23000627.480   120869133.59408  23000628.660    94183749.04347
  20949649.780   110091188.06409  20949648.040    85785347.46948
  21986408.280   115539383.13409  21986405.080    90030700.63047
  23652374.740   124294072.16108  23652372.640    96852515.77544
  23403150.280   122984393.30008  23403147.920    95831995.59445
  24556456.260   129045095.38307  24556453.260   100554624.68444
  20475926.180   107601754.41109  20475921.020    83845521.79449
  21634610.560   113690698.42309  21634605.540    88590166.14948
  20681793.340   108683600.13709  20681792.780    84688529.48249
  21397259.980   112443397.12109  21397258.640    87618236.60247
 15 03 05 03 04 30.0000000  0 10G01G04G11G14G16G18G19G22G27G32
  22987574.580   120800540.08108  22987575.660    94130299.55947
  20941755.660   110049704.45409  20941753.900    85753022.59648
  21972877.940   115468280.75209  21972874.860    89975296.17847
  23641138.040   124235023.39208  23641136.000    96806503.76845
  23423221.760   123089869.48208  23423219.340    95914184.79246
  24573789.620   129136183.08807  24573786.700   100625602.10344
  20473399.360   107588475.51009  20473394.140    83835174.59649
  21646208.760   113751647.04709  21646203.680    88637658.57948
  20688597.620   108719356.88309  20688597.120    84716391.86949
  21381157.500   112358777.83609  21381156.080    87552299.50947
 15 03 05 03 05  0.0000000  0 10G01G04G11G14G16G18G19G22G27G32
  22974550.040   120732095.55108  22974551.040    94076966.18647
  20933910.960   110008480.22009  20933909.060    85720899.84348
  21959379.820   115397347.88609  21959376.940    89920023.83547
  23629956.580   124176264.23408  23629954.480    96760717.43545
  23443317.780   123195474.28908  23443315.260    95996474.23146
  24591141.720   129227369.14907  24591138.680   100696656.19344
  20470943.060   107575567.17709  20470937.780    83825116.15949
  21657875.380   113812955.39709  21657870.240    88685431.32548
  20695478.840   108755517.98509  20695478.360    84744569.34049
  21365134.940   112274578.63109  21365133.460    87486689.76047
 15 03 05 03 05 30.0000000  0 10G01G04G11G14G16G18G19G22G27G32
  22961555.320   120663807.88408  22961556.260    94023755.04546
  20926117.140   109967523.46409  20926115.220    85688985.51248
  21945915.500   115326592.88009  21945912.780    89864890.06847
  23618832.200   124117805.54308  23618830.220    96715165.24145
  23463439.260   123301212.57608  23463436.720    96078867.66546
  24608513.580   129318659.04207  24608510.480   100767791.16245
  20468558.880   107563038.23509  20468553.600    83815353.33249
  21669611.480   113874629.16609  21669606.360    88733488.80148
  20702438.560   108792091.46309  20702438.020    84773068.13749
  21349194.240   112190809.67409  21349192.680    87421415.27447
 15 03 05 03 06  0.0000000  0 10G01G04G11G14G16G18G19G22G27G32
  22948589.300   120595670.48708  22948589.940    93970660.97646
  20918372.920   109926827.34209  20918371.060    85657274.24648
  21932483.800   115256009.35609  21932481.120    89809889.95147
  23607764.320   124059643.35508  23607762.320    96669844.08245
  23483584.300   123407074.55808  23483581.720    96161357.49346
  24625903.660   129410044.54507  24625900.480   100839000.63545
  20466245.820   107550883.24009  20466240.600    83805881.90049
  21681415.460   113936659.83309  21681410.340    88781824.37648
  20709475.520   108829070.79609  20709474.920    84801883.18949
  21333334.480   112107466.48509  21333333.020    87356472.55048
 15 03 05 03 06 30.0000000  0 10G01G04G11G14G16G18G19G22G27G32
  22935652.740   120527688.25508  22935653.380    93917687.84147
  20910679.320   109886396.73609  20910677.460    85625769.88848
  21919085.920   115185603.65509  21919083.140    89755028.38447
  23596754.340   124001785.12208  23596752.080    96624759.76245
  23503753.440   123513063.62108  23503750.920    96243946.33446
  24643312.480   129501528.43607  24643309.360   100910286.77744
  20464005.120   107539108.36909  20463999.920    83796706.67849
  21693287.900   113999049.95309  21693282.780    88830440.04748
  20716590.680   108866461.04309  20716590.040    84831018.43749
  21317557.060   112024556.01709  21317555.700    87291867.02948
 15 03 05 03 07  0.0000000  0 10G01G04G11G14G16G18G19G22G27G32
  22922745.140   120459858.96608  22922746.020    93864833.89747
  20903035.860   109846229.52309  20903033.880    85594470.75548
  21905721.660   115115374.05009  21905718.580    89700304.05547
  23585802.280   123944231.44808  23585799.880    96579912.78045
  23523945.520   123619173.67808  23523943.020    96326629.46546
  24660739.260   129593106.69807  24660736.060   100981646.46644
  20461836.600   107527712.61409  20461831.420    83787826.86749
  21705227.980   114061795.41509  21705222.860    88879332.61348
  20723783.560   108904260.04309  20723782.920    84860472.19149
  21301861.960   111942078.25309  21301860.620    87227598.66947
 15 03 05 03 07 30.0000000  0 10G01G04G11G14G16G18G19G22G27G32
  22909866.480   120392181.87908  22909867.660    93812098.52947
  20895442.380   109806324.79909  20895440.280    85563376.16548
  21892391.040   115045320.78309  21892387.740    89645717.12247
  23574908.560   123886984.33208  23574906.040    96535304.66045
  23544159.980   123725401.55308  23544157.520    96409404.41446
  24678183.520   129684776.53308  24678180.320   101053077.51244
  20459740.300   107516696.32609  20459735.100    83779242.73649
  21717235.180   114124893.18009  21717229.940    88928499.69548
  20731054.100   108942467.14609  20731053.440    84890243.94349
  21286249.520   111860034.62209  21286248.260    87163668.59147
 15 03 05 03 08  0.0000000  0 10G01G04G11G14G16G18G19G22G27G32
  22897017.440   120324660.45408  22897018.880    93759484.45647
  20887899.460   109766685.85909  20887897.220    85532488.69748
  21879094.740   114975448.00509  21879091.420    89591270.83347
  23564074.240   123830050.04308  23564071.760    96490940.33045
  23564396.940   123831747.59308  23564394.500    96492271.43346
  24695645.560   129776539.50508  24695642.120   101124581.13945
  20457717.080   107506063.95709  20457711.860    83770957.77349
  21729309.720   114188344.77009  21729304.380    88977942.49448
  20738402.940   108981085.86109  20738402.360    84920336.44049
  21270720.820   111778430.56309  21270719.580    87100081.03648
 15 03 05 03 08 30.0000000  0 10G01G04G11G14G16G18G19G22G27G32
  22884197.640   120257292.98608  22884199.260    93706990.35547
  20880406.780   109727311.22309  20880404.400    85501807.16948
  21865832.500   114905754.73909  21865829.420    89536964.40847
  23553299.520   123773429.42708  23553297.280    96446820.41445
  23584655.580   123938207.72508  23584653.260    96575227.34346
  24713124.560   129868392.15708  24713121.000   101196154.61644
  20455766.820   107495815.07509  20455761.620    83762971.62249
  21741450.760   114252146.13709  21741445.360    89027657.84348
  20745829.880   109020114.62309  20745829.340    84950748.45049
  21255275.900   111697266.66109  21255274.660    87036836.46748
 15 03 05 03 09  0.0000000  0 10G01G04G11G14G16G18G19G22G27G32
  22871406.580   120190075.68208  22871408.100    93654613.26647
  20872963.600   109688197.13509  20872961.220    85471328.66148
  21852603.860   114836237.79009  21852600.900    89482795.36947
  23542584.340   123717121.19408  23542582.220    96402943.90646
  23604934.640   124044774.79908  23604932.380    96658266.60146
  24730619.480   129960328.68508  24730615.860   101267793.48544
  20453888.980   107485947.04009  20453883.780    83755282.24349
  21753657.220   114316291.39109  21753651.820    89077641.15048
  20753334.160   109059549.71209  20753333.640    84981477.07749
  21239914.300   111616541.00609  21239913.080    86973933.37548
 15 03 05 03 09 30.0000000  0 10G01G04G11G14G16G18G19G22G27G32
  22858645.300   120123014.64808  22858646.700    93602357.94847
  20865571.060   109649349.25909  20865568.740    85441057.61348
  21839410.120   114766904.03209  21839407.080    89428769.08747
  23531930.360   123661134.33508  23531928.340    96359317.82746
  23625234.760   124151452.56108  23625232.520    96741392.11146
  24748131.140   130052353.43607  24748127.560   101339501.06944
  20452085.020   107476467.09309  20452079.780    83747895.26749
  21765929.880   114380784.64709  21765924.520    89127895.62448
  20760916.940   109099397.14909  20760916.360    85012527.02149
  21224637.580   111536261.76509  21224636.420    86911378.14448
 15 03 05 03 10  0.0000000  0 10G01G04G11G14G16G18G19G22G27G32
  22845912.820   120056105.62608  22845914.160    93550221.07947
  20858228.400   109610763.62509  20858226.220    85410990.90048
  21826250.800   114697750.70809  21826247.600    89374883.39647
  23521337.240   123605467.44708  23521335.300    96315941.04645
  23645554.560   124258233.85108  23645552.380    96824598.28946
  24765658.380   130144460.16707  24765654.900   101411272.52344
  20450354.280   107467371.99809  20450349.080    83740808.16649
  21778267.560   114445619.82909  21778262.300    89178416.54448
  20768577.440   109139652.80409  20768576.780    85043895.05249
  21209445.480   111456426.90609  21209444.360    86849169.18548
 15 03 05 03 10 30.0000000  0 10G01G04G11G14G16G18G19G22G27G32
  22833209.400   119989349.33708  22833210.900    93498203.21147
  20850935.760   109572440.91709  20850933.660    85381129.05948
  21813126.000   114628778.95109  21813122.680    89321139.18647
  23510805.600   123550123.68708  23510803.600    96272816.07245
  23665893.580   124365116.28308  23665891.440    96907883.28745
  24783201.020   130236647.86707  24783197.640   101483107.09644
  20448697.120   107458663.53509  20448691.960    83734022.34849
  21790669.940   114510794.92809  21790664.740    89229202.32948
  20776315.760   109180317.38209  20776315.040    85075581.72449
  21194338.440   111377039.03609  21194337.280    86787308.54048
 15 03 05 03 11  0.0000000  0 10G01G04G11G14G16G18G19G22G27G32
  22820535.320   119922747.43508  22820536.980    93446305.66247
  20843693.380   109534382.37309  20843691.300    85351473.05448
  21800036.040   114559991.04709  21800032.760    89267538.23047
  23500336.300   123495107.13808  23500334.280    96229946.07846
  23686251.620   124472098.83108  23686249.440    96991246.28345
  24800758.980   130328915.98707  24800755.760   101555004.32145
  20447114.040   107450344.45609  20447108.920    83727539.94149
  21803136.960   114576309.66809  21803131.800    89280252.77648
  20784132.120   109221392.50309  20784131.440    85107588.30549
  21179317.180   111298101.80309  21179315.980    86725799.03248
 15 03 05 03 11 30.0000000  0 10G01G04G11G14G16G18G19G22G27G32
  22807890.680   119856299.74208  22807892.280    93394528.27047
  20836501.340   109496588.26809  20836499.220    85322023.10848
  21786981.160   114491387.76209  21786977.980    89214081.13347
  23489929.900   123440420.98508  23489927.760    96187333.52345
  23706628.100   124579178.45308  23706625.960    97074684.91845
  24818331.920   130421262.75907  24818328.800   101626962.83944
  20445605.260   107442416.05809  20445600.180    83721361.96449
  21815668.140   114642161.42709  21815662.980    89331565.83948
  20792026.500   109262878.06809  20792025.920    85139914.71149
  21164382.060   111219617.16209  21164380.860    86664642.19048
 15 03 05 03 12  0.0000000  0 10G01G04G11G14G16G18G19G22G27G32
  22795274.960   119790003.18208  22795276.360    93342868.64347
  20829359.000   109459055.35709  20829356.980    85292776.70448
  21773961.000   114422966.91609  21773957.880    89160766.20547
  23479586.040   123386063.90208  23479584.000    96144977.39445
  23727022.080   124686349.72208  23727019.820    97158194.97445
  24835918.900   130513683.14408  24835915.840   101698978.71144
  20444170.400   107434876.10909  20444165.300    83715486.67849
  21828262.520   114708345.35409  21828257.360    89383137.73248
  20799998.360   109304770.89509  20799997.880    85172558.46849
  21149532.820   111141583.88209  21149531.520    86603837.06148
 15 03 05 03 12 30.0000000  0 10G01G04G11G14G16G18G19G22G27G32
  22782688.180   119723858.53608  22782689.600    93291327.37947
  20822266.500   109421784.24709  20822264.580    85263734.29348
  21760975.960   114354730.08609  21760972.780    89107594.66547
  23469305.620   123332039.79908  23469303.540    96102880.71745
  23747433.080   124793610.34308  23747430.800    97241774.65245
  24853519.700   130606176.08607  24853516.700   101771051.11844
  20442809.760   107427726.24509  20442804.700    83709915.34449
  21840919.960   114774860.56609  21840914.760    89434967.75948
  20808047.900   109347071.78109  20808047.480    85205520.18849
  21134770.020   111064004.85509  21134768.560    86543385.88348
 15 03 05 03 13  0.0000000  0 10G01G04G11G14G16G18G19G22G27G32
  22770130.940   119657869.23008  22770132.380    93239907.15347
  20815224.480   109384778.35809  20815222.640    85234898.54548
  21748026.740   114286681.39509  21748023.520    89054569.74147
  23459089.720   123278354.64508  23459087.580    96061048.16445
  23767861.100   124900960.30808  23767858.900    97325423.95445
  24871134.580   130698743.13607  24871131.680   101843181.27544
  20441524.220   107420971.04609  20441519.260    83704651.54749
  21853640.560   114841707.83609  21853635.380    89487056.53248
  20816175.700   109389784.08909  20816175.380    85238802.49449
  21120094.640   110986885.37509  21120093.200    86483292.82148
 15 03 05 03 13 30.0000000  0 10G01G04G11G14G16G18G19G22G27G32
  22757602.660   119592032.26708  22757603.880    93188605.63147
  20808232.360   109348034.55609  20808230.520    85206267.02048
  21735112.900   114218818.84409  21735109.740    89001689.85047
  23448938.220   123225008.04008  23448935.960    96019479.41446
  23788305.120   125008394.51808  23788303.100    97409138.89145
  24888762.720   130791379.78207  24888759.860   101915365.62545
  20440313.520   107414608.78609  20440308.600    83699693.93349
  21866423.360   114908882.02109  21866418.200    89539400.02948
  20824381.200   109432904.74809  20824380.940    85272402.98849
  21105506.580   110910224.41109  21105505.060    86423557.01948
 15 03 05 03 14  0.0000000  0 10G01G04G11G14G16G18G19G22G27G32
  22745103.800   119526350.72908  22745105.040    93137425.23347
  20801290.780   109311556.19409  20801288.880    85177842.33248
  21722235.180   114151146.30209  21722232.080    88948958.03247
  23438852.160   123172005.56008  23438849.660    95978178.79745
  23808765.300   125115913.29308  23808763.280    97492919.73145
  24906404.260   130884086.77907  24906401.420   101987604.85044
  20439178.380   107408643.62709  20439173.500    83695045.74949
  21879268.560   114976384.04209  21879263.420    89591999.00048
  20832664.980   109476436.76809  20832664.760    85306324.02949
  21091006.680   110834026.94309  21091005.180    86364182.38748
 15 03 05 03 14 30.0000000  0 10G01G03G04G11G14G16G19G22G27G32
  22732632.640   119460815.24508  22732634.080    93086358.63447
  24637201.620   129469361.06507  24637201.100   100885225.91545
  20794397.900   109275333.79709  20794395.980    85149617.09448
  21709392.100   114083655.41909  21709388.980    88896367.76147
  23428830.300   123119340.52208  23428827.800    95937141.13345
  23829239.300   125223504.50308  23829237.260    97576757.01745
  20438117.220   107403067.19809  20438112.360    83690700.46449
  21892174.000   115044202.46409  21892168.820    89644844.51348
  20841025.280   109520370.71409  20841025.120    85340558.26249
  21076593.620   110758285.52609  21076592.080    86305163.11748
 15 03 05 03 15  0.0000000  0 10G01G03G04G11G14G16G19G22G27G32
  22720192.560   119395442.68308  22720194.220    93035418.99847
  24616612.340   129361166.57008  24616612.920   100800918.67946
  20787556.900   109239383.93109  20787554.920    85121604.22848
  21696586.960   114016363.67109  21696583.780    88843932.65447
  23418876.320   123067032.13808  23418873.820    95896381.37845
  23849729.760   125331181.97108  23849727.780    97660661.51445
  20437133.440   107397897.20509  20437128.600    83686671.89249
  21905142.460   115112351.83709  21905137.180    89697947.92148
  20849465.300   109564723.27409  20849465.120    85375118.69449
  21062270.920   110683018.92209  21062269.340    86246513.83648
 15 03 05 03 15 30.0000000  0 10G01G03G04G11G14G16G19G22G27G32
  22707780.960   119330218.96708  22707782.580    92984595.34747
  24596042.420   129253072.66308  24596044.060   100716689.79845
  20780765.120   109203692.91509  20780763.060    85093793.05748
  21683817.240   113949257.99009  21683814.000    88791642.54047
  23408988.000   123015069.15708  23408985.600    95855890.78046
  23870233.580   125438929.15608  23870231.620    97744620.34546
  20436224.600   107393120.84609  20436219.760    83682950.06649
  21918170.860   115180815.92909  21918165.460    89751296.56448
  20857982.380   109609480.42209  20857982.060    85409994.38449
  21048036.220   110608215.10809  21048034.660    86188225.17448
 15 03 05 03 16  0.0000000  0 10G01G03G04G11G14G16G19G22G27G32
  22695399.100   119265151.16708  22695400.620    92933893.19747
  24575493.460   129145088.24507  24575495.560   100632546.20646
  20774023.880   109168267.41009  20774021.720    85066188.78548
  21671084.320   113882346.26409  21671081.060    88739503.56047
  23399167.160   122963461.01008  23399164.960    95815676.65045
  23890751.440   125546750.14508  23890749.480    97828636.67745
  20435392.200   107388746.17309  20435387.280    83679541.23249
  21931260.060   115249599.83909  21931254.620    89804894.41648
  20866577.840   109654648.96309  20866577.300    85445190.64349
  21033891.200   110533882.83809  21033889.740    86130303.93848
 15 03 05 03 16 30.0000000  0 10G01G03G04G11G14G16G19G22G27G32
  22683046.260   119200235.97408  22683047.420    92883309.95447
  24554964.900   129037211.79407  24554967.180   100548486.77045
  20767332.500   109133104.19209  20767330.360    85038788.88148
  21658387.780   113815625.84609  21658384.520    88687513.63547
  23389413.800   122912206.99908  23389411.760    95775738.50445
  23911282.120   125654638.52508  23911280.160    97912705.52245
  20434635.740   107384770.76009  20434630.760    83676443.50149
  21944409.020   115318697.93309  21944403.540    89858737.07848
  20875250.880   109700225.46709  20875250.240    85480704.79249
  21019835.640   110460020.61709  21019834.240    86072748.98448
 15 03 05 03 17  0.0000000  0 10G01G03G04G11G14G16G19G22G27G32
  22670722.160   119135472.24508  22670722.920    92832844.72947
  24534457.240   128929444.28607  24534459.600   100464512.19046
  20760690.800   109098202.12209  20760688.800    85011592.46548
  21645727.660   113749096.60309  21645724.280    88635672.67747
  23379728.180   122861308.82408  23379726.100    95736077.59146
  23931824.920   125762590.91608  23931823.060    97996824.25845
  20433955.240   107381194.53009  20433950.200    83673656.82249
  21957617.120   115388106.92509  21957611.600    89912821.99748
  20884001.300   109746208.69409  20884000.660    85516535.86749
  21005869.700   110386629.18509  21005868.300    86015560.87048
 15 03 05 03 17 30.0000000  0 10G01G03G04G11G14G16G19G22G27G32
  22658427.220   119070861.99108  22658427.860    92782499.10747
  24513971.200   128821789.52708  24513973.400   100380625.47546
  20754099.100   109063563.07009  20754097.240    84984601.00248
  21633104.520   113682761.48309  21633100.940    88583982.99247
  23370111.020   122810770.56008  23370109.020    95696697.15646
  23952379.580   125870606.12008  23952377.860    98080991.92745
  20433351.240   107378020.37009  20433346.140    83671183.44749
  21970884.360   115457826.75709  21970878.860    89967149.14148
  20892829.360   109792600.41209  20892828.760    85552685.25049
  20991994.080   110313712.34209  20991992.640    85958742.57948
 15 03 05 03 18  0.0000000  0 10G01G03G04G11G14G16G19G22G27G32
  22646161.300   119006404.94008  22646162.260    92732272.86847
  24493506.940   128714249.12208  24493508.820   100296827.86645
  20747557.480   109029186.88709  20747555.600    84957814.37748
  21620518.400   113616620.97609  21620514.760    88532444.95747
  23360562.860   122760594.59008  23360560.760    95657599.03345
  23972945.640   125978681.46908  23972943.980    98165206.47445
  20432823.860   107375249.16609  20432818.820    83669024.06749
  21984210.260   115527854.85009  21984204.800    90021716.48248
  20901735.000   109839400.23409  20901734.480    85589152.62549
  20978209.040   110241271.68309  20978207.620    85902295.33348
 15 03 05 03 18 30.0000000  0 10G01G03G04G11G14G16G19G22G27G32
  22633924.620   118942101.86408  22633925.980    92682166.59847
  24473064.960   128606825.82407  24473066.340   100213121.46145
  20741066.160   108995074.35509  20741064.120    84931233.19548
  21607969.660   113550676.81309  21607966.020    88481059.92047
  23351084.240   122710784.30308  23351081.980    95618785.85145
  23993522.720   126086814.75708  23993520.980    98249466.16945
  20432373.520   107372882.85509  20432368.620    83667180.18949
  21997594.560   115598189.98709  21997589.220    90076523.07448
  20910718.440   109886608.71909  20910717.940    85625938.45049
  20964515.080   110169309.70009  20964513.640    85846221.07748
 15 03 05 03 19  0.0000000  0 10G01G03G04G11G14G16G19G22G27G32
  22621717.160   118877951.97208  22621718.660    92632179.69047
  24452645.480   128499520.64308  24452646.480   100129507.15345
  20734624.760   108961224.26509  20734622.600    84904856.51848
  21595458.200   113484928.97009  21595454.800    88429827.84947
  23341675.560   122661341.23808  23341673.280    95580258.82845
  24014110.140   126195002.48408  24014108.360    98333768.28845
  20432000.260   107370921.42709  20431995.400    83665651.80549
  22011036.700   115668829.11209  22011031.460    90131566.53848
  20919779.480   109934224.87709  20919779.000    85663041.93149
  20950912.480   110097827.41509  20950911.080    85790520.61448
 15 03 05 03 19 30.0000000  0 10G01G03G04G11G14G16G19G22G27G32
  22609539.240   118813956.31608  22609540.520    92582312.97147
  24432248.960   128392336.54907  24432249.800   100045987.19245
  20728233.580   108927638.17509  20728231.480    84878685.54948
  21582984.560   113419379.51309  21582981.240    88378750.36647
  23332337.440   122612269.09608  23332335.240    95542020.81046
  24034707.440   126303242.49908  24034705.680    98418111.14345
  20431704.400   107369366.90009  20431699.580    83664440.48349
  22024536.460   115739771.06109  22024531.280    90186845.98748
  20928918.340   109982249.57609  20928917.840    85700463.76949
  20937401.720   110026827.54809  20937400.260    85735196.06348
 15 03 05 03 20  0.0000000  0 10G01G03G04G11G14G16G19G22G27G32
  22597390.480   118750113.43908  22597391.600    92532565.30647
  24411875.540   128285274.00307  24411876.400    99962561.89245
  20721892.260   108894314.21309  20721890.240    84852718.83848
  21570548.600   113354027.90509  21570545.220    88327827.06647
  23323070.080   122563568.62308  23323067.880    95504072.40545
  24055314.060   126411531.35408  24055312.360    98502492.05745
  20431485.920   107368218.84309  20431481.100    83663545.88749
  22038093.200   115811012.34209  22038088.000    90242358.67348
  20938134.560   110030681.05309  20938134.060    85738202.57149
  20923982.820   109956310.47909  20923981.260    85680247.72648
 15 03 05 03 20 30.0000000  0 10G01G03G04G11G14G16G19G22G27G32
  22585270.720   118686422.78208  22585271.680    92482936.25747
  24391525.460   128178334.37007  24391526.660    99879232.42446
  20715600.740   108861251.73709  20715598.680    84826955.87348
  21558150.320   113288874.39309  21558146.840    88277058.11447
  23313873.740   122515241.84808  23313871.640    95466415.19446
  24075929.360   126519865.71008  24075927.720    98586908.42645
  20431344.880   107367477.55509  20431339.960    83662968.24649
  22051706.340   115882549.97009  22051701.100    90298102.27348
  20947428.020   110079518.56709  20947427.560    85776257.76349
  20910655.960   109886277.24509  20910654.300    85625676.38948
 15 03 05 03 21  0.0000000  0 10G01G03G04G11G14G16G19G22G27G32
  22573180.820   118622889.40308  22573181.640    92433429.75147
  24371199.960   128071524.46907  24371201.680    99796004.05646
  20709359.940   108828456.07009  20709357.840    84801400.82248
  21545790.760   113223924.79609  21545787.320    88226448.06247
  23304749.940   122467296.41808  23304748.060    95429055.15446
  24096553.780   126628247.59008  24096552.080    98671361.83245
  20431282.380   107367149.14109  20431277.480    83662712.34149
  22065376.420   115954386.93809  22065371.200    90354079.13648
  20956799.700   110128766.84409  20956799.220    85814633.02549
  20897422.480   109816734.70909  20897420.760    85571487.41648
 15 03 05 03 21 30.0000000  0 10G01G03G04G11G14G16G19G22G27G32
  22561119.840   118559508.44408  22561120.540    92384041.99447
  24350898.600   127964841.41007  24350900.480    99712874.44545
  20703168.840   108795922.15009  20703166.780    84776049.71448
  21533469.260   113159175.30209  21533465.900    88175993.92647
  23295698.180   122419729.78408  23295696.320    95391990.27146
  24117185.760   126736669.00908  24117183.980    98755846.03946
  20431297.660   107367229.80109  20431292.840    83662775.18949
  22079102.140   116026516.29609  22079096.900    90410283.83048
  20966248.620   110178420.85409  20966248.060    85853324.44749
  20884281.760   109747679.66509  20884280.060    85517678.31348
 15 03 05 03 22  0.0000000  0 10G01G03G04G11G14G16G19G22G27G32
  22549087.380   118496277.50808  22549088.060    92334771.15847
  24330621.480   127858284.66208  24330623.420    99629843.30146
  20697027.080   108763647.56709  20697025.140    84750900.69648
  21521185.580   113094624.43009  21521182.320    88125694.57647
  23286718.520   122372541.71208  23286716.700    95355220.36946
  24137824.320   126845124.97208  24137822.480    98840357.17246
  20431390.540   107367717.74409  20431385.640    83663155.39649
  22092882.700   116098933.55709  22092877.380    90466712.86748
  20975774.200   110228477.81809  20975773.600    85892329.85949
  20871233.580   109679111.26309  20871231.900    85464248.41748
 15 03 05 03 22 30.0000000  0 10G01G03G04G11G14G16G19G22G27G32
  22537084.180   118433200.78908  22537084.980    92285620.48247
  24310369.720   127751860.24308  24310371.800    99546915.26246
  20690935.580   108731636.60809  20690933.660    84725957.09248
  21508940.680   113030277.29809  21508937.520    88075553.96047
  23277812.220   122325738.86808  23277810.440    95318750.64546
  24158469.740   126953617.41508  24158467.840    98924896.72045
  20431561.920   107368618.07109  20431556.940    83663856.94149
  22106718.380   116171640.57009  22106713.060    90523367.67648
  20985377.140   110278941.65609  20985376.560    85931652.32049
  20858279.060   109611035.40809  20858277.420    85411202.32048
 15 03 05 03 23  0.0000000  0 10G01G03G04G11G14G16G19G22G27G32
  22525110.120   118370277.37308  22525111.120    92236589.26147
  24290143.460   127645569.08208  24290145.340    99464091.04046
  20684894.040   108699888.00609  20684892.100    84701217.92648
  21496734.620   112966134.08309  21496731.420    88025572.26047
  23268979.580   122279322.84008  23268977.760    95282582.33046
  24179121.400   127062142.42408  24179119.300    99009461.66245
  20431811.820   107369930.92109  20431806.780    83664879.93749
  22120608.540   116244634.06309  22120603.280    90580245.71748
  20995057.140   110329811.11609  20995056.680    85971290.84449
  20845418.380   109543452.76109  20845416.780    85358540.53448
 15 03 05 03 23 30.0000000  0 10G01G03G04G11G14G16G19G22G27G32
  22513165.000   118307505.56208  22513166.160    92187676.17247
  24269942.380   127539411.32508  24269943.940    99381370.76146
  20678902.200   108668400.35909  20678900.220    84676682.10148
  21484567.180   112902193.66509  21484563.880    87975748.57847
  23260220.740   122233294.23908  23260218.800    95246715.91346
  24199778.480   127170695.82308  24199776.180    99094048.71045
  20432139.960   107371655.14209  20432134.940    83666223.47849
  22134552.580   116317910.52509  22134547.240    90637344.25447
  21004813.920   110381084.19309  21004813.640    86011243.87449
  20832651.600   109476363.21609  20832650.020    85306262.98748
 15 03 05 03 24  0.0000000  0 10G01G03G04G11G14G16G19G22G27G32
  22501248.900   118244885.82108  22501250.060    92138881.60947
  24249767.000   127433389.30807  24249768.380    99298756.25246
  20672960.100   108637173.83509  20672958.060    84652349.74748
  21472438.620   112838457.58909  21472435.180    87926084.12847
  23251536.200   122187656.20008  23251534.040    95211153.81946
  24220440.300   127279274.29408  24220437.740    99178655.31045
  20432546.680   107373792.55709  20432541.760    83667888.99249
  22148550.180   116391468.17809  22148544.720    90694661.90648
  21014647.600   110432761.01309  21014647.400    86051511.51348
  20819979.020   109409768.84509  20819977.560    85254371.31048
 15 03 05 03 24 30.0000000  0 10G01G03G04G11G14G16G19G22G27G32
  22489362.780   118182423.62308  22489363.720    92090209.80647
  24229618.740   127327510.49308  24229620.220    99216253.33446
  20667068.740   108606214.13509  20667066.640    84628225.30548
  21460350.120   112774932.24209  21460346.660    87876583.87947
  23242927.380   122142416.27008  23242925.180    95175901.96246
  24241107.580   127387881.61808  24241104.940    99263284.39845
  20433033.280   107376349.68109  20433028.420    83669881.55249
  22162601.840   116465309.92409  22162596.340    90752200.92248
  21024559.140   110484846.66809  21024559.000    86092097.71449
  20807402.100   109343676.75809  20807400.680    85202871.01548
 15 03 05 03 25  0.0000000  0 10G01G03G04G11G14G16G19G22G27G32
  22477505.680   118120114.16108  22477506.400    92041657.03547
  24209497.020   127221771.78307  24209498.760    99133859.61846
  20661227.160   108575516.30709  20661225.000    84604304.93448
  21448301.040   112711613.60009  21448297.560    87827244.67347
  23234393.760   122097571.82608  23234391.600    95140958.26846
  24261778.900   127496510.21108  24261776.120    99347930.04944
  20433598.880   107379322.04009  20433594.080    83672197.67149
  22176706.280   116539428.98809  22176700.760    90809956.04047
  21034547.580   110537336.02209  21034547.420    86132998.50049
  20794920.180   109278083.58409  20794918.620    85151759.46748
 15 03 05 03 25 30.0000000  0 10G01G03G04G11G14G16G19G22G27G32
  22465677.420   118057956.79208  22465678.180    91993222.76947
  24189402.140   127116174.37307  24189404.200    99051575.99246
  20655435.340   108545079.73509  20655433.020    84580588.14348
  21436291.440   112648502.12209  21436287.980    87778066.91847
  23225935.640   122053124.58108  23225933.520    95106324.07846
  24282453.480   127605156.53208  24282450.840    99432589.53044
  20434243.520   107382709.94309  20434238.780    83674837.59849
  22190862.940   116613822.66509  22190857.460    90867925.14348
  21044612.680   110590227.96509  21044612.440    86174212.99449
  20782533.380   109212990.23409  20782531.580    85101037.40648
 15 03 05 03 26  0.0000000  0 10G01G03G04G11G14G16G19G22G27G32
  22453878.840   117995955.82308  22453879.760    91944910.34447
  24169335.520   127010724.44808  24169337.800    98969407.28746
  20649694.020   108514908.59009  20649691.580    84557078.17448
  21424322.240   112585602.94709  21424318.680    87729054.58647
  23217554.400   122009081.32508  23217552.140    95072004.66946
  24303131.680   127713821.85808  24303128.980    99517263.80645
  20434968.240   107386518.74009  20434963.540    83677805.47149
  22205072.240   116688493.03009  22205066.860    90926109.83448
  21054755.160   110643526.52309  21054754.860    86215744.31449
  20770242.840   109148402.55109  20770240.840    85050709.35548
 15 03 05 03 26 30.0000000  0 10G01G03G04G11G14G16G19G22G27G32
  22442109.280   117934107.04108  22442110.340    91896716.51247
  24149296.880   126905419.67808  24149299.160    98887351.68346
  20644002.280   108484998.59909  20643999.900    84533771.70248
  21412392.660   112522912.67009  21412389.160    87680205.02847
  23209249.680   121965439.96008  23209247.380    95037998.44446
  24323812.200   127822499.16008  24323809.440    99601947.41445
  20435772.460   107390745.00509  20435767.740    83681098.66549
  22219333.000   116763433.80109  22219327.720    90984505.24048
  21064974.140   110697226.98709  21064973.740    86257588.82149
  20758047.960   109084317.76709  20758045.820    85000773.18648
 15 03 05 03 27  0.0000000  0 10G01G03G04G11G14G16G19G22G27G32
  22430368.520   117872409.02508  22430369.640    91848640.16148
  24129286.120   126800260.42708  24129288.120    98805409.47746
  20638359.940   108455348.46709  20638357.740    84510667.70348
  21400502.660   112460430.95809  21400499.240    87631517.97347
  23201021.680   121922201.54708  23201019.440    95004306.19246
  24344494.540   127931185.47808  24344491.900    99686638.05945
  20436655.960   107395387.91309  20436651.200    83684716.50149
  22233644.460   116838641.10709  22233639.240    91043108.33048
  21075269.260   110751327.55409  21075268.740    86299745.08849
  20745948.780   109020735.96509  20745946.580    84951228.94448
 15 03 05 03 27 30.0000000  0 10G01G03G04G11G14G16G19G22G27G32
  22418657.020   117810864.55608  22418658.140    91800683.46747
  24109303.980   126695251.24508  24109305.540    98723584.21246
  20632767.600   108425960.84609  20632765.520    84487768.27048
  21388653.040   112398161.58909  21388649.680    87582996.40547
  23192871.160   121879370.73208  23192869.120    94970931.56746
  24365178.440   128039880.01408  24365175.920    99771335.11144
  20437619.380   107400450.96109  20437614.620    83688661.72949
  22248006.760   116914115.60009  22248001.560    91101919.62148
  21085640.940   110805830.48009  21085640.320    86342214.90149
  20733946.080   108957661.27209  20733943.920    84902079.85148
 15 03 05 03 28  0.0000000  0 10G01G03G04G11G14G16G19G22G27G32
  22406975.360   117749476.81708  22406976.500    91752848.90147
  24089351.300   126590397.23108  24089352.420    98641879.83046
  20627225.840   108396838.79709  20627223.780    84465075.77548
  21376844.560   112336108.46909  21376841.240    87534643.34247
  23184799.300   121836953.24208  23184797.380    94937878.99746
  24385863.980   128148583.08908  24385861.680    99856038.80645
  20438663.580   107405938.33709  20438658.820    83692937.59449
  22262420.120   116989858.38109  22262414.940    91160939.97047
  21096089.640   110860738.56709  21096089.020    86385000.40748
  20722040.740   108895098.45409  20722038.680    84853329.63348
 15 03 05 03 28 30.0000000  0 10G01G03G04G11G14G16G19G22G27G32
  22395322.520   117688240.93708  22395323.660    91705132.66247
  24069427.240   126485695.19408  24069428.320    98560293.90246
  20621733.660   108367977.56709  20621731.620    84442586.50348
  21365076.560   112274267.81609  21365073.280    87486455.83247
  23176805.640   121794946.44308  23176803.700    94905146.44546
  24406549.740   128257287.27408  24406547.560    99940743.36345
  20439787.820   107411846.09809  20439783.000    83697541.04449
  22276883.180   117065862.40609  22276878.040    91220163.88148
  21106614.380   110916046.42809  21106613.740    86428097.43149
  20710232.100   108833043.89709  20710230.060    84804975.46248
 15 03 05 03 29  0.0000000  0 11G01G03G04G11G14G16G19G22G27G28G32
  22383699.260   117627161.01308  22383700.260    91657537.94347
  24049532.660   126381151.08508  24049534.160    98478831.07046
  20616291.900   108339381.17209  20616289.860    84420303.62048
  21353350.040   112212644.95509  21353346.900    87438438.05547
  23168891.400   121753356.56908  23168889.340    94872738.76946
  24427235.980   128365994.03308  24427233.820   100025449.93744
  20440993.000   107418178.98809  20440988.080    83702475.75849
  22291396.260   117142129.37909  22291391.160    91279592.68547
  21117215.840   110971757.68109  21117215.220    86471508.78948
  25092106.600   131859903.98207  25092103.240   102747964.66044
  20698521.180   108771503.13009  20698519.180    84757021.65348
 15 03 05 03 29 30.0000000  0 11G01G03G04G11G14G16G19G22G27G28G32
  22372103.760   117566226.86908  22372104.740    91610056.81447
  24029666.420   126276756.57608  24029668.180    98397484.78046
  20610898.600   108311039.22609  20610896.600    84398219.00448
  21341663.180   112151230.27609  21341660.140    87390582.47547
  23161054.960   121712175.50408  23161052.660    94840649.64746
  24447920.340   128474690.84508  24447918.140   100110148.75345
  20442277.320   107424927.56309  20442272.320    83707734.38549
  22305957.040   117218647.15209  22305951.940    91339216.92047
  21127891.980   111027861.66109  21127891.420    86515226.15848
  25077133.140   131781219.23207  25077129.520   102686651.84743
  20686906.340   108710467.36009  20686904.420    84709461.34448
 15 03 05 03 30  0.0000000  0 11G01G03G04G11G14G16G19G22G27G28G32
  22360538.800   117505452.69908  22360539.720    91562700.35347
  24009831.800   126172527.62808  24009833.640    98316267.48746
  20605556.500   108282966.24409  20605554.480    84376343.96248
  21330018.800   112090039.00309  21330015.800    87342900.97247
  23153299.440   121671419.81108  23153297.140    94808892.00146
  24468604.720   128583388.40508  24468602.660   100194848.16345
  20443643.620   107432106.80009  20443638.520    83713328.60049
  22320567.880   117295427.86309  22320562.840    91399046.04347
  21138645.460   111084372.06109  21138645.000    86559260.22948
  25062218.400   131702842.67407  25062215.220   102625579.20744
  20675390.560   108649952.10009  20675388.780    84662306.64048
 15 03 05 03 30 30.0000000  0 11G01G03G04G11G14G16G19G22G27G28G32
  22349002.740   117444830.36808  22349003.720    91515462.20447
  23990027.680   126068457.86708  23990029.520    98235174.24846
  20600264.000   108255153.83209  20600261.900    84354671.95548
  21318415.600   112029063.98309  21318412.660    87295387.97647
  23145623.620   121631083.31508  23145621.420    94777460.98546
  24489287.260   128692076.57007  24489285.360   100279540.23545
  20445090.380   107439709.18109  20445085.240    83719252.52149
  22335226.720   117372460.80009  22335221.760    91459071.69847
  21149474.620   111141280.13609  21149474.280    86603604.17348
  25047361.320   131624768.45507  25047358.040   102564742.11444
  20663972.540   108589950.47609  20663970.900    84615552.15848
 15 03 05 03 31  0.0000000  0 11G01G03G04G11G14G16G19G22G27G28G32
  22337496.040   117384362.06808  22337497.100    91468344.07447
  23970254.940   125964551.29108  23970256.500    98154208.13446
  20595021.440   108227604.21909  20595019.340    84333204.74148
  21306854.240   111968308.48209  21306851.240    87248046.04347
  23138028.380   121591170.54608  23138026.220    94746360.15046
  24509967.880   128800754.73907  24509966.200   100364224.51744
  20446618.140   107447737.55609  20446612.960    83725508.38249
  22349933.700   117449746.29109  22349928.720    91519294.15547
  21160379.780   111198587.61109  21160379.540    86648259.32948
  25032562.720   131547000.97207  25032559.560   102504144.06944
  20652652.980   108530466.03309  20652651.360    84569200.66748
 15 03 05 03 31 30.0000000  0 11G01G03G04G11G14G16G19G22G27G28G32
  22326018.360   117324045.89808  22326019.380    91421344.48848
  23950513.380   125860807.74708  23950514.600    98073369.06246
  20589828.520   108200315.34509  20589826.420    84311940.69848
  21295334.480   111907771.49009  21295331.400    87200874.37748
  23130513.800   121551681.56308  23130511.760    94715589.55646
  24530645.720   128909418.20707  24530644.120   100448897.38044
  20448226.780   107456190.96209  20448221.560    83732095.45349
  22364687.840   117527279.91509  22364682.860    91579709.96947
  21171360.500   111256291.98909  21171360.300    86693223.76948
  25017822.600   131469540.49007  25017819.500   102443785.23844
  20641431.740   108471498.14309  20641430.140    84523251.69648
 15 03 05 03 32  0.0000000  0 11G01G03G04G11G14G16G19G22G27G28G32
  22314570.000   117263884.07408  22314571.020    91374465.15147
  23930803.700   125757231.24508  23930804.740    97992660.14946
  20584685.620   108173289.37609  20584683.580    84290881.50148
  21283856.920   111847456.16909  21283853.740    87153875.42247
  23123080.720   121512620.54008  23123078.700    94685152.42646
  24551320.680   129018066.48407  24551319.200   100533558.38344
  20449916.800   107465072.17409  20449911.660    83739015.85549
  22379489.200   117605061.85709  22379484.180    91640319.26547
  21182417.120   111314394.93209  21182416.880    86738498.76148
  25003141.720   131392391.33608  25003138.880   102383668.96945
  20630309.500   108413050.29809  20630307.780    84477707.93348
 15 03 05 03 32 30.0000000  0 11G01G03G04G11G14G16G19G22G27G28G32
  22303150.540   117203874.81108  22303151.700    91327704.69947
  23911125.740   125653821.69208  23911126.820    97912081.32646
  20579592.420   108146524.61309  20579590.440    84270025.84548
  21272421.380   111787361.79009  21272418.100    87107048.64347
  23115729.260   121473988.09508  23115727.280    94655049.23546
  24571991.960   129126695.10107  24571990.480   100618204.08344
  20451688.000   107474380.26109  20451683.060    83746268.90049
  22394337.060   117683088.36909  22394332.080    91701119.12647
  21193549.180   111372894.01309  21193548.880    86784082.44848
  24988520.220   131315553.81207  24988517.440   102323795.56044
  20619286.120   108355121.90109  20619284.320    84432568.94748
 15 03 05 03 33  0.0000000  0 11G01G03G04G11G14G16G19G22G27G28G32
  22291760.420   117144019.75708  22291761.560    91281064.41147
  23891479.880   125550582.53508  23891481.140    97831635.28946
  20574549.260   108120022.54209  20574547.260    84249374.89748
  21261028.320   111727490.58309  21261025.060    87060395.75847
  23108459.940   121435787.91208  23108457.980    94625282.88446
  24592659.460   129235303.22007  24592657.800   100702833.83844
  20453540.800   107484117.21909  20453535.980    83753856.14649
  22409231.440   117761358.69909  22409226.480    91762108.98147
  21204756.840   111431790.27509  21204756.540    86829975.63348
  24973958.860   131239032.03007  24973956.200   102264168.15644
  20608362.060   108297715.75109  20608360.240    84387836.91148
 15 03 05 03 33 30.0000000  0 11G01G03G04G11G14G16G19G22G27G28G32
  22280399.520   117084318.02708  22280400.520    91234543.59547
  23871866.400   125447514.73108  23871867.980    97751322.78146
  20569555.920   108093782.41809  20569553.960    84228928.06448
  21249677.780   111667842.99009  21249674.560    87013917.12747
  23101273.100   121398021.12308  23101271.160    94595854.23646
  24613322.360   129343887.13508  24613320.560   100787444.70744
  20455475.280   107494283.18409  20455470.500    83761777.67249
  22424171.820   117839869.95909  22424166.740    91823286.58247
  21216039.840   111491082.28909  21216039.540    86876177.18149
  24959457.860   131162827.28908  24959455.100   102204787.79144
  20597537.400   108240832.25509  20597535.680    84343512.13148
 15 03 05 03 34  0.0000000  0 11G01G03G04G11G14G16G19G22G27G28G32
  22269067.720   117024769.34708  22269068.660    91188142.05147
  23852285.720   125344619.59608  23852287.740    97671144.81246
  20564612.220   108067803.73209  20564610.400    84208684.93848
  21238369.900   111608419.68209  21238366.700    86967613.25948
  23094169.060   121360689.45908  23094167.100    94566764.66846
  24633980.040   129452443.44308  24633978.120   100872034.07744
  20457491.420   107504878.20609  20457486.700    83770033.53249
  22439157.560   117918619.29509  22439152.200    91884649.71247
  21227397.980   111550769.05309  21227397.620    86922686.33249
  24945017.360   131086941.12208  24945014.580   102145655.69844
  20586812.400   108184472.27009  20586810.740    84299595.29748
 15 03 05 03 34 30.0000000  0 11G01G03G04G11G14G16G19G22G27G28G32
  22257765.380   116965375.02608  22257766.200    91141860.77647
  23832738.420   125241900.23307  23832740.820    97591103.81746
  20559718.560   108042087.92709  20559716.820    84188646.66348
  21227105.100   111549222.86909  21227101.960    86921485.89347
  23087148.480   121323796.08608  23087146.460    94538016.61646
  24654632.360   129560971.38108  24654630.200   100956601.33245
  20459589.660   107515904.46609  20459584.940    83778625.41749
  22454188.400   117997605.98309  22454182.840    91946197.77647
  21238831.360   111610851.25509  21238830.900    86969503.63249
  24930638.100   131011377.23007  24930635.080   102086774.68045
  20576187.520   108128638.19909  20576185.840    84256088.26548
 15 03 05 03 35  0.0000000  0 11G01G03G04G11G14G16G19G22G27G28G32
  22246492.540   116906135.02509  22246493.280    91095699.75248
  23813225.040   125139358.40208  23813227.560    97511201.13946
  20554874.960   108016635.00809  20554873.140    84168813.23448
  21215883.600   111490253.37309  21215880.400    86875535.64848
  23080211.800   121287343.17908  23080209.560    94509611.77246
  24675278.820   129669468.50408  24675276.380   101041144.58644
  20461770.060   107527362.33709  20461765.240    83787553.60849
  22469263.900   118076827.86909  22469258.240    92007929.10747
  21250339.760   111671328.23209  21250339.340    87016628.52948
  24916320.560   130936137.82108  24916317.320   102028146.53044
  20565662.980   108073331.22609  20565661.200    84212991.95548
 15 03 05 03 35 30.0000000  0 11G01G03G04G11G14G16G19G22G27G28G32
  22235248.360   116847045.65909  22235249.180    91049656.10048
  23793745.300   125036992.05108  23793747.620    97431435.20646
  20550080.640   107991440.88109  20550078.760    84149181.45948
  21204704.860   111431508.68209  21204701.600    86829760.57448
  23073358.580   121251328.93408  23073356.260    94481548.74246
  24695918.080   129777927.98808  24695915.500   101125658.48845
  20464032.020   107539248.77009  20464027.120    83796815.76249
  22484383.020   118156279.15209  22484377.340    92069839.19447
  21261922.400   111732195.55509  21261921.960    87064057.60649
  24902064.460   130861221.18408  24902061.120   101969769.89944
  20555238.220   108018548.65309  20555236.400    84170304.25948
 15 03 05 03 36  0.0000000  0 11G01G03G04G11G14G16G19G22G27G28G32
  22224034.100   116788114.01208  22224034.960    91003735.34548
  23774300.840   124934810.03008  23774302.740    97351812.89846
  20545337.020   107966513.08909  20545335.180    84129757.21648
  21193570.380   111372996.72009  21193567.080    86784166.84948
  23066590.500   121215762.24408  23066588.060    94453834.47146
  24716550.880   129886354.14207  24716548.400   101210146.42044
  20466377.000   107551571.35309  20466372.040    83806417.77249
  22499546.660   118235964.61309  22499540.920    92131931.76747
  21273580.460   111793459.65509  21273580.140    87111795.85749
  24887871.480   130786636.53907  24887868.200   101911651.98445
  20544914.800   107964298.74309  20544912.980    84128031.62748
 15 03 05 03 36 30.0000000  0 11G01G03G04G11G14G16G19G22G27G28G32
  22212848.560   116729333.65009  22212849.580    90957932.46947
  23754890.720   124832807.58508  23754892.040    97272330.49146
  20540642.820   107941844.70009  20540640.960    84110535.11648
  21182479.140   111314712.13709  21182475.820    86738750.29847
  23059906.660   121180638.70408  23059904.400    94426465.48946
  24737175.520   129994738.30007  24737173.140   101294601.63744
  20468803.860   107564324.24409  20468798.840    83816355.08049
  22514753.180   118315875.68309  22514747.380    92194200.13347
  21285312.740   111855113.32309  21285312.580    87159837.66248
  24873740.780   130712379.64307  24873737.780   101853789.44145
  20534691.740   107910576.04309  20534689.880    84086169.80248
 15 03 05 03 37  0.0000000  0 11G01G03G04G11G14G16G19G22G27G28G32
  22201693.240   116670711.82409  22201694.200    90912253.14548
  23735516.340   124730993.69508  23735517.500    97192995.05046
  20535999.380   107917443.15509  20535997.480    84091520.92648
  21171432.740   111256662.98109  21171429.420    86693517.19847
  23053308.880   121145967.72208  23053306.740    94399449.16646
  24757792.960   130103085.03707  24757790.680   101379027.69844
  20471314.100   107577515.50809  20471309.080    83826633.97849
  22530003.520   118396017.56209  22529997.800    92256648.33647
  21297120.440   111917163.14209  21297120.300    87208188.15449
  24859674.220   130638459.83108  24859671.420   101796189.56944
  20524570.560   107857388.81209  20524568.760    84044725.23248
 15 03 05 03 37 30.0000000  0 11G01G03G04G11G14G16G19G22G27G28G32
  22190566.140   116612238.04109  22190566.740    90866689.17747
  23716176.060   124629359.49108  23716177.360    97113799.63246
  20531404.680   107893297.85909  20531402.780    84072706.41848
  21160429.440   111198840.11609  21160426.100    86648460.42447
  23046795.640   121111740.61208  23046793.480    94372778.71946
  24778400.760   130211381.11807  24778398.680   101463414.26344
  20473905.780   107591134.97009  20473900.760    83837246.54049
  22545295.340   118476377.34609  22545289.760    92319266.34247
  21309001.420   111979597.84009  21309001.220    87256838.56048
  24845670.240   130564868.59007  24845667.480   101738845.70244
  20514549.480   107804727.59209  20514547.680    84003690.53748
 15 03 05 03 38  0.0000000  0 11G01G03G04G11G14G16G19G22G27G28G32
  22179469.180   116553922.75709  22179469.500    90821248.73747
  23696872.160   124527917.21408  23696873.660    97034753.75046
  20526860.740   107869419.14609  20526858.800    84054099.64148
  21149471.300   111141254.74109  21149467.900    86603588.71547
  23040369.160   121077969.62508  23040367.060    94346463.69646
  24799000.500   130319634.21007  24798998.460   101547767.35744
  20476580.960   107605193.56909  20476576.040    83848201.29349
  22560630.220   118556963.34609  22560624.820    92382060.61747
  21320957.440   112042427.14409  21320957.260    87305796.44748
  24831731.180   130491618.50908  24831728.420   101681767.69044
  20504630.680   107752603.90709  20504628.740    83963074.71748
 15 03 05 03 38 30.0000000  0 11G01G03G04G11G14G16G19G22G27G28G32
  22168401.000   116495759.61508  22168401.240    90775926.82647
  23677603.780   124426662.11308  23677605.660    96955853.75047
  20522366.360   107845800.70009  20522364.300    84035695.65848
  21138557.300   111083901.37009  21138553.920    86558897.78147
  23034028.600   121044650.11808  23034026.420    94320500.45746
  24819590.500   130427835.37207  24819588.420   101632079.99644
  20479338.660   107619685.67009  20479333.820    83859493.83949
  22576006.600   118637767.15509  22576001.380    92445024.62647
  21332987.220   112105643.91209  21332987.040    87355056.25848
  24817856.240   130418705.53008  24817853.440   101624952.36444
  20494813.080   107701012.27509  20494811.040    83922873.47948
 15 03 05 03 39  0.0000000  0 11G01G03G04G11G14G16G19G22G27G28G32
  22157362.160   116437751.44108  22157362.620    90730725.67047
  23658371.880   124325598.69708  23658374.180    96877103.11046
  20517922.040   107822445.31209  20517919.860    84017496.67348
  21127688.240   111026784.01109  21127684.760    86514390.76147
  23027775.020   121011786.98908  23027772.760    94294892.83746
  24840170.660   130535984.84207  24840168.500   101716352.34944
  20482179.440   107634614.55509  20482174.700    83871126.73049
  22591424.640   118718789.52609  22591419.540    92508158.93347
  21345091.060   112169250.16009  21345090.880    87404619.56248
  24804046.340   130346134.29708  24804043.520   101568403.32445
  20485097.320   107649956.37909  20485095.360    83883089.68848
 15 03 05 03 39 30.0000000  0 11G01G03G04G11G14G16G19G22G27G28G32
  22146352.060   116379893.99108  22146352.920    90685641.96448
  23639176.000   124224724.35008  23639178.480    96798499.80146
  20513527.000   107799348.64009  20513524.680    83999499.28548
  21116863.400   110969899.22709  21116859.900    86470064.96148
  23021607.720   120979377.76108  23021605.400    94269638.92646
  24860739.640   130644075.59107  24860737.540   101800578.93944
  20485102.560   107649976.22009  20485097.880    83883096.85649
  22606883.040   118800023.58509  22606877.940    92571458.19247
  21357268.040   112233240.85809  21357267.840    87454482.44248
  24790301.260   130273902.92307  24790298.500   101512119.13945
  20475482.920   107599433.02609  20475481.080    83843720.86448
 15 03 05 03 40  0.0000000  0 11G01G03G04G11G14G16G19G22G27G28G32
  22135371.680   116322192.22308  22135372.740    90640679.56348
  23620017.480   124124045.78008  23620019.920    96720049.02047
  20509182.160   107776515.83209  20509179.840    83981707.49248
  21106083.940   110913253.08509  21106080.500    86425925.10848
  23015528.160   120947429.33708  23015525.620    94244744.06446
  24881297.900   130752110.13107  24881295.520   101884761.74344
  20488109.160   107665776.29809  20488104.520    83895408.60049
  22622382.360   118881472.36009  22622377.140    92634924.75947
  21369519.000   112297620.18209  21369518.740    87504648.13648
  24776622.200   130202018.15008  24776619.380   101456105.00745
  20465971.040   107549448.05909  20465969.240    83804771.56848
 15 03 05 03 40 30.0000000  0 11G01G03G04G11G14G16G19G22G27G28G32
  22124420.100   116264641.34208  22124421.180    90595834.74748
  23600895.740   124023559.75608  23600898.040    96641748.30046
  20504886.460   107753941.70209  20504884.240    83964117.26848
  21095349.280   110856841.97909  21095345.820    86381968.40247
  23009535.720   120915938.46808  23009533.080    94220205.75646
  24901844.140   130860080.99907  24901841.640   101968894.93244
  20491198.420   107682010.49809  20491193.820    83908058.62849
  22637921.200   118963128.96609  22637915.820    92698553.28347
  21381842.900   112362382.50909  21381842.560    87555112.28748
  24763008.560   130130477.38407  24763005.660   101400358.93445
  20456560.820   107499997.45209  20456559.040    83766238.65648
 15 03 05 03 41  0.0000000  0 11G01G03G04G11G14G16G19G22G27G28G32
  22113498.520   116207248.05908  22113499.560    90551112.74448
  23581812.440   123923274.67208  23581814.280    96563604.13646
  20500641.300   107731633.18109  20500639.100    83946734.01948
  21084660.800   110800673.29109  21084657.280    86338200.61348
  23003631.900   120884913.84208  23003629.480    94196030.75946
  24922379.160   130967992.57207  24922376.480   102052981.91944
  20494371.660   107698685.92609  20494367.080    83921052.46849
  22653500.380   119044997.68909  22653494.920    92762347.10447
  21394240.760   112427533.62909  21394240.360    87605879.39048
  24749461.920   130059289.31608  24749459.040   101344887.72244
  20447253.800   107451088.80609  20447251.940    83728128.04748
 15 03 05 03 41 30.0000000  0 11G01G03G04G11G14G16G19G22G27G28G32
  22102606.180   116150008.19208  22102606.840    90506510.26248
  23562766.920   123823187.90708  23562768.040    96485614.49246
  20496445.820   107709585.86109  20496443.560    83929554.29748
  21074017.860   110744743.89009  21074014.260    86294619.26947
  22997816.360   120854352.70008  22997814.080    94172216.89146
  24942901.500   131075837.56307  24942898.560   102137017.02244
  20497628.160   107715798.90009  20497623.580    83934387.24849
  22669118.700   119127072.39909  22669113.200    92826301.41947
  21406711.700   112493068.44109  21406711.280    87656945.46848
  24735981.920   129988451.51908  24735979.020   101289689.44744
  20438049.380   107402718.74209  20438047.480    83690437.10748
 15 03 05 03 42  0.0000000  0 10G01G03G04G11G14G19G22G27G28G32
  22091744.860   116092931.64908  22091745.360    90462035.05548
  23543761.140   123723311.02108  23543761.860    96407788.40246
  20492301.940   107687809.68709  20492299.580    83912585.86548
  21063422.560   110689064.97909  21063418.920    86251233.12148
  22992091.300   120824266.75808  22992088.900    94148773.34246
  20500969.940   107733359.84609  20500965.320    83948071.11349
  22684777.600   119209360.81009  22684772.260    92890422.25547
  21419257.320   112558996.07409  21419256.960    87708317.63648
  24722570.940   129917976.40408  24722567.820   101234773.75244
  20428949.580   107354898.03309  20428947.620    83653174.23548
 15 03 05 03 42 30.0000000  0 10G01G03G04G11G14G19G22G27G28G32
  22080910.700   116035997.60209  22080911.140    90417670.88048
  23524791.440   123623624.88208  23524791.920    96330110.94946
  20488205.680   107666283.81409  20488203.340    83895812.46148
  21052871.040   110633616.16209  21052867.360    86208026.27147
  22986452.940   120794636.90508  22986450.580    94125685.17246
  20504393.000   107751347.99309  20504388.340    83962087.85649
  22700472.780   119291839.92909  22700467.600    92954691.69247
  21431873.520   112625294.86609  21431873.180    87759979.01348
  24709225.380   129847844.84008  24709222.160   101180125.77445
  20419950.500   107307606.58109  20419948.440    83616323.76748
 15 03 05 03 43  0.0000000  0 10G01G03G04G11G14G19G22G27G28G32
  22070107.160   115979224.01409  22070107.620    90373431.72947
  23505861.640   123524148.94008  23505862.020    96252597.27846
  20484160.400   107645025.99509  20484158.140    83879247.93148
  21042366.940   110578416.69709  21042363.260    86165013.71547
  22980905.120   120765483.04308  22980902.700    94102967.90346
  20507900.860   107769781.68509  20507896.180    83976451.77549
  22716207.260   119374525.42409  22716202.100    93019121.94447
  21444563.540   112691981.73109  21444563.280    87811942.79648
  24695949.040   129778076.73708  24695945.780   101125760.98644
  20411055.700   107260863.09609  20411053.480    83579900.29948
 15 03 05 03 43 30.0000000  0 10G01G03G04G11G14G19G22G27G28G32
  22059332.560   115922602.51809  22059333.060    90329311.08748
  23486970.460   123424876.51908  23486971.080    96175242.20946
  20480164.560   107624028.08709  20480162.420    83862885.93548
  21031908.940   110523459.64609  21031905.360    86122190.05148
  22975446.500   120736798.27708  22975444.120    94080616.17046
  20511492.000   107788652.90109  20511487.240    83991156.61849
  22731979.040   119457407.02109  22731973.900    93083705.00247
  21457325.740   112759047.45509  21457325.480    87864201.79048
  24682740.680   129708665.64608  24682737.340   101071674.40044
  20402263.720   107214659.93809  20402261.260    83543897.85548
 15 03 05 03 44  0.0000000  0 10G01G03G04G11G14G19G22G27G28G32
  22048587.540   115866136.90708  22048588.080    90285311.91448
  23468119.040   123325812.91808  23468119.920    96098049.85846
  20476218.900   107603293.65109  20476216.820    83846729.23348
  21021497.860   110468749.10409  21021494.360    86079558.47648
  22970078.180   120708588.05908  22970075.980    94058634.20446
  20515167.180   107807965.79209  20515162.360    84006205.62249
  22747788.460   119540486.02109  22747783.220    93148441.88547
  21470160.620   112826494.85509  21470160.340    87916758.19748
  24669601.360   129639617.74808  24669598.100   101017870.80745
  20393575.320   107169001.63109  20393572.760    83508319.97448
 15 03 05 03 44 30.0000000  0 10G01G03G04G11G14G19G22G27G28G32
  22037871.500   115809823.82609  22037871.960    90241431.59348
  23449307.080   123226956.40208  23449308.140    96021018.86046
  20472322.780   107582819.36509  20472320.720    83830775.25148
  21011133.300   110414282.97709  21011129.800    86037117.36048
  22964799.860   120680850.55208  22964797.840    94037020.59046
  20518925.860   107827717.78609  20518921.020    84021596.78049
  22763634.400   119623757.04209  22763629.080    93213328.38347
  21483067.340   112894319.63809  21483066.980    87969608.67148
  24656530.720   129570931.15608  24656527.640   100964348.76244
  20384989.940   107123885.32309  20384987.440    83473164.42548
 15 03 05 03 45  0.0000000  0 10G01G03G04G11G14G19G22G27G28G32
  22027185.040   115753666.14409  22027185.400    90197672.38148
  23430535.500   123128311.38808  23430536.780    95944152.67746
  20468476.660   107562607.84709  20468474.600    83815026.02848
  21000815.940   110360065.25209  21000812.480    85994869.80348
  22959612.420   120653590.36808  22959610.220    94015778.90646
  20522768.620   107847911.81809  20522763.840    84037332.39449
  22779517.020   119707220.85809  22779511.780    93278365.11947
  21496046.240   112962523.66909  21496045.820    88022754.67148
  24643529.720   129502610.79708  24643526.640   100911112.10944
  20376508.320   107079314.80809  20376505.960    83438434.18248
 15 03 05 03 45 30.0000000  0 10G01G03G04G11G14G19G22G27G28G32
  22016528.040   115697663.37609  22016528.360    90154033.85847
  23411804.520   123029879.01108  23411805.860    95867452.18946
  20464680.500   107542658.71809  20464678.380    83799481.26348
  20990545.920   110306096.41009  20990542.480    85952816.17548
  22954516.100   120626808.74508  22954513.720    93994910.13346
  20526695.420   107868547.47809  20526690.680    84053412.11849
  22795435.780   119790874.89809  22795430.580    93343550.07447
  21509096.940   113031105.51809  21509096.540    88076195.06548
  24630598.600   129434658.02208  24630595.460   100858161.84244
  20368130.500   107035290.03309  20368128.360    83404129.18448
 15 03 05 03 46  0.0000000  0 10G01G03G04G11G14G19G22G27G28G32
  22005900.520   115641815.41309  22005900.820    90110515.95048
  23393114.260   122931660.64308  23393115.500    95790918.46546
  20460934.240   107522971.87109  20460932.060    83784140.86448
  20980323.420   110252377.28609  20980320.040    85910957.13548
  22949511.020   120600506.80608  22949508.520    93974415.14546
  20530706.300   107889625.17609  20530701.600    84069836.30049
  22811390.320   119874716.64509  22811385.040    93408881.31847
  21522219.340   113100064.06409  21522218.980    88129928.98748
  24617737.760   129367075.05808  24617734.840   100805499.75344
  20359856.540   106991811.49909  20359854.640    83370249.83348
 15 03 05 03 46 30.0000000  0 10G01G03G04G11G14G19G22G27G28G32
  21995302.260   115586121.27009  21995302.740    90067117.90248
  23374464.860   122833656.87808  23374465.800    95714551.94646
  20457237.680   107503546.19309  20457235.500    83769003.96648
  20970148.460   110198907.95409  20970145.160    85869292.73548
  22944597.260   120574685.18308  22944594.860    93954294.42846
  20534801.120   107911144.13909  20534796.500    84086604.31349
  22827380.080   119958742.98309  22827374.720    93474356.37347
  21535413.020   113169397.28409  21535412.700    88183954.85848
  24604947.500   129299862.49207  24604944.740   100753126.26145
  20351686.480   106948878.83709  20351684.740    83336795.83148
 15 03 05 03 47  0.0000000  0 10G01G03G04G11G14G19G22G27G28G32
  21984733.080   115530580.39608  21984733.900    90023839.29948
  23355856.340   122735868.63908  23355857.100    95638353.38646
  20453590.660   107484380.93209  20453588.520    83754069.99848
  20960021.100   110145688.58909  20960017.840    85827823.12248
  22939775.060   120549344.79008  22939772.680    93934548.69046
  20538979.860   107933104.05409  20538975.320    84103715.93249
  22843404.480   120042951.16609  22843399.060    93539973.13347
  21548677.660   113239103.55809  21548677.440    88238271.42948
  24592228.140   129233021.84608  24592225.720   100701042.59644
  20343620.320   106906492.05709  20343618.700    83303767.20648
