     2.11           OBSERVATION DATA    M                   RINEX VERSION / TYPE
SPIDER V4,0,0,3554                      2015 03 24 00:07    PGM / RUN BY / DATE 
CBCK                                                        MARKER NAME         
CBCK                                                        MARKER NUMBER       
                                                            OBSERVER / AGENCY   
496514              LEICA GRX1200+GNSS  8.10/4.007          REC # / TYPE / VERS 
10301041            LEIAR25         NONE                    ANT # / TYPE        
  5163537.3641   764112.0288  3655122.6807                  APPROX POSITION XYZ 
        0.0720        0.0000        0.0000                  ANTENNA: DELTA H/E/N
     1     1                                                WAVELENGTH FACT L1/2
     4    C1    L1    P2    L2                              # / TYPES OF OBSERV 
    30.000                                                  INTERVAL            
  2015    03    05    00    00    0.0000000     GPS         TIME OF FIRST OBS   
  2015    03    05    23    59   30.0000000     GPS         TIME OF LAST OBS    
    16                                                      LEAP SECONDS        
    38                                                      # OF SATELLITES     
   G 1   798   786   793   786                              PRN / # OF OBS      
   G 2   904   852   880   849                              PRN / # OF OBS      
   G 3   833   798   814   796                              PRN / # OF OBS      
   G 4   833   822   828   822                              PRN / # OF OBS      
   G 5   602   527   556   525                              PRN / # OF OBS      
   G 6   815   774   800   774                              PRN / # OF OBS      
   G 7   621   561   588   557                              PRN / # OF OBS      
   G 9   786   730   760   730                              PRN / # OF OBS      
   G10   662   584   612   575                              PRN / # OF OBS      
   G11   766   756   762   756                              PRN / # OF OBS      
   G12   788   713   753   711                              PRN / # OF OBS      
   G13   678   552   615   549                              PRN / # OF OBS      
   G14   474   474   473   473                              PRN / # OF OBS      
   G15   577   470   523   462                              PRN / # OF OBS      
   G16   661   661   661   661                              PRN / # OF OBS      
   G17   888   788   840   786                              PRN / # OF OBS      
   G18   865   806   836   802                              PRN / # OF OBS      
   G19   748   748   748   748                              PRN / # OF OBS      
   G20   690   611   639   604                              PRN / # OF OBS      
   G21   728   702   704   698                              PRN / # OF OBS      
   G22   673   671   672   671                              PRN / # OF OBS      
   G23   742   706   724   706                              PRN / # OF OBS      
   G24   755   670   711   666                              PRN / # OF OBS      
   G25   837   804   820   802                              PRN / # OF OBS      
   G27   802   802   802   802                              PRN / # OF OBS      
   G28   773   696   733   692                              PRN / # OF OBS      
   G29   761   756   755   752                              PRN / # OF OBS      
   G30   656   574   615   571                              PRN / # OF OBS      
   G31   873   866   871   865                              PRN / # OF OBS      
   G32   775   764   769   764                              PRN / # OF OBS      
   R 2    30    30    30    30                              PRN / # OF OBS      
   R 3    30    30    30    30                              PRN / # OF OBS      
   R 9    30    30    30    30                              PRN / # OF OBS      
   R15    30    30    30    30                              PRN / # OF OBS      
   R16    30    30    30    30                              PRN / # OF OBS      
   R17    30    30    30    30                              PRN / # OF OBS      
   R18    30    30    30    30                              PRN / # OF OBS      
   R19    30    30    30    30                              PRN / # OF OBS      
BIT 2 OF LLI FLAGS DATA COLLECTED UNDER A/S CONDITION       COMMENT             
SNR is mapped to RINEX snr flag value [2-9]                 COMMENT             
Lx:     = 25dBHz -> 1; 26-27dBHz -> 2; 28-31dBHz -> 3       COMMENT             
       32-35dBHz -> 4; 36-38dBHz -> 5; 39-41dBHz -> 6       COMMENT             
       42-44dBHz -> 7; 45-48dBHz -> 8; >=49dBHz -> 9        COMMENT             
                                                            END OF HEADER       
 15 03 05 00 00  0.0000000  0 15G16G18G21G22G27G29G31R02R03R09R15R16
                                R17R18R19
  21347314.320   112180915.85309  21347311.100    87413689.73748
  21921003.640   115195709.15109  21921001.080    89762899.45147
  21557525.580   113285852.09409  21557522.000    88274789.13248
  23067564.880   121220896.49309  23067560.940    94457833.12747
  22666903.800   119115416.68809  22666903.740    92817208.07947
  24253950.360   127455713.07708  24253948.740    99316280.07645
  23772017.320   124922799.61208  23772015.520    97342444.62646
  22167294.560   118288943.32409  22167297.260    92002528.65307
  22044910.120   118008143.96808  22044910.720    91784122.40107
  21951987.760   117222391.11408  21951988.560    91172983.41304
  22468523.160   120064983.15408  22468527.960    93383896.99607
  20067011.600   107194383.97008  20067014.160    83373420.48008
  22239154.840   119006594.25608  22239155.600    92560875.27607
  20165650.600   107645714.29709  20165653.340    83724501.02808
  22244859.520   118995014.65908  22244859.880    92551695.77407
 15 03 05 00 00 30.0000000  0 15G16G18G21G22G27G29G31R02R03R09R15R16
                                R17R18R19
  21335655.140   112119646.50609  21335651.960    87365947.40448
  21912187.980   115149382.59009  21912185.380    89726800.85047
  21566646.880   113333785.01709  21566643.320    88312139.47048
  23049896.060   121128046.46909  23049892.140    94385482.52247
  22654647.940   119051011.30209  22654647.660    92767022.10947
  24267793.280   127528458.46208  24267791.500    99372964.79644
  23789737.440   125015920.20708  23789735.760    97415006.08846
  22168169.760   118293613.85309  22168172.420    92006161.31907
  22027976.640   117917497.88208  22027977.280    91713619.92607
  21937917.040   117147254.54808  21937917.820    91114543.87504
  22492828.740   120194864.66308  22492833.520    93484915.88907
  20073791.480   107230600.69908  20073794.060    83401589.02608
  22252288.420   119076874.67908  22252289.140    92615537.83007
  20168297.560   107659843.93309  20168300.320    83735490.74908
  22233690.820   118935270.00908  22233691.340    92505227.75807
 15 03 05 00 01  0.0000000  0 15G16G18G21G22G27G29G31R02R03R09R15R16
                                R17R18R19
  21324065.980   112058745.12009  21324062.860    87318491.78248
  21903449.020   115103458.82209  21903446.380    89691016.11847
  21575814.100   113381959.20409  21575810.600    88349677.79448
  23032252.960   121035331.61809  23032249.080    94313237.23347
  22642407.500   118986687.08809  22642407.060    92716899.38647
  24281645.480   127601252.67708  24281643.560    99429687.56544
  23807466.840   125109089.69208  23807465.300    97487605.63846
  22169185.540   118299034.15109  22169188.160    92010377.13107
  22011119.280   117827259.07908  22011119.900    91643434.21607
  21923966.380   117072759.26108  21923967.300    91056603.13104
  22517165.860   120324914.40508  22517170.580    93586065.61507
  20080721.660   107267620.36408  20080724.200    83430382.08708
  22265424.040   119147166.13408  22265424.700    92670208.95707
  20170978.680   107674155.80009  20170981.500    83746622.21008
  22222551.960   118875684.83608  22222552.460    92458883.76607
 15 03 05 00 01 30.0000000  0 15G16G18G21G22G27G29G31R02R03R09R15R16
                                R17R18R19
  21312546.760   111998211.44409  21312543.760    87271322.69848
  21894786.600   115057936.83309  21894783.800    89655544.45547
  21585026.520   113430370.84009  21585023.120    88387401.15048
  23014635.600   120942752.20009  23014631.820    94241097.48647
  22630182.040   118922441.83309  22630181.520    92666838.17947
  24295506.460   127674093.08307  24295504.640    99486446.33045
  23825204.540   125202302.39708  23825203.120    97560238.86146
  22170341.440   118305202.11809  22170343.980    92015174.46307
  21994338.260   117737429.21108  21994338.900    91573566.56607
  21910135.940   116998906.03308  21910136.900    90999161.74604
  22541533.220   120455125.71008  22541537.920    93687341.01307
  20087801.200   107305438.19408  20087803.820    83459795.92708
  22278561.040   119217465.49308  22278561.800    92724886.22607
  20173693.240   107688646.34309  20173696.040    83757892.63808
  22211442.340   118816255.84708  22211442.760    92412661.24407
 15 03 05 00 02  0.0000000  0 15G16G18G21G22G27G29G31R02R03R09R15R16
                                R17R18R19
  21301098.760   111938051.95009  21301095.780    87224445.17748
  21886201.860   115012822.92609  21886198.860    89620390.77648
  21594284.540   113479021.94809  21594281.200    88425311.10748
  22997045.360   120850315.06209  22997041.540    94169068.59347
  22617972.320   118858279.82309  22617971.920    92616841.84648
  24309376.980   127746984.12207  24309375.380    99543244.52545
  23842950.780   125295559.43108  23842949.420    97632906.62646
  22171638.180   118312122.07809  22171640.780    92020556.68307
  21977635.200   117648016.79508  21977635.860    91504023.60507
  21896427.180   116925701.87508  21896428.160    90942225.19604
  22565930.680   120585498.20008  22565935.460    93788741.76307
  20095030.560   107344056.27108  20095033.200    83489832.19008
  22291700.360   119287776.99608  22291701.160    92779572.94207
  20176441.920   107703318.62109  20176444.580    83769304.42208
  22200362.560   118756986.48408  22200362.900    92366562.88407
 15 03 05 00 02 30.0000000  0 15G16G18G21G22G27G29G31R02R03R09R15R16
                                R17R18R19
  21289721.720   111878265.17809  21289718.720    87177858.08648
  21877694.320   114968114.84509  21877691.140    89585553.33047
  21603587.160   113527907.52209  21603583.860    88463403.76648
  22979481.980   120758019.29009  22979478.160    94097149.86847
  22605777.760   118794197.62109  22605777.560    92566907.70647
  24323256.480   127819921.62108  24323255.080    99600078.91145
  23860704.280   125388854.40708  23860702.980    97705603.95046
  22173075.140   118319790.72209  22173077.940    92026521.21408
  21961010.340   117559022.71708  21961010.940    91434806.01407
  21882839.860   116853146.50708  21882840.900    90885793.27204
  22590356.600   120716023.00408  22590361.520    93890260.98307
  20102408.740   107383468.88808  20102411.280    83520486.44408
  22304841.240   119358096.41108  22304842.060    92834265.81007
  20179223.820   107718168.13309  20179226.440    83780854.04908
  22189311.780   118697872.30008  22189312.180    92320585.23707
 15 03 05 00 03  0.0000000  0 15G16G18G21G22G27G29G31R02R03R09R15R16
                                R17R18R19
  21278415.660   111818851.48109  21278412.660    87131561.71948
  21869263.980   114923812.94609  21869260.720    89551032.39947
  21612933.660   113577023.84809  21612930.360    88501676.24448
  22961945.680   120665866.05009  22961941.840    94025342.20247
  22593598.200   118730193.89809  22593598.140    92517034.71647
  24337144.720   127892904.61708  24337143.520    99656948.78346
  23878464.220   125482182.75908  23878462.820    97778327.30146
  22174652.120   118328206.65709  22174655.120    92033066.96008
  21944464.180   117470449.85908  21944464.660    91365916.05507
  21869374.240   116781241.25108  21869375.480    90829866.99704
  22614810.060   120846695.10808  22614815.140    93991894.77207
  20109934.840   107423671.99208  20109937.420    83551755.51308
  22317983.380   119428422.03408  22317984.080    92888963.52307
  20182038.280   107733192.29609  20182040.820    83792539.52108
  22178289.660   118638911.24808  22178290.060    92274726.68707
 15 03 05 00 03 30.0000000  0 15G16G18G21G22G27G29G31R02R03R09R15R16
                                R17R18R19
  21267182.460   111759820.72509  21267179.560    87085563.72348
  21860912.640   114879926.54509  21860909.320    89516835.21147
  21622325.300   113626377.33809  21622321.980    88540133.50148
  22944438.380   120573865.15809  22944434.540    93953653.25347
  22581434.980   118666276.12709  22581434.960    92467228.69547
  24351043.060   127965940.18808  24351041.860    99713859.60146
  23896231.340   125575548.74808  23896229.880    97851079.94846
  22176370.660   118337377.47009  22176373.700    92040199.83607
  21927998.820   117382309.71508  21927999.240    91297362.63807
  21856032.380   116709996.55408  21856033.660    90774454.45005
  22639291.800   120977517.81508  22639296.880    94093645.67507
  20117609.900   107464670.71608  20117612.460    83583643.38408
  22331127.860   119498760.68608  22331128.560    92943671.34307
  20184886.680   107748397.41109  20184889.100    83804365.73308
  22167297.360   118580110.06208  22167297.740    92228992.46007
 15 03 05 00 04  0.0000000  0 15G16G18G21G22G27G29G31R02R03R09R15R16
                                R17R18R19
  21256021.660   111701170.53809  21256018.800    87039862.29148
  21852639.740   114836452.38009  21852636.460    89482959.25948
  21631760.880   113675961.36209  21631757.540    88578770.40548
  22926959.760   120482014.74509  22926955.980    93882081.55847
  22569287.300   118602440.06309  22569287.340    92417486.35347
  24364950.560   128039023.91908  24364949.360    99770807.93846
  23914004.180   125668945.12508  23914002.680    97923856.27446
  22178229.860   118347298.63209  22178232.880    92047916.32207
  21911614.180   117294602.05908  21911614.720    91229145.60408
  21842813.940   116639411.00108  21842815.300    90719554.61504
  22663800.060   121108481.67308  22663804.980    94195506.38607
  20125432.740   107506458.52809  20125435.240    83616144.98608
  22344273.920   119569107.93308  22344274.680    92998385.84707
  20187768.040   107763778.03409  20187770.360    83816328.46208
  22156334.020   118521463.63608  22156334.320    92183378.61107
 15 03 05 00 04 30.0000000  0 15G16G18G21G22G27G29G31R02R03R09R15R16
                                R17R18R19
  21244933.440   111642901.80609  21244930.600    86994458.09048
  21844445.480   114793391.36909  21844442.260    89449405.24947
  21641239.660   113725772.27709  21641236.220    88617584.11548
  22909510.120   120390316.18909  22909506.320    93810628.19747
  22557154.940   118538684.55409  22557154.980    92367806.77748
  24378867.080   128112154.97608  24378865.820    99827793.16547
  23931781.980   125762367.50808  23931780.400    97996652.87546
  22180229.480   118357968.90009  22180232.480    92056215.43807
  21895310.980   117207330.23508  21895311.660    91161267.56408
  21829719.180   116569485.94808  21829720.360    90665168.47904
  22688333.620   121239580.62608  22688338.440    94297472.17907
  20133402.500   107549031.18409  20133405.020    83649257.01908
  22357421.320   119639461.84508  22357421.940    93053105.55007
  20190681.840   107779331.85109  20190684.180    83828425.89208
  22145399.140   118462969.58108  22145399.440    92137883.26807
 15 03 05 00 05  0.0000000  0 15G16G18G21G22G27G29G31R02R03R09R15R16
                                R17R18R19
  21233918.880   111585019.83909  21233916.060    86949355.27448
  21836330.680   114750748.00909  21836327.560    89416176.67747
  21650761.900   113775811.65509  21650758.380    88656575.84548
  22892090.520   120298775.21109  22892086.660    93739297.61647
  22545038.620   118475013.00709  22545038.600    92318192.62947
  24392793.080   128185336.13808  24392791.820    99884817.44047
  23949564.780   125855816.22208  23949563.160    98069469.99546
  22182370.220   118369391.83409  22182373.140    92065099.97408
  21879090.640   117120501.49008  21879091.320    91093734.13308
  21816749.340   116500227.82708  21816750.260    90611301.08104
  22712892.460   121370814.98208  22712897.240    94399543.27207
  20141519.400   107592389.81909  20141521.940    83682980.37508
  22370570.480   119709825.22508  22370571.060    93107832.63407
  20193628.440   107795061.01309  20193630.960    83840659.69908
  22134493.220   118404630.51708  22134493.520    92092508.49407
 15 03 05 00 05 30.0000000  0 15G16G18G21G22G27G29G31R02R03R09R15R16
                                R17R18R19
  21222978.320   111527526.40909  21222975.460    86904555.20248
  21828295.660   114708524.00909  21828292.620    89383274.87048
  21660327.260   113826077.72809  21660323.640    88695744.21148
  22874701.280   120207394.14609  22874697.400    93668091.63647
  22532938.260   118411425.33908  22532938.200    92268643.83047
  24406728.560   128258567.45008  24406727.340    99941880.78946
  23967351.860   125949287.88308  23967350.280    98142304.99046
  22184651.800   118381566.76109  22184654.740    92074569.37607
  21862953.800   117034119.61808  21862954.380    91026548.26607
  21803904.900   116431639.07108  21803905.640    90557954.28204
  22737475.380   121502178.53808  22737480.240    94501714.85506
  20149782.900   107636531.56608  20149785.400    83717312.79908
  22383721.340   119780197.78508  22383721.880    93162566.84607
  20196607.640   107810964.44309  20196610.220    83853029.04408
  22123616.120   118346445.47308  22123616.360    92047253.48107
 15 03 05 00 06  0.0000000  0 15G16G18G21G22G27G29G31R02R03R09R15R16
                                R17R18R19
  21212111.900   111470422.53509  21212108.940    86860058.68148
  21820340.440   114666719.51609  21820337.500    89350699.96548
  21669935.120   113876567.36709  21669931.460    88735086.78348
  22857342.740   120116174.37909  22857338.760    93597011.35747
  22520853.700   118347920.46309  22520853.540    92219159.54247
  24420673.280   128331847.50108  24420672.000    99998982.11146
  23985142.420   126042778.13208  23985140.780    98215154.46346
  22187074.060   118394492.28709  22187077.000    92084622.57507
  21846900.940   116948187.81108  21846901.580    90959712.44307
  21791186.120   116363721.35908  21791186.940    90505129.40904
  22762081.700   121633667.30808  22762086.660    94603983.83506
  20158192.180   107681452.33908  20158194.680    83752251.14308
  22396873.480   119850577.73108  22396874.040    93217306.79007
  20199619.080   107827039.79709  20199621.540    83865532.12408
  22112767.520   118288412.66908  22112767.640    92002116.88407
 15 03 05 00 06 30.0000000  0 15G16G18G21G22G27G29G31R02R03R09R15R16
                                R17R18R19
  21201320.100   111413711.12509  21201317.100    86815867.97648
  21812465.560   114625336.89509  21812462.700    89318453.78947
  21679585.360   113927279.82909  21679581.680    88774602.99748
  22840015.580   120025119.39109  22840011.440    93526059.46047
  22508785.060   118284499.42908  22508784.900    92169740.59347
  24434627.380   128405176.86508  24434626.120   100056121.85946
  24002936.140   126136285.06908  24002934.540    98288016.94846
  22189637.160   118408169.29809  22189640.060    92095260.26507
  21830933.120   116862711.26708  21830933.800    90893230.71207
  21778593.620   116296478.27008  21778594.520    90452829.25304
  22786710.620   121765277.11507  22786715.760    94706346.93306
  20166747.020   107727150.87108  20166749.540    83787794.40408
  22410027.140   119920965.94308  22410027.680    93272053.16407
  20202662.740   107843286.98909  20202665.240    83878168.85208
  22101947.400   118230532.05808  22101947.380    91957098.67307
 15 03 05 00 07  0.0000000  0 15G16G18G21G22G27G29G31R02R03R09R15R16
                                R17R18R19
  21190603.460   111357394.82209  21190600.400    86771985.14748
  21804671.400   114584378.22409  21804668.540    89286537.96347
  21689277.740   113978213.57109  21689274.080    88814291.63648
  22822720.420   119934232.60909  22822716.160    93455238.64247
  22496732.520   118221162.93809  22496732.320    92120387.50847
  24448591.020   128478556.41708  24448589.780   100113300.71846
  24020732.660   126229806.26108  24020731.140    98360890.52446
  22192341.200   118422598.08609  22192343.900    92106482.68207
  21815051.180   116777694.63308  21815051.920    90827106.70308
  21766128.140   116229913.29108  21766129.060    90401056.51704
  22811361.320   121897002.80308  22811366.520    94808800.16506
  20175447.000   107773624.78708  20175449.600    83823940.75608
  22423182.400   119991362.48508  22423182.960    93326806.01107
  20205738.480   107859705.56209  20205741.080    83890938.87008
  22091155.580   118172803.39708  22091155.560    91912198.65807
 15 03 05 00 07 30.0000000  0 15G16G18G21G22G27G29G31R02R03R09R15R16
                                R17R18R19
  21179962.240   111301475.15709  21179959.160    86728411.37848
  21796958.120   114543844.78509  21796955.220    89254953.48647
  21699011.740   114029366.24409  21699008.140    88854150.85948
  22805457.620   119843515.80409  22805453.240    93384550.25847
  22484696.000   118157910.70909  22484695.800    92071100.08947
  24462564.020   128551985.48007  24462562.840   100170518.15146
  24038531.260   126323337.99408  24038529.720    98433772.32646
  22195186.000   118437777.85909  22195188.560    92118289.18507
  21799255.960   116693141.36208  21799256.620    90761343.08707
  21753790.220   116164028.73908  21753791.060    90349812.98105
  22836033.040   122028840.82608  22836038.260    94911340.76206
  20184291.560   107820870.88708  20184294.200    83860687.69808
  22436339.080   120061766.70608  22436339.760    93381564.83507
  20208846.040   107876294.01409  20208848.560    83903841.01508
  22080391.860   118115225.57208  22080391.980    91867415.94807
 15 03 05 00 08  0.0000000  0 15G16G18G21G22G27G29G31R02R03R09R15R16
                                R17R18R19
  21169396.960   111245954.44609  21169393.860    86685148.49848
  21789326.040   114503738.04109  21789323.020    89223701.49747
  21708787.060   114080736.21009  21708783.540    88894179.40648
  22788227.660   119752971.66709  22788223.220    93313996.43147
  22472675.580   118094743.11208  22472675.460    92021878.63047
  24476546.440   128625464.30207  24476545.320   100227774.36445
  24056331.380   126416877.34708  24056329.780    98506660.08746
  22198171.520   118453708.84309  22198173.920    92130679.96907
  21783548.220   116609056.28708  21783548.760    90695943.61907
  21741580.160   116098827.15808  21741580.900    90299100.66504
  22860725.040   122160786.92508  22860730.200    95013965.44006
  20193280.180   107868886.54908  20193282.860    83898033.19108
  22449497.160   120132178.31708  22449497.920    93436329.41707
  20211985.200   107893051.51109  20211987.760    83916874.64608
  22069656.140   118057797.81608  22069656.500    91822749.95207
 15 03 05 00 08 30.0000000  0 15G16G18G21G22G27G29G31R02R03R09R15R16
                                R17R18R19
  21158907.980   111190834.28209  21158904.800    86642197.73348
  21781775.480   114464059.35509  21781772.340    89192783.05448
  21718603.260   114132321.15708  21718599.820    88934375.46548
  22771030.920   119662602.34609  22771026.460    93243578.81847
  22460671.180   118031659.85908  22460671.100    91972722.88347
  24490538.260   128698992.61207  24490537.140   100285069.13045
  24074132.400   126510421.56008  24074130.880    98579551.61047
  22201297.600   118470390.00809  22201299.920    92143654.24507
  21767928.540   116525442.83908  21767929.020    90630910.96907
  21729498.420   116034311.23108  21729499.160    90248921.62305
  22885436.340   122292836.07208  22885441.420    95116670.26706
  20202412.260   107917668.72909  20202415.040    83935974.86108
  22462656.540   120202596.75908  22462657.300    93491099.29707
  20215155.860   107909976.83509  20215158.360    83930038.80308
  22058948.340   118000519.04208  22058948.820    91778199.84607
 15 03 05 00 09  0.0000000  0 15G16G18G21G22G27G29G31R02R03R09R15R16
                                R17R18R19
  21148495.920   111136118.43709  21148492.700    86599562.02048
  21774306.960   114424811.79909  21774303.760    89162200.56847
  21728460.380   114184120.99609  21728456.980    88974738.97548
  22753868.240   119572412.42909  22753863.860    93173301.01247
  22448683.240   117968662.97709  22448683.080    91923634.43447
  24504539.820   128772571.95207  24504538.520   100342403.64245
  24091934.000   126603968.93008  24091932.500    98652445.59246
  22204564.420   118487822.94009  22204566.860    92157213.20508
  21752398.040   116442306.85108  21752398.460    90566249.67008
  21717545.840   115970485.12108  21717546.640    90199279.10905
  22910166.520   122424985.97508  22910171.560    95219453.45906
  20211687.780   107967216.58008  20211690.500    83974512.06308
  22475817.600   120273023.59108  22475818.220    93545875.70807
  20218358.140   107927070.70309  20218360.620    83943334.05008
  22048268.660   117943390.36208  22048269.000    91733766.46807
 15 03 05 00 09 30.0000000  0 15G16G18G21G22G27G29G31R02R03R09R15R16
                                R17R18R19
  21138161.120   111081808.66309  21138157.900    86557242.73448
  21766920.660   114385996.36209  21766917.500    89131954.78948
  21738358.020   114236133.73109  21738354.640    89015268.37948
  22736740.080   119482403.75309  22736735.760    93103164.41647
  22436711.660   117905752.17309  22436711.380    91874613.06147
  24518551.100   128846201.62807  24518549.880   100399777.41844
  24109735.520   126697516.42808  24109734.100    98725339.67746
  22207971.960   118506006.62909  22207974.500    92171356.10608
  21736957.500   116359652.44208  21736957.940    90501962.93308
  21705722.800   115907351.17108  21705723.720    90150174.93705
  22934914.540   122557231.48908  22934919.660    95322311.00406
  20221105.940   108017526.51308  20221108.600    84013641.99908
  22488980.020   120343457.99308  22488980.580    93600658.00807
  20221591.680   107944331.77609  20221594.120    83956759.33708
  22037616.880   117886410.47008  22037617.200    91689448.80407
 15 03 05 00 10  0.0000000  0 15G16G18G21G22G27G29G31R02R03R09R15R16
                                R17R18R19
  21127903.480   111027904.85509  21127900.340    86515239.77348
  21759616.300   114347612.01509  21759613.280    89102044.92447
  21748295.460   114288355.44109  21748292.140    89055960.61548
  22719646.440   119392576.50509  22719642.120    93033169.20747
  22424756.120   117842925.32609  22424755.700    91825657.09947
  24532571.660   128919879.54308  24532570.020   100457188.78844
  24127535.960   126791058.22408  24127534.640    98798229.29946
  22211519.700   118524938.39709  22211522.320    92186080.83008
  21721607.080   116277480.71508  21721607.540    90438051.61708
  21694029.360   115844909.37708  21694030.320    90101609.09905
  22959679.180   122689565.73907  22959684.420    95425237.55707
  20230665.700   108068593.11208  20230668.340    84053360.44208
  22502143.340   120413897.39208  22502143.940    93655444.18907
  20224856.040   107961756.67309  20224858.380    83970312.04508
  22026992.320   117829576.31908  22026992.700    91645244.50107
 15 03 05 00 10 30.0000000  0 15G16G18G21G22G27G29G31R02R03R09R15R16
                                R17R18R19
  21117723.760   110974410.41809  21117720.680    86473555.80248
  21752394.600   114309662.44209  21752391.740    89072473.85548
  21758272.600   114340785.66109  21758269.240    89096815.32948
  22702588.220   119302935.08309  22702583.920    92963318.79947
  22412816.900   117780184.29809  22412816.500    91776768.01448
  24546601.860   128993607.52808  24546599.920   100514639.20144
  24145335.160   126884593.44908  24145333.920    98871113.81646
  22215207.760   118544619.04809  22215210.540    92201388.01408
  21706347.980   116195798.02108  21706348.540    90374520.65508
  21682466.400   115783164.21408  21682467.500    90053585.11005
  22984459.960   122821986.43808  22984465.300    95528231.34807
  20240366.980   108120415.42208  20240369.560    84093666.67208
  22515307.860   120484343.27008  22515308.360    93710235.41207
  20228151.220   107979346.21009  20228153.600    83983992.81308
  22016395.260   117772888.91008  22016395.680    91601154.33807
 15 03 05 00 11  0.0000000  0 14G16G18G21G22G27G31R02R03R09R15R16R17
                                R18R19
  21107629.400   110921364.52609  21107626.400    86432221.35448
  21745262.880   114272185.49209  21745260.040    89043271.05447
  21768295.980   114393458.74409  21768292.540    89137859.29448
  22685572.920   119213519.10909  22685568.580    92893644.05947
  22400901.140   117717566.43109  22400900.900    91727974.91148
  24163139.540   126978155.87708  24163138.260    98944019.53446
  22219043.280   118565086.16309  22219046.040    92217306.90207
  21691188.160   116114646.26208  21691188.780    90311402.64708
  21671041.320   115722155.80808  21671042.480    90006134.14004
  23009263.200   122954527.16807  23009268.580    95631318.49306
  20250216.200   108173028.11508  20250218.800    84134587.63508
  22528480.540   120554833.07808  22528480.920    93765060.80607
  20231483.920   107997137.04809  20231486.580    83997830.14608
  22005832.520   117716385.08508  22005833.000    91557206.97007
 15 03 05 00 11 30.0000000  0 14G16G18G21G22G27G31R02R03R09R15R16R17
                                R18R19
  21097606.020   110868691.44809  21097603.060    86391177.41948
  21738206.660   114235105.13909  21738203.860    89014377.29947
  21778350.680   114446296.39109  21778347.180    89179031.48948
  22668586.240   119124253.51909  22668581.860    92824086.50247
  22388994.100   117654994.24509  22388993.880    91679217.39748
  24180933.760   127071664.95608  24180932.540    99016883.67346
  22223011.240   118586260.17409  22223013.980    92233775.59107
  21676113.440   116033949.96608  21676114.040    90248638.88908
  21659739.920   115661807.61108  21659741.160    89959196.67005
  23034073.240   123087104.21608  23034078.620    95734433.88306
  20260197.980   108226348.96008  20260200.620    84176059.38108
  22541646.580   120625287.52208  22541646.880    93819858.70907
  20234839.360   108015049.60009  20234842.060    84011762.14308
  21995289.220   117659985.19108  21995289.660    91513340.43407
 15 03 05 00 12  0.0000000  0 14G16G18G21G22G27G31R02R03R09R15R16R17
                                R18R19
  21087663.080   110816440.82509  21087660.060    86350462.66248
  21731235.180   114198470.05909  21731232.420    88985830.49748
  21788445.380   114499344.21109  21788441.800    89220367.44948
  22651637.660   119035188.21909  22651633.280    92754685.01047
  22377104.880   117592515.50709  22377104.580    91630532.68848
  24198726.380   127165165.63908  24198725.180    99089741.26746
  22227120.580   118608188.78109  22227123.380    92250831.18707
  21661133.640   115953761.79808  21661134.220    90186270.32408
  21648571.680   115602170.73808  21648573.160    89912812.46704
  23058898.260   123219761.38008  23058903.600    95837611.56306
  20270320.940   108280423.56509  20270323.520    84218117.39708
  22554815.040   120695754.82808  22554815.500    93874666.58907
  20238226.560   108033131.02109  20238229.060    84025825.47708
  21984774.140   117603736.49108  21984774.500    91469591.49107
 15 03 05 00 12 30.0000000  0 14G16G18G21G22G27G31R02R03R09R15R16R17
                                R18R19
  21077800.020   110764609.77909  21077796.940    86310074.85748
  21724347.960   114162277.37109  21724345.120    88957628.42547
  21798578.860   114552595.80109  21798575.240    89261862.20448
  22634726.800   118946321.14709  22634722.400    92685437.98247
  22365232.520   117530125.65309  22365232.080    91581917.24848
  24216515.840   127258649.71208  24216514.560    99162585.92945
  22231370.280   118630866.42409  22231373.060    92268469.39107
  21646248.600   115874080.92808  21646249.120    90124296.34908
  21637536.360   115543242.57108  21637537.680    89866979.43805
  23083736.780   123352490.58507  23083741.960    95940845.31206
  20280583.460   108335243.85709  20280586.060    84260755.40108
  22567984.940   120766230.04108  22567985.640    93929480.64107
  20241644.380   108051375.69909  20241646.880    84040015.79708
  21974286.240   117547633.80408  21974286.600    91425956.12607
 15 03 05 00 13  0.0000000  0 14G16G18G21G22G27G31R02R03R09R15R16R17
                                R18R19
  21068016.920   110713198.90609  21068013.820    86270014.45048
  21717544.780   114126526.57109  21717541.960    88929770.67847
  21808750.360   114606046.96609  21808746.700    89303512.46248
  22617853.780   118857652.97309  22617849.400    92616345.93547
  22353376.720   117467823.20609  22353376.180    91533369.91948
  24234301.380   127352112.93008  24234299.960    99235414.33346
  22235760.000   118654290.73409  22235762.580    92286688.32007
  21631458.740   115794909.67608  21631459.220    90062718.74008
  21626633.900   115485023.72008  21626635.140    89821698.13805
  23108587.500   123485284.82208  23108592.500    96044129.62106
  20290984.660   108390804.85609  20290987.220    84303969.49908
  22581156.020   120836711.22008  22581156.860    93984299.32307
  20245092.260   108069780.98109  20245094.920    84054331.02408
  21963825.120   117491674.49708  21963825.540    91382432.26007
 15 03 05 00 13 30.0000000  0 14G16G18G21G22G27G31R02R03R09R15R16R17
                                R18R19
  21058314.800   110662213.72409  21058311.700    86230285.75748
  21710826.580   114091222.81509  21710823.860    88902261.27748
  21818960.260   114659700.00509  21818956.580    89345320.03048
  22601019.780   118769190.15809  22601015.520    92547413.91348
  22341538.280   117405612.17509  22341537.760    91484893.82448
  24252083.040   127445556.02108  24252081.660    99308227.06145
  22240290.180   118678464.55409  22240292.760    92305490.19507
  21616765.460   115716255.79408  21616765.940    90001543.53208
  21615865.560   115427520.46608  21615866.700    89776973.39405
  23133450.300   123618143.34208  23133455.240    96147463.93606
  20301524.720   108447107.42009  20301527.140    84347760.38808
  22594328.780   120907201.70208  22594329.640    94039125.24207
  20248570.760   108088349.90109  20248573.600    84068773.52808
  21953391.460   117435861.60608  21953391.840    91339022.28407
 15 03 05 00 14  0.0000000  0 15G16G18G19G21G22G27G31R02R03R09R15R16
                                R17R18R19
  21048693.200   110611651.88809  21048690.080    86190886.93048
  21704192.900   114056362.94309  21704190.200    88875097.75347
  24532388.500   128918565.26707  24532385.360   100456023.03645
  21829207.400   114713548.61709  21829203.620    89387279.98148
  22584224.520   118680931.07009  22584220.420    92478640.64247
  22329716.440   117343488.47009  22329715.960    91436485.76548
  24269859.460   127538971.54108  24269858.120    99381018.28245
  22244959.840   118703382.86709  22244962.600    92324871.10407
  21602168.720   115638118.89308  21602169.260    89940770.41208
  21605230.720   115370730.77108  21605231.800    89732803.63705
  23158323.640   123751058.36508  23158328.540    96250842.20006
  20312202.200   108504143.95509  20312204.520    84392122.12308
  22607502.500   120977697.15008  22607503.360    94093955.01607
  20252079.060   108107077.12509  20252081.780    84083339.14808
  21942984.240   117380190.07709  21942984.600    91295722.24707
 15 03 05 00 14 30.0000000  0 15G16G18G19G21G22G27G31R02R03R09R15R16
                                R17R18R19
  21039147.260   110561487.90809  21039144.100    86151798.13348
  21697638.720   114021920.76009  21697636.040    88848259.70748
  24517343.940   128839505.78607  24517340.620   100394418.32445
  21839486.220   114767563.79409  21839482.360    89429369.73548
  22567463.200   118592850.50909  22567459.280    92410006.48248
  22317906.020   117281424.89109  22317905.660    91388124.55548
  24287624.880   127632329.10708  24287623.600    99453764.35945
  22249763.640   118729017.07009  22249766.420    92344808.83407
  21587664.080   115560474.96808  21587664.700    89880380.72808
  21594724.660   115314628.91708  21594725.860    89689168.87205
  23183201.340   123883996.75408  23183206.320    96354238.63106
  20323011.100   108561883.11608  20323013.420    84437030.34708
  22620671.900   121048169.38808  22620672.760    94148766.75807
  20255611.640   108125933.70809  20255614.200    84098005.38408
  21932598.120   117324631.01509  21932598.260    91252509.69307
 15 03 05 00 15  0.0000000  0  7G16G18G19G21G22G27G31
  21029688.900   110511784.02409  21029685.700    86113067.84348
  21691175.800   113987957.96309  21691173.100    88821795.21048
  24502312.740   128760515.82407  24502309.400   100332867.72545
  21849807.760   114821803.79509  21849803.860    89471634.67948
  22550747.840   118505011.33509  22550744.000    92341560.41347
  22306118.620   117219481.98309  22306118.300    91339857.37848
  24305390.240   127725686.35408  24305388.920    99526510.19746
 15 03 05 00 15 30.0000000  0  7G16G18G19G21G22G27G31
  21020313.660   110462516.78709  21020310.460    86074677.79448
  21684799.540   113954450.31209  21684796.780    88795685.36248
  24487289.840   128681569.88307  24487286.500   100271351.47144
  21860166.920   114876241.89009  21860163.040    89514053.97448
  22534074.060   118417390.58209  22534070.260    92273284.54547
  22294349.460   117157634.57909  22294349.160    91291664.62148
  24323150.160   127819014.61208  24323148.880    99599233.42646
 15 03 05 00 16  0.0000000  0  7G16G18G19G21G22G27G31
  21011020.060   110413678.58209  21011016.840    86036622.05848
  21678508.340   113921389.70409  21678505.560    88769923.86848
  24472273.460   128602658.58107  24472270.360   100209862.22445
  21870561.540   114930866.42308  21870557.840    89556618.54348
  22517440.620   118329981.47509  22517436.780    92205173.58347
  22282596.760   117095873.46909  22282596.440    91243539.11848
  24340902.220   127912301.82608  24340900.980    99671924.66846
 15 03 05 00 16 30.0000000  0  7G16G18G19G21G22G27G31
  21001809.360   110365276.08209  21001806.140    85998905.84248
  21672303.200   113888781.39709  21672300.380    88744514.82048
  24457264.560   128523786.52308  24457261.520   100148403.53145
  21880992.180   114985680.39509  21880988.620    89599330.73548
  22500848.880   118242791.23009  22500844.960    92137233.16547
  22270861.400   117034203.49709  22270861.080    91195484.63548
  24358646.700   128005549.55008  24358645.540    99744585.12446
 15 03 05 00 17  0.0000000  0  7G16G18G19G21G22G27G31
  20992682.220   110317313.08709  20992679.040    85961532.08648
  21666184.860   113856629.12409  21666182.020    88719461.11448
  24442263.440   128444955.48408  24442260.360   100086976.78045
  21891458.760   115040683.48708  21891455.440    89642190.27748
  22484299.640   118155824.14709  22484295.600    92069466.63647
  22259143.800   116972626.88109  22259143.340    91147502.86648
  24376383.520   128098756.69008  24376382.320    99817213.96446
 15 03 05 00 17 30.0000000  0  7G16G18G19G21G22G27G31
  20983639.020   110269791.21009  20983635.940    85924502.06848
  21660153.380   113824933.23309  21660150.500    88694763.04648
  24427270.040   128366164.75908  24427266.720   100025581.45345
  21901960.920   115095873.52508  21901957.740    89685195.51048
  22467793.260   118069082.08309  22467789.080    92001875.45247
  22247443.900   116911143.43109  22247443.480    91099593.71948
  24394111.960   128191919.82708  24394110.740    99889808.50146
 15 03 05 00 18  0.0000000  0  7G16G18G19G21G22G27G31
  20974679.420   110222708.47009  20974676.420    85887814.22748
  21654208.220   113793691.18009  21654205.340    88670418.61348
  24412283.540   128287410.43808  24412280.300    99964214.49245
  21912497.740   115151245.68108  21912494.700    89728342.64548
  22451329.520   117982564.22209  22451325.180    91934458.97447
  22235761.020   116849749.84209  22235760.680    91051754.58848
  24411830.760   128285032.50308  24411829.620    99962363.71245
 15 03 05 00 18 30.0000000  0  7G16G18G19G21G22G27G31
  20965804.520   110176070.69509  20965801.520    85851473.11048
  21648350.480   113762908.46509  21648347.560    88646432.09648
  24397304.880   128208697.22408  24397301.580    99902879.53546
  21923069.760   115206802.07409  21923066.720    89771633.35148
  22434909.640   117896277.11809  22434905.220    91867222.29847
  22224095.980   116788450.52609  22224095.780    91003988.90748
  24429540.320   128378096.11208  24429539.120   100034880.72245
 15 03 05 00 19  0.0000000  0  7G16G18G19G21G22G27G31
  20957014.400   110129878.12109  20957011.340    85815478.90548
  21642580.080   113732584.57409  21642577.080    88622803.10148
  24382333.640   128130022.81708  24382330.480    99841574.86345
  21933676.040   115262538.58009  21933672.980    89815064.39247
  22418533.700   117810221.20909  22418529.360    91800165.77848
  22212448.600   116727243.78509  22212448.460    90956295.37848
  24447239.560   128471105.73108  24447238.440   100107355.64146
 15 03 05 00 19 30.0000000  0  7G16G18G19G21G22G27G31
  20948310.060   110084136.36909  20948306.980    85779835.98348
  21636897.820   113702723.96509  21636894.800    88599535.10648
  24367370.540   128051391.45008  24367367.240    99780303.71646
  21944317.080   115318457.63109  21944313.940    89858637.67848
  22402202.960   117724402.96909  22402198.700    91733294.45147
  22200819.680   116666133.90309  22200819.540    90908677.30448
  24464928.720   128564062.48708  24464927.620   100179789.35645
 15 03 05 00 20  0.0000000  0  7G16G18G19G21G22G27G31
  20939691.280   110038844.04909  20939688.140    85744543.26448
  21631303.360   113673325.01909  21631300.340    88576626.85048
  24352414.820   127972799.21808  24352411.560    99719063.07546
  21954991.860   115374553.62109  21954988.620    89902348.84248
  22385917.280   117638821.42209  22385913.080    91666607.55748
  22189208.580   116605117.72009  22189208.480    90861132.24548
  24482606.560   128656960.01308  24482605.420   100252176.92045
 15 03 05 00 20 30.0000000  0  7G16G18G19G21G22G27G31
  20931157.960   109994000.71109  20931154.760    85709600.41148
  21625796.460   113644386.33209  21625793.420    88554077.24748
  24337466.240   127894244.39908  24337463.040    99657851.58346
  21965699.820   115430823.61309  21965696.400    89946195.59148
  22369676.700   117553476.86609  22369672.500    91600105.33748
  22177614.960   116544193.50009  22177614.860    90813658.84948
  24500272.240   128749793.31008  24500270.940   100324514.45045
 15 03 05 00 21  0.0000000  0  7G16G18G19G21G22G27G31
  20922711.780   109949615.67509  20922708.520    85675014.67948
  21620378.800   113615916.30009  21620375.720    88531892.82248
  24322526.080   127815733.72308  24322522.940    99596674.50446
  21976441.880   115487272.60009  21976438.260    89990181.81648
  22353483.180   117468379.46709  22353478.980    91533795.70248
  22166040.360   116483368.79809  22166040.140    90766262.99448
  24517926.580   128842566.76508  24517925.120   100396805.34944
 15 03 05 00 21 30.0000000  0  7G16G18G19G21G22G27G31
  20914351.820   109905683.74109  20914348.520    85640782.01048
  21615049.220   113587908.70509  21615046.040    88510068.73548
  24307593.120   127737260.58508  24307590.040    99535526.65646
  21987216.280   115543891.74509  21987212.480    90034300.63548
  22337335.740   117383524.49909  22337331.560    91467674.98747
  22154483.520   116422637.15209  22154483.200    90718939.65848
  24535567.720   128935270.83808  24535566.240   100469042.19145
 15 03 05 00 22  0.0000000  0  7G16G18G19G21G22G27G31
  20906079.580   109862212.59309  20906076.260    85606908.39248
  21609808.960   113560370.68809  21609805.740    88488610.56048
  24292668.420   127658830.62108  24292665.300    99474412.44345
  21998023.760   115600684.90209  21998019.880    90078555.04548
  22321235.940   117298920.03609  22321231.780    91401749.46847
  22142945.620   116362004.64709  22142945.280    90671693.57348
  24553196.180   129027908.50008  24553194.660   100541227.26645
 15 03 05 00 22 30.0000000  0  7G16G18G19G21G22G27G31
  20897895.200   109819203.03109  20897891.860    85573394.45048
  21604657.980   113533302.11609  21604654.760    88467518.18548
  24277751.680   127580442.91208  24277748.400    99413331.18346
  22008863.940   115657650.19809  22008860.020    90122943.59048
  22305184.160   117214568.00909  22305180.080    91336020.65948
  22131426.460   116301470.66409  22131426.140    90624524.26048
  24570811.080   129120475.74507  24570809.740   100613357.43946
 15 03 05 00 23  0.0000000  0  7G16G18G19G21G22G27G31
  20889798.720   109776655.56509  20889795.360    85540240.58648
  21599596.300   113506703.21809  21599593.140    88446791.78548
  24262842.780   127502096.33208  24262839.360    99352281.94545
  22019736.220   115714784.50209  22019732.380    90167463.81847
  22289180.720   117130469.55609  22289176.640    91270489.44648
  22119925.800   116241034.35109  22119925.540    90577431.05748
  24588411.780   129212968.55008  24588410.780   100685429.58845
 15 03 05 00 23 30.0000000  0  7G16G18G19G21G22G27G31
  20881790.060   109734570.12209  20881786.720    85507446.73148
  21594623.640   113480572.24609  21594620.560    88426430.01248
  24247941.300   127423788.86508  24247937.820    99291263.17845
  22030639.820   115772083.58308  22030636.100    90212112.45248
  22273225.640   117046624.95109  22273221.500    91205156.02648
  22108443.440   116180694.09709  22108443.220    90530412.71148
  24605997.520   129305382.45308  24605996.860   100757440.25245
 15 03 05 00 24  0.0000000  0  7G16G18G19G21G22G27G31
  20873870.300   109692952.00209  20873867.020    85475017.02948
  21589741.060   113454914.22009  21589737.960    88406436.76548
  24233047.980   127345523.90108  24233044.560    99230277.54345
  22041575.140   115829549.30908  22041571.480    90256890.93647
  22257320.160   116963040.64009  22257315.840    91140025.42948
  22096980.120   116120453.80509  22096979.880    90483472.23548
  24623568.420   129397717.69508  24623567.880   100829389.65046
 15 03 05 00 24 30.0000000  0  7G16G18G19G21G22G27G31
  20866039.760   109651802.27809  20866036.460    85442952.30948
  21584948.560   113429729.34509  21584945.380    88386812.20348
  24218162.540   127267300.78008  24218159.100    99169324.53645
  22052541.740   115887179.50109  22052538.140    90301797.57348
  22241464.460   116879718.09809  22241460.000    91075098.81047
  22085535.780   116060313.23709  22085535.440    90436609.47848
  24641123.820   129489971.23808  24641123.420   100901275.35446
 15 03 05 00 25  0.0000000  0  7G16G18G19G21G22G27G31
  20858298.540   109611121.64309  20858295.180    85411253.12348
  21580246.040   113405017.27209  21580242.780    88367556.06548
  24203284.920   127189118.45908  24203281.440    99108403.28145
  22063539.080   115944971.29609  22063535.560    90346830.13747
  22225658.780   116796658.52109  22225654.240    91010377.10847
  22074110.300   116000271.59309  22074109.860    90389823.83048
  24658662.880   129582138.69308  24658662.500   100973093.98645
 15 03 05 00 25 30.0000000  0  7G16G18G19G21G22G27G31
  20850647.260   109570913.84509  20850643.880    85379922.36148
  21575634.020   113380781.05709  21575630.800    88348670.71148
  24188415.520   127110979.05608  24188411.860    99047515.45745
  22074567.320   116002925.33608  22074563.880    90391989.12348
  22209904.060   116713866.76109  22209899.440    90945864.06148
  22062704.140   115940331.42109  22062703.600    90343117.20348
  24676185.540   129674219.77908  24676185.120   101044845.30546
 15 03 05 00 26  0.0000000  0  7G16G18G19G21G22G27G31
  20843086.260   109531180.67209  20843082.940    85348961.45148
  21571112.660   113357021.49409  21571109.580    88330156.78048
  24173554.280   127032882.72308  24173550.680    98986661.22345
  22085625.960   116061039.25408  22085622.620    90437272.68948
  22194200.740   116631345.33709  22194196.100    90881561.68548
  22051317.340   115880493.04109  22051316.740    90296489.91748
  24693691.260   129766211.65308  24693690.760   101116527.11346
 15 03 05 00 26 30.0000000  0  6G16G18G19G21G22G27
  20835613.980   109491913.60709  20835610.680    85318363.74248
  21566680.280   113333729.81309  21566677.300    88312007.44148
  24158699.380   126954819.65408  24158695.740    98925832.90745
  22096712.920   116119301.78808  22096709.680    90482672.06047
  22178547.380   116549086.53209  22178542.760    90817463.95448
  22039948.020   115820746.89309  22039947.400    90249934.50148
 15 03 05 00 27  0.0000000  0  6G16G18G19G21G22G27
  20828234.000   109453131.67909  20828230.760    85288144.05448
  21562340.360   113310923.85709  21562337.420    88294236.57448
  24143854.060   126876807.01908  24143850.360    98865043.86745
  22107831.240   116177728.63109  22107827.880    90528199.46647
  22162947.700   116467109.87109  22162943.080    90753586.05948
  22028599.560   115761110.74009  22028599.020    90203464.79248
 15 03 05 00 27 30.0000000  0  6G16G18G19G21G22G27
  20820945.280   109414829.52309  20820942.100    85258298.22448
  21558091.580   113288596.82209  21558088.680    88276838.90548
  24129016.860   126798837.20108  24129013.080    98804288.20445
  22118979.080   116236310.73609  22118975.720    90573847.85447
  22147400.880   116385410.89009  22147396.300    90689924.54548
  22017270.700   115701577.77809  22017270.300    90157075.50048
 15 03 05 00 28  0.0000000  0  6G16G18G19G21G22G27
  20813748.240   109377009.14809  20813745.140    85228827.80448
  21553934.280   113266750.48909  21553931.480    88259815.80748
  24114187.920   126720910.76608  24114184.120    98743566.33345
  22130156.200   116295046.66209  22130152.720    90619616.11547
  22131907.360   116303992.26409  22131902.900    90626481.48848
  22005961.600   115642148.56409  22005961.320    90110767.05248
 15 03 05 00 28 30.0000000  0  6G16G18G19G21G22G27
  20806643.000   109339671.51709  20806640.020    85199733.54448
  21549868.520   113245384.92309  21549865.720    88243167.33048
  24099367.080   126643027.28008  24099363.340    98682877.91946
  22141362.180   116353934.25809  22141358.700    90665502.55448
  22116467.480   116222855.74309  22116463.160    90563258.26048
  21994672.280   115582823.20509  21994672.040    90064539.52348
 15 03 05 00 29  0.0000000  0  6G16G18G19G21G22G27
  20799630.500   109302820.57809  20799627.500    85171018.52348
  21545894.900   113224503.09909  21545892.040    88226895.80248
  24084554.860   126565188.82508  24084551.240    98622224.61046
  22152597.080   116412974.28508  22152593.600    90711507.77247
  22101082.180   116142006.17409  22101078.000    90500258.62848
  21983403.180   115523604.43609  21983403.100    90018395.06348
 15 03 05 00 29 30.0000000  0  6G16G18G19G21G22G27
  20792710.760   109266456.59709  20792707.680    85142682.95748
  21542013.060   113204104.03409  21542010.240    88211000.44948
  24069751.040   126487394.36508  24069747.460    98561605.58346
  22163860.260   116472163.36208  22163856.940    90757629.12147
  22085751.600   116061443.99709  22085747.480    90437482.94148
  21972154.160   115464491.10409  21972154.140    89972332.76448
 15 03 05 00 30  0.0000000  0  6G16G18G19G21G22G27
  20785883.880   109230580.27509  20785880.640    85114727.38648
  21538223.100   113184187.76009  21538220.340    88195481.28448
  24054955.420   126409643.01508  24054951.860    98501020.14246
  22175151.360   116531499.13708  22175148.140    90803864.78348
  22070476.080   115981170.95509  22070471.980    90374932.54748
  21960925.280   115405482.94909  21960925.200    89926352.40848
 15 03 05 00 30 30.0000000  0  6G16G18G19G21G22G27
  20779150.500   109195195.81709  20779147.200    85087155.07548
  21534525.700   113164757.73609  21534522.940    88180341.02348
  24040168.440   126331937.30508  24040164.940    98440470.25746
  22186470.560   116590982.37108  22186467.380    90850215.34947
  22055256.580   115901192.20009  22055252.480    90312611.47248
  21949717.080   115346582.94109  21949716.840    89880456.31848
 15 03 05 00 31  0.0000000  0  6G16G18G19G21G22G27
  20772510.540   109160302.58909  20772507.220    85059965.54748
  21530920.500   113145812.10409  21530917.680    88165578.20448
  24025389.700   126254275.06208  24025386.380    98379954.27446
  22197817.060   116650608.83609  22197813.900    90896677.52947
  22040093.320   115821508.37609  22040089.100    90250520.20548
  21938529.140   115287789.28309  21938528.760    89834643.09648
 15 03 05 00 31 30.0000000  0  6G16G18G19G21G22G27
  20765963.820   109125899.40909  20765960.440    85033157.87848
  21527407.180   113127349.29609  21527404.280    88151191.61148
  24010618.860   126176653.82608  24010615.620    98319470.22746
  22209190.200   116710374.90808  22209187.000    90943248.49547
  22024986.040   115742118.76409  22024981.680    90188658.19848
  21927361.000   115229099.78109  21927360.480    89788911.04148
 15 03 05 00 32  0.0000000  0  6G16G18G19G21G22G27
  20759511.860   109091994.17009  20759508.420    85006738.20948
  21523986.920   113109375.64809  21523983.980    88137186.18148
  23995856.940   126099079.58908  23995853.640    98259022.79646
  22220590.760   116770284.91108  22220587.500    90989931.61047
  22009936.360   115663031.75209  22009931.800    90127031.98148
  21916213.860   115170521.17209  21916213.280    89743265.39148
 15 03 05 00 32 30.0000000  0  6G16G18G19G21G22G27
  20753154.500   109058586.21709  20753151.120    84980706.03448
  21520659.420   113091889.59409  21520656.460    88123560.68948
  23981103.580   126021550.16708  23981100.220    98198610.30346
  22232018.020   116830335.05309  22232014.600    91036723.91647
  21994944.220   115584247.23009  21994939.500    90065641.45948
  21905087.480   115112051.79009  21905086.840    89697704.84148
 15 03 05 00 33  0.0000000  0  6G16G18G19G21G22G27
  20746892.180   109025677.47709  20746888.800    84955062.86648
  21517425.020   113074892.80209  21517422.080    88110316.44948
  23966358.860   125944066.25908  23966355.540    98138233.27246
  22243471.720   116890523.92808  22243468.140    91083624.34047
  21980010.240   115505768.66409  21980005.540    90004489.36548
  21893982.000   115053692.60609  21893981.400    89652230.18948
 15 03 05 00 33 30.0000000  0  6G16G18G19G21G22G27
  20740725.240   108993269.72409  20740721.820    84929810.07348
  21514283.760   113058385.37209  21514280.820    88097453.52748
  23951622.960   125866628.42108  23951619.460    98077892.12346
  22254951.460   116950850.12708  22254947.760    91130631.75747
  21965134.960   115427598.75309  21965130.280    89943577.76648
  21882897.620   114995444.26909  21882897.080    89606841.88348
 15 03 05 00 34  0.0000000  0  6G16G18G19G21G22G27
  20734653.760   108961363.65209  20734650.340    84904948.20348
  21511235.700   113042367.83709  21511232.780    88084972.34348
  23936895.620   125789235.61108  23936892.100    98017586.06446
  22266456.800   117011311.12508  22266453.120    91177744.21647
  21950318.600   115349738.52409  21950313.980    89882907.49148
  21871834.260   114937306.52709  21871833.840    89561539.77748
 15 03 05 00 34 30.0000000  0  6G16G18G19G21G22G27
  20728678.160   108929961.94109  20728674.820    84880479.32748
  21508281.140   113026841.35409  21508278.120    88072873.78548
  23922177.120   125711889.40308  23922173.540    97957316.31446
  22277987.860   117071907.00809  22277984.200    91224961.77247
  21935561.840   115272191.65709  21935557.320    89822481.37948
  21860792.340   114879281.15809  21860791.980    89516325.21048
 15 03 05 00 35  0.0000000  0  6G16G18G19G21G22G27
  20722798.300   108899063.52309  20722795.100    84856402.63748
  21505419.720   113011804.14609  21505416.560    88061156.49148
  23907467.080   125634587.23008  23907463.380    97897080.90346
  22289543.760   117132633.49109  22289540.100    91272281.10747
  21920864.680   115194957.79409  21920860.240    89762299.18148
  21849771.500   114821366.06409  21849771.180    89471196.58348
 15 03 05 00 35 30.0000000  0  6G16G18G19G21G22G27
  20717015.240   108868673.74209  20717012.180    84832722.28548
  21502652.180   112997260.57809  21502648.980    88049823.85948
  23892766.160   125557332.97208  23892762.340    97836882.79646
  22301124.940   117193492.62709  22301121.240    91319703.81347
  21906228.320   115118043.38209  21906223.940    89702365.89348
  21838772.480   114763565.71809  21838772.200    89426157.37248
 15 03 05 00 36  0.0000000  0  6G16G18G19G21G22G27
  20711329.180   108838793.48409  20711326.180    84809438.96148
  21499978.500   112983210.45009  21499975.340    88038875.71748
  23878074.260   125480126.30108  23878070.400    97776721.77746
  22312730.960   117254482.40509  22312727.240    91367228.30847
  21891653.120   115041450.13609  21891648.760    89642682.87248
  21827795.340   114705880.12709  21827795.000    89381207.56748
 15 03 05 00 36 30.0000000  0  6G16G18G19G21G22G27
  20705740.240   108809423.39809  20705737.220    84786553.17748
  21497398.700   112969653.79309  21497395.540    88028312.10148
  23863391.320   125402967.04108  23863387.540    97716597.70246
  22324361.300   117315600.27309  22324357.640    91414852.61847
  21877139.440   114965179.91809  21877135.000    89583251.55548
  21816839.960   114648309.26209  21816839.580    89336347.16648
 15 03 05 00 37  0.0000000  0  6G16G18G19G21G22G27
  20700248.800   108780565.66009  20700245.760    84764066.62448
  21494913.000   112956591.57709  21494909.800    88018133.76348
  23848717.420   125325855.39408  23848713.540    97656510.72346
  22336015.840   117376845.55909  22336012.280    91462576.19747
  21862687.720   114889235.36709  21862683.180    89524073.99748
  21805906.620   114590854.31109  21805906.300    89291577.08948
 15 03 05 00 37 30.0000000  0  6G16G18G19G21G22G27
  20694855.100   108752221.65709  20694852.060    84741980.39648
  21492521.500   112944024.23309  21492518.220    88008341.03648
  23834052.540   125248791.28908  23834048.480    97596460.78245
  22347694.480   117438217.09809  22347690.920    91510398.17547
  21848298.380   114813618.98509  21848293.860    89465152.16848
  21794995.420   114533515.69709  21794995.080    89246897.65648
 15 03 05 00 38  0.0000000  0  6G16G18G19G21G22G27
  20689559.480   108724392.90709  20689556.420    84720295.65248
  21490224.160   112931951.56709  21490220.860    87998933.77848
  23819396.780   125171775.20808  23819392.700    97536448.24146
  22359396.640   117499712.37709  22359393.060    91558316.56247
  21833971.920   114738333.01709  21833967.400    89406487.80348
  21784106.400   114476293.94409  21784106.100    89202309.28148
 15 03 05 00 38 30.0000000  0  6G16G18G19G21G22G27
  20684362.080   108697080.44809  20684359.040    84699013.22148
  21488021.220   112920374.74209  21488017.940    87989912.88448
  23804750.160   125094807.10808  23804746.140    97476473.11446
  22371122.180   117561330.39509  22371118.560    91606330.60147
  21819708.720   114663379.46309  21819704.160    89348082.45348
  21773239.740   114419189.59409  21773239.540    89157812.40148
 15 03 05 00 39  0.0000000  0  6G16G18G19G21G22G27
  20679263.480   108670287.43509  20679260.500    84678135.55048
  21485912.920   112909295.50409  21485909.680    87981279.72748
  23790113.040   125017888.88508  23790109.060    97416536.86346
  22382871.020   117623070.93208  22382867.460    91654440.09747
  21805509.520   114588762.26309  21805504.980    89289939.20748
  21762395.920   114362204.96409  21762395.740    89113408.80448
 15 03 05 00 39 30.0000000  0  6G16G18G19G21G22G27
  20674263.400   108644012.15709  20674260.500    84657661.31048
  21483898.820   112898711.38709  21483895.580    87973032.36948
  23775484.880   124941017.90908  23775481.120    97356637.42646
  22394642.300   117684929.71208  22394638.780    91702641.73247
  21791374.260   114514480.83709  21791369.680    89232057.59948
  21751574.460   114305337.91309  21751574.300    89069096.81848
 15 03 05 00 40  0.0000000  0  6G16G18G19G21G22G27
  20669363.100   108618261.20109  20669360.300    84637595.62648
  21481979.940   112888627.57309  21481976.720    87965174.85048
  23760866.680   124864199.58708  23760863.160    97296779.04046
  22406436.820   117746910.75608  22406433.380    91750938.63547
  21777304.320   114440542.75309  21777299.680    89174443.52048
  21740776.460   114248594.16409  21740776.340    89024880.92048
 15 03 05 00 40 30.0000000  0  6G16G18G19G21G22G27
  20664561.660   108593029.68209  20664558.900    84617934.70648
  21480155.200   112879038.51309  21480152.000    87957702.86348
  23746257.360   124787427.73108  23746254.020    97236956.85646
  22418253.100   117809006.07408  22418249.740    91799324.58647
  21763298.900   114366944.04509  21763294.260    89117093.89648
  21730000.840   114191967.97509  21730000.720    88980756.63348
 15 03 05 00 41  0.0000000  0  6G16G18G19G21G22G27
  20659860.120   108568323.06409  20659857.360    84598682.79248
  21478425.400   112869948.48609  21478422.220    87950619.73848
  23731657.860   124710706.81408  23731654.580    97177174.35046
  22430091.620   117871218.12908  22430088.300    91847801.51347
  21749359.220   114293691.06009  21749354.620    89060013.67448
  21719248.640   114135464.28109  21719248.340    88936727.78248
 15 03 05 00 41 30.0000000  0  6G16G18G19G21G22G27
  20655258.840   108544142.77809  20655256.000    84579841.00448
  21476790.700   112861358.06109  21476787.460    87943925.89648
  23717068.180   124634037.24008  23717064.840    97117431.86346
  22441952.140   117933545.79808  22441948.880    91896368.51347
  21735485.860   114220786.50009  21735481.280    89003204.93848
  21708519.920   114079084.09809  21708519.420    88892795.18348
 15 03 05 00 42  0.0000000  0  6G16G18G19G21G22G27
  20650757.640   108520488.24209  20650754.660    84561408.89648
  21475250.780   112853265.51409  21475247.480    87937620.02848
  23702487.880   124557416.78908  23702484.460    97057727.64847
  22453833.900   117995985.04108  22453830.740    91945022.45947
  21721678.740   114148230.08909  21721674.220    88946667.50048
  21697814.380   114022825.78009  21697813.800    88848957.54048
 15 03 05 00 42 30.0000000  0  6G16G18G19G21G22G27
  20646357.140   108497362.89909  20646354.000    84543389.14048
  21473806.120   112845673.42009  21473802.780    87931704.12048
  23687917.420   124480848.08708  23687913.880    96998063.76047
  22465737.180   118058537.13208  22465734.000    91993764.33347
  21707938.880   114076026.75309  21707934.340    88890405.18048
  21687132.640   113966692.30809  21687131.940    88805217.17748
 15 03 05 00 43  0.0000000  0  6G16G18G19G21G22G27
  20642057.300   108474766.72009  20642054.040    84525781.72148
  21472456.420   112838580.86409  21472453.180    87926177.45748
  23673356.600   124404330.03608  23673353.000    96938439.31246
  22477661.480   118121199.58008  22477658.360    92042592.20347
  21694266.360   114004177.43309  21694261.840    88834418.72248
  21676474.540   113910683.25209  21676473.800    88761573.75048
 15 03 05 00 43 30.0000000  0  6G16G18G19G21G22G27
  20637858.520   108452701.89509  20637855.300    84508588.35348
  21471202.000   112831988.97909  21471198.840    87921040.94448
  23658805.740   124327864.38208  23658801.940    96878855.71146
  22489606.660   118183971.81708  22489603.440    92091505.63047
  21680661.860   113932685.40209  21680657.360    88778710.67348
  21665840.320   113854800.50109  21665839.800    88718028.76848
 15 03 05 00 44  0.0000000  0  6G16G18G19G21G22G27
  20633760.660   108431167.75509  20633757.540    84491808.49248
  21470042.520   112825895.88409  21470039.360    87916293.07448
  23644264.460   124251449.34008  23644260.560    96819311.54746
  22501571.980   118246850.09008  22501568.780    92140501.66647
  21667125.360   113861550.63809  21667120.880    88723280.99948
  21655229.860   113799042.50709  21655229.420    88674580.97848
 15 03 05 00 44 30.0000000  0  6G16G18G19G21G22G27
  20629764.240   108410166.55809  20629761.160    84475443.92148
  21468978.240   112820303.18609  21468975.100    87911935.13848
  23629732.980   124175086.03208  23629729.220    96759807.69747
  22513557.520   118309834.32308  22513554.340    92189580.28347
  21653657.620   113790776.93209  21653653.060    88668132.66948
  21644643.520   113743411.29309  21644643.180    88631231.98048
 15 03 05 00 45  0.0000000  0  6G16G18G19G21G22G27
  20625868.940   108389696.64509  20625865.860    84459493.33348
  21468008.660   112815207.95609  21468005.480    87907964.83548
  23615210.800   124098771.73408  23615207.100    96700342.05346
  22525562.400   118372920.16508  22525559.140    92238738.07447
  21640258.320   113720362.81509  21640253.680    88613264.54448
  21634080.940   113687904.41009  21634080.600    88587979.86248
 15 03 05 00 45 30.0000000  0  6G16G18G19G21G22G27
  20622076.700   108369768.32809  20622073.640    84443964.76848
  21467135.520   112810619.75109  21467132.320    87904389.61248
  23600699.780   124022516.05308  23600695.880    96640922.07546
  22537588.120   118436115.46109  22537584.760    92287981.15147
  21626929.780   113650320.46509  21626925.040    88558686.10648
  21623544.000   113632532.07309  21623543.560    88544832.57848
 15 03 05 00 46  0.0000000  0  6G16G18G19G21G22G27
  20618386.940   108350378.05709  20618383.800    84428855.46448
  21466357.940   112806533.62209  21466354.700    87901205.62348
  23586199.000   123946314.41608  23586195.080    96581544.21246
  22549633.540   118499413.90509  22549630.000    92337304.61347
  21613671.440   113580646.92909  21613666.580    88504395.06848
  21613031.700   113577290.15509  21613031.280    88501786.93848
 15 03 05 00 46 30.0000000  0  6G16G18G19G21G22G27
  20614799.920   108331527.49809  20614796.640    84414166.70348
  21465676.000   112802950.02909  21465672.800    87898413.21348
  23571708.560   123870167.34408  23571704.680    96522208.85446
  22561698.440   118562814.55809  22561694.640    92386707.70447
  21600483.800   113511345.03209  21600478.860    88450393.60248
  21602544.400   113522179.87509  21602544.160    88458843.86748
 15 03 05 00 47  0.0000000  0  6G16G18G19G21G22G27
  20611315.500   108313216.36909  20611312.120    84399898.29248
  21465089.480   112799868.17409  21465086.380    87896011.77648
  23557228.320   123794074.04408  23557224.600    96462915.41346
  22573782.160   118626314.23609  22573778.220    92436187.96947
  21587366.960   113442415.28109  21587361.940    88396682.13448
  21592082.100   113467200.73209  21592081.920    88416002.99348
 15 03 05 00 47 30.0000000  0  6G16G18G19G21G22G27
  20607933.620   108295444.54609  20607930.200    84386050.10048
  21464598.260   112797286.92209  21464595.260    87894000.41348
  23542758.240   123718033.85708  23542754.520    96403663.36646
  22585884.500   118689911.87309  22585880.440    92485744.55947
  21574321.240   113373859.18709  21574316.160    88343261.81348
  21581644.800   113412352.41409  21581644.620    88373264.04348
 15 03 05 00 48  0.0000000  0  6G16G18G19G21G22G27
  20604654.980   108278215.17409  20604651.540    84372624.61148
  21464202.720   112795208.47909  21464199.760    87892380.85148
  23528298.780   123642049.27108  23528295.060    96344454.62046
  22598005.460   118753607.48609  22598001.420    92535377.49147
  21561347.400   113305681.03209  21561342.280    88290135.99248
  21571233.000   113357637.84609  21571232.800    88330629.33048
 15 03 05 00 48 30.0000000  0  6G16G18G19G21G22G27
  20601479.720   108261528.91509  20601476.260    84359622.32748
  21463902.720   112793632.14409  21463899.720    87891152.54648
  23513849.860   123566119.77308  23513846.160    96285288.81446
  22610144.440   118817398.28509  22610140.440    92585084.59647
  21548445.660   113237882.05209  21548440.580    88237305.63748
  21560846.740   113303057.26609  21560846.320    88288099.02448
 15 03 05 00 49  0.0000000  0  6G16G18G19G21G22G27
  20598408.160   108245387.50909  20598404.680    84347044.60648
  21463698.460   112792558.72409  21463695.420    87890316.11748
  23499411.720   123490246.60908  23499407.980    96226166.90746
  22622301.480   118881284.30808  22622297.640    92634865.90247
  21535616.600   113170465.16509  21535611.600    88184773.01048
  21550486.200   113248612.02709  21550485.660    88245674.17348
 15 03 05 00 49 30.0000000  0  6G16G18G19G21G22G27
  20595440.840   108229793.99809  20595437.340    84334893.80848
  21463590.340   112791990.36309  21463587.260    87889873.24748
  23484984.720   123414431.78108  23484980.960    96167090.44546
  22634476.680   118945266.39108  22634473.100    92684722.05247
  21522861.000   113103434.59109  21522856.120    88132541.41048
  21540152.020   113194305.09009  21540151.340    88203357.08348
 15 03 05 00 50  0.0000000  0  6G16G18G19G21G22G27
  20592577.240   108214746.20909  20592573.880    84323168.25648
  21463577.680   112791923.75309  21463574.560    87889821.34948
  23470568.220   123338672.46308  23470564.480    96108057.25547
  22646669.240   119009339.69008  22646665.840    92734649.29847
  21510178.700   113036789.14409  21510173.860    88080609.90748
  21529843.680   113140133.94909  21529842.900    88161145.81448
 15 03 05 00 50 30.0000000  0  6G16G18G19G21G22G27
  20589817.780   108200245.57209  20589814.580    84311869.05448
  21463660.580   112792359.64009  21463657.520    87890161.00348
  23456162.500   123262969.83508  23456158.700    96049068.22947
  22658879.140   119073503.85008  22658875.920    92784647.33247
  21497570.200   112970531.66009  21497565.440    88028980.71548
  21519561.440   113086100.21309  21519560.660    88119041.62348
 15 03 05 00 51  0.0000000  0  6G16G18G19G21G22G27
  20587162.140   108186290.69909  20587159.100    84300995.12348
  21463838.480   112793294.57909  21463835.460    87890889.53148
  23441767.180   123187321.88108  23441763.340    95990121.80847
  22671105.600   119137754.73008  22671102.380    92834712.95147
  21485035.280   112904661.14609  21485030.660    87977653.06748
  21509304.940   113032201.95809  21509304.160    88077042.98448
 15 03 05 00 51 30.0000000  0  6G16G18G19G21G22G27
  20584612.000   108172890.12209  20584609.060    84290553.11148
  21464113.020   112794737.14409  21464109.960    87892013.60648
  23427383.620   123111735.79208  23427379.800    95931223.58847
  22683349.760   119202098.34108  22683346.540    92884850.81947
  21472576.040   112839187.99909  21472571.540    87926635.04548
  21499075.840   112978447.61109  21499075.120    88035156.47248
 15 03 05 00 52  0.0000000  0  6G16G18G19G21G22G27
  20582166.280   108160037.73209  20582163.280    84280538.26049
  21464482.760   112796679.96809  21464479.660    87893527.49648
  23413010.820   123036205.99808  23413006.960    95872369.24047
  22695610.000   119266526.81708  22695606.920    92935054.81547
  21460191.460   112774107.15209  21460187.060    87875922.72348
  21488873.000   112924831.37009  21488872.340    87993377.59548
 15 03 05 00 52 30.0000000  0  6G16G18G19G21G22G27
  20579826.340   108147740.90709  20579823.260    84270956.31448
  21464948.860   112799129.35509  21464945.700    87895436.12048
  23398649.940   122960738.57008  23398645.880    95813563.47647
  22707887.400   119331045.02108  22707884.300    92985328.72647
  21447883.220   112709427.19509  21447878.860    87825522.76948
  21478697.840   112871360.43509  21478697.080    87951711.95348
 15 03 05 00 53  0.0000000  0  6G16G18G19G21G22G27
  20577590.840   108135992.98609  20577587.720    84261802.08648
  21465509.860   112802077.85609  21465506.720    87897733.65948
  23384299.600   122885326.81908  23384295.340    95754801.12047
  22720180.180   119395643.83508  22720177.080    93035665.45147
  21435650.180   112645142.26009  21435645.800    87775430.62648
  21468549.040   112818028.11009  21468548.260    87910154.29948
 15 03 05 00 53 30.0000000  0  6G16G18G19G21G22G27
  20575461.380   108124802.49809  20575458.280    84253082.22848
  21466167.160   112805532.34309  21466164.040    87900425.46948
  23369961.180   122809978.24008  23369956.900    95696087.95846
  22732489.780   119460330.42909  22732486.480    93086070.58347
  21423494.280   112581262.50309  21423489.920    87725654.20648
  21458428.200   112764842.82909  21458427.500    87868711.23348
 15 03 05 00 54  0.0000000  0  6G16G18G19G21G22G27
  20573437.140   108114164.97209  20573434.100    84244793.23448
  21466919.820   112809487.76909  21466916.760    87903507.61548
  23355633.920   122734688.39808  23355629.640    95637420.55546
  22744814.800   119525098.18108  22744811.400    93136538.94847
  21411414.860   112517784.47809  21411410.520    87676190.82248
  21448334.460   112711800.33809  21448333.900    87827379.43048
 15 03 05 00 54 30.0000000  0  6G16G18G19G21G22G27
  20571518.280   108104081.59109  20571515.280    84236936.05448
  21467767.880   112813944.35109  21467764.880    87906980.28548
  23341317.860   122659457.65708  23341313.740    95578799.22747
  22757154.940   119589945.60508  22757151.480    93187069.39647
  21399412.260   112454710.06609  21399407.860    87627041.95548
  21438268.180   112658901.70309  21438267.640    87786159.71648
 15 03 05 00 55  0.0000000  0  6G16G18G19G21G22G27
  20569705.780   108094557.61709  20569702.880    84229514.77448
  21468712.140   112818906.20609  21468709.120    87910846.67448
  23327013.980   122584290.87008  23327010.080    95520227.72946
  22769510.880   119654876.00908  22769507.240    93237664.50947
  21387487.880   112392046.26509  21387483.320    87578213.02848
  21428230.320   112606152.28509  21428229.680    87745056.28248
 15 03 05 00 55 30.0000000  0  6G16G18G19G21G22G27
  20567999.220   108085589.82809  20567996.360    84222526.88248
  21469751.840   112824369.50409  21469748.720    87915103.79148
  23312721.680   122509184.83108  23312717.840    95461703.56146
  22781881.640   119719884.32708  22781878.040    93288320.32347
  21375641.220   112329791.06009  21375636.480    87529702.48848
  21418220.280   112553549.24309  21418219.540    87704066.89248
 15 03 05 00 56  0.0000000  0  6G16G18G19G21G22G27
  20566399.060   108077180.87809  20566396.220    84215974.45148
  21470887.160   112830335.29809  21470883.900    87919752.47448
  23298441.440   122434142.01808  23298437.640    95403228.66046
  22794267.300   119784971.09708  22794263.620    93339037.28247
  21363872.860   112267947.91909  21363868.080    87481513.04548
  21408238.580   112501095.22409  21408237.800    87663193.64148
 15 03 05 00 56 30.0000000  0  6G16G18G19G21G22G27
  20564906.160   108069335.40209  20564903.320    84209861.08149
  21472118.700   112836807.31609  21472115.440    87924795.59948
  23284173.900   122359166.18608  23284170.240    95344805.94846
  22806668.360   119850138.87808  22806664.720    93389817.35347
  21352184.000   112206522.90209  21352179.240    87433649.40048
  21398286.140   112448794.83009  21398285.420    87622440.08548
 15 03 05 00 57  0.0000000  0  6G16G18G19G21G22G27
  20563519.000   108062045.69009  20563516.160    84204180.78448
  21473444.900   112843777.15609  21473441.740    87930226.65348
  23269917.700   122284249.65608  23269914.120    95286429.45647
  22819082.940   119915378.22508  22819079.380    93440653.19047
  21340573.460   112145509.78609  21340568.820    87386106.72648
  21388361.540   112396640.80209  21388360.880    87581800.59748
 15 03 05 00 57 30.0000000  0  6G16G18G19G21G22G27
  20562238.500   108055316.53309  20562235.680    84198937.27148
  21474866.520   112851248.49009  21474863.520    87936048.47048
  23255673.720   122209396.91508  23255670.140    95228102.65146
  22831511.720   119980691.87608  22831508.080    93491546.94047
  21329042.360   112084914.21109  21329037.860    87338889.40648
  21378465.720   112344638.25109  21378465.060    87541279.13948
 15 03 05 00 58  0.0000000  0  6G16G18G19G21G22G27
  20561065.120   108049150.28309  20561062.300    84194132.39048
  21476383.840   112859222.53309  21476380.940    87942262.00848
  23241442.260   122134609.81208  23241438.580    95169827.01146
  22843954.700   120046080.27208  22843951.100    93542498.92247
  21317591.480   112024739.76709  21317587.020    87292000.24348
  21368599.100   112292789.41509  21368598.620    87500877.45748
 15 03 05 00 58 30.0000000  0  6G16G18G19G21G22G27
  20559998.180   108043543.24109  20559995.300    84189763.26048
  21477995.980   112867694.41209  21477993.120    87948863.47248
  23227222.680   122059884.95308  23227218.860    95111599.84647
  22856410.820   120111537.65108  22856407.320    93593504.65947
  21306220.320   111964983.87009  21306215.800    87245437.21948
  21358761.020   112241090.94309  21358760.660    87460592.94248
 15 03 05 00 59  0.0000000  0  6G16G18G19G21G22G27
  20559038.640   108038500.61909  20559035.740    84185833.92649
  21479703.740   112876668.61809  21479700.900    87955856.36048
  23213015.780   121985226.73508  23213011.840    95053424.61747
  22868880.660   120177067.53608  22868877.260    93644566.87747
  21294930.180   111905653.34809  21294925.520    87199205.65348
  21348952.800   112189548.64909  21348952.500    87420430.11548
 15 03 05 00 59 30.0000000  0  6G16G18G19G21G22G27
  20558186.480   108034022.52809  20558183.580    84182344.50048
  21481507.060   112886144.47109  21481504.060    87963240.14648
  23198821.580   121910635.46108  23198817.500    94995301.57147
  22881364.100   120242668.60308  22881360.820    93695684.58347
  21283721.240   111846749.62109  21283716.440    87153306.66448
  21339174.540   112138163.18809  21339174.180    87380389.50048
 15 03 05 01 00  0.0000000  0  6G16G18G19G21G22G27
  20557441.660   108030108.21209  20557438.680    84179294.37048
  21483405.520   112896119.93409  21483402.300    87971013.22648
  23184639.920   121836110.38208  23184635.820    94937230.09147
  22893860.520   120308337.83008  22893857.320    93746855.39347
  21272593.580   111788272.87109  21272588.680    87107740.37148
  21329426.020   112086933.70509  21329425.560    87340470.41048
 15 03 05 01 00 30.0000000  0  6G16G18G19G21G22G27
  20556804.680   108026760.71009  20556801.700    84176685.92949
  21485399.340   112906596.69409  21485395.940    87979176.94848
  23170471.420   121761654.27508  23170467.320    94879212.36647
  22906370.200   120374076.64808  22906367.040    93798080.43647
  21261547.900   111730227.20309  21261542.980    87062510.00748
  21319707.820   112035863.68909  21319707.260    87300675.59648
 15 03 05 01 01  0.0000000  0  6G16G18G19G21G22G27
  20556275.160   108023977.61909  20556272.120    84174517.27448
  21487487.820   112917571.52009  21487484.380    87987728.76148
  23156315.460   121687264.56308  23156311.520    94821246.38647
  22918892.360   120439880.82508  22918889.120    93849356.40747
  21250584.120   111672612.25809  21250579.200    87017615.25548
  21310019.500   111984951.35509  21310019.040    87261003.65448
 15 03 05 01 01 30.0000000  0  6G16G18G19G21G22G27
  20555853.500   108021761.56309  20555850.400    84172790.46748
  21489671.460   112929047.13009  21489668.160    87996670.79348
  23142172.720   121612944.34408  23142168.860    94763334.54547
  22931427.240   120505751.83808  22931424.020    93900684.45947
  21239703.000   111615432.00109  21239698.100    86973059.22148
  21300361.820   111934200.12009  21300361.300    87221457.23548
 15 03 05 01 02  0.0000000  0  6G16G18G19G21G22G27
  20555539.760   108020112.79809  20555536.660    84171505.70549
  21491949.960   112941021.44009  21491946.820    88006001.42648
  23128043.180   121538693.31008  23128039.340    94705476.62547
  22943974.440   120571687.56408  22943971.140    93952062.93347
  21228904.740   111558687.15309  21228899.900    86928842.46948
  21290734.800   111883610.08009  21290734.360    87182036.43148
 15 03 05 01 02 30.0000000  0  6G16G18G19G21G22G27
  20555333.420   108019028.60809  20555330.380    84170660.87848
  21494322.860   112953491.45809  21494319.820    88015718.32848
  23113926.320   121464508.66208  23113922.420    94647670.42947
  22956533.160   120637683.81008  22956529.800    94003488.56947
  21218189.100   111502376.45309  21218184.300    86884964.01348
  21281138.100   111833179.13909  21281137.720    87142739.59548
 15 03 05 01 03  0.0000000  0  6G16G18G19G21G22G27
  20555235.600   108018514.40309  20555232.540    84170260.18649
  21496790.880   112966461.36109  21496787.880    88025824.74448
  23099823.220   121390396.41408  23099819.280    94589920.63347
  22969104.120   120703744.59508  22969100.760    94054964.49147
  21207557.400   111446507.14109  21207552.700    86841429.49348
  21271572.900   111782913.63909  21271572.560    87103571.68248
 15 03 05 01 03 30.0000000  0  6G16G18G19G21G22G27
  20555246.000   108018568.74309  20555242.840    84170302.52948
  21499353.540   112979928.64309  21499350.600    88036318.75048
  23085733.640   121316355.18708  23085729.620    94532226.19947
  22981686.780   120769866.85408  22981683.400    94106488.32347
  21197009.700   111391078.83009  21197005.040    86798238.61748
  21262039.060   111732812.53309  21262038.620    87064531.87348
 15 03 05 01 04  0.0000000  0  6G16G18G19G21G22G27
  20555364.740   108019192.07909  20555361.440    84170788.23549
  21502010.820   112993893.12009  21502007.900    88047200.15848
  23071657.660   121242385.31308  23071653.540    94474587.34247
  22994280.960   120836049.44908  22994277.580    94158059.16247
  21186546.280   111336093.30709  21186541.660    86755392.76848
  21252536.760   111682876.99509  21252536.160    87025621.05848
 15 03 05 01 04 30.0000000  0  6G16G18G19G21G22G27
  20555592.800   108020390.14609  20555589.460    84171721.77948
  21504763.580   113008359.12609  21504760.680    88058472.36548
  23057596.100   121168492.28608  23057592.040    94417008.38547
  23006887.360   120902296.29408  23006883.940    94209680.06246
  21176168.400   111281557.29309  21176163.780    86712897.18448
  21243067.100   111633112.99109  21243066.240    86986843.91048
 15 03 05 01 05  0.0000000  0  6G16G18G19G21G22G27
  20555928.160   108022152.34909  20555924.780    84173094.92049
  21507609.640   113023315.68509  21507606.780    88070126.82848
  23043547.260   121094666.24708  23043543.380    94359481.64047
  23019503.760   120968596.00508  23019500.300    94261342.16447
  21165874.460   111227462.00509  21165869.740    86670745.03048
  21233628.240   111583511.05609  21233627.200    86948193.07048
 15 03 05 01 05 30.0000000  0  6G16G18G19G21G22G27
  20556372.120   108024485.40309  20556368.760    84174912.88249
  21510550.140   113038768.32709  21510547.380    88082167.85048
  23029512.580   121020914.04208  23029508.800    94302012.43047
  23032131.180   121034953.33208  23032127.740    94313049.16647
  21155665.900   111173815.15809  21155661.040    86628942.30748
  21224221.580   111534078.39509  21224220.440    86909674.12248
 15 03 05 01 06  0.0000000  0  6G16G18G19G21G22G27
  20556924.740   108027389.41209  20556921.400    84177175.73849
  21513584.860   113054715.96709  21513582.120    88094594.59148
  23015492.100   120947235.98008  23015488.300    94244600.99347
  23044769.260   121101367.18008  23044765.820    94364800.19546
  21145542.920   111120618.51109  21145538.020    86587490.38648
  21214847.280   111484815.95109  21214846.220    86871287.80648
 15 03 05 01 06 30.0000000  0  7G04G16G18G19G21G22G27
  24559240.240   129059668.71308  24559238.880   100565973.90745
  20557585.780   108030863.31609  20557582.480    84179882.66248
  21516713.460   113071156.61309  21516710.680    88107405.48048
  23001485.700   120873631.66008  23001481.860    94187247.00747
  23057417.760   121167835.38508  23057414.300    94416593.59246
  21135505.680   111067872.59509  21135500.800    86546389.68048
  21205505.360   111435723.73809  21205504.380    86833034.12948
 15 03 05 01 07  0.0000000  0  7G04G16G18G19G21G22G27
  24541404.820   128965947.22008  24541404.180   100492944.25245
  20558363.520   108034950.31709  20558360.200    84183067.33048
  21519943.920   113088132.56109  21519941.160    88120633.49148
  22987501.480   120800143.95608  22987497.660    94129983.91147
  23070084.440   121234399.24808  23070081.080    94468461.51746
  21125562.620   111015621.47509  21125557.800    86505674.53948
  21196204.120   111386845.17609  21196203.160    86794946.94048
 15 03 05 01 07 30.0000000  0  7G04G16G18G19G21G22G27
  24523588.040   128872320.94407  24523588.040   100419988.78445
  20559240.700   108039560.03509  20559237.380    84186659.31248
  21523258.960   113105553.03809  21523256.240    88134207.89748
  22973522.340   120726683.10308  22973518.580    94072741.72947
  23082751.940   121300967.44708  23082748.540    94520332.83746
  21115696.800   110963776.32009  21115692.080    86465275.73548
  21186926.460   111338091.00709  21186925.560    86756956.68549
 15 03 05 01 08  0.0000000  0  7G04G16G18G19G21G22G27
  24505800.480   128778847.98907  24505800.920   100347152.79544
  20560228.420   108044750.50709  20560225.080    84190703.82548
  21526669.300   113123474.41209  21526666.520    88148172.60248
  22959559.420   120653307.34308  22959555.620    94015565.85047
  23095431.080   121367596.39708  23095427.580    94572251.48847
  21105919.500   110912396.40409  21105914.880    86425239.44748
  21177683.560   111289519.88809  21177682.820    86719109.06249
 15 03 05 01 08 30.0000000  0  7G04G16G18G19G21G22G27
  24488040.500   128685519.16007  24488041.080   100274429.09045
  20561324.680   108050511.66509  20561321.420    84195193.02749
  21530173.000   113141886.38009  21530170.120    88162519.59448
  22945610.840   120580006.98408  22945607.040    93958448.71847
  23108119.640   121434275.65208  23108116.300    94624209.31146
  21096229.120   110861473.45509  21096224.600    86385559.24548
  21168473.800   111241123.04809  21168473.200    86681397.24449
 15 03 05 01 09  0.0000000  0  7G04G16G18G19G21G22G27
  24470308.420   128592336.92907  24470309.100   100201819.64745
  20562529.960   108056845.59109  20562526.760    84200128.54448
  21533770.180   113160789.24109  21533767.220    88177249.09648
  22931677.080   120506784.59108  22931673.200    93901392.34547
  23120817.780   121501004.83408  23120814.340    94676206.07446
  21086626.400   110811010.74909  21086621.880    86346237.66748
  21159297.740   111192903.06309  21159297.260    86643823.24148
 15 03 05 01 09 30.0000000  0  7G04G16G18G19G21G22G27
  24452604.220   128499301.64708  24452604.860   100129324.70244
  20563844.240   108063752.18209  20563841.040    84205510.30048
  21537460.720   113180182.60309  21537457.620    88192360.80948
  22917758.240   120433640.53009  22917754.340    93844397.01847
  23133525.280   121567782.91608  23133521.780    94728240.94946
  21077111.480   110761009.40709  21077106.940    86307275.59248
  21150155.560   111144860.91109  21150155.180    86606387.80248
 15 03 05 01 10  0.0000000  0  7G04G16G18G19G21G22G27
  24434928.680   128406415.95508  24434928.900   100056946.27944
  20565267.920   108071233.55009  20565264.700    84211339.92649
  21541244.740   113200067.16309  21541241.500    88207855.27348
  22903854.760   120360577.13909  22903850.920    93787464.52647
  23146242.220   121634610.73408  23146238.800    94780314.55346
  21067685.000   110711472.85009  21067680.440    86268675.67948
  21141047.820   111096999.59109  21141047.500    86569093.26249
 15 03 05 01 10 30.0000000  0  7G04G16G18G19G21G22G27
  24417281.040   128313676.31608  24417280.760    99984681.64644
  20566800.220   108079285.64309  20566796.900    84217614.28248
  21545121.400   113220438.41609  21545118.000    88223728.98148
  22889966.000   120287591.16608  22889962.080    93730592.37647
  23158967.700   121701483.68508  23158964.360    94832423.32846
  21058346.460   110662398.58309  21058341.880    86230435.99548
  21131973.920   111049316.14809  21131973.560    86531937.33948
 15 03 05 01 11  0.0000000  0  7G04G16G18G19G21G22G27
  24399661.500   128221084.43608  24399660.960    99912532.17844
  20568441.240   108087909.46709  20568437.920    84224334.13248
  21549090.640   113241296.34309  21549087.160    88239981.91548
  22876092.220   120214684.12308  22876088.220    93673781.72247
  23171701.780   121768401.34108  23171698.360    94884566.94847
  21049096.460   110613789.28409  21049091.780    86192558.62548
  21122934.220   111001812.62709  21122933.900    86494921.60449
 15 03 05 01 11 30.0000000  0  7G04G16G18G19G21G22G27
  24382070.880   128128645.50108  24382070.500    99840501.90444
  20570191.920   108097109.78309  20570188.660    84231503.20248
  21553153.140   113262644.88209  21553149.720    88256617.14048
  22862234.500   120141861.40208  22862230.460    93617036.76747
  23184445.000   121835367.25408  23184441.540    94936748.15646
  21039936.180   110565651.01009  21039931.340    86155048.28248
  21113929.800   110954494.76109  21113929.600    86458050.53548
 15 03 05 01 12  0.0000000  0  7G04G16G18G19G21G22G27
  24364508.820   128036356.57608  24364508.500    99768588.53244
  20572051.580   108106882.83509  20572048.400    84239118.55548
  21557307.960   113284479.04809  21557304.660    88273630.77448
  22848392.220   120069119.71409  22848388.100    93560354.95247
  23197196.560   121902376.85708  23197193.160    94988963.41746
  21030865.040   110517981.47409  21030860.140    86117903.19148
  21104960.320   110907359.89909  21104960.100    86421322.05348
 15 03 05 01 12 30.0000000  0  7G04G16G18G19G21G22G27
  24346975.980   127944220.83508  24346975.700    99696794.50444
  20574020.740   108117231.28209  20574017.620    84247182.27248
  21561555.640   113306801.12409  21561552.420    88291024.61048
  22834565.980   119996462.49008  22834561.840    93503738.96447
  23209956.740   121969431.99008  23209953.460    95041214.15947
  21021883.840   110470784.77109  21021878.900    86081126.55048
  21096026.560   110860412.01609  21096026.160    86384739.28549
 15 03 05 01 13  0.0000000  0  7G04G16G18G19G21G22G27
  24329472.700   127852240.53508  24329472.400    99625121.59045
  20576099.740   108128156.52509  20576096.680    84255695.43748
  21565896.260   113329611.53609  21565893.060    88308798.96148
  22820756.160   119923891.72208  22820752.140    93447190.34947
  23222725.580   122036532.92608  23222722.260    95093500.59346
  21012993.140   110424063.76909  21012988.160    86044720.57448
  21087128.880   110813653.56709  21087128.240    86348304.12848
 15 03 05 01 13 30.0000000  0  7G04G16G18G19G21G22G27
  24311997.700   127760409.31608  24311997.620    99553564.83944
  20578287.220   108139651.70509  20578284.180    84264652.71048
  21570328.320   113352902.30309  21570325.120    88326947.61648
  22806961.600   119851401.31908  22806957.600    93390704.34947
  23235501.720   122103671.79008  23235498.240    95145816.59546
  21004191.860   110377812.88809  21004186.860    86008680.93548
  21078266.160   110767078.90509  21078265.340    86312012.18048
 15 03 05 01 14  0.0000000  0  7G04G16G18G19G21G22G27
  24294552.660   127668735.49308  24294552.620    99482130.77345
  20580584.640   108151724.51509  20580581.620    84274060.08348
  21574853.000   113376680.06609  21574849.880    88345475.74248
  22793183.920   119778999.48408  22793179.860    93334287.36047
  23248286.160   122170855.17708  23248282.900    95198167.24946
  20995481.700   110332041.25109  20995476.760    85973014.73048
  21069439.960   110720696.64809  21069439.140    86275870.16848
 15 03 05 01 14 30.0000000  0  7G04G16G18G19G21G22G27
  24277136.040   127577211.11808  24277136.220    99410813.18245
  20582990.360   108164366.51209  20582987.360    84283910.98149
  21579468.580   113400935.50809  21579465.540    88364376.09048
  22779421.640   119706678.35409  22779417.560    93277933.27147
  23261077.340   122238073.69108  23261074.180    95250545.30246
  20986861.440   110286742.12309  20986856.600    85937716.72048
  21060648.920   110674499.73709  21060648.140    86239872.58248
 15 03 05 01 15  0.0000000  0  7G04G16G18G19G21G22G27
  24259749.720   127485845.55007  24259749.880    99339619.26244
  20585505.880   108177585.40709  20585502.900    84294211.40249
  21584176.600   113425676.61109  21584173.620    88383654.87048
  22765676.500   119634447.45508  22765672.460    93221649.48947
  23273876.700   122305334.87408  23273873.460    95302956.59346
  20978332.960   110241925.05209  20978328.160    85902794.33448
  21051894.920   110628497.66609  21051894.160    86204026.81749
 15 03 05 01 15 30.0000000  0  7G04G16G18G19G21G22G27
  24242392.980   127394635.23708  24242392.960    99268546.36645
  20588130.520   108191377.68309  20588127.580    84304958.62748
  21588976.020   113450897.61009  21588973.020    88403307.60048
  22751947.900   119562303.34909  22751943.860    93165433.34147
  23286683.240   122372633.84608  23286679.980    95355397.33146
  20969895.720   110197587.00709  20969890.880    85868245.22048
  21043177.520   110582687.60409  21043176.820    86168330.65248
 15 03 05 01 16  0.0000000  0  7G04G16G18G19G21G22G27
  24225065.580   127303579.64707  24225065.780    99197594.07045
  20590864.060   108205742.14209  20590861.040    84316151.70148
  21593866.520   113476596.92209  21593863.400    88423333.04248
  22738235.760   119490245.53509  22738231.580    93109284.42647
  23299496.640   122439968.61708  23299493.380    95407865.96246
  20961549.860   110153728.84609  20961544.980    85834070.03848
  21034496.720   110537069.65209  21034496.040    86132784.18449
 15 03 05 01 16 30.0000000  0  7G04G16G18G19G21G22G27
  24207768.400   127212682.77608  24207768.520    99126765.39645
  20593707.140   108220681.91309  20593703.920    84327793.07148
  21598848.400   113502776.70209  21598845.240    88443732.87548
  22724540.860   119418277.94009  22724536.540    93053205.80747
  23312317.280   122507341.26508  23312313.860    95460364.11746
  20953296.140   110110355.19409  20953291.260    85800272.39948
  21025853.400   110491648.31509  21025852.700    86097390.93149
 15 03 05 01 17  0.0000000  0  7G04G16G18G19G21G22G27
  24190501.480   127121944.42008  24190501.480    99056060.23545
  20596659.540   108236195.98109  20596656.120    84339881.94548
  21603921.440   113529435.43709  21603918.240    88464505.92948
  22710863.120   119346400.70009  22710858.720    92997197.60947
  23325144.820   122574750.39208  23325141.460    95512890.69746
  20945134.640   110067466.07009  20945129.720    85766852.31348
  21017247.560   110446423.99009  21017246.840    86062151.20348
 15 03 05 01 17 30.0000000  0  7G04G16G18G19G21G22G27
  24173264.520   127031363.62608  24173264.540    98985477.88845
  20599720.740   108252282.22609  20599717.220    84352416.67748
  21609085.080   113556570.48009  21609081.900    88485650.12548
  22697202.460   119274613.04309  22697197.980    92941259.21847
  23337978.700   122642193.34408  23337975.480    95565443.61646
  20937065.300   110025061.48109  20937060.420    85733809.79048
  21008679.120   110401396.24709  21008678.400    86027064.65448
 15 03 05 01 18  0.0000000  0  7G04G16G18G19G21G22G27
  24156057.700   126940940.98208  24156057.560    98915018.72245
  20602890.700   108268940.40709  20602887.180    84365397.05548
  21614339.040   113584180.45709  21614335.920    88507164.39748
  22683558.940   119202915.43609  22683554.360    92885390.97747
  23350819.040   122709669.41808  23350815.780    95618022.37546
  20929088.440   109983142.80109  20929083.600    85701145.89248
  21000148.300   110356566.49109  21000147.600    85992132.37749
 15 03 05 01 18 30.0000000  0  7G04G16G18G19G21G22G27
  24138881.200   126850677.54508  24138880.720    98844683.61344
  20606169.440   108286170.68309  20606166.040    84378823.22849
  21619683.160   113612264.51009  21619680.120    88529048.06848
  22669932.660   119131308.92709  22669928.020    92829593.72847
  23363665.520   122777177.91608  23363662.280    95670626.38146
  20921204.280   109941711.36609  20921199.500    85668861.66148
  20991655.400   110311936.08709  20991654.760    85957355.43049
 15 03 05 01 19  0.0000000  0  7G04G16G18G19G21G22G27
  24121735.360   126760575.52408  24121734.580    98774474.27944
  20609557.400   108303975.21109  20609554.140    84392696.86648
  21625117.780   113640823.84609  21625114.700    88551302.10348
  22656324.200   119059796.45709  22656319.520    92773869.75947
  23376518.340   122844719.73908  23376515.000    95723256.35646
  20913413.460   109900770.68209  20913408.760    85636959.83648
  20983201.020   110267508.19609  20983200.460    85922736.29949
 15 03 05 01 19 30.0000000  0  7G04G16G18G19G21G22G27
  24104620.100   126670634.07908  24104618.980    98704390.06244
  20613054.120   108322351.22409  20613050.980    84407015.81848
  21630642.340   113669855.56509  21630639.240    88573924.22248
  22642733.400   118988376.88409  22642728.780    92718218.16347
  23389377.080   122912292.54008  23389373.580    95775910.48746
  20905715.920   109860320.15709  20905711.260    85605439.95648
  20974785.040   110223282.32509  20974784.620    85888274.58949
 15 03 05 01 20  0.0000000  0  7G04G16G18G19G21G22G27
  24087536.000   126580856.94008  24087534.840    98634433.87244
  20616660.360   108341302.22909  20616657.240    84421782.81948
  21636257.160   113699361.58309  21636254.060    88596915.92648
  22629161.080   118917054.15509  22629156.520    92662642.02747
  23402242.020   122979898.31608  23402238.640    95828590.28246
  20898112.460   109820363.94709  20898107.800    85574305.26348
  20966408.320   110179262.79809  20966407.940    85853973.66549
 15 03 05 01 20 30.0000000  0  7G04G16G18G19G21G22G27
  24070482.500   126491240.96708  24070481.440    98564603.29245
  20620375.160   108360823.64009  20620372.020    84436994.29448
  21641961.380   113729337.60909  21641958.300    88620273.87048
  22615606.680   118845825.58909  22615602.220    92607139.27947
  23415112.460   123047532.84108  23415109.200    95881292.49746
  20890602.660   109780899.52409  20890597.960    85543553.77348
  20958070.480   110135447.51509  20958070.160    85819831.87849
 15 03 05 01 21  0.0000000  0  7G04G16G18G19G21G22G27
  24053460.060   126401787.93808  24053459.040    98494899.66344
  20624198.840   108380916.82609  20624195.600    84452651.31348
  21647754.900   113759782.99609  21647751.880    88643997.55648
  22602070.560   118774693.07609  22602066.220    92551711.38647
  23427988.340   123115196.39308  23427985.160    95934017.33146
  20883187.020   109741929.52609  20883182.200    85513187.55548
  20949771.980   110091838.71109  20949771.700    85785850.99449
 15 03 05 01 21 30.0000000  0  7G04G16G18G19G21G22G27
  24036469.120   126312500.30608  24036468.420    98425324.90545
  20628131.600   108401583.20409  20628128.320    84468754.97248
  21653638.000   113790699.10809  21653635.000    88668088.03148
  22588553.260   118703659.40409  22588548.920    92496360.49547
  23440869.980   123182890.14708  23440866.900    95986765.68146
  20875865.940   109703456.75509  20875861.060    85483208.77248
  20941513.360   110048439.56209  20941513.120    85752033.48149
 15 03 05 01 22  0.0000000  0  7G04G16G18G19G21G22G27
  24019509.240   126223375.96008  24019508.780    98355877.42544
  20632172.720   108422819.53809  20632169.500    84485302.75548
  21659609.920   113822081.82209  21659606.920    88692542.10448
  22575054.440   118632722.61809  22575050.120    92441085.11747
  23453756.820   123250610.52508  23453753.680    96039534.79946
  20868639.120   109665479.70409  20868634.300    85453616.27748
  20933294.480   110005248.67009  20933294.100    85718378.25149
 15 03 05 01 22 30.0000000  0  7G04G16G18G19G21G22G27
  24002581.100   126134418.32308  24002580.800    98286559.81645
  20636322.740   108444627.96709  20636319.580    84502296.31948
  21665670.940   113853932.66609  21665667.920    88717360.93748
  22561574.740   118561886.28209  22561570.360    92385887.99247
  23466648.980   123318359.44108  23466645.820    96092326.12946
  20861507.400   109628002.50109  20861502.620    85424413.26748
  20925116.040   109962270.07109  20925115.540    85684888.43349
 15 03 05 01 23  0.0000000  0  7G04G16G18G19G21G22G27
  23985684.180   126045624.97908  23985684.100    98217370.26545
  20640581.020   108467005.23409  20640577.840    84519733.13949
  21671820.200   113886247.30309  21671817.200    88742541.17048
  22548113.700   118491148.12309  22548109.320    92330767.37848
  23479545.900   123386133.04808  23479542.680    96145136.71746
  20854470.440   109591022.98009  20854465.660    85395598.05548
  20916977.580   109919501.96209  20916977.060    85651562.63449
 15 03 05 01 23 30.0000000  0  7G04G16G18G19G21G22G27
  23968818.720   125956996.92508  23968818.680    98148309.47645
  20644947.560   108489951.42809  20644944.380    84537613.28449
  21678057.680   113919025.52109  21678054.700    88768082.64348
  22534671.680   118420509.60609  22534667.300    92275724.40247
  23492447.520   123453931.21108  23492444.340    96197966.43046
  20847528.600   109554543.01209  20847523.740    85367172.11248
  20908879.460   109876946.22509  20908878.960    85618402.32149
 15 03 05 01 24  0.0000000  0  7G04G16G18G19G21G22G27
  23951984.860   125868535.07908  23951984.900    98079378.23046
  20649422.280   108513466.13309  20649419.100    84555936.42249
  21684383.160   113952266.08009  21684380.180    88793984.38548
  22521248.880   118349972.28109  22521244.480    92220760.29648
  23505353.740   123521753.51308  23505350.580    96250814.95546
  20840682.060   109518563.81009  20840677.100    85339136.37948
  20900822.020   109834604.58309  20900821.620    85585408.84549
 15 03 05 01 24 30.0000000  0  7G04G16G18G19G21G22G27
  23935183.120   125780241.27708  23935183.140    98010577.88845
  20654005.240   108537549.49309  20654002.000    84574702.66248
  21690796.620   113985969.02109  21690793.600    88820246.42148
  22507845.620   118279537.78509  22507841.220    92165876.30148
  23518264.580   123589600.11208  23518261.420    96303682.41446
  20833931.200   109483087.71709  20833926.180    85311492.68048
  20892805.860   109792479.38909  20892805.420    85552584.01449
 15 03 05 01 25  0.0000000  0  7G04G16G18G19G21G22G27
  23918413.240   125692114.24808  23918413.160    97941907.51145
  20658696.200   108562200.55409  20658692.900    84593911.27348
  21697297.480   114020131.28109  21697294.440    88846866.36547
  22494461.700   118209204.96609  22494457.340    92111071.53648
  23531179.620   123657468.39608  23531176.420    96356566.77946
  20827275.880   109448113.67509  20827270.840    85284240.18448
  20884830.820   109750569.98209  20884830.240    85519927.33149
 15 03 05 01 25 30.0000000  0  7G04G16G18G19G21G22G27
  23901675.640   125604156.82008  23901675.300    97873369.28045
  20663495.320   108587420.58909  20663492.100    84613563.23248
  21703886.000   114054753.80109  21703882.840    88873844.95048
  22481097.800   118138977.53409  22481093.480    92056348.88648
  23544099.120   123725360.18608  23544095.860    96409469.45246
  20820716.760   109413645.20609  20820711.700    85257381.64148
  20876897.580   109708880.24509  20876896.900    85487441.81249
 15 03 05 01 26  0.0000000  0  7G04G16G18G19G21G22G27
  23884970.240   125516368.86408  23884969.780    97804963.11845
  20668402.360   108613208.29309  20668399.400    84633657.53348
  21710561.840   114089835.02609  21710558.520    88901180.97048
  22467754.020   118068855.63009  22467749.600    92001708.46247
  23557022.820   123793274.17008  23557019.460    96462389.42546
  20814253.900   109379682.68709  20814248.840    85230917.35448
  20869006.280   109667410.94809  20869005.500    85455128.06149
 15 03 05 01 26 30.0000000  0  7G04G16G18G19G21G22G27
  23868297.140   125428750.94108  23868296.640    97736689.44445
  20673417.300   108639562.73209  20673414.580    84654193.44748
  21717324.680   114125373.54809  21717321.220    88928873.33648
  22454430.340   117998840.06509  22454426.020    91947150.90448
  23569950.480   123861209.39208  23569947.040    96515325.94446
  20807887.480   109346227.05009  20807882.400    85204848.03548
  20861157.100   109626163.14909  20861156.280    85422986.92849
 15 03 05 01 27  0.0000000  0  7G04G16G18G19G21G22G27
  23851656.540   125341303.80008  23851655.980    97668548.83645
  20678540.040   108666483.19909  20678537.420    84675170.41849
  21724174.300   114161368.16309  21724170.800    88956921.08448
  22441127.040   117928931.69008  22441122.900    91892676.85948
  23582881.960   123929165.01708  23582878.480    96568278.35546
  20801617.680   109313279.28109  20801612.640    85179174.45748
  20853350.320   109585138.37509  20853349.540    85391019.57149
 15 03 05 01 27 30.0000000  0  7G04G16G18G19G21G22G27
  23835048.560   125254028.48708  23835048.020    97600542.11645
  20683770.680   108693970.08509  20683768.000    84696588.76748
  21731110.440   114197817.69109  21731107.000    88985323.31748
  22427844.440   117859132.23308  22427840.520    91838287.69548
  23595817.340   123997141.05108  23595813.980    96621246.68646
  20795444.780   109280841.05609  20795439.840    85153897.93948
  20845586.320   109544338.55609  20845585.620    85359227.51049
 15 03 05 01 28  0.0000000  0  7G04G16G18G19G21G22G27
  23818473.140   125166924.76308  23818472.600    97532669.11945
  20689108.900   108722021.97909  20689106.100    84718447.37948
  21738132.800   114234720.43109  21738129.380    89014078.71048
  22414582.640   117789441.69509  22414578.900    91783983.40447
  23608756.340   124065136.35108  23608753.180    96674230.01546
  20789368.920   109248912.45109  20789364.020    85129018.51648
  20837865.240   109503764.15909  20837864.600    85327611.09749
 15 03 05 01 28 30.0000000  0  7G04G16G18G19G21G22G27
  23801930.280   125079992.05108  23801929.720    97464929.36945
  20694554.220   108750637.07209  20694551.380    84740744.83748
  21745240.940   114272073.97009  21745237.480    89043185.35547
  22401341.700   117719860.02309  22401338.000    91729763.93548
  23621698.620   124133148.90408  23621695.460    96727226.77846
  20783390.040   109217493.37209  20783385.160    85104536.12548
  20830187.200   109463415.65509  20830186.600    85296170.69649
 15 03 05 01 29  0.0000000  0  7G04G16G18G19G21G22G27
  23785420.420   124993232.67708  23785419.800    97397324.69445
  20700106.760   108779816.07109  20700103.980    84763481.71048
  21752434.900   114309878.53209  21752431.500    89072643.45947
  22388122.140   117650389.97509  22388118.340    91675631.43748
  23634644.300   124201179.20108  23634641.120    96780237.38746
  20777508.600   109186586.33509  20777503.720    85080452.73248
  20822552.720   109423295.99509  20822552.120    85264908.63349
 15 03 05 01 29 30.0000000  0  7G04G16G18G19G21G22G27
  23768943.180   124906644.46208  23768942.560    97329853.39445
  20705766.000   108809555.78309  20705763.260    84786655.48548
  21759713.920   114348130.20309  21759710.600    89102449.95247
  22374923.400   117581029.59509  22374919.480    91621584.40248
  23647592.900   124269224.62408  23647589.840    96833259.76646
  20771724.240   109156189.36009  20771719.340    85056766.77648
  20814961.440   109383403.79609  20814960.840    85233823.79749
 15 03 05 01 30  0.0000000  0  7G04G16G18G19G21G22G27
  23752499.280   124820231.52008  23752498.740    97262518.66345
  20711532.540   108839859.12109  20711529.840    84810268.46148
  21767078.360   114386831.16909  21767075.080    89132606.54747
  22361746.420   117511783.65909  22361742.400    91567626.56048
  23660544.900   124337287.85108  23660541.840    96886296.03045
  20766037.820   109126306.95009  20766032.920    85033481.78548
  20807414.360   109343744.14609  20807413.860    85202920.18249
 15 03 05 01 30 30.0000000  0  7G04G16G18G19G21G22G27
  23736088.420   124733992.50508  23736087.960    97195319.47845
  20717405.880   108870723.35509  20717403.100    84834318.50048
  21774527.660   114425978.27209  21774524.440    89163110.78347
  22348591.040   117442651.35209  22348586.980    91513757.26348
  23673499.860   124405366.69908  23673496.700    96939344.45946
  20760449.120   109096938.17809  20760444.220    85010597.04048
  20799911.520   109304316.58109  20799911.100    85172197.40249
 15 03 05 01 31  0.0000000  0  7G04G16G18G19G21G22G27
  23719710.700   124647927.78508  23719710.440    97128256.09745
  20723385.700   108902147.16709  20723382.800    84858804.57248
  21782061.620   114465569.88009  21782058.460    89193961.38947
  22335457.380   117373633.19309  22335453.160    91459976.90448
  23686457.680   124473459.98508  23686454.460    96992404.14046
  20754958.260   109068083.70609  20754953.360    84988113.04848
  20792453.080   109265122.24109  20792452.700    85141656.37449
 15 03 05 01 31 30.0000000  0  7G04G16G18G19G21G22G27
  23703366.380   124562038.11208  23703366.120    97061329.12345
  20729472.020   108934130.66309  20729469.060    84883726.75748
  21789679.980   114505604.84809  21789676.940    89225157.46647
  22322345.680   117304730.64509  22322341.380    91406286.62948
  23699418.140   124541567.43608  23699414.960    97045474.86446
  20749565.500   109039744.66309  20749560.560    84966030.68348
  20785039.400   109226162.79509  20785038.980    85111298.36149
 15 03 05 01 32  0.0000000  0  7G04G16G18G19G21G22G27
  23687055.900   124476325.70608  23687055.520    96994540.26745
  20735664.960   108966674.45409  20735661.940    84909085.53648
  21797382.760   114546083.43009  21797379.840    89256699.22247
  22309256.460   117235946.34509  22309252.080    91352688.49848
  23712381.380   124609689.91908  23712378.380    97098557.28846
  20744271.220   109011923.32609  20744266.340    84944351.73548
  20777671.040   109187441.38409  20777670.620    85081125.83149
 15 03 05 01 32 30.0000000  0  7G04G16G18G19G21G22G27
  23670778.560   124390787.42008  23670778.160    96927887.10845
  20741963.600   108999773.55809  20741960.520    84934877.02948
  21805168.960   114587000.42109  21805166.100    89288582.58948
  22296189.220   117167277.69309  22296184.820    91299180.47848
  23725346.780   124677823.27508  23725343.740    97151648.20046
  20739075.000   108984616.94209  20739070.140    84923074.03848
  20770347.440   109148955.57809  20770346.960    85051136.89049
 15 03 05 01 33  0.0000000  0  7G04G16G18G19G21G22G27
  23654535.160   124305427.27808  23654534.620    96861372.73045
  20748368.480   109033431.05609  20748365.340    84961103.63148
  21813039.080   114628358.02009  21813036.200    89320809.28847
  22283144.900   117098729.11309  22283140.440    91245766.00848
  23738314.780   124745970.40208  23738311.760    97204749.83746
  20733977.580   108957829.54409  20733972.680    84902200.74648
  20763069.580   109110710.36009  20763069.080    85021335.42649
 15 03 05 01 33 30.0000000  0  7G04G16G18G19G21G22G27
  23638325.140   124220242.68008  23638324.460    96794995.15245
  20754878.800   109067642.74809  20754875.640    84987762.07648
  21820992.300   114670151.95809  21820989.240    89353375.99147
  22270123.040   117030298.66909  22270118.540    91192443.59948
  23751284.760   124814127.90408  23751281.780    97257859.55046
  20728978.500   108931558.87509  20728973.500    84881730.10248
  20755837.200   109072704.19909  20755836.720    84991720.24249
 15 03 05 01 34  0.0000000  0  7G04G16G18G19G21G22G27
  23622149.180   124135237.40008  23622148.520    96728757.31445
  20761495.020   109102411.17709  20761491.840    85014854.33348
  21829028.800   114712383.60209  21829025.640    89386283.76347
  22257124.360   116961990.32409  22257119.880    91139216.33348
  23764257.160   124882298.02708  23764254.220    97310979.09246
  20724078.420   108905808.50809  20724073.420    84861664.89548
  20748651.220   109034941.46609  20748650.760    84962294.73449
 15 03 05 01 34 30.0000000  0  7G04G16G18G19G21G22G27
  23606007.280   124050411.24808  23606006.580    96662659.05745
  20768216.780   109137734.50309  20768213.600    85042378.98948
  21837148.160   114755050.79309  21837144.960    89419530.92947
  22244149.100   116893805.03009  22244144.580    91086084.94748
  23777231.740   124950479.31908  23777228.780    97364107.35946
  20719277.400   108880579.11909  20719272.440    84842005.64548
  20741511.760   108997423.08809  20741511.280    84933059.63249
 15 03 05 01 35  0.0000000  0  7G04G16G18G19G21G22G27
  23589899.260   123965763.05808  23589898.440    96596699.47345
  20775043.580   109173610.13109  20775040.520    85070334.00348
  21845349.740   114798150.48909  21845346.600    89453115.11047
  22231196.980   116825741.62409  22231192.460    91033048.53548
  23790208.040   125018669.97308  23790205.000    97417242.89546
  20714575.300   108855869.57509  20714570.340    84822751.46748
  20734418.740   108960148.71709  20734418.200    84904014.66949
 15 03 05 01 35 30.0000000  0  7G04G16G18G19G21G22G27
  23573825.620   123881295.39608  23573824.780    96530880.55145
  20781975.700   109210039.27709  20781972.820    85098720.33048
  21853633.680   114841683.23209  21853630.680    89487036.72447
  22218268.680   116757803.63209  22218264.280    90980109.86148
  23803186.380   125086871.55508  23803183.300    97470386.96846
  20709972.640   108831682.36709  20709967.600    84803904.30748
  20727372.800   108923121.94209  20727372.220    84875162.64349
 15 03 05 01 36  0.0000000  0  7G04G16G18G19G21G22G27
  23557785.780   123797005.51008  23557784.880    96465200.16045
  20789012.400   109247017.59509  20789009.620    85127534.58048
  21861999.200   114885644.48809  21861996.220    89521292.24247
  22205363.780   116689988.67409  22205359.560    90927267.05548
  23816166.020   125155080.05208  23816163.020    97523536.41246
  20705468.880   108808014.90909  20705463.800    84785462.14248
  20720373.580   108886341.04009  20720373.020    84846502.20649
 15 03 05 01 36 30.0000000  0  7G04G16G18G19G21G22G27
  23541780.700   123712898.45008  23541779.760    96399662.22945
  20796154.360   109284548.74309  20796151.580    85156779.59948
  21870446.840   114930037.39409  21870443.840    89555884.10447
  22192483.460   116622302.48209  22192479.260    90874524.57048
  23829147.680   125223299.32508  23829144.680    97576694.26245
  20701065.000   108784872.43709  20701059.860    84767429.05348
  20713422.280   108849811.94509  20713421.780    84818037.97049
 15 03 05 01 37  0.0000000  0  7G04G16G18G19G21G22G27
  23525809.840   123628971.20608  23525808.820    96334264.41345
  20803400.640   109322627.77109  20803397.760    85186451.55248
  21878975.580   114974856.18309  21878972.520    89590807.84247
  22179627.100   116554742.37709  22179623.140    90821880.35548
  23842130.640   125291525.82408  23842127.740    97629857.74345
  20696760.420   108762251.75409  20696755.260    84749802.56548
  20706518.500   108813532.47109  20706518.100    84789768.25849
 15 03 05 01 37 30.0000000  0  7G04G16G18G19G21G22G27
  23509873.340   123545224.31408  23509872.320    96269007.12845
  20810750.960   109361253.90009  20810748.080    85216549.81248
  21887585.200   115020099.99109  21887582.100    89626062.75447
  22166795.080   116487310.03009  22166791.240    90769335.68748
  23855114.900   125359758.89908  23855111.960    97683026.34246
  20692555.260   108740153.64409  20692550.120    84732583.27548
  20699662.580   108777504.23909  20699662.160    84761694.30949
 15 03 05 01 38  0.0000000  0  7G04G16G18G19G21G22G27
  23493971.460   123461659.62308  23493970.440    96203891.81945
  20818205.380   109400427.52809  20818202.600    85247074.69548
  21896275.680   115065768.45109  21896272.460    89661648.56747
  22153987.900   116420007.78209  22153984.020    90716892.38348
  23868100.480   125427998.69508  23868097.500    97736200.19345
  20688449.940   108718580.10709  20688444.800    84715772.73548
  20692855.040   108741730.06809  20692854.580    84733818.32749
 15 03 05 01 38 30.0000000  0  7G04G16G18G19G21G22G27
  23478102.620   123378268.68508  23478101.640    96138911.92745
  20825762.020   109440138.14409  20825759.260    85278018.02648
  21905044.940   115111851.01109  21905041.660    89697557.05947
  22141204.040   116352827.76609  22141200.120    90664544.34948
  23881085.780   125496236.77608  23881082.840    97789372.70545
  20684442.860   108697522.84409  20684437.740    84699364.49848
  20686094.420   108706202.40209  20686093.880    84706134.44049
 15 03 05 01 39  0.0000000  0  7G04G16G18G19G21G22G27
  23462270.700   123295072.37908  23462269.860    96074083.68445
  20833424.740   109480405.90709  20833421.980    85309395.48948
  21913896.640   115158366.78509  21913893.300    89733803.10847
  22128447.640   116285791.54809  22128443.460    90612308.34248
  23894074.460   125564492.60808  23894071.520    97842559.02145
  20680538.020   108677002.51609  20680532.880    84683374.64349
  20679384.860   108670943.27109  20679384.280    84678659.78749
 15 03 05 01 39 30.0000000  0  7G04G16G18G19G21G22G27
  23446473.020   123212056.08508  23446472.340    96009395.71245
  20841190.400   109521214.04009  20841187.560    85341194.01248
  21922827.600   115205298.94209  21922824.180    89770373.61847
  22115715.780   116218884.89109  22115711.440    90560173.29448
  23907063.560   125632750.39308  23907060.540    97895746.87445
  20676732.620   108657004.63909  20676727.420    84667791.88748
  20672723.740   108635938.88109  20672723.140    84651383.64049
 15 03 05 01 40  0.0000000  0  7G04G16G18G19G21G22G27
  23430709.920   123129221.00608  23430709.360    95944848.94645
  20849058.840   109562562.13609  20849055.920    85373413.29748
  21931837.560   115252646.50709  21931834.140    89807267.82747
  22103008.980   116152110.19109  22103004.620    90508141.08548
  23920053.200   125701010.75708  23920049.940    97948936.75845
  20673026.840   108637530.36609  20673021.580    84652617.14749
  20666111.540   108601191.54009  20666110.880    84624307.79349
 15 03 05 01 40 30.0000000  0  7G04G16G18G19G21G22G27
  23414982.360   123046572.33008  23414981.800    95880447.42346
  20857030.640   109604453.72309  20857027.660    85406056.06848
  21940927.240   115300412.94009  21940923.880    89844488.42447
  22090328.360   116085473.05709  22090323.900    90456216.04748
  23933044.120   125769277.95608  23933040.720    98002131.96445
  20669421.580   108618584.41209  20669416.280    84637854.08149
  20659549.480   108566707.42009  20659548.740    84597437.04749
 15 03 05 01 41  0.0000000  0  7G04G16G18G19G21G22G27
  23399289.860   122964107.68108  23399289.220    95816189.31045
  20865104.980   109646884.75809  20865102.000    85439119.19748
  21950095.760   115348593.90109  21950092.500    89882032.03247
  22077673.680   116018971.78409  22077669.000    90404396.88448
  23946035.540   125837548.34008  23946032.220    98055329.64345
  20665916.560   108600165.51309  20665911.260    84623501.70548
  20653037.260   108532485.21509  20653036.440    84570770.41349
 15 03 05 01 41 30.0000000  0  7G04G16G18G19G21G22G27
  23383632.520   122881827.52008  23383631.840    95752074.93246
  20873281.660   109689853.80409  20873278.760    85472601.54248
  21959342.760   115397187.36909  21959339.600    89919897.06647
  22065045.120   115952607.70609  22065040.320    90352684.61648
  23959027.540   125905821.94408  23959024.420    98108529.82246
  20662511.700   108582273.31809  20662506.480    84609559.74549
  20646575.120   108498526.44509  20646574.340    84544309.03649
 15 03 05 01 42  0.0000000  0  7G04G16G18G19G21G22G27
  23368010.080   122799730.83608  23368009.340    95688103.53345
  20881560.180   109733358.27409  20881557.400    85506501.09948
  21968667.640   115446190.09609  21968664.520    89958081.01147
  22052442.400   115886380.05309  22052437.620    90301078.67048
  23972019.800   125974096.34808  23972016.760    98161730.63745
  20659206.800   108564906.45609  20659201.680    84596027.13948
  20640162.960   108464830.76909  20640162.300    84518052.67149
 15 03 05 01 42 30.0000000  0  7G04G16G18G19G21G22G27
  23352422.600   122717817.94508  23352421.780    95624275.33046
  20889940.480   109777397.08209  20889937.740    85540817.03448
  21978070.180   115495600.75909  21978067.040    89996582.82647
  22039865.920   115820290.59309  22039861.200    90249580.38448
  23985012.200   126042371.21108  23985009.020    98214931.80545
  20656002.160   108548065.89309  20655997.020    84582904.63748
  20633801.180   108431400.01809  20633800.600    84492002.73149
 15 03 05 01 43  0.0000000  0  7G04G16G18G19G21G22G27
  23336871.320   122636095.32708  23336870.480    95560595.40445
  20898423.360   109821974.65709  20898420.580    85575552.78748
  21987551.160   115545423.36709  21987547.880    90035405.64247
  22027317.020   115754345.75209  22027312.440    90198194.80248
  23998005.680   126110651.94708  23998002.400    98268137.54645
  20652898.840   108531757.45809  20652893.640    84570196.77648
  20627491.140   108398241.30309  20627490.640    84466164.76349
 15 03 05 01 43 30.0000000  0  7G04G16G18G19G21G22G27
  23321355.300   122554558.07908  23321354.440    95497059.91245
  20907007.520   109867084.26009  20907004.660    85610703.11448
  21997109.220   115595651.24509  21997105.900    90074544.25947
  22014795.080   115688542.57109  22014790.420    90146919.61248
  24010999.120   126178932.95308  24010995.940    98321343.48845
  20649895.900   108515976.73409  20649890.680    84557900.12848
  20621232.320   108365351.17109  20621231.780    84440536.09149
 15 03 05 01 44  0.0000000  0  7G04G16G18G19G21G22G27
  23305874.640   122473206.80908  23305873.760    95433669.34945
  20915692.760   109912725.03409  20915689.840    85646267.33548
  22006744.120   115646282.95509  22006740.780    90113997.54347
  22002300.140   115622881.61709  22002295.540    90095755.23348
  24023992.680   126247214.33308  24023989.600    98374549.74645
  20646993.400   108500723.87009  20646988.140    84546014.79249
  20615024.920   108332731.03809  20615024.400    84415117.80149
 15 03 05 01 44 30.0000000  0  7G04G16G18G19G21G22G27
  23290430.140   122392045.92008  23290429.400    95370427.13345
  20924479.420   109958899.02909  20924476.500    85682247.04948
  22016456.180   115697320.34809  22016452.900    90153766.94047
  21989833.320   115557368.16009  21989828.880    90044705.79948
  24036986.880   126315498.97308  24036983.760    98427758.55045
  20644192.100   108486002.71809  20644186.780    84534543.77948
  20608869.920   108300386.39209  20608869.440    84389914.18149
 15 03 05 01 45  0.0000000  0  7G04G16G18G19G21G22G27
  23275021.000   122311070.81308  23275020.300    95307329.68046
  20933366.300   110005600.34709  20933363.460    85718637.66248
  22026244.160   115748756.88809  22026240.960    90193847.36147
  21977393.880   115491998.62109  21977389.500    89993768.50948
  24049980.720   126383782.14508  24049977.480    98480966.20646
  20641491.060   108471808.79409  20641485.760    84523483.59049
  20602766.680   108268313.63109  20602766.200    84364922.41349
 15 03 05 01 45 30.0000000  0  7G04G16G18G19G21G22G27
  23259647.540   122230282.59108  23259646.800    95244377.84546
  20942353.360   110052828.26809  20942350.680    85755438.61148
  22036107.880   115800591.43009  22036104.800    90234237.90747
  21964982.200   115426775.00009  21964977.940    89942944.92648
  24062974.180   126452063.61908  24062971.020    98534172.52545
  20638890.520   108458143.14509  20638885.260    84512835.04149
  20596715.540   108236515.04109  20596715.120    84340144.29149
 15 03 05 01 46  0.0000000  0  7G04G16G18G19G21G22G27
  23244309.740   122149681.77408  23244308.880    95181572.04245
  20951440.400   110100581.43009  20951437.820    85792648.84848
  22046047.160   115852823.01209  22046044.120    90274937.84547
  21952598.480   115361698.27509  21952594.200    89892235.80048
  24075967.500   126520344.26608  24075964.480    98587378.20745
  20636390.620   108445006.26609  20636385.360    84502598.53048
  20590716.880   108204992.24809  20590716.520    84315581.07849
 15 03 05 01 46 30.0000000  0  7G04G16G18G19G21G22G27
  23229008.320   122069272.45108  23229007.420    95118915.47446
  20960627.800   110148861.80309  20960625.300    85830269.89848
  22056062.300   115905452.94109  22056059.260    90315948.18547
  21940243.660   115296773.45509  21940239.320    89841645.02948
  24088961.000   126588625.71908  24088958.000    98640584.53046
  20633992.020   108432401.70109  20633986.740    84492776.80349
  20584771.740   108173750.52109  20584771.380    84291236.87749
 15 03 05 01 47  0.0000000  0  7G04G16G18G19G21G22G27
  23213743.140   121989054.00108  23213742.320    95056407.62945
  20969915.180   110197667.04309  20969912.660    85868299.92948
  22066152.780   115958478.80509  22066149.740    90357267.03547
  21927917.640   115232000.33909  21927913.380    89791172.48248
  24101954.380   126656906.72808  24101951.400    98693790.49145
  20631694.440   108420328.23809  20631689.260    84483368.91748
  20578880.240   108142789.97509  20578879.820    84267111.77449
 15 03 05 01 47 30.0000000  0  7G04G16G18G19G21G22G27
  23198514.060   121909024.77408  23198513.240    94994047.21345
  20979301.720   110246993.11309  20979299.120    85906735.80948
  22076317.860   116011896.74809  22076314.860    90398891.39747
  21915620.460   115167378.78709  21915616.280    89740818.05548
  24114947.340   126725185.40108  24114944.460    98746994.63445
  20629497.640   108408784.51509  20629492.580    84474373.82049
  20573042.240   108112110.23709  20573041.700    84243205.48349
 15 03 05 01 48  0.0000000  0  7G04G16G18G19G21G22G27
  23183320.440   121829182.16108  23183319.780    94931832.22746
  20988786.580   110296836.01309  20988783.900    85945574.41448
  22086556.580   116065701.77409  22086553.640    90440817.39047
  21903351.840   115102906.90409  21903347.660    89690580.22948
  24127939.280   126793458.56208  24127936.500    98800194.48945
  20627401.100   108397767.44109  20627396.080    84465789.09348
  20567257.320   108081709.85709  20567256.700    84219516.87149
 15 03 05 01 48 30.0000000  0  8G04G16G18G19G21G22G27G32
  23168163.200   121749530.80008  23168162.580    94869766.25246
  20998370.400   110347198.95409  20998367.620    85984818.25048
  22096869.420   116119896.52709  22096866.620    90483047.06147
  21891112.860   115038590.49109  21891108.640    89640463.55448
  24140930.860   126861730.02208  24140928.200    98853393.02545
  20625405.660   108387281.56709  20625400.660    84457618.29049
  20561526.600   108051594.54909  20561526.000    84196050.39149
  24502473.980                                                  
 15 03 05 01 49  0.0000000  0  8G04G16G18G19G21G22G27G32
  23153041.700   121670067.34108  23153041.140    94807846.70445
  21008052.080   110398076.16109  21008049.200    86024462.81448
  22107255.380   116174475.40109  22107252.600    90525576.05647
  21878902.980   114974426.89109  21878898.680    89590465.95448
  24153921.440   126929996.30208  24153918.840    98906587.50645
  20623510.580   108377323.23309  20623505.640    84449858.56249
  20555849.700   108021762.17309  20555849.140    84172804.38149
  24479810.300   128642268.62908  24479810.380   100240725.15545
 15 03 05 01 49 30.0000000  0  8G04G16G18G19G21G22G27G32
  23137957.220   121590798.29008  23137956.740    94746078.63946
  21017832.480   110449472.06309  21017829.520    86064511.55948
  22117715.340   116229442.86709  22117712.520    90568407.84447
  21866723.680   114910423.37809  21866719.240    89540593.08348
  24166911.860   126998261.42208  24166909.200    98959781.09845
  20621717.080   108367898.41309  20621712.160    84442514.56149
  20550228.080   107992220.22109  20550227.540    84149784.67949
  24457154.960   128523215.10108  24457155.220   100147956.31845
 15 03 05 01 50  0.0000000  0  8G04G16G18G19G21G22G27G32
  23122909.420   121511721.57208  23122908.800    94684460.43646
  21027710.900   110501382.89009  21027707.900    86104961.52948
  22128248.540   116284794.88909  22128245.620    90611539.28747
  21854574.620   114846579.29309  21854569.960    89490844.45348
  24179901.800   127066523.53708  24179899.000    99012972.35245
  20620024.800   108359005.10709  20620019.840    84435584.71549
  20544661.500   107962967.92209  20544661.020    84126990.67949
  24434508.560   128404208.54108  24434509.020   100055224.08145
 15 03 05 01 50 30.0000000  0  8G04G16G18G19G21G22G27G32
  23107897.520   121432833.24508  23107896.780    94622989.04346
  21037686.000   110553802.21309  21037683.060    86145807.72848
  22138853.760   116340525.34109  22138850.640    90654965.61647
  21842455.220   114782891.00609  21842450.460    89441217.22348
  24192890.340   127134778.14408  24192887.280    99066157.75345
  20618432.780   108350638.66209  20618427.800    84429065.41249
  20539149.420   107934002.16609  20539149.000    84104419.95849
  24411870.680   128285247.02607  24411871.480    99962526.92845
 15 03 05 01 51  0.0000000  0  8G04G16G18G19G21G22G27G32
  23092922.540   121354138.91308  23092921.740    94561668.80446
  21047758.600   110606734.10709  21047755.720    86187053.33148
  22149531.540   116396637.08609  22149528.360    90698689.03947
  21830366.620   114719365.09209  21830361.880    89391716.51948
  24205878.320   127203029.91208  24205875.180    99119340.93845
  20616941.960   108342804.37309  20616937.000    84422960.77649
  20533693.200   107905329.82009  20533692.780    84082077.86549
  24389243.040   128166338.82207  24389243.780    99869871.31145
 15 03 05 01 51 30.0000000  0  8G04G16G18G19G21G22G27G32
  23077983.740   121275634.75208  23077982.740    94500496.76246
  21057927.500   110660172.10309  21057924.640    86228693.31048
  22160280.840   116453124.67109  22160277.640    90742705.34547
  21818308.380   114655998.76609  21818303.700    89342340.17348
  24218864.960   127271274.59008  24218861.800    99172518.60545
  20615551.520   108335497.81409  20615546.600    84417267.36749
  20528292.340   107876948.13609  20528291.900    84059962.27249
  24366625.260   128047482.04008  24366626.040    99777255.79745
 15 03 05 01 52  0.0000000  0  8G04G16G18G19G21G22G27G32
  23063081.820   121197324.80208  23063080.880    94439476.05346
  21068193.200   110714118.89709  21068190.340    86270729.74848
  22171101.980   116509989.82209  22171098.760    90787015.85747
  21806281.340   114592796.97209  21806276.920    89293092.04648
  24231850.920   127339515.86608  24231847.680    99225693.62145
  20614262.180   108328722.63409  20614257.300    84411988.01449
  20522947.800   107848862.41209  20522947.340    84038077.29349
  24344018.600   127928683.15908  24344019.200    99684685.34844
 15 03 05 01 52 30.0000000  0  8G04G16G18G19G21G22G27G32
  23048216.440   121119206.80308  23048215.560    94378604.90946
  21078554.900   110768570.17109  21078552.040    86313159.29248
  22181994.060   116567227.95209  22181990.840    90831616.98747
  21794285.380   114529758.47509  21794281.040    89243971.14648
  24244835.560   127407750.42808  24244832.280    99278863.40045
  20613073.540   108322476.62509  20613068.720    84407120.99449
  20517659.260   107821071.45909  20517658.880    84016421.99949
  24321423.040   127809942.29508  24321423.360    99592160.07244
 15 03 05 01 53  0.0000000  0  8G04G16G18G19G21G22G27G32
  23033387.960   121041282.60208  23033387.080    94317884.76846
  21089012.520   110823525.37709  21089009.640    86355981.51248
  22192957.020   116624838.64109  22192953.780    90876508.43647
  21782321.020   114466886.14909  21782316.960    89194979.75348
  24257819.060   127475978.94808  24257815.740    99332028.46845
  20611985.820   108316761.04309  20611981.080    84402667.30249
  20512427.440   107793578.24609  20512427.140    83994998.72249
  24298839.360   127691263.59408  24298839.360    99499683.22744
 15 03 05 01 53 30.0000000  0  8G04G16G18G19G21G22G27G32
  23018596.640   120963553.51208  23018595.720    94257316.68746
  21099566.060   110878984.31809  21099563.140    86399196.25448
  22203990.720   116682821.28309  22203987.460    90921689.72047
  21770388.800   114404182.55609  21770384.900    89146119.83148
  24270801.520   127544202.39308  24270798.380    99385189.58445
  20610999.160   108311576.39409  20610994.460    84398627.32449
  20507252.860   107766385.33209  20507252.560    83973809.44249
  24276268.140   127572650.58308  24276267.920    99407257.59445
 15 03 05 01 54  0.0000000  0  8G04G16G18G19G21G22G27G32
  23003842.120   120886017.73608  23003841.160    94196899.22246
  21110214.520   110934942.04809  21110211.600    86442799.65448
  22215094.380   116741171.77109  22215091.180    90967157.62447
  21758488.640   114341646.66709  21758484.680    89097390.57148
  24283782.600   127612418.93307  24283779.600    99438345.30146
  20610113.120   108306920.46109  20610108.460    84394999.32749
  20502135.300   107739491.83909  20502134.940    83952853.48049
  24253709.440   127454103.78008  24253709.260    99314883.55245
 15 03 05 01 54 30.0000000  0  8G04G16G18G19G21G22G27G32
  22989124.420   120808675.73508  22989123.460    94136632.76246
  21120957.660   110991397.55609  21120954.740    86486790.93448
  22226267.740   116799888.43609  22226264.560    91012910.86647
  21746620.580   114279279.97909  21746616.660    89048793.17948
  24296762.240   127680627.97208  24296759.420    99491495.16446
  20609327.840   108302793.64209  20609323.160    84391783.63849
  20497075.040   107712899.61809  20497074.620    83932132.27549
  24231163.860   127335626.16008  24231163.560    99222563.40845
 15 03 05 01 55  0.0000000  0  8G04G16G18G19G21G22G27G32
  22974443.860   120731529.38108  22974443.000    94076518.75546
  21131795.460   111048350.86309  21131792.580    86531170.10848
  22237510.720   116858970.65009  22237507.560    91058948.95747
  21734785.400   114217085.27309  21734781.360    89000329.77248
  24309740.760   127748830.82308  24309738.140    99544640.21846
  20608643.540   108299196.95409  20608638.740    84388981.02649
  20492072.640   107686611.62609  20492072.180    83911648.12349
  24208632.200   127217221.77108  24208631.840    99130300.32845
 15 03 05 01 55 30.0000000  0  8G04G16G18G19G21G22G27G32
  22959800.580   120654578.92708  22959799.860    94016557.40046
  21142727.640   111105800.12009  21142724.800    86575935.74048
  22248822.980   116918417.00409  22248819.860    91105270.78147
  21722983.200   114155063.91009  21722979.060    88952001.45148
  24322718.140   127817027.48308  24322715.580    99597780.45545
  20608060.120   108296130.25209  20608055.160    84386591.38649
  20487128.360   107660629.32509  20487127.900    83891402.18549
  24186114.920   127098893.32508  24186114.700    99038096.46145
 15 03 05 01 56  0.0000000  0  9G04G11G16G18G19G21G22G27G32
  22945194.180   120577822.05808  22945193.520    93956746.88746
  24621648.740   129387636.67207  24621648.080   100821535.65744
  21153753.300   111163740.50109  21153750.500    86621084.07148
  22260203.640   116978222.98909  22260200.500    91151872.84347
  21711213.800   114093214.64909  21711209.440    88903807.22648
  24335693.760   127885214.76608  24335691.080    99650913.38246
  20607576.920   108293590.47809  20607571.820    84384612.33749
  20482241.940   107634951.59509  20482241.540    83871393.56849
  24163612.100   126980640.83908  24163611.900    98945951.74245
 15 03 05 01 56 30.0000000  0  9G04G11G16G18G19G21G22G27G32
  22930624.820   120501259.74408  22930624.120    93897087.97846
  24604764.920   129298910.76907  24604764.060   100752398.63044
  21164872.100   111222170.41809  21164869.360    86666613.84348
  22271652.380   117038386.75509  22271649.280    91198753.70447
  21699477.560   114031539.55909  21699473.020    88855748.72048
  24348667.560   127953392.38008  24348664.780    99704038.77745
  20607194.060   108291578.27209  20607188.880    84383044.39049
  20477413.880   107609580.43109  20477413.540    83851623.83049
  24141124.260   126862467.51908  24141124.200    98853868.72645
 15 03 05 01 57  0.0000000  0  9G04G11G16G18G19G21G22G27G32
  22916092.960   120424894.76908  22916092.320    93837582.85246
  24587891.600   129210239.84407  24587890.180   100683304.44844
  21176084.400   111281091.39509  21176081.680    86712526.27048
  22283169.340   117098909.11909  22283166.320    91245913.98747
  21687775.140   113970042.43309  21687770.460    88807828.88848
  24361640.100   128021563.26708  24361637.140    99757158.94545
  20606912.000   108290095.93409  20606906.760    84381889.33649
  20472645.000   107584519.94209  20472644.720    83832096.18249
  24118652.540   126744378.66108  24118652.600    98761851.53945
 15 03 05 01 57 30.0000000  0  9G04G11G16G18G19G21G22G27G32
  22901597.920   120348722.91708  22901597.280    93778228.19546
  24571027.960   129121619.45608  24571026.240   100614249.61944
  21187388.860   111340496.18409  21187386.060    86758815.69848
  22294753.360   117159783.75809  22294750.400    91293348.76447
  21676105.920   113908720.02609  21676101.320    88760045.20748
  24374610.480   128089723.01108  24374607.380    99810270.40745
  20606729.800   108289138.53209  20606724.540    84381143.31949
  20467934.660   107559766.88009  20467934.400    83812808.08049
  24096196.540   126626372.17608  24096196.640    98669898.50145
 15 03 05 01 58  0.0000000  0  9G04G11G16G18G19G21G22G27G32
  22887140.980   120272751.18508  22887140.280    93719029.46946
  24554175.080   129033056.86907  24554173.320   100545239.87844
  21198786.440   111400390.24309  21198783.540    86805486.37148
  22306405.320   117221015.24709  22306402.440    91341061.59747
  21664471.420   113847580.57109  21664466.840    88712404.07348
  24387579.840   128157877.29808  24387576.640    99863377.61845
  20606648.700   108288712.33109  20606643.400    84380811.21849
  20463284.480   107535329.72309  20463284.140    83793766.13749
  24073758.100   126508457.73008  24073758.100    98578017.16645
 15 03 05 01 58 30.0000000  0  9G04G11G16G18G19G21G22G27G32
  22872721.000   120196973.89108  22872720.360    93659982.27046
  24537332.080   128944546.64307  24537330.320   100476270.93944
  21210275.540   111460765.63409  21210272.600    86852532.11448
  22318123.800   117282596.12509  22318120.880    91389046.70147
  21652870.880   113786619.78909  21652866.400    88664902.17948
  24400547.100   128226020.11008  24400543.960    99916475.90344
  20606667.480   108288811.11709  20606662.200    84380888.20349
  20458693.540   107511203.89409  20458693.120    83774966.79249
  24051336.540   126390632.04908  24051336.580    98486205.01745
 15 03 05 01 59  0.0000000  0  9G04G11G16G18G19G21G22G27G32
  22858338.660   120121394.11608  22858338.000    93601088.96746
  24520499.580   128856091.66308  24520497.780   100407345.05445
  21221856.180   111521622.45309  21221853.340    86899952.98948
  22329908.900   117344527.04909  22329905.920    91437304.55847
  21641305.000   113725841.33409  21641300.540    88617542.35648
  24413512.680   128294153.98308  24413509.440    99969567.23745
  20606786.600   108289437.60209  20606781.400    84381376.37549
  20454162.640   107487393.52809  20454162.160    83756413.25649
  24028932.940   126272900.34708  24028932.840    98394466.05945
 15 03 05 01 59 30.0000000  0  9G04G11G16G18G19G21G22G27G32
  22843993.840   120046011.40508  22843993.100    93542349.22146
  24503677.600   128767691.75308  24503675.780   100338461.99945
  21233528.060   111582958.96209  21233525.360    86947747.64648
  22341760.020   117406804.85309  22341757.040    91485832.70447
  21629773.980   113665245.90609  21629769.680    88570325.14448
  24426476.420   128362278.63108  24426473.120   100022651.37744
  20607005.900   108290590.56709  20607000.780    84382274.78949
  20449691.880   107463899.32909  20449691.380    83738106.08049
  24006547.520   126155264.54408  24006547.480    98302801.85845
 15 03 05 02 00  0.0000000  0  9G04G11G16G18G19G21G22G27G32
  22829686.560   119970826.01708  22829685.700    93483763.25646
  24486866.040   128679347.00307  24486864.260   100269621.99145
  21245290.740   111644772.37509  21245288.140    86995913.93248
  22353676.860   117469428.15209  22353673.900    91534630.08447
  21618278.160   113604835.05109  21618273.780    88523251.75948
  24439438.220   128430393.18708  24439434.720   100075727.66445
  20607325.280   108292269.05909  20607320.160    84383582.72249
  20445281.440   107440722.70909  20445281.020    83720046.38349
  23984180.820   126037727.36008  23984180.920    98211214.51145
 15 03 05 02 00 30.0000000  0  9G04G11G16G18G19G21G22G27G32
  22815417.400   119895840.96208  22815416.460    93425333.37846
  24470065.540   128591060.53407  24470063.800   100200827.41245
  21257144.540   111707063.90809  21257141.920    87044452.77048
  22365659.560   117532397.46509  22365656.540    91583697.06747
  21606818.200   113544613.14109  21606813.960    88476325.61348
  24452398.460   128498499.96308  24452394.900   100128797.87345
  20607745.240   108294475.93009  20607740.120    84385302.36749
  20440932.260   107417867.98709  20440931.900    83702237.50449
  23961833.920   125920294.23108  23961833.980    98119708.23245
 15 03 05 02 01  0.0000000  0  9G04G11G16G18G19G21G22G27G32
  22801185.580   119821052.24108  22801184.500    93367056.48146
  24453275.500   128502828.73008  24453273.720   100132075.39645
  21269088.100   111769827.23509  21269085.440    87093359.24948
  22377706.960   117595706.48309  22377703.840    91633028.76747
  21595393.680   113484576.84109  21595389.420    88429544.08948
  24465356.440   128566594.97807  24465353.040   100181858.89545
  20608264.800   108297206.28909  20608259.700    84387429.92449
  20436643.900   107395332.40609  20436643.440    83684677.31349
  23939506.520   125802963.71908  23939506.680    98028281.94545
 15 03 05 02 01 30.0000000  0  9G04G11G16G18G19G21G22G27G32
  22786991.240   119746460.78008  22786990.160    93308933.30246
  24436496.100   128414652.77107  24436494.380   100063366.93045
  21281121.160   111833061.05009  21281118.420    87142632.34248
  22389818.820   117659354.30609  22389815.660    91682624.48047
  21584004.980   113424728.66609  21584000.640    88382909.15848
  24478312.200   128634678.26107  24478308.920   100234910.80444
  20608884.080   108300460.60109  20608878.960    84389965.75949
  20432416.700   107373118.07909  20432416.140    83667367.44949
  23917199.300   125685739.03108  23917199.460    97936938.11245
 15 03 05 02 02  0.0000000  0  9G04G11G16G18G19G21G22G27G32
  22772834.500   119672066.68008  22772833.460    93250963.90846
  24419727.320   128326532.63708  24419725.640    99994701.95445
  21293243.280   111896762.79809  21293240.460    87192270.04248
  22401994.640   117723338.51409  22401991.500    91732482.29447
  21572652.280   113365069.72809  21572647.980    88336421.69648
  24491265.720   128702749.63307  24491262.560   100287953.41145
  20609602.940   108304238.03909  20609597.780    84392909.22449
  20428250.880   107351226.24509  20428250.260    83650308.87349
  23894912.740   125568622.70108  23894912.800    97845678.69845
 15 03 05 02 02 30.0000000  0  9G04G11G16G18G19G21G22G27G32
  22758715.960   119597873.76208  22758715.000    93193151.28746
  24402969.960   128238472.41808  24402968.280    99926083.63644
  21305454.660   111960934.36609  21305451.940    87242273.82948
  22414234.740   117787660.79809  22414231.680    91782603.54547
  21561336.620   113305605.14909  21561332.160    88290085.65748
  24504217.600   128770812.50307  24504214.640   100340989.38545
  20610421.880   108308541.47109  20610416.740    84396262.55249
  20424147.380   107329662.08809  20424146.760    83633505.63949
  23872648.080   125451621.06308  23872648.060    97754508.64545
 15 03 05 02 03  0.0000000  0  9G04G11G16G18G19G21G22G27G32
  22744634.980   119523878.00408  22744634.020    93135492.28446
  24386223.220   128150467.68708  24386221.600    99857508.58944
  21317754.140   112025569.05309  21317751.540    87292638.49248
  22426537.940   117852314.62609  22426534.900    91832983.14847
  21550057.320   113246331.95909  21550052.820    88243898.77048
  24517166.900   128838862.53007  24517164.220   100394015.33745
  20611340.000   108313365.99109  20611334.880    84400021.92649
  20420105.660   107308422.48809  20420105.060    83616955.30749
  23850404.920   125334732.36308  23850404.800    97663426.60945
 15 03 05 02 03 30.0000000  0  9G04G11G16G18G19G21G22G27G32
  22730592.440   119450084.09508  22730591.440    93077990.56146
  24369487.940   128062523.80107  24369486.360    99788980.93144
  21330142.220   112090669.29509  21330139.700    87343365.93048
  22438904.760   117917302.73009  22438901.760    91883623.22747
  21538815.540   113187256.04909  21538811.100    88197865.60348
  24530114.660   128906904.39607  24530112.280   100447034.91945
  20612358.200   108318716.33109  20612353.000    84404191.02949
  20416126.780   107287513.52509  20416126.200    83600662.61449
  23828184.660   125217963.81708  23828184.420    97572438.18345
 15 03 05 02 04  0.0000000  0  9G04G11G16G18G19G21G22G27G32
  22716587.340   119376486.88709  22716586.320    93020642.12446
  24352763.220   127974635.31708  24352761.680    99720496.45544
  21342617.520   112156227.74909  21342615.040    87394450.42148
  22451333.760   117982617.69209  22451330.720    91934518.00147
  21527610.580   113128373.49709  21527606.200    88151983.08948
  24543059.860   128974931.83307  24543057.480   100500043.28445
  20613475.100   108324585.44409  20613469.780    84408764.36749
  20412210.080   107266931.13809  20412209.480    83584624.38349
  23805986.700   125101312.59708  23805986.400    97481541.18045
 15 03 05 02 04 30.0000000  0  9G04G11G16G18G19G21G22G27G32
  22702620.040   119303088.13008  22702618.960    92963448.31846
  24336049.600   127886804.70907  24336047.780    99652057.04445
  21355179.960   112222243.89309  21355177.540    87445891.55648
  22463824.880   118048259.12309  22463821.840    91985667.15947
  21516442.900   113069687.09509  21516438.600    88106253.44448
  24556002.660   129042945.89508  24556000.220   100553041.22146
  20614691.120   108330975.49909  20614685.740    84413743.63749
  20408356.160   107246678.42509  20408355.480    83568843.05049
  23783811.860   124984783.03708  23783811.540    97390738.99545
 15 03 05 02 05  0.0000000  0  9G04G11G16G18G19G21G22G27G32
  22688691.100   119229891.20408  22688690.040    92906411.77946
  24319347.500   127799034.99107  24319345.600    99583665.12445
  21367829.720   112288718.60109  21367827.240    87497690.02048
  22476378.280   118114227.90109  22476375.180    92037071.39647
  21505313.400   113011201.33309  21505309.020    88060680.13748
  24568943.540   129110949.57208  24568941.000   100606031.09545
  20616006.460   108337887.91209  20616001.120    84419129.94349
  20404565.780   107226759.69709  20404565.060    83553321.97249
  23761661.200   124868380.72508  23761660.880    97300035.95645
 15 03 05 02 05 30.0000000  0  9G04G11G16G18G19G21G22G27G32
  22674800.040   119156893.54808  22674799.040    92849530.53046
  24302656.620   127711323.84008  24302654.760    99515318.80344
  21380565.780   112355646.65709  21380563.200    87549841.73748
  22488993.120   118180519.27209  22488989.960    92088727.00546
  21494221.860   112952915.32509  21494217.600    88015262.47648
  24581881.980   129178940.37908  24581879.260   100659010.92345
  20617420.620   108345319.78309  20617415.360    84424921.02349
  20400838.720   107207173.87509  20400837.980    83538060.29649
  23739534.740   124752105.72408  23739534.420    97209432.11245
 15 03 05 02 06  0.0000000  0 10G04G11G14G16G18G19G21G22G27G32
  22660947.080   119084096.13808  22660946.120    92792805.29446
  24285977.100   127623672.42408  24285975.360    99447019.04545
  24680200.280   129695329.81608                                
  21393387.840   112423026.90009  21393385.180    87602345.80348
  22501669.200   118247132.33309  22501666.020    92140633.28047
  21483168.740   112894831.15009  21483164.500    87970002.09748
  24594818.140   129246919.29208  24594815.140   100711981.47345
  20618933.660   108353271.37909  20618928.480    84431117.07949
  20397175.440   107187923.12509  20397174.640    83523059.71349
  23717433.160   124635961.54708  23717432.900    97118930.23645
 15 03 05 02 06 30.0000000  0 10G04G11G14G16G18G19G21G22G27G32
  22647132.040   119011497.75208  22647131.140    92736235.14346
  24269308.880   127536080.07908  24269307.120    99378765.29545
  24665667.100   129618957.29808  24665665.320   101001776.10845
  21406295.260   112490855.61409  21406292.480    87655199.32548
  22514405.760   118314063.03209  22514402.520    92192787.05947
  21472154.040   112836948.77409  21472149.860    87924898.96148
  24607751.560   129314884.31608  24607748.440   100764941.20345
  20620545.160   108361740.40009  20620540.040    84437716.31849
  20393575.920   107169007.34809  20393575.100    83508320.14249
  23695356.680   124519949.34708  23695356.360    97028531.17146
 15 03 05 02 07  0.0000000  0 10G04G11G14G16G18G19G21G22G27G32
  22633355.980   118939103.85808  22633355.040    92679824.34546
  24252652.880   127448551.91608  24252650.940    99310561.55844
  24651134.040   129542586.77907  24651132.460   100942266.66444
  21419288.500   112559135.76109  21419285.720    87708404.62348
  22527203.380   118381314.72909  22527200.160    92245190.97347
  21461179.080   112779274.69609  21461174.800    87879958.13148
  24620683.180   129382840.22508  24620680.040   100817893.86245
  20622256.000   108370731.17209  20622250.960    84444722.12249
  20390041.340   107150433.00509  20390040.540    83493846.63849
  23673306.840   124404076.85108  23673306.520    96938240.98746
 15 03 05 02 07 30.0000000  0 10G04G11G14G16G18G19G21G22G27G32
  22619617.800   118866908.94108  22619616.780    92623568.60446
  24236008.080   127361082.56808  24236006.100    99242403.61944
  24636600.920   129466215.41407  24636599.320   100882756.53844
  21432366.260   112627859.75109  21432363.440    87761955.77348
  22540060.640   118448879.94209  22540057.440    92297839.19147
  21450243.040   112721804.92409  21450238.760    87835176.50348
  24633611.940   129450781.52808  24633608.820   100870835.13944
  20624065.060   108380237.60709  20624060.020    84452129.74049
  20386570.960   107132196.08509  20386570.180    83479636.04449
  23651283.120   124288341.25008  23651282.680    96848057.45246
 15 03 05 02 08  0.0000000  0 10G04G11G14G16G18G19G21G22G27G32
  22605917.860   118794915.30209  22605916.800    92567469.68346
  24219374.940   127273674.63808  24219373.060    99174293.60744
  24622068.580   129389847.65507  24622066.960   100823249.22144
  21445528.400   112697026.96709  21445525.600    87815852.29348
  22552977.500   118516758.50709  22552974.380    92350731.56746
  21439346.540   112664543.02009  21439342.160    87790556.84848
  24646538.220   129518710.00508  24646535.180   100923766.40644
  20625972.420   108390260.54109  20625967.340    84459939.82348
  20383165.440   107114299.92809  20383164.680    83465690.98149
  23629286.360   124172747.17808  23629285.840    96757984.19246
 15 03 05 02 08 30.0000000  0 10G04G11G14G16G18G19G21G22G27G32
  22592256.240   118723123.14309  22592255.160    92511527.77446
  24202753.600   127186328.80008  24202751.760    99106231.92544
  24607537.480   129313486.81006  24607535.640   100763747.30844
  21458774.460   112766635.20409  21458771.680    87870092.46348
  22565953.560   118584948.26509  22565950.480    92403866.44047
  21428489.920   112607490.51109  21428485.500    87746100.34948
  24659462.080   129586625.66807  24659459.100   100976687.69745
  20627978.040   108400800.11909  20627972.960    84468152.48949
  20379825.040   107096746.01809  20379824.280    83452012.61149
  23607317.060   124057297.31808  23607316.420    96668023.31546
 15 03 05 02 09  0.0000000  0 10G04G11G14G16G18G19G21G22G27G32
  22578633.120   118651532.80709  22578631.960    92455743.11346
  24186144.180   127099045.53008  24186142.220    99038219.00344
  24593008.260   129237135.96407  24593006.620   100704253.17744
  21472104.160   112836682.90309  21472101.340    87924675.06548
  22578988.560   118653447.73409  22578985.520    92457242.64147
  21417673.380   112550648.88209  21417668.760    87701808.17048
  24672383.400   129654528.05207  24672380.340   101029598.64844
  20630081.640   108411855.20309  20630076.620    84476766.83849
  20376550.060   107079535.93709  20376549.320    83438602.15249
  23585375.700   123941994.69308  23585375.000    96578177.16745
 15 03 05 02 09 30.0000000  0 10G04G11G14G16G18G19G21G22G27G32
  22565048.360   118580144.30109  22565047.120    92400115.72646
  24169546.580   127011824.62108  24169544.480    98970254.68444
  24578481.460   129160797.54807  24578479.700   100644768.73244
  21485516.940   112907167.13609  21485514.080    87979597.83048
  22592082.020   118722254.22809  22592078.940    92510858.08347
  21406897.160   112494019.46309  21406892.500    87657681.36548
  24685302.240   129722417.35407  24685299.200   101082499.39244
  20632283.180   108423424.74709  20632278.220    84485782.06949
  20373340.720   107062670.78109  20373340.020    83425460.46049
  23563462.720   123826841.53608  23563462.000    96488447.48046
 15 03 05 02 10  0.0000000  0 10G04G11G14G16G18G19G21G22G27G32
  22551502.200   118508958.89709  22551500.980    92344646.59946
  24152961.140   126924667.90108  24152959.100    98902340.39745
  24563957.820   129084475.47808  24563956.100   100585296.99744
  21499012.500   112978086.68209  21499009.700    88034859.80448
  22605233.760   118791367.08109  22605230.640    92564712.26047
  21396161.780   112437604.85809  21396157.140    87613721.94048
  24698218.720   129790294.53707  24698215.840   101135390.68744
  20634582.720   108435509.21409  20634577.840    84495198.54749
  20370197.560   107046153.16709  20370196.860    83412589.59849
  23541578.840   123711841.70108  23541578.200    96398837.27846
 15 03 05 02 10 30.0000000  0 10G04G11G14G16G18G19G21G22G27G32
  22537994.420   118437975.26509  22537993.200    92289334.68646
  24136387.580   126837574.00907  24136385.540    98834475.04945
  24549437.640   129008171.23908  24549436.020   100525839.15844
  21512590.100   113049437.22609  21512587.360    88090457.61048
  22618443.020   118860782.24709  22618439.900    92618801.98847
  21385467.320   112381405.33309  21385462.740    87569930.11348
  24711132.480   129858157.72607  24711129.840   101188271.06445
  20636979.720   108448106.11909  20636974.960    84505014.31649
  20367120.520   107029982.77309  20367119.740    83399989.28349
  23519724.260   123596996.20408  23519723.740    96309347.33546
 15 03 05 02 11  0.0000000  0 10G04G11G14G16G18G19G21G22G27G32
  22524525.200   118367194.20409  22524524.040    92234180.62746
  24119826.220   126750544.02708  24119824.180    98766659.50745
  24534921.540   128931887.95608  24534919.760   100466397.64144
  21526249.420   113121217.30309  21526246.680    88146390.13148
  22631709.580   118930498.64309  22631706.560    92673126.44847
  21374814.100   112325422.49109  21374809.540    87526307.13048
  24724043.680   129926007.53807  24724041.280   101241141.01044
  20639474.200   108461215.18909  20639469.500    84515229.18148
  20364109.920   107014161.63009  20364109.060    83387661.12049
  23497899.740   123482308.46308  23497899.280    96219980.30745
 15 03 05 02 11 30.0000000  0 10G04G11G14G16G18G19G21G22G27G32
  22511094.060   118296613.13209  22511092.940    92179182.41347
  24103276.620   126663575.83308  24103274.540    98698892.11845
  24520409.520   128855626.16108  24520407.680   100406972.88945
  21539989.660   113193422.47309  21539986.880    88202653.89048
  22645032.620   119000511.65409  22645029.660    92727682.03447
  21364201.960   112269655.25409  21364197.320    87482852.14448
  24736951.980   129993841.33307  24736949.640   101293998.47445
  20642065.500   108474832.73309  20642060.780    84525840.26348
  20361165.440   106998688.44609  20361164.580    83375604.09349
  23476105.260   123367778.29408  23476104.840    96130736.08345
 15 03 05 02 12  0.0000000  0 10G04G11G14G16G18G19G21G22G27G32
  22497701.700   118226235.81309  22497700.640    92124342.96747
  24086739.480   126576673.11408  24086737.460    98631175.74944
  24505902.800   128779392.31808  24505901.020   100347569.92345
  21553810.960   113266053.77409  21553808.160    88259249.69248
  22658412.380   119070822.57509  22658409.320    92782469.76647
  21353631.840   112214108.90909  21353627.100    87439569.29048
  24749857.980   130061662.34607  24749855.680   101346845.99445
  20644754.100   108488961.59509  20644749.360    84536849.77448
  20358288.080   106983568.19609  20358287.280    83363822.07649
  23454342.100   123253412.13208  23454341.720    96041619.62645
 15 03 05 02 12 30.0000000  0 10G04G11G14G16G18G19G21G22G27G32
  22484347.880   118156061.21509  22484346.860    92069661.47447
  24070214.660   126489835.11708  24070212.820    98563509.81845
  24491401.680   128703188.00308  24491399.900   100288189.95645
  21567712.560   113339107.21709  21567709.760    88316174.43948
  22671848.140   119141427.97609  22671845.080    92837486.94247
  21343103.760   112158783.57509  21343099.040    87396458.64648
  24762761.380   130129469.37907  24762758.940   101399682.63544
  20647539.620   108503599.65909  20647534.840    84548256.06648
  20355477.900   106968800.94409  20355477.120    83352315.12949
  23432610.480   123139211.26408  23432609.940    95952631.98246
 15 03 05 02 13  0.0000000  0 10G04G11G14G16G18G19G21G22G27G32
  22471032.900   118086090.95909  22471031.940    92015139.20746
  24053702.620   126403064.02408  24053700.740    98495895.97745
  24476906.920   128627017.34708  24476905.120   100228836.22245
  21581694.360   113412582.29009  21581691.560    88373427.73248
  22685339.920   119212327.62409  22685336.800    92892733.42247
  21332618.340   112103682.47309  21332613.540    87353522.72748
  24775662.480   130197264.17908  24775659.840   101452509.73845
  20650422.220   108518747.82209  20650417.440    84560059.83548
  20352735.520   106954389.72909  20352734.700    83341085.61749
  23410911.200   123025179.98008  23410910.560    95863776.48146
 15 03 05 02 13 30.0000000  0 10G04G11G14G16G18G19G21G22G27G32
  22457755.940   118016320.53109  22457754.900    91960772.66246
  24037202.480   126316355.17408  24037200.780    98428330.67045
  24462418.160   128550878.58608  24462416.380   100169507.33145
  21595754.940   113486471.43309  21595752.160    88431003.67248
  22698886.360   119283514.44209  22698883.220    92948203.65747
  21322174.920   112048802.16709  21322170.180    87310758.85848
  24788560.160   130265041.06008  24788557.380   101505322.87745
  20653400.780   108534400.03209  20653396.020    84572256.37648
  20350060.200   106940330.93809  20350059.400    83330130.70849
  23389243.760   122911316.02009  23389242.920    95775051.36346
 15 03 05 02 14  0.0000000  0 10G04G11G14G16G18G19G21G22G27G32
  22444518.360   117946757.00209  22444517.280    91906567.32946
  24020715.660   126229715.93708  24020713.820    98360819.58345
  24447937.320   128474781.71207  24447935.680   100110211.12045
  21609895.180   113560779.48709  21609892.480    88488906.03148
  22712488.340   119354993.33209  22712485.140    93003901.48147
  21311775.120   111994151.18809  21311770.460    87268173.68248
  24801455.760   130332806.95508  24801452.940   101558127.45445
  20656476.420   108550562.39309  20656471.660    84584850.42249
  20347453.520   106926632.91609  20347452.740    83319456.91949
  23367609.920   122797629.08208  23367609.020    95686464.17346
 15 03 05 02 14 30.0000000  0 10G04G11G14G16G18G19G21G22G27G32
  22431319.420   117877396.20909  22431318.320    91852519.96846
  24004241.300   126143142.36508  24004239.500    98293359.68545
  24433464.160   128398725.13707  24433462.580   100050946.30145
  21624113.800   113635499.32109  21624111.240    88547129.26748
  22726144.660   119426757.73309  22726141.500    93059821.79247
  21301418.400   111939726.54909  21301413.760    87225764.88048
  24814348.420   130400557.73608  24814345.520   101610920.25645
  20659648.080   108567229.42609  20659643.300    84597837.72348
  20344914.840   106913292.59309  20344914.200    83309061.86649
  23346009.360   122684117.28108  23346008.460    95598013.46246
 15 03 05 02 15  0.0000000  0 10G04G11G14G16G18G19G21G22G27G32
  22418159.300   117808239.48808  22418158.240    91798631.62246
  23987779.800   126056636.22008  23987777.780    98225952.30844
  24418999.340   128322712.98607  24418997.860    99991716.09445
  21638410.640   113710629.96609  21638408.160    88605672.60948
  22739855.180   119498806.83709  22739852.040    93115963.94246
  21291105.440   111885531.54409  21291100.840    87183535.00448
  24827238.440   130468294.83008  24827235.500   101663702.37545
  20662915.920   108584401.75209  20662911.040    84611218.75449
  20342444.820   106900312.77609  20342444.240    83298947.71749
  23324442.880   122570784.80308  23324441.960    95509702.48746
 15 03 05 02 15 30.0000000  0 10G04G11G14G16G18G19G21G22G27G32
  22405038.260   117739288.45608  22405037.320    91744903.56046
  23971331.480   125970199.32708  23971329.260    98158598.91345
  24404543.760   128246749.55407  24404542.400    99932523.87945
  21652785.400   113786170.01609  21652782.980    88664534.97948
  22753619.620   119571139.80109  22753616.520    93172327.27746
  21280836.740   111831568.93309  21280832.120    87141486.22648
  24840126.040   130536019.43908  24840123.180   101716474.75645
  20666279.940   108602079.39409  20666274.960    84624993.53848
  20340043.940   106887696.01209  20340043.340    83289116.47249
  23302911.220   122457635.62608  23302910.340    95421534.34646
 15 03 05 02 16  0.0000000  0 10G04G11G14G16G18G19G21G22G27G32
  22391955.740   117670539.82509  22391954.920    91691333.22746
  23954895.700   125883828.74908  23954893.460    98091297.19344
  24390097.460   128170834.61007  24390096.320    99873369.40845
  21667237.120   113862114.44909  21667234.740    88723712.45748
  22767437.160   119643751.54309  22767434.040    93228907.86146
  21270611.920   111777836.66309  21270607.260    87099616.92948
  24853010.560   130603728.17208  24853007.780   101769234.79246
  20669739.280   108620257.81809  20669734.180    84639158.55249
  20337711.820   106875440.37809  20337711.180    83279566.63249
  23281414.240   122344668.94308  23281413.420    95333508.40946
 15 03 05 02 16 30.0000000  0 10G04G11G14G16G18G19G21G22G27G32
  22378912.100   117601995.22408  22378911.340    91637921.86947
  23938472.860   125797526.27908  23938470.680    98024048.52145
  24375661.220   128094972.10308  24375660.040    99814255.81544
  21681765.520   113938461.59509  21681763.160    88783203.73048
  22781307.540   119716641.10009  22781304.480    93285704.90446
  21260431.420   111724337.45109  21260426.740    87057929.23648
  24865892.360   130671422.51108  24865889.660   101821983.60145
  20673294.000   108638937.83009  20673288.860    84653714.41549
  20335448.960   106863548.51709  20335448.260    83270300.24849
  23259952.740   122231888.79008  23259951.960    95245627.83046
 15 03 05 02 17  0.0000000  0 10G04G11G14G16G18G19G21G22G27G32
  22365907.340   117533654.75609  22365906.560    91584669.57446
  23922063.080   125711292.33208  23922060.720    97956853.25845
  24361235.680   128019165.01908  24361234.320    99755185.36644
  21696370.180   114015209.21309  21696367.820    88843007.04848
  22795230.360   119789806.49608  22795227.420    93342716.88746
  21250295.640   111671073.21809  21250290.960    87016424.64148
  24878771.320   130739101.93708  24878768.600   101874720.79745
  20676943.900   108658118.15209  20676938.820    84668660.11948
  20333255.620   106852021.77209  20333254.840    83261318.37149
  23238527.300   122119297.97908  23238526.480    95157894.76146
 15 03 05 02 17 30.0000000  0 10G04G11G14G16G18G19G21G22G27G32
  22352941.540   117465518.79409  22352940.660    91531576.64547
  23905666.480   125625127.48808  23905663.960    97889711.86044
  24346821.320   127943416.57808  24346819.560    99696160.60544
  21711050.640   114092354.91509  21711048.180    88903120.57848
  22809205.380   119863245.93009  22809202.520    93399942.41546
  21240204.800   111618045.56209  21240200.180    86975104.39948
  24891647.500   130806766.74607  24891644.580   101927446.60445
  20680688.900   108677798.08609  20680683.800    84683995.13949
  20331132.020   106840861.63509  20331131.180    83252622.16549
  23217138.520   122006899.22409  23217137.560    95070311.35446
 15 03 05 02 18  0.0000000  0 10G04G11G14G16G18G19G21G22G27G32
  22340014.800   117397587.86509  22340013.800    91478643.47646
  23889283.100   125539032.67908  23889280.720    97822625.01445
  24332418.780   127867730.01008  24332416.760    99637184.07144
  21725806.380   114169896.35809  21725803.820    88963542.46848
  22823232.180   119936957.39309  22823229.280    93457379.90446
  21230159.320   111565256.55009  21230154.760    86933970.10448
  24904520.940   130874417.29506  24904517.960   101980161.31244
  20684528.780   108697976.72909  20684523.680    84699718.75849
  20329078.480   106830069.75509  20329077.580    83244212.91249
  23195786.920   121894695.54609  23195785.840    94982879.94746
 15 03 05 02 18 30.0000000  0 10G04G11G14G16G18G19G21G22G27G32
  22327127.120   117329862.36809  22327126.100    91425870.39647
  23872913.040   125453008.51008  23872910.940    97755593.23145
  24318028.720   127792108.62308  24318026.400    99578258.29444
  21740637.020   114247831.63709  21740634.440    89024271.23648
  22837310.540   120010939.44809  22837307.620    93515028.25746
  21220159.600   111512708.06309  21220155.120    86893023.23848
  24917391.580   130942054.09205  24917388.760   102032865.26244
  20688463.360   108718653.11009  20688458.280    84715830.23049
  20327095.200   106819647.78009  20327094.380    83236091.89249
  23174473.000   121782689.97208  23174471.840    94895602.90146
 15 03 05 02 19  0.0000000  0  9G04G11G14G16G18G19G22G27G32
  22314278.700   117262343.30009  22314277.640    91373258.17047
  23856556.560   125367055.94408  23856554.740    97688617.25345
  24303651.760   127716556.24008  24303649.280    99519386.29545
  21755542.180   114326158.51409  21755539.540    89085305.15348
  22851440.140   120085190.52709  22851437.160    93572886.24646
  21210206.160   111460402.58009  21210201.700    86852265.72048
  20692492.620   108739826.97509  20692487.520    84732329.36049
  20325182.640   106809597.86109  20325181.920    83228260.78649
  23153197.420   121670885.95808  23153196.180    94808482.93946
 15 03 05 02 19 30.0000000  0 10G04G11G14G16G18G19G21G22G27G32
  22301468.060   117195022.88809  22301466.900    91320800.73546
  23840212.480   125281168.17208  23840210.880    97621691.77645
  24289286.820   127641067.56108  24289284.440    99460563.95044
  21770519.980   114404867.34509  21770517.300    89146636.70448
  22865619.000   120159700.83609  22865616.060    93630946.21246
  21200297.740   111408333.57609  21200293.360    86811692.48748
  24943124.160   131077004.46206  24943121.740   102137920.46343
  20696614.880   108761489.31609  20696609.720    84749209.12549
  20323339.580   106799913.32709  20323338.960    83220714.40449
  23131959.140   121559278.14508  23131957.900    94721515.86046
 15 03 05 02 20  0.0000000  0 10G04G11G14G16G18G19G21G22G27G32
  22288697.240   117127911.76009  22288696.040    91268506.37647
  23823882.860   125195355.96808  23823881.360    97554825.17745
  24274936.520   127565656.22008  24274934.360    99401801.88045
  21785571.840   114483965.66809  21785569.240    89208271.74148
  22879848.780   120234478.47808  22879845.820    93689214.50447
  21190436.600   111356513.01409  21190432.260    86771312.82748
  24955986.780   131144596.51507  24955983.880   102190589.59343
  20700831.940   108783649.71909  20700826.680    84766476.97849
  20321568.300   106790606.00209  20321567.800    83213461.93749
  23110760.640   121447879.65708  23110759.500    94634711.88246
 15 03 05 02 20 30.0000000  0 10G04G11G14G16G18G19G21G22G27G32
  22275965.540   117061006.07809  22275964.300    91216372.10347
  23807567.080   125109615.68708  23807565.580    97488014.60545
  24260600.600   127490321.14508  24260598.740    99343099.24145
  21800696.460   114563446.55309  21800693.920    89270204.87948
  22894128.300   120309517.50209  22894125.340    93747686.44846
  21180622.320   111304938.76409  21180617.980    86731125.10748
  24968846.580   131212173.88808  24968843.480   102243247.30144
  20705142.700   108806302.71909  20705137.420    84784128.67449
  20319868.340   106781673.09609  20319867.920    83206501.22749
  23089601.780   121336689.21308  23089600.660    94548070.02046
 15 03 05 02 21  0.0000000  0 10G04G11G14G16G18G19G21G22G27G32
  22263272.880   116994305.53609  22263271.580    91164397.65947
  23791265.020   125023947.27708  23791263.420    97421260.03245
  24246279.760   127415065.05908  24246278.040    99284458.14445
  21815893.540   114643307.90009  21815891.040    89332434.47648
  22908457.060   120384815.47309  22908454.040    93806360.17546
  21170855.180   111253612.13609  21170850.840    86691130.33748
  24981703.500   131279736.67608  24981700.240   102295893.63344
  20709546.920   108829446.88009  20709541.600    84802163.08249
  20318239.920   106773115.63309  20318239.480    83199833.07649
  23068482.880   121225709.13008  23068481.920    94461592.07146
 15 03 05 02 21 30.0000000  0 10G04G11G14G16G18G19G21G22G27G32
  22250619.540   116927811.82509  22250618.220    91112584.40647
  23774977.000   124938352.66008  23774975.320    97354562.98345
  24231974.700   127339892.02408  24231973.140    99225881.79345
  21831162.700   114723547.74309  21831160.180    89394959.01448
  22922835.040   120460371.64009  22922831.880    93865235.11546
  21161135.640   111202535.90309  21161131.220    86651330.68748
  24994557.780   131347285.62108  24994554.620   102348529.17345
  20714044.640   108853082.65609  20714039.320    84820580.58349
  20316683.480   106764936.23409  20316683.000    83193459.52749
  23047404.820   121114943.44508  23047403.940    94375281.18846
 15 03 05 02 22  0.0000000  0  9G04G11G14G16G18G19G22G27G32
  22238005.780   116861526.65509  22238004.520    91060933.66147
  23758703.540   124852834.20908  23758701.600    97287925.24845
  24217686.360   127264806.83708  24217684.860    99167373.87645
  21846503.860   114804165.69409  21846501.300    89457778.17748
  22937262.080   120536185.69509  22937258.700    93924311.00446
  21151464.420   111151713.41209  21151459.980    86611728.74348
  20718635.940   108877210.08709  20718630.580    84839381.18549
  20315199.540   106757137.99209  20315199.120    83187382.97349
  23026368.400   121004396.55909  23026367.520    94289140.79246
 15 03 05 02 22 30.0000000  0  9G04G11G14G16G18G19G22G27G32
  22225430.000   116795441.17609  22225428.880    91009438.51347
  23742442.880   124767383.17608  23742440.700    97221340.06245
  24203413.560   127189803.11908  24203412.020    99108929.45545
  21861914.760   114885149.91309  21861912.120    89520882.74548
  22951735.980   120612246.54809  22951732.580    93983579.18046
  21141840.140   111101137.26409  21141835.600    86572318.76648
  20723318.920   108901819.44209  20723313.580    84858557.31248
  20313786.520   106749712.79509  20313786.200    83181597.10749
  23005372.380   120894061.85309  23005371.460    94203165.73946
 15 03 05 02 23  0.0000000  0  9G04G11G14G16G18G19G22G27G32
  22212894.220   116729565.53909  22212893.180    90958106.87247
  23726197.020   124682009.97508  23726194.660    97154815.52945
  24189158.780   127114894.17308  24189157.340    99050558.87445
  21877396.840   114966507.89409  21877394.000    89584278.56248
  22966258.360   120688561.94109  22966254.880    94043045.72746
  21132265.000   111050818.96409  21132260.340    86533109.69548
  20728095.220   108926919.11809  20728089.900    84878115.50149
  20312446.720   106742672.22509  20312446.420    83176110.94449
  22984419.180   120783952.08809  22984418.100    94117365.93546
 15 03 05 02 23 30.0000000  0  9G04G11G14G16G18G19G22G27G32
  22200397.660   116663895.64609  22200396.640    90906935.54847
  23709965.180   124596711.24008  23709962.840    97088349.01145
  24174921.800   127040078.74808  24174920.420    98992261.15745
  21892948.740   115048232.91009  21892945.740    89647960.38048
  22980827.920   120765125.76108  22980824.660    94102705.81546
  21122738.380   111000756.01209  21122733.680    86494099.60148
  20732963.760   108952503.65509  20732958.460    84898051.51249
  20311179.580   106736013.29609  20311179.260    83170922.16949
  22963508.480   120674065.83108  22963507.400    94031740.30346
 15 03 05 02 24  0.0000000  0  9G04G11G14G16G18G19G22G27G32
  22187940.840   116598434.38209  22187939.780    90855926.78547
  23693747.920   124511489.84408  23693745.700    97021942.76145
  24160703.740   126965362.40608  24160702.260    98934040.63144
  21908570.300   115130324.39509  21908567.220    89711927.75248
  22995444.840   120841938.37009  22995441.580    94162559.78646
  21113261.080   110950952.71209  21113256.380    86455291.83848
  20737924.780   108978574.33709  20737919.500    84918366.33448
  20309985.820   106729739.84509  20309985.480    83166033.76549
  22942641.280   120564408.17308  22942640.200    93946292.79346
 15 03 05 02 24 30.0000000  0  9G04G11G14G16G18G19G22G27G32
  22175522.720   116533176.60509  22175521.580    90805076.59047
  23677544.480   124426341.16408  23677542.340    96955593.17345
  24146504.180   126890743.03608  24146502.540    98875895.68445
  21924260.180   115212775.17109  21924257.100    89776175.08948
  23010107.740   120918992.86809  23010104.680    94222602.22246
  21103832.480   110901405.61509  21103827.820    86416683.71148
  20742977.160   109005125.13609  20742971.940    84939055.27649
  20308864.640   106723848.03609  20308864.280    83161442.74749
  22921817.060   120454976.74908  22921816.060    93861021.58546
 15 03 05 02 25  0.0000000  0  9G04G11G14G16G18G19G22G27G32
  22163143.740   116468124.72009  22163142.600    90754386.82447
  23661355.400   124341267.83408  23661353.260    96889302.29745
  24132324.080   126816225.95008  24132322.440    98817830.44745
  21940018.420   115295585.15709  21940015.300    89840702.33548
  23024816.700   120996289.05109  23024813.520    94282833.00346
  21094453.380   110852118.45609  21094448.800    86378278.12248
  20748121.060   109032156.61309  20748115.860    84960118.76848
  20307816.760   106718341.21609  20307816.360    83157151.70849
  22901036.820   120345776.29808  22901035.940    93775930.35346
 15 03 05 02 25 30.0000000  0  9G04G11G14G16G18G19G22G27G32
  22150804.400   116403281.30109  22150803.300    90703859.50047
  23645181.320   124256272.71108  23645179.200    96823072.35445
  24118164.420   126741816.28008  24118162.760    98759848.89145
  21955844.900   115378753.80809  21955841.760    89905509.06448
  23039571.780   121073827.25409  23039568.620    94343252.36446
  21085124.560   110803095.34209  21085120.000    86340078.29148
  20753356.680   109059669.86909  20753351.440    84981557.67548
  20306842.880   106713223.04009  20306842.420    83153163.51949
  22880301.580   120236811.84709  22880300.720    93691023.02746
 15 03 05 02 26  0.0000000  0 10G01G04G11G14G16G18G19G22G27G32
  24588699.200   129214489.34408  24588701.760   100686615.14545
  22138504.180   116338643.42609  22138503.180    90653492.34847
  23629021.720   124171353.73508  23629019.620    96756901.74945
  24104025.240   126667514.32708  24104023.420    98701951.28245
  21971738.540   115462275.50209  21971735.360    89970590.89548
  23054372.080   121151602.88009  23054368.780    94403856.74846
  21075845.780   110754334.93409  21075841.260    86302083.16848
  20758683.200   109087660.88309  20758677.940    85003368.86848
  20305942.620   106708491.96609  20305942.160    83149476.96849
  22859611.300   120128083.32709  22859610.400    93606299.55046
 15 03 05 02 26 30.0000000  0 10G01G04G11G14G16G18G19G22G27G32
  24573833.700   129136370.34907  24573836.160   100625743.23145
  22126243.140   116274211.03709  22126242.100    90603285.29647
  23612876.620   124086510.92408  23612874.600    96690790.49345
  24089907.060   126593322.54808  24089905.200    98644139.52745
  21987698.660   115546146.84109  21987695.600    90035945.16948
  23069217.060   121229613.28009  23069213.680    94464644.06646
  21066617.280   110705838.63209  21066612.700    86264293.84448
  20764100.220   109116127.80709  20764095.020    85025550.88648
  20305116.140   106704148.63209  20305115.680    83146092.54649
  22838966.240   120019592.69709  22838965.320    93521761.42746
 15 03 05 02 27  0.0000000  0 10G01G04G11G14G16G18G19G22G27G32
  24558988.540   129058358.59607  24558990.740   100564954.91445
  22114021.740   116209987.30409  22114020.660    90553240.82847
  23596746.640   124001747.62508  23596744.780    96624741.19045
  24075811.080   126519247.12208  24075809.000    98586418.42045
  22003725.380   115630368.42709  22003722.560    90101572.35248
  23084106.860   121307859.38709  23084103.360    94525615.04446
  21057439.900   110657610.88009  21057435.300    86226713.77748
  20769608.120   109145072.26409  20769602.960    85048105.00748
  20304364.260   106700197.43909  20304363.780    83143013.68249
  22818367.520   119911345.83409  22818366.660    93437413.25846
 15 03 05 02 27 30.0000000  0 10G01G04G11G14G16G18G19G22G27G32
  24544163.500   128980452.65508  24544165.580   100504249.02945
  22101839.720   116145970.92509  22101838.780    90503357.95847
  23580631.720   123917063.26708  23580629.840    96558753.40145
  24061737.380   126445289.26608  24061735.240    98528788.93844
  22019818.000   115714936.28609  22019815.400    90167469.36348
  23099040.740   121386337.26909  23099037.180    94586766.63546
  21048313.660   110609652.13109  21048309.040    86189343.32448
  20775206.380   109174491.66909  20775201.260    85071029.22048
  20303686.880   106696638.06409  20303686.420    83140240.14549
  22797815.400   119803343.83008  22797814.480    93353255.88946
 15 03 05 02 28  0.0000000  0 10G01G04G11G14G16G18G19G22G27G32
  24529358.280   128902651.14908  24529360.380   100443624.54845
  22089696.920   116082160.41109  22089696.120    90453635.49847
  23564531.600   123832456.61008  23564529.680    96492826.15845
  24047686.360   126371450.64208  24047684.140    98471252.35045
  22035975.780   115799846.18009  22035973.280    90233632.88748
  23114018.120   121465043.70909  23114014.540    94648096.32246
  21039238.540   110561962.34509  21039234.040    86152182.45448
  20780894.500   109204383.09309  20780889.360    85094321.24148
  20303083.960   106693470.18409  20303083.580    83137771.65949
  22777310.020   119695587.73609  22777309.080    93269290.14846
 15 03 05 02 28 30.0000000  0 10G01G04G11G14G16G18G19G22G27G32
  24514573.160   128824955.77508  24514575.300   100383082.78045
  22077593.660   116018557.60809  22077592.940    90404074.88247
  23548446.800   123747929.96908  23548444.820    96426961.26546
  24033658.880   126297735.85008  24033656.740    98413812.27345
  22052198.560   115885097.07009  22052196.020    90300062.13048
  23129038.880   121543978.35409  23129035.320    94709603.81946
  21030215.220   110514544.79909  21030210.780    86115233.71648
  20786672.340   109234746.48909  20786667.300    85117981.03048
  20302556.080   106690696.69009  20302555.840    83135610.49049
  22756852.280   119588081.95209  22756851.320    93185519.44446
 15 03 05 02 29  0.0000000  0 10G01G04G11G14G16G18G19G22G27G32
  24499808.520   128747367.31208  24499810.600   100322624.27745
  22065530.120   115955163.29109  22065529.300    90354676.72947
  23532377.520   123663484.57908  23532375.460    96361159.68145
  24019655.620   126224148.54808  24019653.580    98356471.53645
  22068485.940   115970687.16709  22068483.320    90366755.68848
  23144102.800   121623139.90108  23144099.380    94771288.12946
  21021244.240   110467401.83409  21021239.820    86078498.93849
  20792539.900   109265581.39709  20792534.980    85142008.23348
  20302103.680   106688319.40909  20302103.500    83133758.06249
  22736442.820   119480829.60509  22736441.800    93101946.22246
 15 03 05 02 29 30.0000000  0 10G01G04G11G14G16G18G19G22G27G32
  24485064.140   128669885.08808  24485066.180   100262248.53645
  22053506.280   115891977.05209  22053505.320    90305440.71147
  23516323.640   123579120.23108  23516321.360    96295421.23745
  24005677.060   126150691.16108  24005675.120    98299232.03245
  22084837.240   116056613.15609  22084834.560    90433710.98148
  23159209.320   121702525.36009  23159206.000    94833146.92046
  21012325.780   110420534.62909  21012321.340    86041979.03548
  20798496.860   109296885.66409  20798491.980    85166401.16548
  20301726.840   106686338.86209  20301726.620    83132214.76649
  22716082.040   119373832.76809  22716080.860    93018572.08446
 15 03 05 02 30  0.0000000  0 10G01G04G11G14G16G18G19G22G27G32
  24470339.860   128592509.07107  24470342.020   100201955.57146
  22041521.940   115828998.72309  22041520.860    90256366.70547
  23500285.280   123494837.53108  23500282.780    96229746.41446
  23991723.740   126077366.49508  23991721.940    98242095.93945
  22101251.820   116142871.84909  22101249.140    90500925.52748
  23174358.020   121782132.71208  23174354.840    94895178.60346
  21003460.100   110373944.57309  21003455.620    86005675.09648
  20804542.900   109328657.73009  20804538.020    85191158.61248
  20301425.720   106684756.14509  20301425.480    83130981.47249
  22695770.320   119267093.91209  22695769.040    92935398.97347
 15 03 05 02 30 30.0000000  0 10G01G04G11G14G16G18G19G22G27G32
  24455635.580   128515238.54107  24455637.980   100141744.85445
  22029577.000   115766227.74709  22029575.820    90207454.28747
  23484262.260   123410635.87508  23484259.680    96164134.74145
  23977796.180   126004176.95408  23977794.520    98185065.16545
  22117728.880   116229459.44409  22117726.280    90568396.36248
  23189548.440   121861959.10008  23189545.340    94957380.97946
  20994647.380   110327632.55209  20994642.780    85969587.81248
  20810677.560   109360895.02909  20810672.600    85216278.58948
  20301200.380   106683571.50809  20301200.060    83130058.38049
  22675508.020   119160614.78809  22675506.700    92852428.25946
 15 03 05 02 31  0.0000000  0 10G01G04G11G14G16G18G19G22G27G32
  24440951.500   128438073.63908  24440954.080   100081616.41745
  22017671.500   115703664.12509  22017670.280    90158703.42947
  23468254.760   123326515.91608  23468252.160    96098586.72745
  23963894.900   125931125.19008  23963893.260    98128141.71645
  22134268.120   116316373.98409  22134265.600    90636121.95748
  23204780.120   121942002.30008  23204777.060    95019752.28146
  20985887.840   110281600.32509  20985883.080    85933718.54648
  20816900.540   109393596.79409  20816895.540    85241760.48248
  20301050.980   106682786.18009  20301050.620    83129446.42449
  22655295.640   119054398.02809  22655294.420    92769661.97847
 15 03 05 02 31 30.0000000  0 10G01G04G11G14G16G18G19G22G27G32
  24426287.460   128361013.90707  24426290.120   100021569.89245
  22005805.400   115641307.57209  22005804.180    90110113.93447
  23452262.800   123242477.95308  23452260.320    96033102.62146
  23950020.420   125858214.04808  23950018.760    98071327.85645
  22150868.820   116403611.56709  22150866.360    90704099.27748
  23220052.620   122022260.07608  23220049.740    95082290.79746
  20977181.700   110235849.18809  20977176.920    85898068.31548
  20823211.500   109426760.79709  20823206.420    85267602.56348
  20300977.680   106682400.84609  20300977.340    83129146.16249
  22635133.560   118948445.75609  22635132.360    92687101.79746
 15 03 05 02 32  0.0000000  0 10G01G04G11G14G16G18G19G22G27G32
  24411643.400   128284059.25207  24411646.020    99961605.27145
  21993978.800   115579158.17709  21993977.500    90061685.86147
  23436286.520   123158522.25908  23436284.160    95967682.60445
  23936173.180   125785446.38908  23936171.640    98014625.80145
  22167530.600   116491170.08709  22167528.140    90772326.67647
  23235365.480   122102729.92208  23235362.700    95144994.54046
  20968529.140   110190380.41109  20968524.460    85862638.09648
  20829610.040   109460385.36509  20829604.980    85293803.52748
  20300980.700   106682416.50109  20300980.320    83129158.34849
  22615022.200   118842760.37609  22615021.120    92604749.59247
 15 03 05 02 32 30.0000000  0 10G01G04G11G14G16G18G19G22G27G32
  24397020.080   128207213.49708  24397022.660    99901725.53545
  21982192.400   115517219.82509  21982191.040    90013422.22947
  23420326.840   123074653.52408  23420324.460    95902330.35945
  23922354.480   125712828.85108  23922353.020    97958040.74546
  22184253.500   116579050.17909  22184251.120    90840804.64747
  23250719.160   122183413.95208  23250716.340    95207865.19946
  20959931.320   110145199.56109  20959926.880    85827432.24248
  20836096.620   109494472.81709  20836091.600    85320365.17648
  20301060.960   106682838.03109  20301060.520    83129486.80949
  22594962.820   118737348.27509  22594961.880    92522610.32347
 15 03 05 02 33  0.0000000  0 10G01G04G11G14G16G18G19G22G27G32
  24382416.380   128130470.20107  24382418.660    99841925.57345
  21970444.920   115455486.02309  21970443.500    89965317.98947
  23404382.460   122990865.38408  23404380.000    95837040.91045
  23908563.700   125640358.07108  23908562.300    97901570.03246
  22201035.940   116667242.77009  22201033.600    90909526.13248
  23266111.960   122264303.22609  23266109.160    95270895.79046
  20951387.440   110100301.87209  20951383.120    85792447.02448
  20842669.700   109529014.99609  20842664.780    85347281.15948
  20301217.420   106683659.96109  20301216.940    83130127.26749
  22574954.740   118632205.49109  22574953.880    92440680.91847
 15 03 05 02 33 30.0000000  0 10G01G04G11G14G16G18G19G22G27G32
  24367833.180   128053834.98407  24367835.480    99782209.87945
  21958737.460   115393962.72909  21958735.980    89917377.76747
  23388454.540   122907164.12708  23388452.100    95771819.16245
  23894802.480   125568042.41408  23894800.940    97845220.19146
  22217878.320   116755750.44209  22217876.020    90978493.12747
  23281544.500   122345401.45608  23281541.720    95334089.19546
  20942898.940   110055694.60909  20942894.660    85757688.12048
  20849330.140   109564016.00209  20849325.220    85374554.66448
  20301451.320   106684889.09509  20301450.800    83131085.02649
  22554999.500   118527340.17509  22554998.600    92358967.70747
 15 03 05 02 34  0.0000000  0 10G01G04G11G14G16G18G19G22G27G32
  24353270.240   127977306.54107  24353272.480    99722577.37745
  21947069.740   115332648.27909  21947068.220    89869600.29547
  23372542.980   122823548.73308  23372540.640    95706664.32945
  23881071.100   125495883.52708  23881069.500    97788992.49845
  22234779.840   116844569.13109  22234777.620    91047702.46847
  23297016.120   122426704.95809  23297013.340    95397442.56546
  20934465.740   110011377.83309  20934461.520    85723155.57748
  20856077.420   109599473.04209  20856072.440    85402183.53148
  20301762.600   106686525.02209  20301762.040    83132359.77449
  22535097.280   118422753.57709  22535096.320    92277471.68946
 15 03 05 02 34 30.0000000  0 10G01G04G11G14G16G18G19G22G27G32
  24338727.200   127900882.87008  24338729.580    99663026.51045
  21935441.460   115271541.20709  21935439.920    89821984.37947
  23356647.620   122740018.32808  23356645.400    95641575.72945
  23867369.720   125423882.31108  23867368.040    97732887.67245
  22251739.660   116933693.86009  22251737.500    91117150.28847
  23312525.900   122508209.38308  23312523.160    95460952.48346
  20926087.780   109967351.30109  20926083.580    85688849.18949
  20862910.820   109635382.45809  20862905.800    85430164.89548
  20302151.100   106688566.88409  20302150.560    83133950.83449
  22515248.140   118318445.98609  22515247.160    92196193.07847
 15 03 05 02 35  0.0000000  0 10G01G04G11G14G16G18G19G22G27G32
  24324204.020   127824563.04707  24324206.260    99603556.51845
  21923852.440   115210640.37509  21923850.880    89774529.15147
  23340768.320   122656572.28808  23340766.040    95576552.86545
  23853698.780   125352041.07008  23853697.120    97676907.48745
  22268757.200   117023121.51809  22268754.980    91186834.15347
  23328073.580   122589912.52009  23328070.620    95524617.27346
  20917765.200   109923615.79009  20917760.860    85654769.56448
  20869829.780   109671741.70909  20869824.780    85458496.77648
  20302616.880   106691014.79009  20302616.420    83135858.28949
  22495452.520   118214419.30109  22495451.480    92115133.35247
 15 03 05 02 35 30.0000000  0 10G01G04G11G14G16G18G19G22G27G32
  24309706.920   127748364.72808  24309709.240    99544184.12845
  21912308.280   115149956.41609  21912307.180    89727233.27347
  23324911.200   122573236.35108  23324908.780    95511602.47745
  23840064.520   125280385.33208  23840063.000    97621071.88046
  22285837.860   117112880.36209  22285835.540    91256776.09348
  23343663.760   122671780.48908  23343661.280    95588323.54646
  20909504.440   109880186.53009  20909499.800    85620905.60949
  20876840.040   109708531.75509  20876835.060    85487150.52849
  20303166.260   106693857.36809  20303165.780    83138069.56649
  22475716.780   118110688.44009  22475715.740    92034296.94447
 15 03 05 02 36  0.0000000  0 10G01G04G11G14G16G18G19G22G27G32
  24295220.300   127672237.49308  24295222.560    99484864.21345
  21900794.900   115089453.42709  21900793.720    89680088.11347
  23309061.200   122489945.28208  23309058.880    95446700.39045
  23826453.400   125208857.55708  23826451.740    97565335.98445
  22302966.080   117202889.06609  22302963.660    91326912.72548
  23359283.160   122753858.74908  23359280.400    95652280.62546
  20901290.660   109837022.88709  20901286.020    85587271.60748
  20883926.460   109745770.65709  20883921.400    85516167.85548
  20303784.340   106697105.20309  20303783.740    83140600.34749
  22456026.500   118007215.59609  22456025.400    91953668.78647
 15 03 05 02 36 30.0000000  0 10G01G04G11G14G16G18G19G22G27G32
  24280758.060   127596237.82308  24280760.300    99425643.70345
  21889325.280   115029180.36409  21889324.080    89633122.11947
  23293232.140   122406764.00808  23293229.940    95381883.84445
  23812878.820   125137522.23008  23812877.100    97509750.02346
  22320154.840   117293215.77909  22320152.340    91397297.15648
  23374943.300   122836153.19608  23374940.480    95716406.14146
  20893137.680   109794178.83309  20893133.040    85553886.63548
  20891102.020   109783478.03009  20891096.920    85545550.22548
  20304484.780   106700785.77209  20304484.040    83143468.32749
  22436395.540   117904054.69909  22436394.540    91873283.70747
 15 03 05 02 37  0.0000000  0 10G01G04G11G14G16G18G19G22G27G32
  24266315.540   127520342.58807  24266317.780    99366504.59346
  21877895.200   114969114.75709  21877894.000    89586317.78447
  23277419.840   122323669.99008  23277417.680    95317135.28145
  23799337.060   125066359.27308  23799335.200    97454298.39045
  22337399.100   117383834.25509  22337396.580    91467908.93147
  23390639.760   122918637.93008  23390636.760    95780679.95246
  20885041.480   109751633.04109  20885036.800    85520734.06848
  20898362.040   109821629.62509  20898356.980    85575278.73648
  20305263.280   106704877.06709  20305262.540    83146656.34349
  22416820.100   117801185.23809  22416819.180    91793125.71247
 15 03 05 02 37 30.0000000  0 10G01G04G11G14G16G18G19G22G27G32
  24251893.900   127444557.02808  24251896.060    99307450.93945
  21866505.580   114909261.55609  21866504.300    89539678.95747
  23261625.240   122240668.79908  23261623.100    95252459.04745
  23785829.600   124995376.75508  23785827.600    97398987.36645
  22354699.280   117474746.81809  22354696.680    91538749.86247
  23406373.100   123001316.73508  23406369.920    95845104.99145
  20877003.320   109709391.99909  20876998.620    85487818.96948
  20905707.100   109860228.50709  20905702.100    85605355.78548
  20306121.040   106709385.09409  20306120.400    83150169.08149
  22397301.600   117698614.70809  22397300.700    91713200.65647
 15 03 05 02 38  0.0000000  0 10G01G04G11G14G16G18G19G22G27G32
  24237491.840   127368874.05708  24237493.940    99248477.20845
  21855155.020   114849613.97109  21855153.680    89493200.34647
  23245847.120   122157753.88708  23245844.960    95187850.06645
  23772355.680   124924570.50708  23772353.520    97343813.68945
  22372053.540   117565944.02809  22372050.960    91609812.60947
  23422141.540   123084180.01308  23422138.400    95909673.76946
  20869022.100   109667450.38909  20869017.440    85455137.20348
  20913135.660   109899266.25509  20913130.680    85635774.82248
  20307057.040   106714303.98809  20307056.460    83154001.98649
  22377839.160   117596338.70309  22377838.260    91633505.10147
 15 03 05 02 38 30.0000000  0 10G01G04G11G14G16G18G19G22G27G32
  24223110.280   127293298.77008  24223112.240    99189587.39445
  21843844.380   114790177.02409  21843843.220    89446885.87047
  23230086.560   122074931.14408  23230084.340    95123312.89646
  23758916.820   124853948.57408  23758914.560    97288783.61945
  22389462.280   117657427.69509  22389459.780    91681098.55947
  23437945.540   123167230.84308  23437942.460    95974388.68145
  20861099.100   109625815.15809  20861094.520    85422694.17249
  20920648.440   109938746.33809  20920643.460    85666538.52748
  20308072.420   106719639.64409  20308071.820    83158159.63349
  22358434.200   117494364.68509  22358433.240    91554044.85147
 15 03 05 02 39  0.0000000  0 10G01G04G11G14G16G18G19G22G27G32
  24208748.760   127217828.77207  24208750.680    99130779.61446
  21832573.360   114730948.32809  21832572.400    89400733.67747
  23214343.220   121992198.87408  23214340.860    95058846.21346
  23745513.080   124783511.55808  23745510.780    97233897.64945
  22406924.520   117749192.70609  22406922.160    91752603.73547
  23453784.440   123250464.95308  23453781.400    96039246.42546
  20853234.280   109584485.56309  20853229.760    85390489.28848
  20928244.600   109978664.49409  20928239.640    85697643.58348
  20309166.900   106725390.69709  20309166.260    83162640.97349
  22339086.680   117392692.78909  22339085.680    91474820.02647
 15 03 05 02 39 30.0000000  0 10G01G04G11G14G16G18G19G22G27G32
  24194407.720   127142466.77907  24194409.840    99072056.02645
  21821342.660   114671931.10109  21821341.820    89354746.26347
  23198617.720   121909560.25408  23198615.200    94994452.52245
  23732145.660   124713265.31508  23732143.340    97179160.33045
  22424440.260   117841238.87409  22424438.040    91824327.99447
  23469658.280   123333882.73708  23469655.400    96104247.26946
  20845428.420   109543465.74909  20845423.920    85358525.80348
  20935924.360   110019021.58209  20935919.320    85729090.67148
  20310341.140   106731560.87009  20310340.420    83167448.90149
  22319797.600   117291328.20709  22319796.620    91395834.66847
 15 03 05 02 40  0.0000000  0 10G01G04G11G14G16G18G19G22G27G32
  24180086.660   127067209.98307  24180089.100    99013414.40045
  21810151.780   114613122.27409  21810150.780    89308921.22547
  23182909.560   121827013.05608  23182907.040    94930130.06546
  23718814.520   124643209.69108  23718812.160    97124571.54645
  22442008.480   117933560.40709  22442006.300    91896266.82647
  23485566.240   123417479.62808  23485563.360    96169387.69346
  20837681.380   109502754.89509  20837676.900    85326803.06048
  20943686.780   110059813.25909  20943681.680    85760876.39548
  20311594.680   106738148.14709  20311593.940    83172581.83749
  22300566.900   117190270.51009  22300565.980    91317088.44147
 15 03 05 02 40 30.0000000  0 10G01G04G11G14G16G18G19G22G27G32
  24165786.220   126992060.93707  24165788.800    98954856.74146
  21799001.120   114554524.34409  21798999.920    89263260.52247
  23167219.340   121744560.44108  23167216.900    94865881.31445
  23705520.700   124573350.45808  23705518.420    97070135.79845
  22459629.100   118026157.24509  22459626.820    91968420.18847
  23501508.380   123501256.15508  23501505.640    96234668.07746
  20829993.880   109462356.98809  20829989.460    85295324.17748
  20951532.020   110101040.32609  20951526.940    85793001.38748
  20312928.260   106745156.13809  20312927.480    83178042.60849
  22281395.580   117089524.70309  22281394.660    91238585.24447
 15 03 05 02 41  0.0000000  0 10G01G04G11G14G16G18G19G22G27G32
  24151505.580   126917015.30807  24151508.080    98896379.65146
  21787889.820   114496133.38709  21787888.520    89217761.09247
  23151546.380   121662198.88708  23151544.040    94801703.52845
  23692263.860   124503686.32408  23692261.860    97015852.09045
  22477300.640   118119021.57109  22477298.180    92040781.99047
  23517483.540   123585205.73108  23517480.780    96300083.32745
  20822365.480   109422269.40209  20822361.100    85264087.10448
  20959458.880   110142696.67909  20959453.900    85825460.89148
  20314341.220   106752581.41909  20314340.460    83183828.53749
  22262283.320   116989088.99909  22262282.280    91160323.68347
 15 03 05 02 41 30.0000000  0 10G01G04G11G14G16G18G19G22G27G32
  24137245.440   126842077.62407  24137247.900    98837986.69646
  21776818.680   114437953.90209  21776817.260    89172426.45447
  23135891.700   121579933.40108  23135889.360    94737600.59046
  23679045.520   124434224.60008  23679043.780    96961726.10046
  22495023.680   118212156.46409  22495021.080    92113354.61447
  23533492.100   123669331.04208  23533489.280    96365635.50546
  20814797.280   109382498.33509  20814792.940    85233096.66348
  20967468.040   110184785.07009  20967463.040    85858257.04248
  20315834.580   106760429.42909  20315833.960    83189943.85349
  22243231.360   116888970.27609  22243230.260    91082309.12047
 15 03 05 02 42  0.0000000  0 10G01G04G11G14G16G18G19G22G27G32
  24123005.460   126767245.60108  24123007.780    98779676.06445
  21765787.300   114379983.71609  21765785.840    89127254.91647
  23120255.000   121497762.36908  23120252.780    94673571.24546
  23665865.880   124364966.08608  23665864.340    96907758.46245
  22512797.100   118305555.94109  22512794.480    92186133.40247
  23549533.180   123753627.60708  23549530.460    96431321.11646
  20807289.180   109343042.87409  20807284.880    85202352.14748
  20975558.780   110227301.78109  20975553.640    85891386.94848
  20317408.080   106768698.76609  20317407.600    83196387.47949
  22224239.800   116789168.76609  22224238.600    91004541.73847
 15 03 05 02 42 30.0000000  0 10G01G04G11G14G16G18G19G22G27G32
  24108785.720   126692519.80908  24108787.900    98721448.19245
  21754795.860   114322223.42009  21754794.340    89082246.92547
  23104636.500   121415686.86008  23104634.320    94609616.34446
  23652725.600   124295914.21908  23652724.160    96853951.84145
  22530620.420   118399217.88609  22530617.840    92259116.72247
  23565606.600   123838094.01808  23565603.860    96497139.09445
  20799841.600   109303905.50609  20799837.300    85171855.49848
  20983730.720   110270245.41309  20983725.500    85924849.52948
  20319062.100   106777390.86009  20319061.700    83203160.54049
  22205309.120   116689687.33909  22205307.860    90927023.77647
 15 03 05 02 43  0.0000000  0 10G01G04G11G14G16G18G19G22G27G32
  24094586.100   126617899.46108  24094588.140    98663302.48945
  21743844.240   114264672.30509  21743842.660    89037401.93447
  23089036.120   121333706.77308  23089033.860    94545735.79145
  23639625.140   124227071.02908  23639623.720    96800307.82145
  22548492.820   118493137.81909  22548490.300    92332301.06547
  23581711.820   123922727.44408  23581708.960    96563087.21846
  20792454.720   109265087.06909  20792450.400    85141607.36149
  20991983.400   110313613.44409  20991978.140    85958642.80348
  20320796.620   106786505.88409  20320796.260    83210263.15249
  22186439.620   116590527.82909  22186438.420    90849756.65447
 15 03 05 02 43 30.0000000  0 10G01G04G11G14G16G18G19G22G27G32
  24080406.060   126543382.48008  24080407.980    98605237.33845
  21732932.140   114207328.59109  21732930.520    88992718.53847
  23073453.640   121251820.66308  23073451.340    94481928.46245
  23626564.700   124158437.59008  23626563.060    96746827.21245
  22566413.520   118587311.88009  22566411.000    92405683.41747
  23597848.040   124007524.09108  23597845.360    96629162.49145
  20785128.480   109226587.22109  20785124.140    85111607.47349
  21000316.020   110357401.98109  21000310.860    85992763.73848
  20322611.320   106796042.58909  20322611.040    83217694.34449
  22167631.360   116491690.40709  22167630.300    90772740.50847
 15 03 05 02 44  0.0000000  0 10G01G04G11G14G16G18G19G22G27G32
  24066246.380   126468972.91208  24066248.320    98547255.88145
  21722060.300   114150196.44709  21722058.620    88948200.00947
  23057889.980   121170033.41408  23057887.740    94418198.16146
  23613545.560   124090020.82008  23613543.620    96693515.45345
  22584382.700   118681740.77909  22584380.180    92479264.36347
  23614015.720   124092485.90508  23614012.880    96695366.49145
  20777863.980   109188411.75609  20777859.560    85081860.36448
  21008729.120   110401613.52009  21008724.040    86027214.28848
  20324507.260   106806006.00409  20324507.020    83225458.03749
  22148885.620   116393181.65309  22148884.680    90695980.48747
 15 03 05 02 44 30.0000000  0 10G01G04G11G14G16G18G19G22G27G32
  24052106.760   126394668.61808  24052108.660    98489356.45546
  21711228.240   114093273.59009  21711226.560    88903844.56147
  23042344.820   121088343.64108  23042342.660    94354543.81645
  23600567.780   124021821.36108  23600565.620    96640373.01746
  22602399.380   118776419.44209  22602396.860    92553039.92047
  23630214.000   124177608.42808  23630211.060    96761695.72046
  20770661.080   109150559.91909  20770656.560    85052365.43448
  21017221.980   110446244.08109  21017217.000    86061991.34748
  20326484.160   106816394.70009  20326483.880    83233553.11649
  22130202.520   116295001.66509  22130201.680    90619476.62747
 15 03 05 02 45  0.0000000  0 10G01G04G11G14G16G18G19G22G27G32
  24037987.500   126320471.53508  24037989.460    98431540.55645
  21700436.340   114036562.06209  21700434.680    88859653.79347
  23026818.720   121006753.64508  23026816.560    94290967.20646
  23587632.360   123953844.64008  23587630.140    96587404.14846
  22620463.540   118871347.33009  22620461.020    92627009.67747
  23646442.900   124262891.75208  23646440.000    96828150.24045
  20763520.480   109113035.47409  20763515.860    85023125.60949
  21025794.680   110491293.68209  21025789.700    86097094.92648
  20328542.560   106827211.54909  20328542.260    83241981.82149
  22111582.940   116197154.92009  22111582.000    90543232.43547
 15 03 05 02 45 30.0000000  0 10G01G04G11G14G16G18G19G22G27G32
  24023888.100   126246379.06908  24023890.140    98373806.15345
  21689684.140   113980059.45809  21689682.600    88815625.81247
  23011311.340   120925261.64008  23011309.120    94227466.96145
  23574739.340   123886090.64008  23574737.080    96534608.83346
  22638574.020   118966518.36109  22638571.560    92701168.90547
  23662701.520   124348331.37408  23662698.580    96894726.56445
  20756441.980   109075837.37209  20756437.240    84994140.08149
  21034446.320   110536757.94209  21034441.260    86132521.62048
  20330682.080   106838454.75009  20330681.820    83250742.74949
  22093026.800   116099641.17109  22093025.640    90467247.71947
 15 03 05 02 46  0.0000000  0 10G01G04G11G14G16G18G19G22G27G32
  24009809.020   126172393.62908  24009811.080    98316155.17345
  21678972.160   113923768.20409  21678970.760    88771762.52447
  22995823.260   120843870.90409  22995820.880    94164045.63146
  23561889.720   123818564.83208  23561887.460    96481991.33546
  22656730.820   119061932.71309  22656728.380    92775517.72647
  23678989.940   124433927.56508  23678987.080    96961424.88945
  20749426.360   109038969.66409  20749421.560    84965412.00549
  21043176.980   110582637.42309  21043171.800    86168271.86348
  20332903.360   106850127.57909  20332903.100    83259838.45449
  22074535.000   116002465.25209  22074533.660    90391526.25347
 15 03 05 02 46 30.0000000  0 10G01G04G11G14G16G18G19G22G27G32
  23995750.020   126098513.31708  23995752.140    98258586.11346
  21668300.140   113867686.67509  21668298.740    88728062.66047
  22980354.220   120762580.05408  22980351.660    94100702.12246
  23549083.660   123751268.18308  23549081.280    96429552.39646
  22674932.980   119157585.58109  22674930.620    92850052.41247
  23695307.440   124519676.46408  23695304.640    97028242.20346
  20742473.560   109002432.30909  20742468.720    84936941.34949
  21051985.980   110628928.66009  21051980.740    86204342.96048
  20335206.260   106862228.94009  20335205.940    83269268.08849
  22056107.520   115905627.65009  22056106.120    90316068.42047
 15 03 05 02 47  0.0000000  0 10G01G04G11G14G16G18G19G22G27G32
  23981711.180   126024739.00408  23981713.320    98201099.66046
  21657668.240   113811815.72709  21657666.860    88684526.87947
  22964904.500   120681390.77008  22964901.840    94037437.75145
  23536321.780   123684204.55808  23536319.500    96377295.05246
  22693180.040   119253474.41009  22693177.680    92924770.96047
  23711653.860   124605577.20808  23711650.960    97095177.84345
  20735584.020   108966227.67609  20735579.220    84908729.95149
  21060873.080   110675630.49909  21060867.860    86240733.99648
  20337591.020   106874760.52109  20337590.620    83279032.95049
  22037744.940   115809131.56209  22037743.540    90240876.68847
 15 03 05 02 47 30.0000000  0 10G01G04G11G14G16G18G19G22G27G32
  23967692.360   125951069.78908  23967694.520    98143695.07346
  21647076.240   113756154.66409  21647074.940    88641154.65347
  22949474.020   120600302.85808  22949471.280    93974252.38146
  23523604.540   123617375.77808  23523602.480    96325220.70146
  22711471.280   119349595.47509  22711468.860    92999670.46447
  23728028.640   124691627.08708  23728025.640    97162229.68045
  20728757.920   108930356.59709  20728753.160    84880778.46749
  21069837.800   110722740.24209  21069832.540    86277442.88248
  20340057.560   106887722.21309  20340057.160    83289132.95349
  22019447.600   115712978.46209  22019446.180    90165952.21147
 15 03 05 02 48  0.0000000  0 10G01G04G11G14G16G18G19G22G27G32
  23953693.920   125877507.79808  23953696.080    98086374.05946
  21636524.600   113700705.69509  21636523.400    88597947.67647
  22934063.220   120519318.84108  22934060.560    93911147.95946
  23510933.020   123550787.24208  23510931.040    96273333.55346
  22729806.680   119445948.64009  22729804.260    93074750.84047
  23744431.840   124777825.97708  23744428.760    97229397.64146
  20721996.020   108894822.88009  20721991.340    84853089.85849
  21078880.160   110770258.11209  21078874.860    86314469.79448
  20342606.460   106901116.85509  20342606.100    83299570.32849
  22001216.340   115617172.76209  22001214.900    90091298.44347
 15 03 05 02 48 30.0000000  0 10G01G04G11G14G16G18G19G22G27G32
  23939715.240   125804049.40908  23939717.460    98029133.76346
  21626012.540   113645464.99909  21626011.460    88554902.99647
  22918671.720   120438435.94708  22918669.180    93848122.33946
  23498307.060   123484438.20508  23498305.200    96221633.02946
  22748184.900   119542527.05809  22748182.560    93150006.72847
  23760862.280   124864168.02608  23760859.160    97296677.15545
  20715297.900   108859624.27409  20715293.280    84825662.37149
  21087999.100   110818178.75209  21087993.760    86351810.55048
  20345237.140   106914941.50209  20345236.780    83310342.77549
  21983050.940   115521713.13309  21983049.520    90016914.34347
 15 03 05 02 49  0.0000000  0 10G01G04G11G14G16G18G19G22G27G32
  23925756.820   125730697.19408  23925758.980    97971976.21346
  21615540.660   113590435.57909  21615539.780    88512022.94947
  22903300.140   120357657.70708  22903297.640    93785178.28346
  23485727.740   123418334.08908  23485725.920    96170123.34646
  22766606.000   119639330.66009  22766603.640    93225438.09247
  23777320.040   124950654.13308  23777317.080    97364068.91046
  20708664.380   108824765.38209  20708659.860    84798499.60949
  21097194.800   110866502.98309  21097189.520    86389465.79548
  20347950.320   106929199.75609  20347950.020    83321453.10549
  21964952.340   115426604.67909  21964950.920    89942803.88647
 15 03 05 02 49 30.0000000  0 10G01G04G11G14G16G18G19G22G27G32
  23911818.660   125657451.37208  23911820.820    97914901.55646
  21605109.140   113535617.74709  21605108.260    88469307.76447
  22887948.580   120276984.83808  22887946.060    93722316.33646
  23473195.660   123352478.04008  23473193.820    96118806.95345
  22785069.320   119736356.18809  22785067.000    93301042.36247
  23793804.820   125037282.15808  23793801.780    97431571.25345
  20702095.880   108790248.01009  20702091.440    84771602.95149
  21106466.960   110915228.87609  21106461.680    86427434.01548
  20350746.200   106943892.39409  20350745.940    83332901.90949
  21946921.040   115331849.85209  21946919.640    89868968.97047
 15 03 05 02 50  0.0000000  0 10G01G04G11G14G16G18G19G22G27G32
  23897900.280   125584310.01708  23897902.420    97857908.29746
  21594717.600   113481009.69109  21594716.640    88426756.04847
  22872616.940   120196416.34808  22872614.300    93659535.70646
  23460710.980   123286871.11908  23460709.280    96067684.68446
  22803574.120   119833599.54509  22803571.840    93376816.38447
  23810315.940   125124048.67108  23810313.020    97499181.51745
  20695592.300   108756071.84809  20695587.920    84744972.17749
  21115814.960   110964353.01509  21115809.700    86465712.56348
  20353624.560   106959018.28309  20353624.320    83344688.31049
  21928957.120   115237449.03109  21928955.780    89795409.92247
 15 03 05 02 50 30.0000000  0 10G01G04G11G14G16G18G19G22G27G32
  23884001.800   125511273.57707  23884004.060    97800996.79746
  21584366.100   113426611.86609  21584365.000    88384368.16947
  22857305.340   120115953.14208  22857302.540    93596837.13946
  23448274.440   123221516.66008  23448272.740    96016759.15145
  22822119.840   119931057.67509  22822117.560    93452757.76547
  23826853.060   125210952.16708  23826850.200    97566898.51545
  20689154.000   108722238.65509  20689149.700    84718608.65049
  21125238.440   111013873.63709  21125233.220    86504300.06548
  20356585.580   106974578.54809  20356585.360    83356813.18849
  21911061.080   115143404.98709  21911059.840    89722128.87747
 15 03 05 02 51  0.0000000  0 10G01G04G11G14G16G18G19G22G27G32
  23870123.960   125438345.36908  23870126.220    97744169.62746
  21574055.240   113372427.84709  21574054.080    88342146.86647
  22842014.520   120035599.51108  22842011.640    93534223.94546
  23435887.220   123156420.74408  23435885.420    95966035.07246
  22840706.400   120028730.52009  22840704.160    93528866.45047
  23843416.520   125297994.01008  23843413.720    97634723.31146
  20682781.920   108688753.61109  20682777.700    84692516.40849
  21134737.620   111063792.28909  21134732.520    86543197.70948
  20359630.020   106990577.21509  20359629.780    83369279.67349
  21893234.000   115049723.24609  21893232.820    89649130.14347
 15 03 05 02 51 30.0000000  0 10G01G04G11G14G16G18G19G22G27G32
  23856265.500   125365518.70208  23856267.720    97687421.59246
  21563783.760   113318450.89709  21563782.560    88300086.93847
  22826743.360   119955349.19208  22826740.520    93471691.26146
  23423548.460   123091579.53108  23423546.600    95915509.46846
  22859332.220   120126609.65709  22859330.020    93605135.88747
  23860004.580   125385165.37408  23860001.920    97702649.01545
  20676475.180   108655611.62409  20676470.980    84666691.48749
  21144310.880   111114100.41209  21144305.900    86582398.83648
  20362756.720   107007008.33909  20362756.460    83382083.13849
  21875475.060   114956399.65709  21875473.840    89576410.47747
 15 03 05 02 52  0.0000000  0 10G01G04G11G14G16G18G19G22G27G32
  23842427.580   125292799.76008  23842429.740    97630757.47846
  21553552.860   113264687.26009  21553551.640    88258193.19947
  22811493.260   119875209.49908  22811490.320    93409244.76345
  23411259.860   123027002.36508  23411257.900    95865189.60746
  22877997.920   120224698.34909  22877995.660    93681568.61347
  23876618.240   125472470.81508  23876615.620    97770679.21645
  20670235.320   108622820.82509  20670231.080    84641140.21949
  21153959.020   111164801.87709  21153954.100    86621906.47148
  20365967.040   107023878.74209  20365966.760    83395228.90749
  21857785.780   114863442.32309  21857784.540    89503976.21647
 15 03 05 02 52 30.0000000  0 10G01G04G11G14G16G18G19G22G27G32
  23828609.760   125220186.05308  23828611.740    97574175.37346
  21543362.140   113211134.85909  21543360.920    88216464.07247
  22796263.860   119795178.61908  22796260.880    93346883.05346
  23399021.600   122962689.85408  23399019.640    95815075.97046
  22896702.400   120322990.59509  22896700.060    93758159.95147
  23893256.560   125559905.73508  23893253.860    97838810.32645
  20664062.120   108590380.01409  20664057.820    84615861.67249
  21163681.360   111215893.24709  21163676.440    86661717.92248
  20369260.600   107041186.66109  20369260.340    83408715.59149
  21840166.200   114770851.27909  21840164.980    89431827.38447
 15 03 05 02 53  0.0000000  0 10G01G04G11G14G16G18G19G22G27G32
  23814811.780   125147676.71108  23814813.640    97517674.59546
  21533211.460   113157792.73109  21533210.220    88174898.81847
  22781055.120   119715256.48208  22781052.280    93284606.06446
  23386834.040   122898643.73108  23386832.120    95765169.91546
  22915445.000   120421483.12409  22915442.580    93834907.35647
  23909918.940   125647467.29808  23909916.180    97907040.11645
  20657955.700   108558289.98309  20657951.300    84590856.45249
  21173477.200   111267371.10109  21173472.320    86701830.53848
  20372637.400   107058931.75209  20372637.120    83422542.92249
  21822616.580   114678627.77909  21822615.420    89359964.93847
 15 03 05 02 53 30.0000000  0 10G01G04G11G14G16G18G19G22G27G32
  23801033.880   125075273.10308  23801035.640    97461256.21146
  21523101.100   113104662.32309  21523099.840    88133498.51447
  22765867.440   119635445.05008  22765864.800    93222415.33146
  23374697.940   122834868.05808  23374696.020    95715474.60246
  22934225.360   120520174.20109  22934222.920    93911809.46947
  23926605.400   125735155.17708  23926602.700    97975368.32945
  20651916.620   108526553.77209  20651912.080    84566126.94049
  21183346.520   111319235.08009  21183341.680    86742244.02048
  20376097.840   107077116.12709  20376097.540    83436712.56149
  21805137.600   114586775.48209  21805136.620    89288391.74847
 15 03 05 02 54  0.0000000  0 10G01G04G11G14G16G18G19G22G27G32
  23787275.900   125002974.24108  23787277.540    97404919.44646
  21513030.980   113051742.83309  21513029.620    88092262.55547
  22750700.820   119555744.16908  22750698.300    93160310.73046
  23362613.780   122771365.28708  23362611.800    95665991.93946
  22953042.540   120619058.91309  22953040.140    93988862.47147
  23943315.360   125822966.24708  23943312.580    98043792.53545
  20645945.060   108495172.32409  20645940.320    84541673.86649
  21193288.840   111371482.23509  21193283.980    86782956.09348
  20379641.860   107095739.48409  20379641.500    83451224.26449
  21787729.560   114495295.68509  21787728.620    89217108.81847
 15 03 05 02 54 30.0000000  0 10G01G04G11G14G16G18G19G22G27G32
  23773537.940   124930780.46608  23773539.520    97348664.56946
  21503001.080   112999034.75709  21502999.620    88051191.33047
  22735555.500   119476155.13009  22735553.000    93098293.29946
  23350582.140   122708138.50608  23350580.140    95616724.32646
  22971896.440   120718136.75009  22971894.080    94066065.94947
  23960048.520   125910899.13108  23960045.640    98112311.66245
  20640041.300   108464147.26009  20640036.360    84517498.48049
  21203303.840   111424110.81109  21203298.820    86823965.36248
  20383269.560   107114802.73809  20383269.120    83466078.73949
  21770392.920   114404191.05609  21770391.980    89146118.23047
 15 03 05 02 55  0.0000000  0 10G01G04G11G14G16G18G19G22G27G32
  23759820.200   124858693.20908  23759821.740    97292492.70745
  21493011.640   112946539.63509  21493010.100    88010286.06348
  22720431.880   119396680.00209  22720429.320    93036364.64046
  23338603.780   122645191.73308  23338601.700    95567674.90546
  22990786.520   120817404.95809  22990784.260    94143417.78447
  23976804.720   125998953.38608  23976801.800    98180925.38545
  20634205.860   108433481.58709  20634200.900    84493603.15949
  21213391.420   111477120.53709  21213386.240    86865271.64348
  20386981.340   107134307.90809  20386980.840    83481277.56949
  21753128.360   114313465.06209  21753127.360    89075422.68647
 15 03 05 02 55 30.0000000  0 10G01G04G11G14G16G18G19G22G27G32
  23746122.100   124786709.42308  23746123.680    97236401.47245
  21483062.100   112894254.52009  21483060.540    87969544.43247
  22705329.580   119317316.70409  22705326.920    92974523.12546
  23326678.620   122582524.51808  23326676.420    95518843.32946
  23009711.800   120916858.15209  23009709.640    94220913.75247
  23993583.120   126087124.34708  23993580.240    98249630.00345
  20628438.560   108403174.21809  20628433.680    84469987.02449
  21223550.500   111530506.37909  21223545.220    86906870.99648
  20390776.820   107154252.59109  20390776.180    83496818.87049
  21735935.680   114223116.93709  21735934.620    89005021.58047
 15 03 05 02 56  0.0000000  0 10G01G04G11G14G16G18G19G22G27G32
  23732449.120   124714865.03508  23732450.540    97180415.18345
  21473158.240   112842207.34309  21473156.480    87928984.77947
  22690254.300   119238090.74909  22690251.600    92912788.52746
  23314813.100   122520167.18008  23314808.980    95470226.55446
  23028677.280   121016523.04209  23028675.240    94298574.68747
  24010389.080   126175442.49108  24010385.760    98318519.00245
  20622745.360   108373256.40009  20622740.580    84446676.44249
  21233786.340   111584298.27309  21233781.120    86948785.20348
  20394661.540   107174669.21609  20394660.980    83512726.36449
  21718820.960   114133174.71409  21718819.780    88934935.88847
 15 03 05 02 56 30.0000000  0 10G01G04G11G14G16G18G19G22G27G32
  23718785.120   124643059.94408  23718786.580    97124463.16645
  21463283.300   112790314.46209  21463281.560    87888548.77947
  22675189.620   119158925.06109  22675186.900    92851100.98846
  23302990.780   122458040.25908  23302987.580    95421815.97046
  23047665.700   121116308.39109  23047663.740    94376329.48046
  24027205.220   126263812.10208  24027202.180    98387378.41946
  20617109.880   108343641.71109  20617105.160    84423600.05549
  21244081.940   111638402.23409  21244076.820    86990944.12848
  20398619.060   107195466.27109  20398618.560    83528931.85149
  21701767.960   114043560.52309  21701766.740    88865106.67747
 15 03 05 02 57  0.0000000  0 10G01G04G11G14G16G18G19G22G27G32
  23705147.260   124571393.69608  23705149.020    97068619.36545
  21453455.120   112738667.18709  21453453.460    87848304.17547
  22660153.300   119079908.65309  22660150.540    92789529.79046
  23291230.080   122396237.50208  23291227.400    95373657.99146
  23066694.500   121216305.30509  23066692.460    94454249.14346
  24044049.120   126352327.73308  24044046.260    98456351.62645
  20611550.060   108314425.13509  20611545.440    84400833.89449
  21254454.840   111692911.96009  21254449.680    87033419.23948
  20402667.160   107216739.86009  20402666.820    83545508.67449
  21684794.840   113954366.16809  21684793.600    88795604.61047
 15 03 05 02 57 30.0000000  0 10G01G04G11G14G16G18G19G22G27G32
  23691528.880   124499829.85008  23691531.060    97012855.37146
  21443666.840   112687229.46309  21443665.100    87808222.83547
  22645138.700   119001006.35209  22645135.940    92728047.50646
  23279524.720   122334725.43608  23279522.320    95325726.52146
  23085756.040   121316473.99509  23085753.920    94532302.64546
  24060913.540   126440951.07408  24060910.720    98525408.75445
  20606059.420   108285572.09009  20606054.900    84378350.99949
  21264897.580   111747788.96909  21264892.400    87076180.53248
  20406799.120   107238454.10809  20406798.880    83562428.85349
  21667895.040   113865557.28509  21667893.740    88726402.90447
 15 03 05 02 58  0.0000000  0 10G01G04G11G14G16G18G19G22G27G32
  23677930.560   124428370.77208  23677932.820    96957173.00746
  21433918.820   112636003.55309  21433917.080    87768306.55847
  22630146.360   118922221.05009  22630143.620    92666656.39946
  23267875.500   122273508.67108  23267873.260    95278025.16446
  23104850.280   121416814.72809  23104848.100    94610490.20646
  24077798.520   126529682.66108  24077795.860    98594550.21945
  20600638.760   108257086.48709  20600634.240    84356154.43049
  21275410.280   111803033.49109  21275405.060    87119228.20448
  20411015.580   107260611.91309  20411015.380    83579694.66749
  21651069.440   113777138.50709  21651068.180    88657505.18347
 15 03 05 02 58 30.0000000  0 10G01G04G11G14G16G18G19G22G27G32
  23664352.580   124357018.37908  23664354.980    96901573.75546
  21424211.480   112584991.61309  21424209.820    87728557.00247
  22615176.740   118843555.45008  22615173.980    92605358.56146
  23256283.360   122212591.76908  23256281.160    95230557.45246
  23123976.940   121517325.89108  23123974.740    94688810.57547
  24094704.120   126618522.76608  24094701.640    98663776.26545
  20595288.700   108228971.63209  20595284.140    84334246.74149
  21285992.940   111858645.47709  21285987.640    87162562.21448
  20415316.980   107283215.56009  20415316.720    83597307.88049
  21634318.800   113689113.66809  21634317.560    88588914.42247
 15 03 05 02 59  0.0000000  0 10G01G04G11G14G16G18G19G22G27G32
  23650794.420   124285769.72008  23650796.780    96846055.35146
  21414544.300   112534191.00409  21414542.800    87688972.13347
  22600229.500   118765007.57308  22600226.780    92544152.45246
  23244748.320   122151975.03508  23244746.120    95183323.66246
  23143134.860   121618001.64508  23143132.700    94767259.19246
  24111629.480   126707466.43808  24111627.200    98733082.97745
  20590009.000   108201226.43409  20590004.360    84312627.11249
  21296644.620   111914620.28609  21296639.300    87206178.95548
  20419702.840   107306262.75509  20419702.460    83615266.71949
  21617643.040   113601482.09709  21617641.820    88520630.10347
 15 03 05 02 59 30.0000000  0 10G01G04G11G14G16G18G19G22G27G32
  23637256.160   124214625.13408  23637258.400    96790618.04046
  21404917.440   112483601.99609  21404916.020    87649552.15447
  22585304.880   118686578.76208  22585302.220    92483039.12646
  23233271.020   122091661.83408  23233268.900    95136326.38346
  23162323.620   121718839.51509  23162321.540    94845834.13946
  24128574.320   126796512.43608  24128572.120    98802469.43945
  20584800.020   108173852.76809  20584795.300    84291296.98949
  21307364.960   111970956.12609  21307359.660    87250077.00848
  20424173.240   107329754.33509  20424172.780    83633571.83249
  21601042.600   113514246.27209  21601041.380    88452654.15847
 15 03 05 03 00  0.0000000  0 10G01G04G11G14G16G18G19G22G27G32
  23623737.780   124143584.59508  23623739.880    96735261.80546
  21395330.920   112433224.66209  21395329.540    87610297.11247
  22570403.020   118608269.75508  22570400.500    92422019.16146
  23221851.940   122031654.71008  23221849.980    95089567.61046
  23181542.740   121819836.83209  23181540.780    94924533.32946
  24145538.280   126885658.62408  24145535.980    98871933.99944
  20579661.920   108146852.09409  20579657.220    84270257.51149
  21318153.560   112027650.93809  21318148.360    87294254.78848
  20428728.240   107353690.67209  20428727.700    83652223.51549
  21584517.860   113427408.32209  21584516.660    88384988.25047
 15 03 05 03 00 30.0000000  0 10G01G04G11G14G16G18G19G22G27G32
  23610238.920   124072646.51408  23610240.840    96679985.41746
  21385784.400   112383057.60509  21385783.040    87571205.91847
  22555523.880   118530079.73608  22555521.400    92361091.90246
  23210491.320   121971954.72508  23210489.440    95043048.16146
  23200791.400   121920988.95509  23200789.500    95003353.14546
  24162520.740   126974901.43108  24162518.120    98941473.85445
  20574594.820   108120224.52209  20574590.180    84249508.74549
  21329009.780   112084701.28209  21329004.680    87338709.59148
  20433367.600   107378070.61909  20433367.040    83671220.85949
  21568068.840   113340968.44009  21568067.720    88317632.52147
 15 03 05 03 01  0.0000000  0 10G01G04G11G14G16G18G19G22G27G32
  23596759.860   124001812.63508  23596761.660    96624790.21146
  21376278.180   112333102.69909  21376276.860    87532280.04647
  22540667.940   118452011.26808  22540665.440    92300259.35846
  23199190.020   121912566.60708  23199188.340    94996771.73946
  23220069.300   122022294.31809  23220067.360    95082292.37846
  24179521.640   127064241.02808  24179518.800    99011089.11644
  20569599.320   108093973.27309  20569594.740    84229053.23149
  21339933.540   112142106.70109  21339928.560    87383441.08648
  20438091.780   107402896.38909  20438091.200    83690565.61749
  21551696.320   113254930.73209  21551695.300    88250590.18548
 15 03 05 03 01 30.0000000  0 10G01G04G11G14G16G18G19G22G27G32
  23583300.980   123931085.67508  23583302.760    96569678.31446
  21366812.920   112283362.91109  21366811.660    87493521.79247
  22525835.800   118374067.96208  22525833.360    92239524.33146
  23187949.080   121853495.84708  23187947.500    94950742.60346
  23239376.520   122123753.75809  23239374.540    95161351.66346
  24196541.180   127153678.65208  24196538.080    99080780.79244
  20564676.300   108068102.65709  20564671.720    84208894.30549
  21350925.120   112199868.34309  21350920.240    87428450.15848
  20442901.360   107428171.10209  20442900.800    83710260.19149
  21535401.320   113169300.06609  21535400.300    88183865.01748
 15 03 05 03 02  0.0000000  0 10G01G04G11G14G16G18G19G22G27G32
  23569861.680   123860461.81408  23569863.480    96514646.75046
  21357387.920   112233834.35209  21357386.620    87454928.12147
  22511026.880   118296246.70909  22511024.600    92178884.42846
  23176768.380   121794741.30808  23176766.820    94904959.85446
  23258711.620   122225359.86108  23258709.580    95240525.22447
  24213578.080   127243207.84008  24213574.700    99150543.82245
  20559825.240   108042610.14709  20559820.620    84189030.00749
  21361983.380   112257980.03309  21361978.540    87473731.99548
  20447795.720   107453891.31609  20447795.120    83730301.91249
  21519183.440   113084074.37309  21519182.400    88117455.41247
 15 03 05 03 02 30.0000000  0 10G01G04G11G14G16G18G19G22G27G32
  23556442.400   123789942.96608  23556444.100    96459697.02846
  21348003.580   112184519.21509  21348002.280    87416500.76447
  22496241.780   118218550.22109  22496239.520    92118341.76046
  23165648.840   121736307.77508  23165647.140    94859427.25246
  23278074.300   122327111.50408  23278072.300    95319812.20447
  24230632.460   127332829.29608  24230629.200    99220378.71344
  20555046.820   108017499.40609  20555042.220    84169463.20049
  21373108.220   112316441.54909  21373103.420    87519286.41448
  20452775.300   107480059.44009  20452774.740    83750692.65249
  21503043.460   112999257.75709  21503042.320    88051364.56647
 15 03 05 03 03  0.0000000  0 10G01G04G11G14G16G18G19G22G27G32
  23543043.040   123719528.70708  23543044.740    96404828.80946
  21338659.880   112135417.08809  21338658.480    87378239.38647
  22481480.640   118140979.20809  22481478.260    92057896.83946
  23154590.860   121678197.44908  23154589.120    94814146.49846
  23297464.100   122429005.70208  23297462.080    95399210.25546
  24247703.900   127422540.47308  24247700.780    99290283.53144
  20550341.260   107992771.45809  20550336.660    84150194.66449
  21384299.240   112375250.72409  21384294.460    87565111.73848
  20457840.100   107506675.34909  20457839.620    83771432.31349
  21486981.600   112914851.71609  21486980.320    87985593.64248
 15 03 05 03 03 30.0000000  0 10G01G04G11G14G16G18G19G22G27G32
  23529663.260   123649217.71408  23529664.880    96350041.07146
  21329356.480   112086526.89709  21329355.000    87340143.14547
  22466743.300   118063533.34409  22466740.720    91997549.45146
  23143594.760   121620411.88108  23143592.780    94769118.80146
  23316880.220   122531038.05608  23316878.140    95478715.97246
  24264791.840   127512338.29908  24264788.680    99360255.87244
  20545708.640   107968426.67609  20545704.040    84131224.70849
  21395555.820   112434404.12109  21395550.960    87611205.29348
  20462989.920   107533738.11409  20462989.520    83792520.17449
  21470997.940   112830857.09209  21470996.700    87920143.32248
 15 03 05 03 04  0.0000000  0 10G01G04G11G14G16G18G19G22G27G32
  23516303.600   123579012.78908  23516305.240    96295335.97646
  21320094.000   112037851.72109  21320092.400    87302214.44747
  22452030.440   117986216.23809  22452027.640    91937302.38246
  23132661.440   121562956.46808  23132659.340    94724348.37046
  23336322.660   122633208.90708  23336320.640    95558329.60446
  24281896.420   127602224.14607  24281893.420    99430296.77244
  20541149.800   107944469.51109  20541145.120    84112556.78649
  21406878.140   112493902.58109  21406873.100    87657567.73048
  20468225.400   107561250.92609  20468225.040    83813958.72049
  21455093.400   112747278.55909  21455092.240    87855017.22347
 15 03 05 03 04 30.0000000  0 10G01G04G11G14G16G18G19G22G27G32
  23502963.320   123508909.84908  23502964.980    96240710.35346
  21310871.580   111989387.28309  21310869.920    87264449.97648
  22437341.300   117909024.31309  22437338.440    91877152.87746
  23121790.740   121505830.12608  23121788.540    94679834.36046
  23355790.100   122735511.07608  23355788.080    95638045.56346
  24299016.560   127692191.79107  24299013.760    99500401.39945
  20536664.140   107920897.02509  20536659.420    84094188.61749
  21418264.920   112553739.82809  21418259.760    87704194.16048
  20473545.780   107589209.88809  20473545.460    83835744.91449
  21439267.680   112664114.09409  21439266.600    87790213.77548
 15 03 05 03 05  0.0000000  0 10G01G04G11G14G16G18G19G22G27G32
  23489643.120   123438912.46408  23489644.900    96186167.00046
  21301689.960   111941137.46509  21301688.280    87226852.73648
  22422676.940   117831962.76509  22422674.080    91817104.96546
  23110983.760   121449038.91508  23110981.520    94635581.47946
  23375282.620   122837945.23908  23375280.580    95717864.38146
  24316152.740   127782243.43408  24316150.060    99570571.48045
  20532252.680   107897714.65909  20532247.960    84076124.44049
  21429716.440   112613917.64009  21429711.220    87751085.96048
  20478951.860   107617619.05109  20478951.540    83857881.91649
  21423521.820   112581369.19409  21423520.740    87725737.25648
 15 03 05 03 05 30.0000000  0 10G01G04G11G14G16G18G19G22G27G32
  23476342.600   123369018.62908  23476344.520    96131704.31946
  21292548.800   111893100.48209  21292547.100    87189421.33948
  22408036.980   117755030.10409  22408034.260    91757157.47446
  23100240.680   121392583.66408  23100238.360    94591590.38346
  23394799.240   122940506.15308  23394797.200    95797781.95646
  24333304.160   127872374.78108  24333301.580    99640803.67445
  20527915.260   107874921.58609  20527910.580    84058363.60349
  21441231.880   112674431.81009  21441226.660    87798239.85048
  20484443.300   107646476.62109  20484442.980    83880368.32849
  21407855.820   112499043.79709  21407854.680    87661587.62348
 15 03 05 03 06  0.0000000  0 10G01G04G11G14G16G18G19G22G27G32
  23463062.020   123299229.44108  23463064.000    96077323.18046
  21283448.400   111845277.48109  21283446.640    87152156.67348
  22393421.860   117678227.89508  22393419.200    91697311.62546
  23089562.200   121336468.16008  23089559.860    94547864.03046
  23414339.680   123043191.89008  23414337.640    95877796.80146
  24350470.720   127962585.51308  24350468.160    99711097.72645
  20523652.360   107852520.48409  20523647.780    84040908.19449
  21452811.200   112735281.58409  21452805.980    87845655.25448
  20490020.380   107675784.04309  20490020.060    83903205.26849
  21392270.280   112417141.03209  21392269.060    87597767.30948
 15 03 05 03 06 30.0000000  0 10G01G04G11G14G16G18G19G22G27G32
  23449800.800   123229542.04808  23449802.840    96023021.37246
  21274388.200   111797665.84509  21274386.480    87115056.71848
  22378831.300   117601554.88008  22378828.740    91637566.47746
  23078948.320   121280692.09108  23078946.100    94504402.16846
  23433903.060   123145997.91708  23433900.980    95957905.37946
  24367651.500   128052870.74008  24367649.020    99781449.84545
  20519463.860   107830510.12009  20519459.280    84023757.26749
  21464453.400   112796461.87109  21464448.160    87893328.20748
  20495682.620   107705538.72109  20495682.200    83926390.72549
  21376764.960   112335659.76809  21376763.660    87534275.43948
 15 03 05 03 07  0.0000000  0 10G01G04G11G14G16G18G19G22G27G32
  23436559.820   123159960.59908  23436561.840    95968802.09446
  21265369.060   111750269.81109  21265367.380    87078124.76148
  22364266.200   117525015.64408  22364263.720    91577925.55446
  23068400.340   121225262.27108  23068398.200    94461210.11346
  23453489.360   123248924.40308  23453487.360    96038107.81346
  24384846.940   128143233.09808  24384844.420    99851862.03945
  20515350.860   107808896.01209  20515346.160    84006915.10349
  21476158.920   112857974.95609  21476153.780    87941260.48148
  20501430.740   107735744.94909  20501430.280    83949928.03749
  21361341.000   112254606.19009  21361339.660    87471116.83848
 15 03 05 03 07 30.0000000  0 10G01G04G11G14G16G18G19G22G27G32
  23423338.400   123090481.34708  23423340.340    95914662.46046
  21256390.260   111703085.78809  21256388.560    87041357.99448
  22349726.140   117448607.85108  22349723.720    91518387.04746
  23057918.120   121170177.83308  23057915.980    94418287.18246
  23473097.420   123351965.29008  23473095.480    96118399.38846
  24402056.060   128233666.91408  24402053.320    99922329.93445
  20511312.920   107787676.08209  20511308.080    83990380.09249
  21487926.680   112919814.94709  21487921.560    87989447.49448
  20507264.080   107766399.37609  20507263.720    83973814.59449
  21345998.020   112173978.54409  21345996.660    87408290.13148
 15 03 05 03 08  0.0000000  0 10G01G04G11G14G16G18G19G22G27G32
  23410136.860   123021106.49208  23410138.620    95860604.16946
  21247452.200   111656115.94209  21247450.460    87004758.14548
  22335211.680   117372334.34308  22335209.280    91458953.17146
  23047502.620   121115443.66708  23047500.440    94375637.19146
  23492727.040   123455119.48208  23492725.080    96198779.26546
  24419278.880   128324172.63508  24419275.940    99992853.89744
  20507350.640   107766853.71309  20507345.720    83974154.86849
  21499756.620   112981982.07509  21499751.580    88037889.40548
  20513183.100   107797504.30909  20513182.880    83998052.19249
  21330736.760   112093780.72209  21330735.440    87345798.34748
 15 03 05 03 08 30.0000000  0 10G01G04G11G14G16G18G19G22G27G32
  23396954.760   122951833.78608  23396956.340    95806625.46046
  21238554.500   111609358.40209  21238552.740    86968323.71248
  22320722.540   117296193.82408  22320720.160    91399622.94046
  23037153.740   121061059.99308  23037151.560    94333260.31746
  23512377.320   123558382.33508  23512375.300    96279243.81346
  24436514.580   128414746.40608  24436511.440   100063430.87944
  20503463.860   107746428.28609  20503458.980    83958238.94349
  21511648.000   113044471.84009  21511643.020    88086582.72948
  20519187.460   107829057.77809  20519187.320    84022639.30249
  21315557.240   112014012.55509  21315556.020    87283641.36248
 15 03 05 03 09  0.0000000  0 10G01G04G11G14G16G18G19G22G27G32
  23383792.660   122882665.94508  23383794.240    95752728.45346
  21229697.780   111562816.07709  21229696.040    86932056.97848
  22306259.400   117220189.64408  22306257.040    91340398.93446
  23026872.500   121007031.97008  23026870.360    94291160.58146
  23532048.160   123661753.14908  23532046.160    96359792.48446
  24453763.340   128505389.04408  24453759.940   100134061.53544
  20499653.400   107726403.91809  20499648.580    83942635.54149
  21523600.940   113107284.87409  21523595.960    88135527.95048
  20525277.720   107861062.63909  20525277.640    84047578.15149
  21300460.380   111934678.36209  21300459.220    87221822.53748
 15 03 05 03 09 30.0000000  0 10G01G04G11G14G16G18G19G22G27G32
  23370650.500   122813602.89208  23370652.040    95698913.12046
  21220881.940   111516488.77209  21220880.280    86895957.80448
  22291822.420   117144322.70009  22291820.000    91281281.85546
  23016659.400   120953362.37708  23016657.420    94249340.13146
  23551739.060   123765229.39608  23551737.020    96440423.30746
  24471024.840   128596098.93608  24471021.420   100204744.57644
  20495919.520   107706782.04409  20495914.720    83927345.77649
  21535615.020   113170419.23609  21535610.060    88184723.55248
  20531453.900   107893518.99109  20531453.860    84072868.81549
  21285446.500   111855779.94809  21285445.340    87160343.28248
 15 03 05 03 10  0.0000000  0 10G01G04G11G14G16G18G19G22G27G32
  23357527.620   122744641.48008  23357529.200    95645176.98746
  21212106.460   111470373.65209  21212104.840    86860023.95748
  22277411.360   117068591.51109  22277408.720    91222270.55446
  23006514.460   120900050.80408  23006512.600    94207798.66246
  23571448.920   123868804.97108  23571446.840    96521131.52646
  24488298.140   128686871.04207  24488294.680   100275476.08744
  20492261.900   107687560.84309  20492257.060    83912368.20849
  21547689.300   113233869.97409  21547684.340    88234165.67848
  20537715.420   107926423.86609  20537715.440    84098508.96149
  21270515.380   111777316.14409  21270514.160    87099202.68248
 15 03 05 03 10 30.0000000  0 10G01G04G11G14G16G18G19G22G27G32
  23344424.520   122675784.20908  23344426.120    95591522.01446
  21203371.940   111424473.51109  21203370.240    86824257.63548
  22263026.760   116992999.17409  22263023.840    91163367.46446
  22996438.700   120847102.30708  22996436.780    94166540.11146
  23591177.600   123972479.23709  23591175.440    96601916.67346
  24505583.400   128777706.45007  24505580.000   100346256.90744
  20488681.240   107668744.23209  20488676.340    83897705.91649
  21559823.800   113297637.01009  21559818.760    88283854.28548
  20544062.900   107959779.94609  20544062.900    84124500.70749
  21255667.780   111699291.13509  21255666.440    87038404.00648
 15 03 05 03 11  0.0000000  0 10G01G04G11G14G16G18G19G22G27G32
  23331341.080   122607030.57508  23331342.660    95537947.78446
  21194678.240   111378787.60709  21194676.460    86788658.25648
  22248668.640   116917545.95309  22248665.480    91104572.75546
  22986432.400   120794518.70608  22986430.480    94125565.89346
  23610924.440   124076249.05108  23610922.200    96682776.25646
  24522880.220   128868602.50207  24522877.120   100417084.97444
  20485177.640   107650333.10509  20485172.820    83883359.58149
  21572018.020   113361717.97909  21572012.920    88333787.50048
  20550496.220   107993586.79009  20550496.160    84150843.68249
  21240903.900   111621706.18509  21240902.420    86977948.19948
 15 03 05 03 11 30.0000000  0 10G01G04G11G14G16G18G19G22G27G32
  23318277.360   122538380.75208  23318278.960    95484454.45046
  21186025.400   111333316.68609  21186023.660    86753226.40448
  22234337.180   116842233.03909  22234333.860    91045887.39246
  22976496.120   120742303.31508  22976494.260    94084878.59846
  23630688.900   124180111.46708  23630686.540    96763708.01146
  24540188.460   128959557.90908  24540185.360   100487959.31944
  20481751.520   107632329.35909  20481746.840    83869330.69249
  21584271.540   113426110.60909  21584266.380    88383963.57548
  20557015.420   108027844.71609  20557015.240    84177538.16449
  21226224.080   111544563.30209  21226222.580    86917836.89148
 15 03 05 03 12  0.0000000  0 10G01G04G11G14G16G18G19G22G27G32
  23305233.540   122469835.94208  23305235.180    95431042.94746
  21177413.660   111288061.92309  21177411.960    86717962.97148
  22220032.720   116767062.64209  22220029.400    90987313.07346
  22966630.460   120690459.11908  22966628.600    94044480.54246
  23650470.680   124284065.32208  23650468.340    96844711.00346
  24557507.940   129050572.03608  24557504.900   100558879.39844
  20478403.380   107614735.34809  20478398.820    83855621.06949
  21596584.300   113490814.38909  21596579.060    88434382.09948
  20563620.660   108062554.94309  20563620.360    84204585.08149
  21211628.940   111467865.33209  21211627.420    86858072.25548
 15 03 05 03 12 30.0000000  0 10G01G04G11G14G16G18G19G22G27G32
  23292208.920   122401391.76708  23292210.600    95377709.85646
  21168842.240   111243019.04409  21168840.560    86682864.65048
  22205754.700   116692031.33509  22205751.420    90928847.14647
  22956835.240   120638984.76408  22956833.340    94004370.67846
  23670268.400   124388103.16108  23670266.100    96925779.43846
  24574837.440   129141638.90508  24574834.420   100629840.59545
  20475132.620   107597547.89009  20475128.120    83842228.23849
  21608955.160   113555823.34509  21608949.800    88485038.42648
  20570311.120   108097713.21309  20570310.780    84231981.13249
  21197118.000   111391609.75909  21197116.380    86798652.34948
 15 03 05 03 13  0.0000000  0 10G01G04G11G14G16G18G19G22G27G32
  23279204.140   122333051.38708  23279205.760    95324457.64946
  21160311.760   111198191.34209  21160310.080    86647933.99448
  22191503.920   116617143.20909  22191500.600    90870492.78947
  22947111.520   120587885.87908  22947109.520    93964553.38746
  23690082.020   124492224.65008  23690079.800    97006913.04346
  24592177.260   129232759.95108  24592174.400   100700843.98944
  20471940.220   107580771.61409  20471935.660    83829155.82049
  21621384.220   113621138.12809  21621378.820    88535933.05748
  20577087.380   108133322.76309  20577087.080    84259728.82149
  21182692.100   111315801.36409  21182690.440    86739580.91048
 15 03 05 03 13 30.0000000  0 10G01G04G11G14G16G18G19G22G27G32
  23266219.480   122264816.51408  23266221.080    95271287.64947
  21151822.560   111153580.57109  21151820.840    86613172.37948
  22177280.920   116542401.01809  22177277.600    90812252.13947
  22937459.940   120537166.73408  22937457.920    93925031.99546
  23709911.560   124596429.33108  23709909.380    97088111.48846
  24609527.440   129323935.48908  24609524.620   100771889.86245
  20468826.780   107564409.77009  20468822.100    83816406.33149
  21633871.380   113686758.29509  21633865.960    88587065.65248
  20583949.800   108169385.34409  20583949.600    84287829.52349
  21168351.980   111240443.58009  21168350.340    86680860.58848
 15 03 05 03 14  0.0000000  0 10G01G04G11G14G16G18G19G22G27G32
  23253254.000   122196682.67008  23253255.640    95218196.38746
  21143373.920   111109182.76809  21143372.140    86578576.70448
  22163085.060   116467801.24909  22163081.820    90754122.48247
  22927880.220   120486825.25208  22927878.220    93885804.89147
  23729755.540   124700709.82708  23729753.280    97169369.00946
  24626886.760   129415158.87208  24626883.880   100842973.02245
  20465791.640   107548459.27109  20465786.820    83803977.37549
  21646415.380   113752677.28909  21646409.980    88638431.09848
  20590897.620   108205896.44309  20590897.440    84316279.72049
  21154097.020   111165533.61709  21154095.500    86622489.22948
 15 03 05 03 14 30.0000000  0 10G01G04G11G14G16G18G19G22G27G32
  23240309.260   122128657.98308  23240311.000    95165190.17446
  21134967.380   111065003.11409  21134965.740    86544150.34748
  22148918.060   116393353.21409  22148914.980    90696111.04347
  22918374.240   120436867.13508  22918372.240    93846904.40147
  23749615.020   124805071.48908  23749612.560    97250689.77246
  24644256.460   129506436.85708  24644253.560   100914098.69445
  20462836.600   107532931.52909  20462831.660    83791875.26849
  21659017.320   113818901.26209  21659011.980    88690034.18948
  20597932.780   108242865.27809  20597932.100    84345087.81249
  21139928.800   111091074.26209  21139927.620    86564469.44448
 15 03 05 03 15  0.0000000  0 10G01G04G11G14G16G18G19G22G27G32
  23227382.120   122060725.49808  23227383.900    95112255.79947
  21126599.600   111021030.60709  21126598.020    86509886.08448
  22134776.860   116319040.69109  22134773.880    90638205.19747
  22908939.740   120387287.71809  22908937.640    93808271.11746
  23769486.080   124909494.31708  23769483.540    97332058.21446
  24661632.920   129597750.64208  24661629.920   100985252.29645
  20459958.300   107517806.74409  20459953.600    83780089.72149
  21671673.620   113885411.04309  21671668.420    88741859.99348
  20605051.160   108280272.82009  20605050.540    84374236.54849
  21125845.120   111017064.19509  21125844.080    86506799.29748
 15 03 05 03 15 30.0000000  0 10G01G04G11G14G16G18G19G22G27G32
  23214475.620   121992901.18308  23214477.320    95059405.71846
  21118273.800   110977278.63709  21118272.240    86475793.66147
  22120664.720   116244880.73209  22120661.700    90580418.23047
  22899579.880   120338100.62009  22899577.660    93769943.53946
  23789371.260   125013991.59108  23789368.700    97413484.65545
  24679018.900   129689114.67008  24679015.900   101056445.02544
  20457160.420   107503104.35309  20457155.860    83768633.31249
  21684386.900   113952220.41609  21684381.800    88793919.24248
  20612256.160   108318136.04909  20612255.700    84403740.35549
  21111849.060   110943514.11209  21111847.920    86449487.57248
 15 03 05 03 16  0.0000000  0 10G01G04G11G14G16G18G19G22G27G32
  23201589.280   121925183.14408  23201590.980    95006638.44346
  21109989.640   110933745.24309  21109988.040    86441871.56047
  22106581.360   116170872.48809  22106578.320    90522749.50346
  22890294.680   120289306.20708  22890292.440    93731921.94546
  23809269.660   125118558.44108  23809267.140    97494965.32046
  24696413.780   129780525.47808  24696410.860   101127674.21844
  20454442.880   107488823.76009  20454438.300    83757505.58649
  21697156.480   114019325.58209  21697151.480    88846208.97648
  20619547.560   108356452.95409  20619547.180    84433597.68149
  21097940.340   110870423.60009  21097939.200    86392533.97048
 15 03 05 03 16 30.0000000  0 10G01G04G11G14G16G18G19G22G27G32
  23188722.480   121857568.08108  23188724.280    94953951.42147
  21101746.560   110890427.33109  21101744.920    86408117.36248
  22092526.360   116097013.44809  22092523.340    90465197.02147
  22881084.000   120240903.76508  22881081.700    93694205.77546
  23829180.080   125223188.41208  23829177.580    97576495.15945
  24713816.580   129871977.87307  24713813.720   101198935.82444
  20451805.340   107474962.89709  20451800.640    83746704.91549
  21709981.380   114086721.04109  21709976.440    88898724.92048
  20626924.720   108395220.21809  20626924.320    84463805.92949
  21084118.800   110797790.99309  21084117.600    86335937.16648
 15 03 05 03 17  0.0000000  0 10G01G04G11G14G16G18G19G22G27G32
  23175875.040   121790054.82308  23175876.920    94901343.71546
  21093544.300   110847323.97509  21093542.660    86374530.34948
  22078499.660   116023303.58609  22078496.820    90407760.81346
  22871948.180   120192894.77508  22871945.840    93656796.19546
  23849101.820   125327877.99908  23849099.360    97658071.45046
  24731226.740   129963469.33806  24731223.780   101270227.86144
  20449247.720   107461521.88209  20449242.920    83736231.40449
  21722860.860   114154403.52809  21722856.100    88951464.51248
  20634387.380   108434436.61109  20634386.920    84494364.15549
  21070384.500   110725616.65409  21070383.240    86279697.45848
 15 03 05 03 17 30.0000000  0 10G01G04G11G14G16G18G19G22G27G32
  23163047.480   121722645.83908  23163049.260    94848817.27046
  21085383.400   110804437.71409  21085381.760    86341112.50648
  22064502.060   115949746.53909  22064499.360    90350443.66546
  22862888.060   120145283.77008  22862885.760    93619696.74047
  23869034.780   125432626.42908  23869032.380    97739693.61646
  24748644.460   130055000.40607  24748641.360   101341550.73842
  20446770.660   107448504.38709  20446765.760    83726087.89349
  21735795.140   114222373.56009  21735790.400    89004428.17248
  20641935.980   108474104.44609  20641935.420    84525274.14849
  21056738.200   110653904.67209  21056736.860    86223818.02448
 15 03 05 03 18  0.0000000  0 10G01G04G11G14G16G18G19G22G27G32
  23150239.140   121655337.59508  23150240.720    94796369.33046
  21077263.140   110761765.19509  21077261.420    86307861.20748
  22050533.040   115876339.45309  22050530.340    90293243.36747
  22853903.440   120098069.58108  22853901.260    93582906.48146
  23888977.740   125537427.60408  23888975.440    97821356.85946
  24766068.820   130146566.13807  24766065.720   101412900.69043
  20444373.800   107435908.21209  20444368.780    83716272.69349
  21748783.040   114290625.25709  21748778.240    89057611.31048
  20649569.700   108514220.05709  20649569.120    84556533.06049
  21043179.560   110582652.98909  21043178.140    86168297.25548
 15 03 05 03 18 30.0000000  0 10G01G04G11G14G16G18G19G22G27G32
  23137450.600   121588133.16908  23137452.100    94744002.29046
  21069184.160   110719309.80809  21069182.360    86274779.10148
  22036593.480   115803086.59709  22036590.700    90236163.24047
  22844995.440   120051257.90109  22844993.300    93546429.88047
  23908930.680   125642281.58708  23908928.420    97903061.25546
  24783500.080   130238167.56008  24783496.960   101484278.46843
  20442057.900   107423737.87809  20442052.840    83706789.32049
  21761824.780   114359159.80809  21761819.880    89111014.85648
  20657289.200   108554786.44009  20657288.600    84588143.22849
  21029709.340   110511866.22109  21029707.880    86113138.76348
 15 03 05 03 19  0.0000000  0 10G01G04G11G14G16G18G19G22G27G32
  23124681.680   121521032.02408  23124683.080    94691715.73046
  21061146.320   110677070.74409  21061144.460    86241865.56648
  22022683.480   115729988.40209  22022680.580    90179203.62247
  22836164.360   120004850.40709  22836162.260    93510268.22746
  23928893.000   125747185.05408  23928890.860    97984804.21046
  24800937.760   130329802.90008  24800934.640   101555682.65844
  20439823.120   107411993.95309  20439818.020    83697638.20649
  21774919.880   114427974.49509  21774914.820    89164636.68848
  20665094.360   108595802.88309  20665093.760    84620104.08049
  21016327.740   110441545.39109  21016326.360    86058343.34048
 15 03 05 03 19 30.0000000  0 10G01G04G11G14G16G18G19G22G27G32
  23111932.720   121454035.57908  23111934.020    94639510.75146
  21053150.100   110635050.11709  21053148.200    86209122.23448
  22008803.380   115657047.40909  22008800.340    90122366.51147
  22827410.920   119958850.97109  22827408.780    93474424.55846
  23948864.460   125852136.20308  23948862.320    98066584.32445
  24818381.840   130421471.67308  24818378.900   101627112.87744
  20437669.960   107400679.06109  20437664.860    83688821.40749
  21788068.120   114497068.54209  21788063.060    89218476.20548
  20672985.420   108637270.64109  20672984.820    84652416.61549
  21003035.280   110371693.28709  21003033.940    86003913.15948
 15 03 05 03 20  0.0000000  0 10G01G04G11G14G16G18G19G22G27G32
  23099202.820   121387139.47908  23099204.120    94587383.96146
  21045194.580   110593243.39609  21045192.660    86176545.57748
  21994952.580   115584260.27809  21994949.440    90065649.27047
  22818734.700   119913257.31108  22818732.520    93438897.05946
  23968843.880   125957128.52208  23968841.580    98148396.53145
  24835831.180   130513168.24808  24835828.200   101698564.75644
  20435597.880   107389790.11709  20435592.700    83680336.50849
  21801268.260   114566435.70109  21801263.200    89272528.53148
  20680961.480   108679185.14509  20680960.920    84685077.26049
  20989831.480   110302307.14909  20989830.160    85949846.08248
 15 03 05 03 20 30.0000000  0 11G01G03G04G11G14G16G18G19G22G27G32
  23086492.660   121320347.21408  23086494.060    94535338.06946
  24625604.660   129408425.70807  24625607.700   100837741.82046
  21037280.440   110551654.16009  21037278.500    86144138.38648
  21981131.900   115511631.56509  21981128.640    90009055.49947
  22810136.780   119868075.43908  22810134.620    93403690.43647
  23988831.260   126062162.65508  23988828.840    98230241.31046
  24853286.080   130604894.17208  24853283.100   101770039.50845
  20433607.740   107379331.78509  20433602.520    83672187.16249
  21814520.600   114636077.06809  21814515.540    89326794.53348
  20689023.180   108721549.74109  20689022.680    84718088.62349
  20976717.260   110233391.81209  20976715.960    85896145.86348
 15 03 05 03 21  0.0000000  0 11G01G03G04G11G14G16G18G19G22G27G32
  23073803.560   121253665.63808  23073805.080    94483378.44446
  24605922.880   129304996.11307  24605925.660   100757147.37746
  21029409.020   110510289.74709  21029407.100    86111906.38848
  21967342.780   115439168.95609  21967339.460    89952591.15547
  22801619.060   119823314.61309  22801616.900    93368811.90146
  24008827.320   126167242.37008  24008824.820    98312121.61846
  24870747.520   130696654.64808  24870744.520   101841541.19445
  20431701.040   107369312.13509  20431695.840    83664379.65149
  21827826.000   114705997.49609  21827820.980    89381277.98148
  20697171.720   108764370.97309  20697171.320    84751455.80849
  20963694.220   110164955.60609  20963692.920    85842818.99048
 15 03 05 03 21 30.0000000  0 11G01G03G04G11G14G16G18G19G22G27G32
  23061132.560   121187079.08908  23061134.120    94431492.87547
  24586264.500   129201690.89407  24586267.220   100676649.91246
  21021577.380   110469134.46409  21021575.500    86079837.35148
  21953582.460   115366857.93409  21953579.100    89896244.94147
  22793178.820   119778961.26208  22793176.720    93334250.89547
  24028828.380   126272348.75308  24028825.980    98394022.70146
  24888212.320   130788432.67608  24888209.320   101913056.54545
  20429875.060   107359716.82109  20429869.900    83656902.78749
  21841181.120   114776179.23009  21841176.160    89435965.04948
  20705404.120   108807633.01509  20705403.780    84785166.48949
  20950759.660   110096984.24209  20950758.300    85789854.33048
 15 03 05 03 22  0.0000000  0 10G01G03G04G11G14G16G19G22G27G32
  23048481.540   121120598.00308  23048483.140    94379689.47647
  24566632.180   129098522.27207  24566634.740   100596258.81145
  21013787.580   110428198.86509  21013785.640    86047939.48348
  21939853.060   115294709.97309  21939849.760    89840025.75847
  22784818.440   119735027.92308  22784816.440    93300017.15347
  24048836.000   126377489.66008  24048833.720    98475950.67146
  20428131.940   107350557.15509  20428126.860    83649765.37449
  21854587.580   114846630.72409  21854582.600    89490862.30948
  20713722.320   108851345.95309  20713722.060    84819228.50649
  20937915.780   110029489.45209  20937914.360    85737261.00748
 15 03 05 03 22 30.0000000  0 10G01G03G04G11G14G16G19G22G27G32
  23035849.800   121054218.27108  23035851.480    94327965.05547
  24547025.280   128995487.70608  24547027.740   100515972.23946
  21006038.920   110387479.26909  21006036.900    86016209.94248
  21926154.100   115222722.13809  21926150.900    89783931.36447
  22776537.740   119691512.81309  22776535.760    93266109.31346
  24068848.940   126482658.60908  24068846.680    98557900.51545
  20426471.220   107341830.24409  20426466.140    83642965.18449
  21868044.180   114917345.62109  21868039.200    89545964.82648
  20722125.480   108895505.46709  20722125.360    84853638.50849
  20925162.060   109962468.60909  20925160.680    85685036.99848
 15 03 05 03 23  0.0000000  0 10G01G03G04G11G14G16G19G22G27G32
  23023237.540   120987940.81808  23023239.240    94276320.32547
  24527444.580   128892589.90207  24527446.780   100435792.13846
  20998331.480   110346976.39809  20998329.460    85984649.28248
  21912486.000   115150896.59209  21912482.920    89727963.42647
  22768337.340   119648419.21809  22768335.280    93232529.91647
  24088866.820   126587853.38608  24088864.560    98639870.47345
  20424893.340   107333538.26009  20424888.160    83636503.90849
  21881550.600   114988322.56909  21881545.600    89601271.54248
  20730613.780   108940112.18409  20730613.740    84888396.98549
  20912498.960   109895923.94709  20912497.660    85633184.04648
 15 03 05 03 23 30.0000000  0 10G01G03G04G11G14G16G19G22G27G32
  23010644.940   120921766.66808  23010646.600    94224756.08746
  24507890.440   128789831.39108  24507892.440   100355720.65345
  20990665.600   110306691.74609  20990663.600    85953258.66548
  21898849.120   115079235.03709  21898846.120    89672123.28247
  22760217.820   119605750.30309  22760215.660    93199281.44447
  24108889.360   126693072.48908  24108887.100    98721859.38945
  20423398.560   107325683.01509  20423393.340    83630382.94049
  21895106.780   115059560.83609  21895101.760    89656781.89348
  20739187.380   108985166.79009  20739187.340    84923504.46649
  20899926.940   109829857.80409  20899925.680    85581703.97548
 15 03 05 03 24  0.0000000  0 10G01G03G04G11G14G16G19G22G27G32
  22998071.760   120855694.52908  22998073.420    94173271.32646
  24488362.940   128687212.53308  24488364.680   100275757.95145
  20983040.940   110266623.90809  20983039.000    85922036.97548
  21885243.400   115007737.32109  21885240.540    89616410.80547
  22752179.380   119563507.26209  22752177.060    93166364.81147
  24128915.580   126798310.77508  24128913.300    98803863.26245
  20421986.900   107318264.76209  20421981.700    83624602.48149
  21908712.060   115131056.91209  21908707.040    89712493.11948
  20747846.020   109030667.63809  20747845.880    84958959.66749
  20887445.940   109764270.19309  20887444.680    85530596.77648
 15 03 05 03 24 30.0000000  0 10G01G03G04G11G14G16G19G22G27G32
  22985518.280   120789726.14808  22985519.960    94121867.44447
  24468862.620   128584736.59308  24468863.980   100195906.56146
  20975457.900   110226775.05009  20975456.000    85890985.92548
  21871669.460   114936406.30509  21871666.680    89560828.21147
  22744222.620   119521693.72508  22744220.200    93133782.87946
  24148945.400   126903568.14208  24148942.940    98885882.00745
  20420658.920   107311286.53309  20420653.840    83619164.90049
  21922366.240   115202810.03609  21922361.180    89768404.64648
  20756589.860   109076616.11809  20756589.620    84994763.66949
  20875056.600   109699164.17909  20875055.280    85479864.83848
 15 03 05 03 25  0.0000000  0 10G01G03G04G11G14G16G19G22G27G32
  22972984.860   120723863.02308  22972986.600    94070545.58047
  24449390.020   128482406.73208  24449391.320   100116169.05046
  20967916.820   110187146.73009  20967914.940    85860106.71948
  21858127.780   114865244.44309  21858125.040    89505377.42747
  22736348.120   119480313.18208  22736345.700    93101538.32947
  24168978.600   127008843.24508  24168976.040    98967914.56345
  20419415.040   107304750.38509  20419410.120    83614071.79649
  21936069.180   115274819.76409  21936064.160    89824516.11248
  20765419.100   109123013.34909  20765418.760    85030917.34949
  20862759.480   109634542.45909  20862758.120    85429510.27348
 15 03 05 03 25 30.0000000  0 10G01G03G04G11G14G16G19G22G27G32
  22960470.820   120658101.43308  22960472.560    94019302.82147
  24429944.760   128380220.86708  24429946.120   100036543.77946
  20960417.060   110147735.49109  20960415.200    85829396.67748
  21844617.840   114794249.28709  21844615.140    89450056.55247
  22728555.640   119439364.16909  22728553.320    93069630.04247
  24189013.880   127114129.38408  24189011.400    99049955.72245
  20418254.820   107298653.82909  20418250.020    83609321.23749
  21949819.880   115347080.48509  21949814.880    89880823.17248
  20774332.920   109169855.26909  20774332.500    85067417.54249
  20850554.120   109570402.60409  20850552.760    85379531.19248
 15 03 05 03 26  0.0000000  0 10G01G03G04G11G14G16G19G22G27G32
  22947976.660   120592443.75808  22947978.260    93968141.04647
  24410527.480   128278182.87407  24410528.960    99957033.68746
  20952959.100   110108543.75409  20952957.200    85798857.66748
  21831140.240   114723424.03709  21831137.580    89394868.06047
  22720846.200   119398851.29909  22720843.980    93038061.59046
  24209051.080   127219425.79608  24209048.680    99132004.87445
  20417178.980   107293000.43109  20417174.200    83604915.98749
  21963618.340   115419592.27809  21963613.400    89937325.86248
  20783331.700   109217143.82809  20783331.200    85104265.75649
  20838441.160   109506748.19609  20838439.780    85329930.38648
 15 03 05 03 26 30.0000000  0 10G01G03G04G11G14G16G19G22G27G32
  22935502.360   120526890.51508  22935503.820    93917060.63147
  24391138.600   128176294.92807  24391140.240    99877640.57247
  20945542.980   110069572.12809  20945541.120    85768490.18448
  21817695.300   114652770.23009  21817692.600    89339813.18447
  22713220.340   119358777.10209  22713218.040    93006834.97847
  24229089.780   127324730.10408  24229087.540    99214060.19545
  20416187.820   107287791.75509  20416183.040    83600857.28749
  21977464.340   115492353.72809  21977459.540    89994023.10748
  20792415.500   109264879.09009  20792414.940    85141462.06649
  20826420.920   109443580.92309  20826419.540    85280709.16848
 15 03 05 03 27  0.0000000  0 10G01G03G04G11G14G16G19G22G27G32
  22923047.260   120461438.29608  22923048.520    93866058.93247
  24371777.840   128074555.12907  24371779.880    99798362.89746
  20938168.120   110030817.56809  20938166.380    85738291.84948
  21804282.620   114582285.73209  21804279.860    89284890.22547
  22705677.680   119319140.38508  22705675.360    92975949.24947
  24249129.060   127430037.24408  24249126.900    99296117.71346
  20415280.800   107283025.18009  20415276.020    83597143.07549
  21991356.780   115565358.98509  21991351.960    90050910.32948
  20801583.580   109313057.26109  20801582.940    85179003.49049
  20814492.960   109380898.65009  20814491.540    85231865.86548
 15 03 05 03 27 30.0000000  0 10G01G03G04G11G14G16G19G22G27G32
  22910612.120   120396091.58408  22910613.400    93815139.44647
  24352446.620   127972969.67308  24352448.900    99719205.47146
  20930835.500   109992284.62109  20930833.820    85708266.19248
  21790903.160   114511976.09509  21790900.360    89230103.52247
  22698219.420   119279947.36609  22698217.200    92945409.25547
  24269169.100   127535348.13408  24269166.920    99378178.14946
  20414458.940   107278706.14809  20414454.180    83593777.59749
  22005295.980   115638610.53509  22005291.300    90107989.44948
  20810836.580   109361682.28809  20810836.020    85216893.10749
  20802658.320   109318706.88409  20802656.820    85183404.77048
 15 03 05 03 28  0.0000000  0 10G01G03G04G11G14G16G19G22G27G32
  22898196.220   120330845.99108  22898197.680    93764298.75147
  24333144.360   127871535.62508  24333146.540    99640165.99046
  20923544.280   109953969.02009  20923542.600    85678409.88748
  21777556.320   114441837.82809  21777553.460    89175450.33347
  22690845.220   119241195.96709  22690843.040    92915213.39547
  24289208.460   127640655.34208  24289206.180    99460235.71445
  20413721.600   107274831.46609  20413716.840    83590758.36049
  22019280.780   115712101.95909  22019276.280    90165255.48348
  20820173.660   109410749.37409  20820173.240    85255127.18849
  20790916.480   109257002.53909  20790914.820    85135323.47448
 15 03 05 03 28 30.0000000  0 10G01G03G04G11G14G16G19G22G27G32
  22885800.100   120265704.03208  22885801.580    93713538.81847
  24313871.760   127770257.02408  24313873.800    99561247.69346
  20916294.960   109915873.54609  20916293.220    85648725.13448
  21764242.780   114371874.65009  21764239.880    89120933.58547
  22683555.980   119202890.72909  22683553.780    92885365.20047
  24309247.080   127745958.70408  24309244.680    99542290.30445
  20413069.560   107271404.74909  20413064.700    83588088.20449
  22033311.420   115785833.57809  22033307.020    90222708.70148
  20829595.220   109460260.44009  20829594.920    85293707.24149
  20779268.000   109195789.09509  20779266.260    85087624.72348
 15 03 05 03 29  0.0000000  0 10G01G03G04G11G14G16G19G22G27G32
  22873423.660   120200665.23608  22873425.080    93662859.26147
  24294629.000   127669134.97008  24294630.800    99482451.33746
  20909087.480   109877997.78409  20909085.680    85619211.56548
  21750962.660   114302087.45109  21750959.800    89066553.97647
  22676351.940   119165033.15709  22676349.640    92855865.81547
  24329284.320   127851255.08808  24329281.780    99624339.44245
  20412502.840   107268426.40009  20412497.920    83585767.40849
  22047387.260   115859802.64209  22047382.900    90280346.92348
  20839101.100   109510214.52009  20839100.860    85332632.49249
  20767713.000   109135067.19209  20767711.220    85040308.97748
 15 03 05 03 29 30.0000000  0 10G01G03G04G11G14G16G19G22G27G32
  22861066.820   120135729.18808  22861068.140    93612259.76847
  24275416.240   127568170.59408  24275417.860    99403777.85646
  20901921.740   109840341.38709  20901919.940    85589868.92648
  21737716.120   114232476.59209  21737713.240    89012311.76547
  22669233.300   119127624.63009  22669230.940    92826716.33047
  24349319.620   127956541.55708  24349317.120    99706380.85344
  20412021.580   107265896.91309  20412016.540    83583796.38149
  22061507.820   115934006.80709  22061503.440    90338168.33948
  20848691.220   109560610.67309  20848690.940    85371902.21349
  20756251.620   109074837.52009  20756249.900    84993376.79448
 15 03 05 03 30  0.0000000  0 10G01G03G04G11G14G16G19G22G27G32
  22848729.540   120070895.98408  22848730.740    93561740.41947
  24256233.780   127467365.45808  24256235.100    99325228.45146
  20894797.760   109802904.91109  20894796.040    85560697.66548
  21724503.360   114163043.23009  21724500.420    88958207.85947
  22662200.580   119090667.37609  22662198.200    92797918.49347
  24369352.300   128061814.57408  24369349.800    99788411.79645
  20411625.920   107263817.31909  20411620.800    83582175.92449
  22075672.840   116008444.13209  22075668.360    90396171.45648
  20858365.380   109611448.40409  20858365.040    85411516.02549
  20744884.100   109015101.16909  20744882.460    84946829.01748
 15 03 05 03 30 30.0000000  0 10G01G03G04G11G14G16G19G22G27G32
  22836411.980   120006166.80408  22836413.140    93511302.12947
  24237081.960   127366722.25908  24237083.140    99246805.23045
  20887715.780   109765689.59909  20887714.200    85531698.73648
  21711324.820   114093789.79509  21711321.880    88904244.15747
  22655254.260   119054164.43909  22655251.920    92769474.65647
  24389382.320   128167073.37808  24389379.840    99870431.66244
  20411316.160   107262189.70809  20411311.080    83580907.64849
  22089882.080   116083113.36709  22089877.380    90454355.26748
  20868123.620   109662728.33509  20868123.260    85451474.39749
  20733610.840   108955860.39009  20733609.280    84900667.38748
 15 03 05 03 31  0.0000000  0 10G01G03G04G11G14G16G19G22G27G32
  22824114.060   119941541.02608  22824115.280    93460944.40947
  24217961.120   127266241.96108  24217962.160    99168508.94945
  20880675.840   109728694.97709  20880674.320    85502871.78148
  21698180.640   114024716.78309  21698177.620    88850421.06247
  22648394.640   119018117.26009  22648392.340    92741385.96647
  24409408.960   128272314.32108  24409406.540    99952437.61645
  20411092.400   107261014.27509  20411087.400    83579991.73949
  22104134.920   116158012.08209  22104130.080    90512717.90448
  20877965.700   109714449.29609  20877965.400    85491776.44649
  20722431.940   108897115.62809  20722430.460    84854892.28548
 15 03 05 03 31 30.0000000  0 10G01G03G04G11G14G16G19G22G27G32
  22811835.780   119877018.43208  22811837.140    93410667.09747
  24198871.420   127165925.76408  24198872.640    99090340.56446
  20873677.940   109691920.82709  20873676.320    85474216.61648
  21685071.040   113955825.04209  21685067.940    88796739.19647
  22641622.040   118982527.35409  22641619.720    92713653.58847
  24429431.660   128377534.32208  24429429.320   100034427.25445
  20410954.880   107260291.88109  20410949.900    83579428.84649
  22118430.920   116233137.48309  22118425.960    90571257.17248
  20887891.500   109766610.35709  20887891.320    85532421.43149
  20711347.600   108838867.51209  20711346.160    84809504.16948
 15 03 05 03 32  0.0000000  0 10G01G03G04G11G14G16G19G22G27G32
  22799577.160   119812599.25608  22799578.680    93360470.37047
  24179813.200   127065775.40108  24179814.680    99012301.39446
  20866722.120   109655367.62009  20866720.480    85445733.61848
  21671996.140   113887115.81809  21671992.980    88743199.57047
  22634936.860   118947396.63209  22634934.540    92686279.02247
  24449449.940   128482730.74708  24449447.680   100116398.52545
  20410903.800   107260023.46209  20410898.760    83579219.69549
  22132769.800   116308487.87309  22132764.720    90629971.76548
  20897900.960   109819211.16809  20897900.920    85573409.06249
  20700358.060   108781117.32809  20700356.580    84764504.05048
 15 03 05 03 32 30.0000000  0 10G01G03G04G11G14G16G19G22G27G32
  22787338.360   119748284.10408  22787339.900    93310354.70647
  24160786.940   126965792.96708  24160788.680    98934393.07646
  20859808.520   109619036.18609  20859806.820    85417423.43448
  21658956.300   113818590.97309  21658953.160    88689803.62247
  22628339.640   118912727.92609  22628337.300    92659264.47847
  24469463.300   128587901.46708  24469461.100   100198349.75546
  20410939.380   107260210.69109  20410934.380    83579365.58949
  22147151.160   116384061.98309  22147145.920    90688860.68748
  20907994.160   109872251.64209  20907994.200    85614739.29749
  20689463.560   108723866.58909  20689462.040    84719893.11348
 15 03 05 03 33  0.0000000  0 10G01G03G04G11G14G16G19G22G27G32
  22775119.380   119684072.99908  22775120.820    93260320.11447
  24141793.020   126865979.94808  24141794.920    98856616.76746
  20852937.100   109582926.57509  20852935.280    85389286.07948
  21645951.700   113750251.28909  21645948.620    88636551.94847
  22621830.720   118878523.13409  22621828.380    92632611.41647
  24489471.200   128693043.91408  24489469.040   100280278.93945
  20411061.740   107260854.11509  20411056.840    83579866.96149
  22161574.600   116459857.50909  22161569.360    90747922.13548
  20918170.960   109925731.13109  20918171.000    85656411.62249
  20678664.300   108667116.17809  20678662.700    84675672.03948
 15 03 05 03 33 30.0000000  0 10G01G03G04G11G14G16G19G22G27G32
  22762920.580   119619967.90908  22762921.880    93210368.13247
  24122832.020   126766339.82008  24122834.000    98778975.18846
  20846108.300   109547041.17309  20846106.460    85361323.43848
  21632982.940   113682100.15809  21632979.980    88583447.21047
  22615410.760   118844785.91109  22615408.380    92606322.71047
  24509473.440   128798157.15707  24509471.360   100362185.37245
  20411271.560   107261956.95009  20411266.760    83580726.31949
  22176040.200   116535874.45609  22176034.800    90807156.13048
  20928431.600   109979650.99309  20928431.600    85698427.09749
  20667960.820   108610869.07209  20667959.160    84631843.15148
 15 03 05 03 34  0.0000000  0 10G01G03G04G11G14G16G19G22G27G32
  22750741.120   119555964.76508  22750742.360    93160495.59747
  24103903.540   126666869.90508  24103905.380    98701466.23546
  20839321.440   109511375.87809  20839319.540    85333532.31548
  21620049.460   113614134.58809  21620046.540    88530487.06447
  22609079.340   118811514.03509  22609076.980    92580396.60447
  24529468.700   128903233.92708  24529466.760   100444063.36945
  20411568.160   107263515.58509  20411563.360    83581940.84849
  22190546.580   116612106.25809  22190541.280    90866557.52448
  20938775.180   110034006.35809  20938775.060    85740781.92749
  20657352.500   108555121.99009  20657350.860    84588403.89748
 15 03 05 03 34 30.0000000  0 10G01G03G04G11G14G16G19G22G27G32
  22738581.260   119492064.92808  22738582.560    93110703.53747
  24085008.020   126567573.04308  24085009.780    98624092.11246
  20832576.740   109475932.36609  20832574.880    85305914.01148
  21607151.820   113546357.02209  21607148.800    88477673.42147
  22602837.000   118778710.44309  22602834.680    92554835.38847
  24549456.920   129008273.41808  24549455.060   100525912.32944
  20411951.960   107265532.43909  20411947.180    83583512.42949
  22205093.720   116688552.29109  22205088.400    90926125.87648
  20949201.780   110088797.90309  20949201.560    85783476.63649
  20646839.760   108499877.17109  20646838.100    84545356.01348
 15 03 05 03 35  0.0000000  0 10G01G03G04G11G14G16G19G22G27G32
  22726441.220   119428269.42808  22726442.660    93060992.77747
  24066145.980   126468451.71308  24066147.520    98546854.77346
  20825874.460   109440711.89709  20825872.640    85278469.50848
  21594290.320   113478769.44109  21594287.240    88425007.81147
  22596684.240   118746378.09709  22596682.040    92529641.38247
  24569437.900   129113274.00308  24569435.920   100607730.98745
  20412423.280   107268009.04309  20412418.460    83585442.26249
  22219681.460   116765211.46409  22219676.300    90985860.29248
  20959711.420   110144025.90109  20959711.100    85826511.44149
  20636422.900   108445136.47509  20636421.320    84502700.96248
 15 03 05 03 35 30.0000000  0 10G01G03G04G11G14G16G19G22G27G32
  22714320.780   119364576.70908  22714322.300    93011362.09247
  24047317.260   126369505.71908  24047318.620    98469754.05646
  20819214.320   109405712.64309  20819212.460    85251197.37248
  21581464.880   113411371.54809  21581461.800    88372489.99947
  22590621.200   118714517.07109  22590619.040    92504814.64647
  24589410.640   129218230.94508  24589408.480   100689515.65245
  20412981.860   107270944.63709  20412977.060    83587729.74449
  22234309.000   116842080.17809  22234303.920    91045757.98748
  20970303.600   110199687.99309  20970303.260    85869884.50049
  20626101.900   108390899.09909  20626100.300    84460438.10348
 15 03 05 03 36  0.0000000  0 10G01G03G04G11G14G16G19G22G27G32
  22702220.400   119300989.13008  22702222.020    92961813.31747
  24028522.640   126270739.00108  24028523.840    98392793.02146
  20812596.920   109370937.76409  20812595.040    85224100.07648
  21568676.160   113344166.83609  21568673.260    88320122.72847
  22584648.680   118683131.37209  22584646.440    92480358.29247
  24609374.980   129323143.78908  24609372.720   100771265.92045
  20413628.360   107274342.32509  20413623.580    83590377.29349
  22248976.480   116919158.63409  22248971.520    91105819.11448
  20980978.660   110255785.84409  20980978.320    85913597.10349
  20615877.320   108337168.28709  20615875.680    84418569.96448
 15 03 05 03 36 30.0000000  0 10G01G03G04G11G14G16G19G22G27G32
  22690139.880   119237505.56908  22690141.540    92912345.59347
  24009762.120   126172151.71108  24009763.060    98315971.79546
  20806021.980   109336385.82209  20806020.020    85197176.50148
  21555924.200   113277155.35209  21555921.400    88267906.04047
  22578766.740   118652221.65809  22578764.500    92456272.84547
  24629330.200   129428008.98608  24629327.940   100852979.08645
  20414362.640   107278201.68109  20414357.940    83593384.59049
  22263683.320   116996443.57109  22263678.300    91166041.14948
  20991736.220   110312317.44509  20991735.940    85957647.69949
  20605749.020   108283943.59109  20605747.360    84377096.20148
 15 03 05 03 37  0.0000000  0 10G01G03G04G11G14G16G19G22G27G32
  22678079.060   119174125.40608  22678080.680    92862958.44747
  23991035.780   126073744.53008  23991036.640    98239290.93346
  20799489.360   109302056.45109  20799487.320    85170426.36148
  21543209.140   113210337.33909  21543206.340    88215840.08747
  22572975.560   118621789.04309  22572973.320    92432559.15247
  24649275.660   129532823.12308  24649273.380   100934652.44945
  20415184.900   107282522.95109  20415180.200    83596751.81649
  22278428.940   117073932.30409  22278423.920    91226421.96748
  21002576.020   110369281.28109  21002575.800    86002035.09749
  20595717.020   108231225.05709  20595715.340    84336016.84748
 15 03 05 03 37 30.0000000  0 10G01G03G04G11G14G16G19G22G27G32
  22666038.100   119110849.17208  22666039.500    92813652.30747
  23972344.060   125975519.43008  23972345.000    98162751.94646
  20792999.200   109267950.32009  20792997.160    85143850.16948
  21530531.340   113143714.76709  21530528.420    88163926.42947
  22567275.560   118591835.60108  22567273.340    92409218.83347
  24669211.040   129637583.81308  24669208.700   101016284.21144
  20416095.300   107287307.12009  20416090.600    83600479.73749
  22293213.000   117151622.97409  22293207.920    91286960.16048
  21013498.020   110426677.00909  21013497.840    86046759.03549
  20585781.580   108179013.87209  20585779.820    84295332.83448
 15 03 05 03 38  0.0000000  0 10G01G03G04G11G14G16G19G22G27G32
  22654017.180   119047678.19308  22654018.460    92764428.20047
  23953687.480   125877479.10508  23953688.440    98086356.94946
  20786551.720   109234068.82809  20786549.800    85117449.02748
  21517891.140   113077289.87809  21517888.040    88112166.80847
  22561667.320   118562364.18508  22561665.100    92386254.13047
  24689135.900   129742289.54308  24689133.640   101097873.13545
  20417094.220   107292556.15909  20417089.480    83604569.90849
  22308035.420   117229514.83109  22308030.240    91347655.12148
  21024502.340   110484505.16909  21024502.200    86091819.95249
  20575943.120   108127312.19809  20575941.300    84255045.84548
 15 03 05 03 38 30.0000000  0 10G01G03G04G11G14G16G19G22G27G32
  22642016.300   118984612.82008  22642017.480    92715286.37647
  23935066.420   125779625.37308  23935067.440    98010107.32746
  20780147.060   109200412.66209  20780145.280    85091223.45748
  21505288.820   113011064.13409  21505285.700    88060562.35747
  22556151.240   118533376.71909  22556149.020    92363666.52047
  24709049.800   129846938.07308  24709047.680   101179417.46044
  20418181.880   107298271.35209  20418177.040    83609023.30549
  22322895.720   117307606.33909  22322890.520    91408505.64547
  21035588.860   110542765.30409  21035588.760    86137217.44549
  20566201.800   108076121.04309  20566199.960    84215156.64848
 15 03 05 03 39  0.0000000  0 10G01G03G04G11G14G16G19G22G27G32
  22630035.220   118921651.64408  22630036.300    92666225.75647
  23916480.820   125681958.06408  23916482.000    97934002.99546
  20773785.040   109166980.49909  20773783.320    85065172.43848
  21492724.300   112945037.36009  21492721.220    88009112.94547
  22550727.280   118504873.49009  22550725.060    92341456.23947
  24728951.940   129951525.17307  24728949.940   101260913.91645
  20419358.060   107304451.79909  20419353.140    83613839.23849
  22337793.320   117385893.97409  22337788.140    91469508.99548
  21046757.080   110601454.96209  21046757.080    86182949.63149
  20556557.400   108025439.50209  20556555.580    84175664.55448
 15 03 05 03 39 30.0000000  0 10G01G03G04G11G14G16G19G22G27G32
  22618074.180   118858795.92508  22618075.280    92617247.31547
  23897931.160   125584479.77308  23897932.600    97858045.93946
  20767465.980   109133773.70909  20767464.220    85039297.03748
  21480198.100   112879211.78909  21480195.020    87957820.31547
  22545396.000   118476857.24609  22545393.680    92319625.43647
  24748842.100   130056049.18208  24748839.920   101342361.22244
  20420623.080   107311099.14609  20420618.080    83619018.99249
  22352727.980   117464376.43909  22352722.880    91530664.16748
  21058007.100   110660574.50709  21058007.180    86229016.80649
  20547010.340   107975269.51009  20547008.540    84136571.08548
 15 03 05 03 40  0.0000000  0 10G01G03G04G11G14G16G19G22G27G32
  22606132.780   118796043.47109  22606133.880    92568349.33747
  23879417.460   125487189.71008  23879418.800    97782235.55346
  20761189.460   109100790.47709  20761187.720    85013595.82748
  21467709.940   112813586.37809  21467706.940    87906683.64347
  22540157.280   118449327.46109  22540154.800    92298173.68047
  24768719.340   130160505.35107  24768717.320   101423755.64345
  20421976.640   107318211.95209  20421971.640    83624561.43349
  22367698.940   117543049.63309  22367693.940    91591967.94648
  21069338.380   110720120.81709  21069338.440    86275416.52649
  20537560.240   107925609.46709  20537558.540    84097874.97248
 15 03 05 03 40 30.0000000  0 10G01G03G04G11G14G16G19G22G27G32
  22594211.160   118733394.89309  22594212.220    92519532.30047
  23860940.040   125390089.83408  23860941.180    97706573.36546
  20754955.560   109068031.27709  20754953.840    84988069.20148
  21455260.240   112748163.19209  21455257.300    87855704.57647
  22535011.440   118422286.04109  22535008.900    92277102.47747
  24788583.280   130264891.61407  24788581.300   101505095.64045
  20423419.020   107325791.53109  20423414.020    83630467.61749
  22382705.980   117621912.16309  22382700.960    91653419.28048
  21080750.840   110780093.62109  21080750.840    86322148.58449
  20528207.320   107876460.56609  20528205.780    84059577.16248
 15 03 05 03 41  0.0000000  0 10G01G03G04G11G14G16G19G22G27G32
  22582309.900   118670853.27609  22582310.960    92470798.61647
  23842499.660   125293184.47608  23842500.680    97631062.74046
  20748764.980   109035499.56209  20748763.240    84962719.82948
  21442849.760   112682946.06309  21442846.840    87804886.06047
  22529959.420   118395737.68109  22529956.920    92256415.47147
  24808434.000   130369208.49607  24808432.240   101586381.49745
  20424950.860   107333841.40209  20424945.860    83636740.26049
  22397749.180   117700964.71709  22397744.200    91715018.67448
  21092244.820   110840494.89309  21092244.800    86369214.51149
  20518952.380   107827826.37609  20518950.960    84021680.41948
 15 03 05 03 41 30.0000000  0 10G01G03G04G11G14G16G19G22G27G32
  22570428.580   118608416.55209  22570429.680    92422146.67647
  23824096.120   125196472.86608  23824097.060    97555703.09246
  20742617.340   109003193.30409  20742615.560    84937546.14248
  21430478.380   112617934.15909  21430475.480    87754227.46447
  22525001.020   118369681.53609  22524998.520    92236112.01647
  24828270.600   130473450.76607  24828268.840   101667609.26745
  20426571.920   107342360.16709  20426566.900    83643378.27149
  22412827.840   117780203.36109  22412822.840    91776763.06948
  21103819.800   110901321.59809  21103819.740    86416611.94949
  20509795.180   107779705.39909  20509793.800    83984183.58948
 15 03 05 03 42  0.0000000  0 10G01G03G04G11G14G16G19G22G27G32
  22558567.560   118546086.84709  22558568.700    92373578.12047
  23805730.020   125099958.45108  23805731.120    97480497.09646
  20736513.000   108971114.79909  20736511.180    84912549.92548
  21418146.640   112553130.93509  21418143.780    87703731.46847
  22520137.020   118344121.22509  22520134.480    92216194.92247
  24848093.060   130577618.27908  24848091.240   101748778.76545
  20428282.700   107351350.51309  20428277.700    83650383.74349
  22427941.860   117859628.00609  22427936.900    91838652.40347
  21115475.940   110962574.86109  21115475.880    86464341.75949
  20500736.200   107732100.25109  20500734.820    83947088.69148
 15 03 05 03 42 30.0000000  0 10G01G03G04G11G14G16G19G22G27G32
  22546726.040   118483859.82308  22546727.220    92325089.57547
  23787400.860   125003638.19408  23787402.060    97405442.39747
  20730451.200   108939259.93309  20730449.320    84887727.96948
  21405853.920   112488532.72309  21405851.080    87653395.22847
  22515366.780   118319053.73609  22515364.300    92196661.84847
  24867899.980   130681703.76208  24867898.060   101829884.35845
  20430082.420   107360808.29709  20430077.480    83657753.45449
  22443090.020   117939232.22209  22443085.020    91900681.66247
  21127212.280   111024249.34509  21127212.200    86512399.79649
  20491774.680   107685007.03209  20491773.200    83910392.70148
 15 03 05 03 43  0.0000000  0 10G01G03G04G11G14G16G19G22G27G32
  22534904.680   118421738.78708  22534905.940    92276683.62447
  23769109.580   124907516.59208  23769110.660    97330542.47546
  20724432.520   108907631.93909  20724430.700    84863082.80648
  21393601.160   112424144.18109  21393598.320    87603222.35947
  22510691.280   118294484.04909  22510688.840    92177516.66647
  24887691.360   130785707.56508  24887689.200   101910926.31245
  20431971.800   107370737.28709  20431966.920    83665490.33949
  22458272.500   118019017.01109  22458267.520    91962851.62947
  21139029.220   111086347.17109  21139029.040    86560787.71549
  20482911.240   107638429.42709  20482909.660    83874098.47848
 15 03 05 03 43 30.0000000  0 10G01G03G04G11G14G16G19G22G27G32
  22523103.480   118359723.50208  22523104.720    92228360.06447
  23750856.280   124811594.75608  23750857.300    97255798.24246
  20718457.100   108876231.10309  20718455.320    84838614.63448
  21381388.620   112359966.72709  21381385.640    87553213.96747
  22506110.660   118270413.12008  22506108.200    92158760.12147
  24907466.680   130889627.04408  24907464.320   101991902.56144
  20433950.920   107381137.71709  20433946.040    83673594.57449
  22473488.960   118098980.38409  22473483.980    92025160.74947
  21150926.480   111148867.15909  21150926.200    86609504.58449
  20474145.920   107592367.74409  20474144.380    83838206.26948
 15 03 05 03 44  0.0000000  0 10G01G03G04G11G14G16G19G22G27G32
  22511322.680   118297815.21908  22511323.960    92180119.88047
  23732641.380   124715875.14408  23732642.320    97181211.58746
  20712525.160   108845058.62109  20712523.420    84814324.41648
  21369216.580   112296002.02809  21369213.580    87503371.38247
  22501625.420   118246843.57708  22501623.100    92140394.28447
  24927225.580   130993460.43108  24927223.020   102072811.72245
  20436020.080   107392011.31109  20436015.160    83682067.52549
  22488739.200   118179121.13009  22488734.220    92087608.09947
  21162904.080   111211809.41209  21162903.680    86658550.49749
  20465479.100   107546823.66509  20465477.640    83802717.39348
 15 03 05 03 44 30.0000000  0 10G01G03G04G11G14G16G19G22G27G32
  22499561.960   118236012.47308  22499563.280    92131961.92347
  23714464.860   124620357.60408  23714465.880    97106782.39846
  20706636.440   108814113.32509  20706634.740    84790211.22748
  21357085.040   112232250.04209  21357081.880    87453694.53847
  22497235.600   118223775.19309  22497233.360    92122418.95247
  24946967.380   131097203.94908  24946964.780   102153650.84144
  20438179.160   107403357.47109  20438174.260    83690908.70549
  22504022.580   118259435.81309  22504017.660    92150190.97047
  21174961.500   111275171.41309  21174961.040    86707923.48849
  20456910.560   107501795.91509  20456909.120    83767630.85648
 15 03 05 03 45  0.0000000  0  9G01G03G04G11G14G19G22G27G32
  22487823.080   118174324.87008  22487824.460    92083893.71047
  23696328.780   124525052.80408  23696329.800    97032518.97146
  20700792.700   108783404.60609  20700791.060    84766282.37748
  21344995.980   112168721.50609  21344992.720    87404191.80547
  22492943.220   118201218.79908  22492940.960    92104842.57447
  20440430.020   107415185.84909  20440425.160    83700125.62749
  22519340.440   118339931.86909  22519335.540    92212915.16947
  21187100.320   111338961.49309  21187099.860    86757630.04149
  20448442.220   107457294.64309  20448440.780    83732954.56548
 15 03 05 03 45 30.0000000  0  9G01G03G04G11G14G19G22G27G32
  22476102.780   118112734.99508  22476104.240    92035901.66647
  23678230.160   124429944.57108  23678231.140    96958408.69646
  20694990.700   108752915.35809  20694989.140    84742524.54448
  21332946.240   112105400.13109  21332943.080    87354850.50147
  22488745.220   118179158.41508  22488742.880    92087652.68947
  20442769.440   107427479.16609  20442764.520    83709704.84349
  22534689.040   118420589.81809  22534684.300    92275765.51247
  21199317.000   111403161.07309  21199316.600    86807655.69249
  20440070.840   107413302.54909  20440069.320    83698675.03048
 15 03 05 03 46  0.0000000  0 10G01G03G04G11G14G19G22G27G28G32
  22464402.800   118051251.80508  22464404.240    91987992.73447
  23660170.940   124335043.17108  23660171.900    96884459.60446
  20689232.260   108722654.85609  20689230.740    84718944.96548
  21320937.820   112042296.01309  21320934.780    87305678.49747
  22484643.500   118157604.03008  22484641.120    92070857.09647
  20445199.160   107440247.09209  20445194.140    83719653.89549
  22550069.820   118501416.35209  22550065.120    92338747.23747
  21211613.080   111467778.06409  21211612.780    86858006.59849
  25073679.160   131763070.72808  25073676.780   102672514.93544
  20431798.180   107369828.95709  20431796.520    83664799.53148
 15 03 05 03 46 30.0000000  0 10G01G03G04G11G14G19G22G27G28G32
  22452721.540   117989866.56408  22452722.960    91940160.12747
  23642149.640   124240340.98108  23642150.700    96810665.71946
  20683515.780   108692614.40109  20683514.160    84695536.83148
  21308969.340   111979401.59909  21308966.440    87256669.88647
  22480636.640   118136548.14408  22480634.280    92054449.93447
  20447717.560   107453481.12109  20447712.400    83729966.13449
  22565480.600   118582400.64209  22565475.960    92401851.86247
  21223986.680   111532802.45709  21223986.580    86908674.95449
  25061530.320   131699227.98808  25061527.760   102622767.34944
  20423622.560   107326865.41909  20423620.840    83631321.46948
 15 03 05 03 47  0.0000000  0 10G01G03G04G11G14G19G22G27G28G32
  22441062.260   117928596.62408  22441063.740    91892417.38047
  23624169.760   124145856.53108  23624170.920    96737041.54246
  20677844.440   108662811.31409  20677842.800    84672313.66048
  21297044.260   111916735.11409  21297041.420    87207838.88347
  22476728.140   118116009.25808  22476725.900    92038445.63447
  20450328.020   107467198.91609  20450322.760    83740655.33849
  22580924.360   118663557.93609  22580919.660    92465091.31447
  21236440.900   111598250.38409  21236440.980    86959673.33349
  25049454.320   131635768.42907  25049451.900   102573318.36144
  20415547.300   107284429.57309  20415545.560    83598254.60148
 15 03 05 03 47 30.0000000  0 10G01G03G04G11G14G19G22G27G28G32
  22429423.300   117867433.87308  22429424.860    91844758.14547
  23606230.080   124051582.90508  23606231.160    96663581.61547
  20672216.840   108633238.05009  20672215.180    84649269.57648
  21285161.280   111854289.94009  21285158.400    87159180.32748
  22472916.800   118095980.66509  22472914.600    92022838.95947
  20453028.960   107481392.68009  20453023.760    83751715.42549
  22596399.120   118744877.99409  22596394.400    92528457.58847
  21248973.940   111664112.52709  21248974.160    87010994.47149
  25037449.980   131572685.49308  25037447.580   102524162.84944
  20407570.860   107242513.35809  20407569.120    83565592.62748
 15 03 05 03 48  0.0000000  0 10G01G03G04G11G14G19G22G27G28G32
  22417804.080   117806374.83809  22417805.620    91797179.72147
  23588330.140   123957517.87808  23588331.160    96590284.26147
  20666632.320   108603890.96009  20666630.580    84626401.73148
  21273320.000   111792063.37109  21273317.040    87110692.12348
  22469202.200   118076459.74309  22469199.800    92007627.87947
  20455819.800   107496059.18909  20455814.740    83763143.88249
  22611903.860   118826355.28809  22611899.000    92591946.39747
  21261585.020   111730384.28409  21261585.220    87062634.80749
  25025516.940   131509977.16307  25025514.460   102475299.17844
  20399692.740   107201113.76809  20399691.020    83533333.23548
 15 03 05 03 48 30.0000000  0 10G01G03G04G11G14G19G22G27G28G32
  22406206.160   117745427.22309  22406207.540    91749688.09247
  23570471.580   123863670.12308  23570472.460    96517156.18346
  20661092.400   108574777.93809  20661090.500    84603716.26748
  21261522.100   111730064.55709  21261519.060    87062381.37447
  22465585.860   118057455.09609  22465583.340    91992819.09247
  20458702.180   107511206.58509  20458697.240    83774947.05149
  22627439.540   118907995.52509  22627434.560    92655562.16647
  21274275.220   111797071.85009  21274275.440    87114599.13049
  25013656.940   131447652.86307  25013654.620   102426734.79644
  20391914.420   107160238.34209  20391912.680    83501482.26248
 15 03 05 03 49  0.0000000  0 10G01G03G04G11G14G19G22G27G28G32
  22394628.200   117684584.37809  22394629.500    91702278.12347
  23552653.360   123770034.12208  23552654.120    96444193.09047
  20655595.760   108545892.41309  20655593.740    84581208.08248
  21249766.420   111668287.60809  21249763.380    87014243.52048
  22462066.740   118038961.54708  22462064.140    91978408.55247
  20461674.840   107526828.10809  20461669.920    83787119.67949
  22643004.580   118989789.68409  22642999.440    92719297.88548
  21287043.060   111864167.34409  21287043.280    87166881.33349
  25001869.040   131385707.77607  25001866.980   102378465.92444
  20384234.700   107119880.79909  20384232.900    83470034.83048
 15 03 05 03 49 30.0000000  0 10G01G03G04G11G14G19G22G27G28G32
  22383071.080   117623851.00508  22383072.320    91654953.44848
  23534876.440   123676615.77708  23534877.160    96371399.62947
  20650143.360   108517239.42409  20650141.240    84558881.09248
  21238054.220   111606738.91109  21238051.040    86966283.52148
  22458645.820   118020984.54808  22458643.260    91964400.52247
  20464738.800   107542929.05809  20464733.820    83799665.89449
  22658599.340   119071740.68009  22658594.220    92783155.79347
  21299889.300   111931674.26009  21299889.420    87219484.12349
  24990154.560   131324147.91807  24990152.520   102330497.17144
  20376654.460   107080046.02009  20376652.560    83438994.75148
 15 03 05 03 50  0.0000000  0 10G01G03G04G11G14G19G22G27G28G32
  22371534.520   117563225.93109  22371535.760    91607713.18648
  23517140.880   123583414.99608  23517141.580    96298775.72847
  20644734.900   108488817.70709  20644732.740    84536734.32648
  21226385.340   111545418.27609  21226382.080    86918501.24148
  22455323.120   118003523.87908  22455320.620    91950794.84047
  20467893.760   107559508.19909  20467888.760    83812584.72649
  22674223.280   119153844.76009  22674218.120    92847133.01347
  21312813.420   111999589.98709  21312813.380    87272405.47049
  24978513.480   131262973.70907  24978511.300   102282828.92143
  20369173.440   107040732.73709  20369171.500    83408361.04448
 15 03 05 03 50 30.0000000  0 10G01G03G04G11G14G19G22G27G28G32
  22360018.140   117502706.79609  22360019.300    91560555.46547
  23499446.440   123490430.50108  23499447.300    96226320.30646
  20639370.000   108460625.15409  20639367.900    84514766.12348
  21214759.460   111484324.04309  21214756.240    86870895.37948
  22452098.480   117986578.52509  22452095.980    91937590.68947
  20471139.200   107576563.38509  20471134.280    83825874.49749
  22689875.420   119236097.54209  22689870.260    92911226.09047
  21325814.620   112067910.82109  21325814.420    87325642.48849
  24966945.660   131202184.32307  24966943.540   102235460.54845
  20361791.220   107001938.74309  20361789.280    83378131.97748
 15 03 05 03 51  0.0000000  0 10G01G03G04G11G14G19G22G27G28G32
  22348522.300   117442295.78109  22348523.320    91513481.98447
  23481793.800   123397665.55708  23481794.740    96154035.99147
  20634049.120   108432663.96909  20634047.080    84492978.19848
  21203177.300   111423459.96409  21203174.120    86823468.86047
  22448972.520   117970151.64709  22448970.000    91924790.54547
  20474475.560   107594096.48709  20474470.720    83839536.66149
  22705555.960   119318499.29209  22705550.900    92975435.24147
  21338893.020   112136637.66209  21338892.740    87379195.86549
  24955451.800   131141783.49508  24955449.820   102188394.99245
  20354508.200   106963666.27009  20354506.280    83348309.29748
 15 03 05 03 51 30.0000000  0 10G01G03G04G11G14G19G22G27G28G32
  22337047.240   117381993.64409  22337048.100    91466493.33747
  23464183.300   123305122.01508  23464184.280    96081924.22046
  20628772.500   108404935.21009  20628770.420    84471371.38848
  21191639.260   111362827.60709  21191636.060    86776222.89448
  22445945.500   117954244.65509  22445942.960    91912395.50947
  20477903.220   107612109.20909  20477898.400    83853572.55349
  22721264.560   119401048.70709  22721259.480    93039759.45947
  21352048.500   112205769.85009  21352048.180    87433065.10049
  24944032.360   131081773.54307  24944030.400   102141633.98345
  20347324.520   106925916.08909  20347322.660    83318893.59048
 15 03 05 03 52  0.0000000  0 10G01G03G04G11G14G19G22G27G28G32
  22325593.080   117321801.54609  22325593.900    91419590.45448
  23446615.320   123212802.08008  23446616.280    96009986.65547
  20623540.320   108377439.84709  20623538.160    84449946.45148
  21180145.860   111302429.75809  21180142.660    86729159.68048
  22443017.820   117938859.47709  22443015.220    91900407.08547
  20481422.300   107630602.37009  20481417.460    83867982.82049
  22737001.100   119483744.76209  22736996.000    93104197.95847
  21365281.080   112275307.08909  21365280.680    87487249.96549
  24932687.840   131022157.45208  24932685.860   102095179.90045
  20340240.460   106888689.27409  20340238.560    83289885.71148
