     2.11           OBSERVATION DATA    G                   RINEX VERSION / TYPE
SPIDER V4,0,0,3554                      2015 03 13 03:37    PGM / RUN BY / DATE 
EMHD                                                        MARKER NAME         
EMHD                                                        MARKER NUMBER       
                                                            OBSERVER / AGENCY   
462397              LEICA GRX1200PRO    8.20/2.127          REC # / TYPE / VERS 
103297              LEIAT504                                ANT # / TYPE        
  5146535.6892   265261.6083  3747697.6292                  APPROX POSITION XYZ 
        0.0470        0.0000        0.0000                  ANTENNA: DELTA H/E/N
     1     1                                                WAVELENGTH FACT L1/2
     4    C1    L1    P2    L2                              # / TYPES OF OBSERV 
    30.000                                                  INTERVAL            
  2015    03    05    00    00    0.0000000     GPS         TIME OF FIRST OBS   
  2015    03    05    23    59   30.0000000     GPS         TIME OF LAST OBS    
    16                                                      LEAP SECONDS        
    30                                                      # OF SATELLITES     
   G 1   691   691   691   691                              PRN / # OF OBS      
   G 2   744   744   743   743                              PRN / # OF OBS      
   G 3   711   711   711   711                              PRN / # OF OBS      
   G 4   731   731   731   731                              PRN / # OF OBS      
   G 5   592   592   592   592                              PRN / # OF OBS      
   G 6   516   516   516   516                              PRN / # OF OBS      
   G 7   574   574   574   574                              PRN / # OF OBS      
   G 9   674   674   674   674                              PRN / # OF OBS      
   G10   652   652   652   652                              PRN / # OF OBS      
   G11   682   682   682   682                              PRN / # OF OBS      
   G12   732   732   732   732                              PRN / # OF OBS      
   G13   695   695   695   695                              PRN / # OF OBS      
   G14   252   252   251   251                              PRN / # OF OBS      
   G15   639   639   639   639                              PRN / # OF OBS      
   G16   588   588   587   587                              PRN / # OF OBS      
   G17   782   782   782   782                              PRN / # OF OBS      
   G18   646   646   646   646                              PRN / # OF OBS      
   G19   660   660   660   660                              PRN / # OF OBS      
   G20   650   650   649   649                              PRN / # OF OBS      
   G21   525   525   525   525                              PRN / # OF OBS      
   G22   569   569   569   569                              PRN / # OF OBS      
   G23   665   665   665   665                              PRN / # OF OBS      
   G24   669   669   669   669                              PRN / # OF OBS      
   G25   676   676   675   675                              PRN / # OF OBS      
   G27   715   715   715   715                              PRN / # OF OBS      
   G28   625   625   625   625                              PRN / # OF OBS      
   G29   623   623   623   623                              PRN / # OF OBS      
   G30   586   586   586   586                              PRN / # OF OBS      
   G31   549   549   549   549                              PRN / # OF OBS      
   G32   629   629   629   629                              PRN / # OF OBS      
BIT 2 OF LLI FLAGS DATA COLLECTED UNDER A/S CONDITION       COMMENT             
SNR is mapped to RINEX snr flag value [2-9]                 COMMENT             
Lx:     = 25dBHz -> 1; 26-27dBHz -> 2; 28-31dBHz -> 3       COMMENT             
       32-35dBHz -> 4; 36-38dBHz -> 5; 39-41dBHz -> 6       COMMENT             
       42-44dBHz -> 7; 45-48dBHz -> 8; >=49dBHz -> 9        COMMENT             
                                                            END OF HEADER       
 15 03 05 00 00  0.0000000  0  6G16G18G21G22G27G31
  21101457.540   110888912.22806  21101455.120    86406944.38248
  22281131.700   117088143.59305  22281129.700    91237512.28547
  21696536.460   114016080.35605  21696534.200    88843694.64848
  23285214.900   122364632.28204  23285212.240    95349052.97447
  22252474.620   116937556.43205  22252475.100    91120182.55148
  23695981.120   124523198.06304  23695980.160    97031046.91747
 15 03 05 00 00 30.0000000  0  6G16G18G21G22G27G31
  21090956.140   110833726.85906  21090953.640    86363942.80748
  22272098.800   117040676.33205  22272096.980    91200524.82745
  21706327.960   114067534.88906  21706325.780    88883789.08148
  23267883.960   122273556.30804  23267881.100    95278084.72846
  22241236.360   116878498.80605  22241236.820    91074163.64047
  23714495.300   124620491.02204  23714494.420    97106859.54746
 15 03 05 00 01  0.0000000  0  6G16G18G21G22G27G31
  21080524.400   110778907.81906  21080521.900    86321226.68248
  22263138.580   116993590.42305  22263136.780    91163834.53347
  21716170.040   114119255.07605  21716167.820    88924090.53048
  23250574.400   122182592.92404  23250571.440    95207204.19546
  22230021.480   116819564.00905  22230021.920    91028240.44248
  23733021.380   124717846.34503  23733020.580    97182720.79744
 15 03 05 00 01 30.0000000  0  6G16G18G21G22G27G31
  21070163.080   110724458.75206  21070160.620    86278798.85148
  22254251.580   116946888.89905  22254249.740    91127443.75246
  21726062.580   114171240.93505  21726060.360    88964598.99648
  23233286.760   122091746.40104  23233283.920    95136414.76446
  22218830.280   116760753.64105  22218830.660    90982414.20348
  23751558.960   124815262.11403  23751558.200    97258629.13547
 15 03 05 00 02  0.0000000  0  6G16G18G21G22G27G31
  21059872.640   110670382.02206  21059870.160    86236661.14248
  22245438.100   116900574.34305  22245436.420    91091354.51847
  21736005.320   114223490.60505  21736003.080    89005313.03248
  23216021.800   122001019.71904  23216019.100    95065718.68947
  22207662.740   116702068.00805  22207663.140    90936685.16847
  23770107.600   124912735.74103  23770106.840    97334582.56846
 15 03 05 00 02 30.0000000  0  6G16G18G21G22G27G31
  21049653.020   110616677.44606  21049650.480    86194813.42948
  22236698.000   116854646.02405  22236696.580    91055566.23845
  21745997.680   114276000.29806  21745995.340    89046229.67748
  23198779.860   121910413.33304  23198777.260    94995116.37647
  22196518.420   116643504.95305  22196518.920    90891051.64048
  23788666.240   125010262.11104  23788665.420    97410577.08246
 15 03 05 00 03  0.0000000  0  6G16G18G21G22G27G31
  21039502.700   110563337.51706  21039500.220    86153249.85248
  22228030.180   116809096.76905  22228028.900    91020073.31846
  21756037.340   114328758.57106  21756034.940    89087340.02148
  23181559.500   121819920.75004  23181557.040    94924602.73045
  22185395.640   116585055.39005  22185396.340    90845506.54148
  23807232.620   125107829.17503  23807231.880    97486603.29246
 15 03 05 00 03 30.0000000  0  5G16G18G21G22G27
  21029423.980   110510373.60406  21029421.540    86111979.28048
  22219436.800   116763937.59305  22219435.460    90984884.36646
  21766125.800   114381773.36106  21766123.360    89128650.24948
  23164363.000   121729553.54904  23164360.940    94854186.78346
  22174296.300   116526728.34305  22174297.060    90800056.91848
 15 03 05 00 04  0.0000000  0  5G16G18G21G22G27
  21019416.060   110457781.79006  21019413.700    86070998.65848
  22210916.760   116719164.04505  22210915.300    90949995.90746
  21776261.540   114435036.56106  21776259.040    89170154.03948
  23147189.880   121639308.36804  23147187.880    94783865.90446
  22163219.220   116468518.03105  22163220.000    90754698.27148
 15 03 05 00 04 30.0000000  0  6G16G18G21G22G27G31
  21009480.640   110405570.94006  21009478.300    86030314.88748
  22202471.860   116674785.30405  22202470.140    90915415.08547
  21786445.360   114488552.58606  21786442.720    89211854.85648
  23130041.820   121549194.89904  23130039.820    94713647.65346
  22152165.680   116410431.34705  22152166.440    90709435.94647
  23862981.020   125400811.10703  23862979.660    97714913.02145
 15 03 05 00 05  0.0000000  0  6G16G18G21G22G27G31
  20999619.140   110353748.65206  20999616.860    85989933.89148
  22194103.340   116630808.47405  22194101.580    90881147.45246
  21796677.940   114542325.36706  21796675.260    89253755.72548
  23112920.580   121459221.21404  23112918.020    94643538.34346
  22141136.700   116352474.03105  22141137.500    90664274.42047
  23881579.760   125498548.50003  23881578.500    97791071.95845
 15 03 05 00 05 30.0000000  0  5G16G18G21G22G27
  20989830.420   110302308.46306  20989828.100    85949850.64248
  22185810.120   116587227.25105  22185808.280    90847188.05347
  21806957.400   114596344.92506  21806954.880    89295848.89548
  23095824.740   121369381.63204  23095821.900    94573533.53146
  22130130.800   116294637.81505  22130131.600    90619207.26748
 15 03 05 00 06  0.0000000  0  5G16G18G21G22G27
  20980113.620   110251246.16306  20980111.260    85910061.84748
  22177591.220   116544036.88705  22177589.520    90813533.24347
  21817282.280   114650603.00306  21817279.900    89338127.91548
  23078753.680   121279672.43304  23078750.580    94503630.30846
  22119146.720   116236916.35805  22119147.500    90574229.53948
 15 03 05 00 06 30.0000000  0  6G16G18G21G22G27G31
  20970471.320   110200575.67406  20970468.960    85870578.35348
  22169449.200   116501251.00805  22169447.720    90780193.60947
  21827654.560   114705109.82105  21827652.200    89380600.76648
  23061710.220   121190108.31704  23061706.980    94433840.14847
  22108186.860   116179321.81005  22108187.540    90529350.69948
  23937411.360   125791945.31303  23937410.020    98019689.00646
 15 03 05 00 07  0.0000000  0  6G16G18G21G22G27G31
  20960903.280   110150295.21306  20960900.920    85831398.78848
  22161383.880   116458867.70205  22161382.420    90747167.67347
  21838072.980   114759859.61505  21838070.660    89423262.95448
  23044694.120   121100688.54404  23044690.940    94364162.46646
  22097250.520   116121850.57705  22097251.020    90484567.95748
  23956031.960   125889798.16203  23956030.660    98095937.92844
 15 03 05 00 07 30.0000000  0  6G16G18G21G22G27G31
  20951407.980   110100397.09406  20951405.640    85792517.14448
  22153393.720   116416879.13905  22153392.300    90714449.33847
  21848535.440   114814840.75205  21848533.100    89466105.40648
  23027704.100   121011405.74404  23027700.940    94294591.50046
  22086335.800   116064493.04205  22086336.220    90439873.81148
  23974654.860   125987661.23113  23974653.880    98172199.16356
 15 03 05 00 08  0.0000000  0  6G16G18G21G22G27G31
  20941990.900   110050909.76206  20941988.540    85753955.59648
  22145484.060   116375313.35305  22145482.560    90682060.42646
  21859046.720   114870077.82305  21859044.360    89509147.27747
  23010745.600   120922289.02404  23010742.500    94225149.95146
  22075447.680   116007275.75905  22075448.140    90395288.94247
  23993285.020   126085564.08703  23993284.420    98248487.01544
 15 03 05 00 08 30.0000000  0  6G16G18G21G22G27G31
  20932647.780   110001811.25106  20932645.440    85715697.02848
  22137650.740   116334148.30605  22137649.100    90649983.76847
  21869601.840   114925544.96906  21869599.480    89552368.42048
  22993814.700   120833317.05904  22993811.660    94155821.19646
  22064581.680   115950174.98805  22064582.220    90350794.86948
  24011917.200   126183477.30603  24011916.920    98324782.97445
 15 03 05 00 09  0.0000000  0  5G16G18G21G22G27
  20923377.400   109953095.16006  20923375.060    85677736.44748
  22129892.280   116293377.42305  22129890.580    90618214.26246
  21880198.820   114981232.01806  21880196.480    89595760.94248
  22976910.480   120744484.56204  22976907.380    94086601.11446
  22053736.340   115893182.63005  22053736.860    90306385.27348
 15 03 05 00 09 30.0000000  0  6G16G18G21G22G27G31
  20914188.420   109904806.87006  20914186.100    85640109.22348
  22122217.280   116253045.38905  22122215.600    90586786.72746
  21890845.560   115037180.65406  21890843.100    89639357.29447
  22960041.380   120655837.07504  22960038.340    94017525.19746
  22042919.800   115836341.94905  22042920.420    90262093.85148
  24049187.980   126379338.14803  24049188.600    98477403.98846
 15 03 05 00 10  0.0000000  0  5G16G18G21G22G27
  20905069.960   109856889.21306  20905067.660    85602770.79748
  22114614.900   116213094.49605  22114613.140    90555656.17847
  21901530.440   115093329.86206  21901527.840    89683109.93248
  22943196.900   120567317.99604  22943193.680    93948549.35546
  22032121.020   115779593.80605  22032121.600    90217874.54248
 15 03 05 00 10 30.0000000  0  5G16G18G21G22G27
  20896031.100   109809389.73006  20896028.800    85565758.21748
  22107094.220   116173572.89605  22107092.360    90524860.14047
  21912261.840   115149723.46606  21912259.160    89727053.00848
  22926386.080   120478975.97104  22926382.680    93879711.44246
  22021348.660   115722984.24405  22021349.140    90173763.22148
 15 03 05 00 11  0.0000000  0  5G16G18G21G22G27
  20887069.800   109762297.82506  20887067.460    85529063.23248
  22099653.040   116134468.90005  22099651.140    90494389.51646
  21923036.780   115206345.99206  21923034.120    89771174.46148
  22909606.940   120390801.00304  22909603.480    93811003.73446
  22010600.280   115666500.79005  22010600.660    90129750.18748
 15 03 05 00 11 30.0000000  0  5G16G18G21G22G27
  20878186.620   109715616.49406  20878184.280    85492688.17348
  22092291.900   116095785.55905  22092290.000    90464246.65747
  21933855.360   115263197.89506  21933852.720    89815474.65448
  22892860.360   120302797.06804  22892856.940    93742429.29947
  21999876.080   115610144.84605  21999876.420    90085836.48747
 15 03 05 00 12  0.0000000  0  5G16G18G21G22G27
  20869381.280   109669344.13606  20869378.940    85456631.80048
  22085010.340   116057520.59005  22085008.500    90434429.81546
  21944716.500   115320273.67605  21944713.860    89859949.29247
  22876146.000   120214962.93604  22876142.680    93673987.16546
  21989175.480   115553912.87905  21989175.800    90042019.39448
 15 03 05 00 12 30.0000000  0  5G16G18G21G22G27
  20860654.580   109623484.90206  20860652.220    85420897.34348
  22077809.160   116019678.46805  22077807.360    90404942.47147
  21955620.340   115377573.93206  21955617.660    89904598.84848
  22859464.880   120127303.76604  22859461.700    93605681.34946
  21978498.940   115497807.40105  21978499.280    89998300.87348
 15 03 05 00 13  0.0000000  0  5G16G18G21G22G27
  20852006.540   109578039.00306  20852004.160    85385484.96448
  22070688.380   115982258.53205  22070686.460    90375784.10447
  21966566.080   115435094.09905  21966563.360    89949419.77047
  22842817.240   120039820.05604  22842813.940    93537512.26946
  21967846.100   115441826.53805  21967846.500    89954679.45448
 15 03 05 00 13 30.0000000  0  5G16G18G21G22G27
  20843437.880   109533010.27006  20843435.460    85350397.64448
  22063648.540   115945264.60905  22063646.640    90346957.68147
  21977553.740   115492834.86605  21977551.180    89994412.57548
  22826203.920   119952516.78004  22826200.560    93469483.78247
  21957217.420   115385972.61605  21957217.880    89911156.95448
 15 03 05 00 14  0.0000000  0  5G16G18G21G22G27
  20834949.080   109488401.34106  20834946.580    85315637.44548
  22056690.200   115908698.81305  22056688.360    90318464.86446
  21988583.120   115550794.89305  21988580.720    90039576.23547
  22809625.620   119865397.47004  22809622.260    93401598.66846
  21946613.020   115330246.53605  21946613.600    89867734.06348
 15 03 05 00 14 30.0000000  0  5G16G18G21G22G27
  20826539.700   109444209.69806  20826537.140    85281202.39948
  22049812.840   115872558.24505  22049811.060    90290303.38247
  21999653.060   115608968.17505  21999650.720    90084906.05348
  22793082.060   119778460.01604  22793078.580    93333855.22846
  21936032.100   115274644.07205  21936032.800    89824407.48848
 15 03 05 00 15  0.0000000  0  5G16G18G21G22G27
  20818211.480   109400444.48306  20818208.880    85247099.64449
  22043018.040   115836851.80005  22043016.360    90262480.19447
  22010764.640   115667360.00905  22010762.220    90130406.18947
  22776574.900   119691714.53004  22776571.440    93266261.38646
  21925476.200   115219172.74305  21925476.980    89781183.09948
 15 03 05 00 15 30.0000000  0  5G16G18G21G22G27
  20809963.120   109357099.08006  20809960.540    85213324.01048
  22036304.680   115801572.38305  22036302.920    90234989.75147
  22021915.920   115725960.43905  22021913.380    90176068.87447
  22760103.100   119605154.94204  22760099.700    93198812.40646
  21914943.640   115163824.17905  21914944.440    89738054.37648
 15 03 05 00 16  0.0000000  0  5G16G18G21G22G27
  20801795.880   109314179.96806  20801793.300    85179880.55448
  22029673.760   115766726.27705  22029671.920    90207836.95847
  22033107.280   115784771.88205  22033104.860    90221895.97748
  22743668.100   119518788.76504  22743664.800    93131514.13746
  21904435.460   115108603.27605  21904436.120    89695025.12148
 15 03 05 00 16 30.0000000  0  5G16G18G21G22G27
  20793710.480   109271691.24806  20793707.960    85146772.46348
  22023125.880   115732316.47005  22023123.920    90181024.12747
  22044338.800   115843794.86905  22044336.640    90267887.89847
  22727270.720   119432620.87404  22727267.460    93064370.38146
  21893951.980   115053512.24505  21893952.620    89652097.06248
 15 03 05 00 17  0.0000000  0  5G16G18G21G22G27
  20785706.240   109229629.00106  20785703.760    85113996.69048
  22016660.200   115698339.26805  22016658.300    90154548.40247
  22055609.200   115903021.39405  22055607.180    90314038.43147
  22710910.540   119346648.04905  22710907.340    92997378.59546
  21883492.240   114998545.71205  21883492.780    89609266.01648
 15 03 05 00 17 30.0000000  0  5G16G18G21G22G27
  20777784.440   109187999.84206  20777781.980    85081558.38848
  22010277.900   115664800.35206  22010276.040    90128414.18847
  22066919.020   115962454.20305  22066916.900    90360349.71147
  22694588.940   119260877.30805  22694585.640    92930544.29346
  21873057.040   114943708.34505  21873057.500    89566535.62648
 15 03 05 00 18  0.0000000  0  5G16G18G21G22G27
  20769945.620   109146806.77306  20769943.200    85049459.89948
  22003979.540   115631702.47006  22003977.740    90102623.63547
  22078268.160   116022093.56405  22078265.800    90406821.95247
  22678306.620   119175312.99404  22678303.140    92863870.83946
  21862646.720   114889001.88105  21862647.200    89523907.22348
 15 03 05 00 18 30.0000000  0  5G16G18G21G22G27
  20762189.960   109106050.69106  20762187.600    85017701.92148
  21997765.300   115599046.52405  21997763.580    90077177.46747
  22089655.920   116081936.63905  22089653.480    90453452.94247
  22662063.840   119089956.99204  22662060.420    92797359.71246
  21852261.140   114834425.84605  21852261.740    89481380.46348
 15 03 05 00 19  0.0000000  0  5G16G18G21G22G27
  20754517.640   109065732.25906  20754515.280    84986284.96149
  21991635.240   115566832.66506  21991633.460    90052075.78047
  22101081.600   116141979.72305  22101079.240    90500239.74548
  22645861.020   119004810.32305  22645857.480    92731011.69246
  21841900.200   114779978.83405  21841900.780    89438954.24248
 15 03 05 00 19 30.0000000  0  5G16G18G21G22G27
  20746928.520   109025851.06706  20746926.160    84955208.71448
  21985589.020   115535059.70406  21985587.280    90027317.66347
  22112544.820   116202219.26905  22112542.440    90547179.64947
  22629698.080   118919873.61504  22629694.540    92664827.29047
  21831563.580   114725659.19805  21831564.060    89396627.27648
 15 03 05 00 20  0.0000000  0  5G16G18G21G22G27
  20739423.560   108986412.30406  20739421.220    84924477.21248
  21979627.760   115503732.88405  21979625.880    90002907.17347
  22124045.700   116262656.28105  22124043.220    90594273.42248
  22613576.160   118835152.69805  22613572.640    92598811.02447
  21821251.800   114671470.34405  21821252.280    89354402.20748
 15 03 05 00 20 30.0000000  0  5G16G18G21G22G27
  20732003.180   108947418.03906  20732000.860    84894092.06849
  21973751.560   115472853.65006  21973749.680    89978845.45846
  22135584.080   116323290.31005  22135581.560    90641520.71547
  22597495.860   118750650.57405  22597492.420    92532965.26447
  21810965.000   114617413.00005  21810965.480    89312279.62048
 15 03 05 00 21  0.0000000  0  5G16G18G21G22G27
  20724667.860   108908870.69806  20724665.540    84864055.18248
  21967960.900   115442423.75705  21967959.060    89955133.86847
  22147159.500   116384119.48705  22147157.000    90688920.07447
  22581457.900   118666370.66005  22581454.440    92467292.62846
  21800703.360   114563487.83905  21800703.800    89270260.03048
 15 03 05 00 21 30.0000000  0  5G16G18G21G22G27
  20717417.920   108870771.88806  20717415.600    84834367.79948
  21962255.940   115412444.16906  21962254.160    89931773.18447
  22158771.600   116445141.81005  22158769.080    90736469.94247
  22565462.480   118582315.28205  22565459.180    92401794.97046
  21790466.980   114509695.14405  21790467.320    89228343.65348
 15 03 05 00 22  0.0000000  0  5G16G18G21G22G27
  20710252.800   108833118.72406  20710250.420    84805027.66949
  21956636.100   115382911.72306  21956634.320    89908760.92447
  22170419.280   116506350.46305  22170416.660    90784165.00547
  22549509.600   118498482.20305  22549506.240    92336470.51846
  21780254.900   114456030.42505  21780255.220    89186526.99948
 15 03 05 00 22 30.0000000  0  5G16G18G21G22G27
  20703173.840   108795918.46106  20703171.420    84776040.45648
  21951102.500   115353833.04806  21951100.820    89886102.23447
  22182103.320   116567750.16105  22182100.640    90832008.93048
  22533600.660   118414879.92305  22533597.200    92271325.92746
  21770068.340   114402499.53905  21770068.620    89144814.63448
 15 03 05 00 23  0.0000000  0  5G16G18G21G22G27
  20696181.100   108759171.08906  20696178.580    84747406.13948
  21945655.260   115325208.19405  21945653.660    89863797.18447
  22193822.960   116629337.19005  22193820.380    90879998.81247
  22517735.780   118331509.28705  22517732.320    92206361.81747
  21759906.920   114349101.09205  21759907.200    89103205.47848
 15 03 05 00 23 30.0000000  0  5G16G18G21G22G27
  20689274.940   108722879.01506  20689272.420    84719126.59949
  21940294.620   115297038.14006  21940293.060    89841846.52247
  22205577.820   116691109.75705  22205575.400    90928133.26347
  22501915.480   118248373.17305  22501912.040    92141580.45446
  21749770.820   114295835.87105  21749771.140    89061700.12548
 15 03 05 00 24  0.0000000  0  5G16G18G21G22G27
  20682456.140   108687046.25506  20682453.660    84691204.97249
  21935021.420   115269327.00106  21935019.780    89820253.45147
  22217368.140   116753068.57405  22217365.800    90976412.86848
  22486140.760   118165477.07205  22486137.400    92076986.12347
  21739660.560   114242706.48306  21739660.940    89020300.60848
 15 03 05 00 24 30.0000000  0  5G16G18G21G22G27
  20675724.000   108651668.82006  20675721.580    84663638.14449
  21929834.700   115242070.26206  21929832.980    89799014.44947
  22229192.520   116815206.30205  22229190.140    91024831.87947
  22470411.120   118082817.53405  22470407.820    92012576.12047
  21729575.180   114189707.62606  21729575.540    88979002.81248
 15 03 05 00 25  0.0000000  0  5G16G18G21G22G27
  20669079.420   108616751.30906  20669077.000    84636429.69848
  21924735.100   115215271.70706  21924733.380    89778132.49347
  22241051.180   116877523.97405  22241048.760    91073391.11347
  22454727.600   118000399.83105  22454724.300    91948354.54947
  21719515.260   114136842.36405  21719515.620    88937809.10748
 15 03 05 00 25 30.0000000  0  5G16G18G21G22G27
  20662523.180   108582297.87206  20662520.740    84609582.86649
  21919723.440   115188935.14806  21919721.620    89757610.52647
  22252944.220   116940022.67805  22252941.840    91122091.38648
  22439091.040   117918229.44805  22439087.740    91884325.71047
  21709481.340   114084113.62406  21709481.640    88896721.78848
 15 03 05 00 26  0.0000000  0  5G16G18G21G22G27
  20656056.080   108548312.47306  20656053.520    84583100.72849
  21914800.340   115163063.80706  21914798.480    89737451.06847
  22264871.680   117002702.20005  22264869.340    91170932.56848
  22423502.440   117836311.31205  22423499.100    91820493.41947
  21699473.840   114031523.85705  21699474.080    88855742.76648
 15 03 05 00 26 30.0000000  0  5G16G18G21G22G27
  20649676.960   108514789.95806  20649674.420    84556979.29049
  21909964.840   115137652.69906  21909962.920    89717650.23047
  22276832.200   117065554.60305  22276829.800    91219908.44947
  22407960.960   117754641.24505  22407957.720    91756854.44247
  21689491.480   113979066.82606  21689491.740    88814867.16648
 15 03 05 00 27  0.0000000  0  5G16G18G21G22G27
  20643385.640   108481728.83006  20643383.160    84531217.37049
  21905216.380   115112699.34506  21905214.420    89698206.07647
  22288824.620   117128575.04805  22288822.160    91269015.29047
  22392466.700   117673218.41905  22392463.380    91693408.10947
  21679534.000   113926739.70006  21679534.260    88774092.78748
 15 03 05 00 27 30.0000000  0  6G16G18G19G21G22G27
  20637183.580   108449136.91006  20637181.160    84505821.07249
  21900556.320   115088210.49306  21900554.260    89679123.87446
  23643756.220   124248775.56504  23643752.100    96817210.90845
  22300849.820   117191767.67705  22300847.240    91318256.32047
  22377021.280   117592051.76405  22377017.840    91630161.39547
  21669602.520   113874548.84806  21669602.680    88733424.60448
 15 03 05 00 28  0.0000000  0  5G16G18G21G22G27
  20631072.240   108417021.55706  20631069.840    84480796.12549
  21895986.060   115064193.61206  21895983.920    89660409.44647
  22312908.500   117255136.41305  22312905.940    91367634.54047
  22361626.060   117511149.62005  22361622.580    91567120.79547
  21659698.020   113822500.19106  21659698.160    88692867.22848
 15 03 05 00 28 30.0000000  0  6G16G18G19G21G22G27
  20625047.680   108385362.36806  20625045.280    84456126.62349
  21891501.560   115040627.63906  21891499.400    89642046.36947
  23615079.500   124098079.35403  23615076.900    96699792.18045
  22324996.200   117318657.67105  22324993.760    91417131.60947
  22346277.540   117430492.40405  22346274.040    91504271.04247
  21649816.480   113770572.34606  21649816.660    88652403.97848
 15 03 05 00 29  0.0000000  0  5G16G18G21G22G27
  20619117.080   108354197.02506  20619114.660    84431841.94449
  21887109.940   115017549.64106  21887107.860    89624063.51947
  22337119.440   117382365.93705  22337117.120    91466774.40247
  22330983.060   117350118.98205  22330979.520    91441642.42347
  21639964.880   113718801.77006  21639965.040    88612063.27348
 15 03 05 00 29 30.0000000  0  5G16G18G21G22G27
  20613276.500   108323504.80106  20613274.080    84407925.92149
  21882806.980   114994937.91706  21882805.020    89606444.00247
  22349273.660   117446236.83705  22349271.420    91516543.92848
  22315738.680   117270009.00705  22315735.200    91379219.09647
  21630139.020   113667166.23506  21630139.160    88571827.80248
 15 03 05 00 30  0.0000000  0  5G16G18G21G22G27
  20607526.860   108293290.07906  20607524.400    84384381.98649
  21878593.560   114972796.54806  21878591.600    89589190.98747
  22361459.080   117510271.68805  22361456.820    91566441.21247
  22300545.460   117190168.04405  22300542.020    91317005.38847
  21620339.480   113615669.15006  21620339.620    88531700.22448
 15 03 05 00 30 30.0000000  0  6G16G18G19G21G22G27
  20601868.100   108263553.24406  20601865.700    84361210.42649
  21874469.620   114951125.45706  21874467.700    89572304.44747
  23557926.320   123797740.76604  23557923.740    96465761.29346
  22373675.120   117574467.36105  22373672.700    91616463.81547
  22285403.680   117110597.71105  22285400.240    91255002.56947
  21610565.980   113564309.61306  21610566.220    88491679.82148
 15 03 05 00 31  0.0000000  0  6G16G18G19G21G22G27
  20596301.160   108234298.76106  20596298.760    84338414.72149
  21870435.880   114929928.20206  21870433.940    89555787.11247
  23543678.520   123722868.69403  23543676.240    96407419.47447
  22385921.820   117638824.76605  22385919.360    91666612.44046
  22270314.500   117031303.92105  22270311.080    91193215.23147
  21600819.320   113513090.85006  21600819.640    88451769.10948
 15 03 05 00 31 30.0000000  0  6G16G18G19G21G22G27
  20590825.280   108205522.92306  20590822.880    84315991.98649
  21866491.540   114909200.99906  21866489.640    89539636.05547
  23529446.360   123648078.49404  23529444.180    96349141.42046
  22398198.220   117703337.70805  22398195.720    91716882.25047
  22255277.340   116952283.57705  22255273.940    91131640.94747
  21591098.540   113462008.06906  21591098.900    88411964.34948
 15 03 05 00 32  0.0000000  0  6G16G18G19G21G22G27
  20585440.700   108177226.95006  20585438.340    84293943.16849
  21862636.760   114888943.86806  21862634.880    89523851.28547
  23515230.020   123573369.43103  23515227.360    96290926.60146
  22410503.900   117768003.79105  22410501.340    91767271.41247
  22240292.700   116873538.67805  22240289.300    91070281.31347
  21581403.720   113411061.28006  21581404.080    88372265.55948
 15 03 05 00 32 30.0000000  0  6G16G18G19G21G22G27
  20580150.200   108149425.15106  20580147.860    84272279.42849
  21858874.040   114869170.44606  21858872.200    89508443.45147
  23501031.240   123498754.52704  23501028.640    96232785.15246
  22422840.740   117832834.18605  22422838.240    91817788.59547
  22225363.420   116795084.31205  22225359.940    91009148.06147
  21571737.260   113360263.76606  21571737.660    88332683.08548
 15 03 05 00 33  0.0000000  0  6G16G18G19G21G22G27
  20574952.800   108122112.59306  20574950.460    84250996.91649
  21855202.400   114849875.84206  21855200.520    89493408.70147
  23486848.980   123424227.58503  23486846.540    96174712.24746
  22435207.200   117897820.54005  22435204.820    91868427.29447
  22210488.740   116716917.15405  22210485.200    90948238.60247
  21562098.120   113309609.48906  21562098.460    88293212.22748
 15 03 05 00 33 30.0000000  0  6G16G18G19G21G22G27
  20569846.980   108095281.66406  20569844.720    84230089.69449
  21851620.160   114831051.17806  21851618.320    89478740.15847
  23472682.140   123349779.95004  23472679.720    96116701.15047
  22447601.320   117962952.12505  22447598.940    91919179.16047
  22195667.420   116639030.83105  22195663.900    90887547.96247
  21552484.560   113259089.76906  21552484.860    88253846.23348
 15 03 05 00 34  0.0000000  0  6G16G18G19G21G22G27
  20564835.400   108068945.78006  20564833.160    84209568.23149
  21848129.940   114812709.90606  21848128.000    89464448.26847
  23458532.440   123275423.23204  23458530.220    96058760.89746
  22460024.980   118028238.97805  22460022.580    91970052.03247
  22180902.240   116561439.27905  22180898.680    90827087.03347
  21542898.840   113208716.91706  21542899.160    88214594.67448
 15 03 05 00 34 30.0000000  0  6G16G18G19G21G22G27
  20559916.780   108043098.29706  20559914.520    84189427.33549
  21844730.240   114794844.18906  21844728.220    89450526.95747
  23444398.840   123201149.97604  23444396.560    96000885.66446
  22472476.520   118093671.92305  22472474.080    92021038.74147
  22166192.080   116484137.00305  22166188.500    90766851.51446
  21533339.620   113158483.30006  21533340.000    88175451.61048
 15 03 05 00 35  0.0000000  0  6G16G18G19G21G22G27
  20555092.780   108017748.01706  20555090.540    84169673.86749
  21841422.540   114777462.51006  21841420.580    89436982.80447
  23430282.420   123126967.38904  23430279.920    95943081.06546
  22484956.960   118159256.46805  22484954.440    92072143.57347
  22151538.820   116407133.80905  22151535.200    90706849.04247
  21523808.460   113108396.71106  21523808.840    88136423.10948
 15 03 05 00 35 30.0000000  0  6G16G18G19G21G22G27
  20550363.100   107992893.21206  20550360.860    84150306.48549
  21838206.440   114760562.37406  21838204.620    89423813.86847
  23416182.520   123052872.24304  23416179.740    95885344.59846
  22497465.180   118224987.60005  22497462.620    92123362.62347
  22136942.360   116330429.24405  22136938.820    90647079.27547
  21514304.780   113058454.39106  21514305.120    88097507.03248
 15 03 05 00 36  0.0000000  0  6G16G18G19G21G22G27
  20545727.560   107968533.51106  20545725.340    84131324.89649
  21835081.780   114744142.68406  21835080.160    89411019.30747
  23402099.020   122978863.29504  23402096.080    95827675.32946
  22510000.700   118290861.95305  22509998.060    92174693.27947
  22122402.780   116254023.98705  22122399.440    90587542.73547
  21504828.260   113008655.06606  21504828.540    88058702.36548
 15 03 05 00 36 30.0000000  0  6G16G18G19G21G22G27
  20541186.580   107944670.10306  20541184.280    84112730.02749
  21832048.840   114728204.28006  21832047.200    89398599.77947
  23388032.120   122904940.71904  23388029.080    95770073.33646
  22522563.100   118356877.47405  22522560.400    92226133.93547
  22107920.780   116177920.52405  22107917.420    90528241.35847
  21495379.040   112958999.11106  21495379.320    88020009.41848
 15 03 05 00 37  0.0000000  0  6G16G18G19G21G22G27
  20536741.080   107921308.85406  20536738.780    84094526.45749
  21829108.500   114712752.18706  21829106.760    89386559.19847
  23373982.340   122831108.56104  23373979.340    95712541.81145
  22535152.820   118423037.17505  22535150.200    92277686.93647
  22093497.540   116102125.54905  22093494.080    90469180.36047
  21485957.980   112909491.41906  21485958.320    87981432.01048
 15 03 05 00 37 30.0000000  0  6G16G18G19G21G22G27
  20532390.700   107898447.82306  20532388.480    84076712.66149
  21826260.180   114697783.78106  21826258.340    89374895.51547
  23359949.140   122757363.51904  23359946.100    95655078.16645
  22547769.100   118489336.49205  22547766.620    92329348.72547
  22079132.860   116026638.34705  22079129.260    90410359.18448
  21476564.640   112860128.89506  21476564.980    87942967.71348
 15 03 05 00 38  0.0000000  0  6G16G18G19G21G22G27
  20528136.040   107876089.52306  20528133.860    84059290.60949
  21823504.060   114683300.20206  21823502.160    89363609.61547
  23345932.880   122683707.15204  23345929.900    95597683.59745
  22560411.680   118555773.86905  22560409.340    92381118.10647
  22064827.420   115951462.41605  22064823.740    90351780.55747
  21467199.220   112810913.04206  21467199.460    87904617.70248
 15 03 05 00 38 30.0000000  0  6G16G18G19G21G22G27
  20523977.260   107854234.94206  20523975.080    84042261.06149
  21820840.500   114669302.80206  21820838.560    89352702.56547
  23331933.480   122610139.26504  23331930.500    95540358.01146
  22573080.480   118622348.23705  22573078.020    92432994.21847
  22050581.540   115876599.90905  22050577.900    90293446.16447
  21457861.800   112761844.22706  21457861.920    87866382.27048
 15 03 05 00 39  0.0000000  0  6G16G18G19G21G22G27
  20519915.340   107832889.12706  20519913.080    84025627.95549
  21818270.120   114655795.57706  21818268.200    89342177.46347
  23317951.600   122536663.78704  23317948.580    95483104.42747
  22585775.540   118689061.14605  22585773.040    92484978.29346
  22036396.260   115802056.81305  22036392.760    90235360.66347
  21448553.120   112712926.58106  21448553.200    87828264.63048
 15 03 05 00 39 30.0000000  0  6G16G18G19G21G22G27
  20515949.380   107812047.69306  20515947.100    84009387.87249
  21815792.100   114642773.61006  21815790.200    89332030.48547
  23303986.180   122463275.48504  23303983.140    95425918.78246
  22598495.680   118755905.61805  22598493.120    92537064.87446
  22022271.360   115727830.05205  22022267.800    90177521.63947
  21439272.220   112664155.18606  21439272.360    87790260.95548
 15 03 05 00 40  0.0000000  0  6G16G18G19G21G22G27
  20512080.520   107791716.98606  20512078.320    83993545.75949
  21813407.460   114630242.25806  21813405.460    89322265.80447
  23290038.180   122389979.50104  23290035.440    95368805.03446
  22611241.520   118822885.45105  22611238.920    92589256.94447
  22008208.100   115653927.24205  22008204.560    90119935.06547
  21430020.200   112615535.48706  21430020.380    87752375.47848
 15 03 05 00 40 30.0000000  0  6G16G18G19G21G22G27
  20508308.200   107771893.46806  20508306.040    83978098.85649
  21811115.400   114618197.53506  21811113.400    89312880.32247
  23276107.020   122316771.01104  23276104.160    95311759.47247
  22624011.760   118889993.85404  22624009.200    92641549.20447
  21994206.020   115580345.96205  21994202.460    90062599.00947
  21420796.160   112567062.91606  21420796.360    87714604.65048
 15 03 05 00 41  0.0000000  0  6G16G18G19G21G22G27
  20504633.140   107752580.89206  20504631.000    83963050.08949
  21808916.480   114606642.42406  21808914.500    89303876.36047
  23262193.040   122243652.89404  23262190.060    95254784.35146
  22636806.620   118957231.58104  22636804.200    92693942.21147
  21980266.100   115507091.02305  21980262.480    90005517.24647
  21411600.740   112518740.65806  21411600.940    87676950.94448
 15 03 05 00 41 30.0000000  0  6G16G18G19G21G22G27
  20501055.240   107733778.75606  20501053.100    83948399.06849
  21806810.500   114595575.76106  21806808.580    89295253.00847
  23248296.160   122170623.67404  23248293.120    95197878.50846
  22649625.620   119024595.47605  22649623.200    92746433.53147
  21966388.420   115434163.40605  21966384.780    89948690.55047
  21402433.740   112470567.64806  21402433.920    87639413.54648
 15 03 05 00 42  0.0000000  0  6G16G18G19G21G22G27
  20497575.460   107715492.04006  20497573.280    83934149.67649
  21804798.300   114585001.71506  21804796.380    89287013.50747
  23234416.720   122097686.58304  23234413.580    95141044.42346
  22662468.920   119092086.99505  22662466.440    92799024.32546
  21952574.120   115361568.63605  21952570.360    89892123.20747
  21393295.760   112422547.70706  21393296.080    87601995.42448
 15 03 05 00 42 30.0000000  0  6G16G18G19G21G22G27
  20494193.380   107697718.91606  20494191.140    83920300.48949
  21802879.420   114574917.89106  21802877.400    89279155.99547
  23220554.460   122024839.13404  23220551.280    95084280.16346
  22675335.700   119159702.13605  22675333.200    92851711.44247
  21938823.160   115289306.51705  21938819.360    89835815.07947
  21384186.460   112374678.50906  21384186.880    87564694.75548
 15 03 05 00 43  0.0000000  0  6G16G18G19G21G22G27
  20490909.920   107680464.00206  20490907.600    83906855.09549
  21801054.600   114565328.31306  21801052.560    89271683.62047
  23206709.820   121952084.90804  23206706.600    95027588.59746
  22688226.320   119227442.98305  22688223.840    92904496.49646
  21925136.580   115217382.91205  21925132.780    89779770.72747
  21375106.640   112326964.08706  21375107.100    87527514.69448
 15 03 05 00 43 30.0000000  0  6G16G18G19G21G22G27
  20487725.440   107663729.36206  20487723.080    83893815.11049
  21799324.040   114556234.24506  21799322.040    89264597.35247
  23192883.060   121879425.49504  23192879.880    94970970.88946
  22701140.600   119295308.67804  22701138.240    92957378.83247
  21911515.000   115145801.12005  21911511.280    89723992.72447
  21366056.640   112279406.12706  21366057.040    87490456.55748
 15 03 05 00 44  0.0000000  0  6G16G18G19G21G22G27
  20484638.980   107647510.03206  20484636.640    83881176.66649
  21797686.640   114547629.88406  21797684.700    89257892.67147
  23179073.120   121806854.89804  23179070.360    94914422.40747
  22714077.260   119363291.24305  22714074.940    93010352.25846
  21897957.660   115074557.10405  21897954.020    89668477.93148
  21357035.240   112231998.67006  21357035.620    87453515.70948
 15 03 05 00 44 30.0000000  0  6G16G18G19G21G22G27
  20481651.720   107631811.98206  20481649.420    83868944.41449
  21796143.520   114539520.79206  21796141.620    89251573.91247
  23165281.100   121734377.86904  23165278.520    94857946.81245
  22727036.740   119431394.09605  22727034.400    93063419.40346
  21884466.020   115003658.45205  21884462.400    89613232.24847
  21348043.580   112184747.28606  21348043.960    87416696.45848
 15 03 05 00 45  0.0000000  0  6G16G18G19G21G22G27
  20478763.500   107616633.83706  20478761.140    83857117.28649
  21794694.160   114531904.62406  21794692.240    89245639.25247
  23151506.500   121661992.07304  23151504.040    94801542.31847
  22740018.460   119499613.24005  22740016.100    93116577.17047
  21871040.120   114933104.31105  21871036.300    89558255.01947
  21339081.240   112137649.78706  21339081.620    87379997.12548
 15 03 05 00 45 30.0000000  0  6G16G18G19G21G22G27
  20475974.200   107601975.84006  20475971.820    83845695.46049
  21793338.540   114524781.18406  21793336.700    89240088.52847
  23137749.300   121589697.06504  23137746.820    94745208.59346
  22753021.880   119567946.26605  22753019.420    93169823.67546
  21857680.220   114862896.88505  21857676.180    89503547.94947
  21330148.220   112090706.11906  21330148.560    87343417.64648
 15 03 05 00 46  0.0000000  0  6G16G18G19G21G22G27
  20473284.900   107587843.59906  20473282.580    83834683.32049
  21792077.560   114518154.96306  21792075.800    89234925.24347
  23124010.180   121517497.39204  23124007.520    94688949.12245
  22766047.500   119636396.05705  22766044.960    93223161.15846
  21844387.280   114793042.61005  21844383.280    89449116.06847
  21321245.380   112043921.26406  21321245.680    87306961.93548
 15 03 05 00 46 30.0000000  0  6G16G18G19G21G22G27
  20470696.120   107574239.50006  20470693.840    83824082.71549
  21790911.540   114512027.47306  21790909.800    89230150.59047
  23110289.340   121445394.34804  23110286.600    94632764.96947
  22779095.260   119704962.28004  22779092.640    93276589.36047
  21831162.240   114723545.33105  21831158.340    89394962.35847
  21312373.120   111997297.01806  21312373.360    87270631.36849
 15 03 05 00 47  0.0000000  0  6G16G18G19G21G22G27
  20468207.100   107561159.56206  20468204.820    83813890.55149
  21789839.620   114506394.41206  21789837.820    89225761.20047
  23096585.940   121373383.50704  23096583.360    94576652.63747
  22792163.800   119773637.94504  22792161.260    93330102.84447
  21818004.700   114654401.94206  21818000.700    89341084.40747
  21303530.460   111950828.97006  21303530.760    87234422.51148
 15 03 05 00 47 30.0000000  0  6G16G18G19G21G22G27
  20465817.940   107548604.35706  20465815.620    83804107.26549
  21788861.820   114501255.76506  21788859.920    89221757.07147
  23082900.220   121301464.86504  23082897.660    94520612.15747
  22805253.020   119842422.64404  22805250.500    93383701.29245
  21804915.040   114585614.95206  21804910.920    89287484.17147
  21294717.660   111904517.48506  21294717.980    87198335.63848
 15 03 05 00 48  0.0000000  0  6G16G18G19G21G22G27
  20463529.140   107536576.54806  20463526.780    83794734.94049
  21787978.460   114496613.42706  21787976.460    89218139.66547
  23069232.480   121229640.37204  23069229.960    94464645.05547
  22818363.000   119911315.81204  22818360.380    93437384.27946
  21791894.000   114517188.31806  21791889.760    89234164.73647
  21285935.160   111858364.81806  21285935.440    87162372.52748
 15 03 05 00 48 30.0000000  0  6G16G18G19G21G22G27
  20461340.980   107525077.70006  20461338.620    83785774.79449
  21787189.660   114492467.93406  21787187.560    89214909.42847
  23055582.900   121157910.48604  23055580.200    94408751.63946
  22831493.140   119980315.43204  22831490.460    93491150.21446
  21778941.900   114449124.38906  21778937.720    89181127.93748
  21277183.060   111812371.97806  21277183.300    87126533.95948
 15 03 05 00 49  0.0000000  0  6G16G18G19G21G22G27
  20459253.720   107514109.51406  20459251.460    83777228.15249
  21786495.600   114488820.37506  21786493.460    89212067.17447
  23041951.500   121086276.32604  23041948.520    94352932.81946
  22844643.460   120049421.49204  22844640.820    93544999.07947
  21766059.280   114381426.22906  21766055.260    89128376.14147
  21268461.540   111766540.23606  21268461.760    87090820.92348
 15 03 05 00 49 30.0000000  0  6G16G18G19G21G22G27
  20457268.220   107503675.28106  20457265.880    83769097.57049
  21785896.700   114485673.37606  21785894.620    89209614.97947
  23028338.640   121014740.24804  23028335.560    94297190.45247
  22857814.380   120118634.99104  22857811.760    93598931.66647
  21753247.160   114314098.57306  21753243.260    89075913.05247
  21259771.200   111720872.55606  21259771.440    87055235.72448
 15 03 05 00 50  0.0000000  0  6G16G18G19G21G22G27
  20455384.220   107493774.30506  20455381.800    83761382.51049
  21785392.780   114483025.41306  21785390.720    89207551.64047
  23014744.020   120943300.75704  23014741.020    94241523.33946
  22871005.060   120187952.40404  22871002.560    93652945.21847
  21740505.740   114247141.85906  21740501.820    89023739.00848
  21251111.860   111675367.81206  21251112.160    87019777.49048
 15 03 05 00 50 30.0000000  0  6G16G18G19G21G22G27
  20453601.200   107484404.23506  20453598.740    83754081.15149
  21784983.360   114480873.71006  21784981.280    89205875.00247
  23001167.340   120871955.41404  23001164.460    94185929.58546
  22884214.740   120257369.51204  22884212.360    93707036.45946
  21727834.840   114180555.35406  21727830.780    88971853.43947
  21242483.040   111630023.67906  21242483.460    86984444.40448
 15 03 05 00 51  0.0000000  0  6G16G18G19G21G22G27
  20451919.720   107475567.99806  20451917.260    83747195.76549
  21784668.660   114479219.48306  21784666.440    89204586.01047
  22987608.940   120800706.46304  22987606.220    94130410.96547
  22897443.480   120326886.50304  22897441.120    93761205.52646
  21715235.000   114114342.60906  21715230.880    88920259.10048
  21233885.280   111584842.42706  21233885.740    86949238.23548
 15 03 05 00 51 30.0000000  0  6G16G18G19G21G22G27
  20450340.320   107467268.58706  20450337.920    83740728.67749
  21784449.220   114478065.98206  21784446.920    89203687.19247
  22974069.320   120729555.45304  22974066.640    94074968.61546
  22910691.200   120396503.66004  22910688.880    93815452.63946
  21702707.140   114048508.62506  21702703.160    88868959.90448
  21225319.140   111539826.84706  21225319.580    86914161.17649
 15 03 05 00 52  0.0000000  0  6G16G18G19G21G22G27
  20448862.700   107459504.05406  20448860.360    83734678.38349
  21784324.320   114477410.28706  21784322.140    89203176.27047
  22960548.180   120658501.11204  22960545.500    94019601.62347
  22923957.320   120466217.12604  22923954.900    93869774.81246
  21690251.220   113983052.79706  21690247.380    88817955.37747
  21216784.120   111494975.05606  21216784.480    86879211.73548
 15 03 05 00 52 30.0000000  0  6G16G18G19G21G22G27
  20447486.940   107452274.80106  20447484.720    83729045.19349
  21784294.080   114477252.06306  21784292.040    89203052.98747
  22947045.260   120587542.32604  22947042.520    93964309.08946
  22937241.340   120536024.83604  22937238.800    93924170.41046
  21677867.660   113917976.87906  21677863.840    88767246.89048
  21208280.280   111450287.12506  21208280.600    86844389.97949
 15 03 05 00 53  0.0000000  0  6G16G18G19G21G22G27
  20446214.260   107445586.96206  20446212.100    83723833.88049
  21784359.680   114477596.88806  21784357.680    89203321.68847
  22933561.640   120516685.32204  22933558.780    93909095.86046
  22950543.940   120605930.31504  22950541.400    93978642.20046
  21665557.740   113853288.02306  21665553.900    88716840.00948
  21199808.720   111405769.05306  21199809.120    86809700.57849
 15 03 05 00 53 30.0000000  0  6G16G18G19G21G22G27
  20445044.420   107439439.19906  20445042.260    83719043.41149
  21784520.540   114478442.03706  21784518.480    89203980.26047
  22920096.940   120445927.69404  22920093.920    93853960.04645
  22963864.540   120675930.78304  22963862.160    94033188.00846
  21653321.560   113788986.73906  21653317.680    88666735.12747
  21191369.260   111361419.27006  21191369.700    86775142.30648
 15 03 05 00 54  0.0000000  0  6G16G18G19G21G22G27
  20443977.020   107433829.46906  20443974.760    83714672.17749
  21784776.060   114479785.18006  21784774.040    89205026.86647
  22906650.780   120375267.37604  22906647.780    93798900.09047
  22977202.440   120746021.86504  22977200.100    94087804.41445
  21641158.940   113725072.17006  21641155.100    88616931.59647
  21182961.460   111317235.76206  21182961.860    86740713.60549
 15 03 05 00 54 30.0000000  0  6G16G18G19G21G22G27
  20443012.600   107428761.12706  20443010.280    83710722.80949
  21785126.740   114481628.91706  21785124.860    89206463.55247
  22893223.560   120304706.86404  22893220.520    93743917.90047
  22990557.700   120816204.18804  22990555.340    94142491.92847
  21629070.840   113661548.56806  21629066.960    88567432.70248
  21174585.880   111273221.58806  21174586.240    86706416.85348
 15 03 05 00 55  0.0000000  0  6G16G18G19G21G22G27
  20442151.340   107424235.07006  20442148.980    83707196.00549
  21785572.760   114483973.38206  21785571.020    89208290.41547
  22879815.320   120234246.60404  22879812.340    93689013.83846
  23003930.100   120886476.60104  23003927.700    94197249.62347
  21617057.680   113598418.79206  21617053.820    88518240.68648
  21166242.760   111229377.63606  21166243.020    86672252.73749
 15 03 05 00 55 30.0000000  0  6G16G18G19G21G22G27
  20441393.220   107420251.05706  20441390.840    83704091.56549
  21786114.080   114486817.91206  21786112.320    89210506.92847
  22866426.200   120163886.43004  22866423.140    93634187.73946
  23017319.260   120956836.95104  23017316.880    94252075.84647
  21605119.600   113535684.04206  21605115.780    88469356.48848
  21157931.920   111185703.83806  21157932.140    86638221.22148
 15 03 05 00 56  0.0000000  0  6G16G18G19G21G22G27
  20440738.140   107416808.68506  20440735.780    83701409.18949
  21786750.360   114490160.79806  21786748.400    89213111.78247
  22853055.940   120093625.57304  22853052.860    93579439.04247
  23030724.640   121027282.53004  23030722.200    94306968.48446
  21593256.900   113473344.94306  21593253.020    88420780.58048
  21149653.300   111142199.61406  21149653.560    86604321.83248
 15 03 05 00 56 30.0000000  0  6G16G18G19G21G22G27
  20440186.380   107413909.09306  20440184.000    83699149.75749
  21787481.460   114494002.56806  21787479.440    89216105.38147
  22839704.780   120023464.38104  22839701.640    93524768.02646
  23044146.080   121097812.36904  23044143.560    94361926.76946
  21581469.980   113411404.10806  21581466.060    88372515.01248
  21141407.180   111098865.94306  21141407.460    86570555.33449
 15 03 05 00 57  0.0000000  0  6G16G18G19G21G22G27
  20439738.500   107411555.42906  20439736.120    83697315.72649
  21788307.940   114498345.96006  21788305.920    89219489.84647
  22826373.220   119953405.91904  22826369.960    93470177.03947
  23057583.700   121168427.75404  23057581.260    94416951.74946
  21569759.800   113349866.57406  21569755.860    88324563.69548
  21133194.160   111055706.26606  21133194.480    86536924.42149
 15 03 05 00 57 30.0000000  0  6G16G18G19G21G22G27
  20439394.720   107409748.69806  20439392.320    83695907.86949
  21789229.900   114503191.06606  21789227.880    89223265.26047
  22813061.280   119883450.96004  22813057.920    93415666.70247
  23071037.300   121239127.48804  23071035.000    94472042.43446
  21558126.680   113288734.29906  21558122.780    88276928.16648
  21125014.500   111012721.63106  21125014.780    86503429.90749
 15 03 05 00 58  0.0000000  0  6G16G18G19G21G22G27
  20439155.260   107408490.17706  20439152.860    83694927.18949
  21790247.420   114508538.26906  21790245.400    89227431.91847
  22799768.980   119813599.98804  22799765.660    93361237.39847
  23084506.860   121309910.79204  23084504.620    94527198.24246
  21546571.080   113228009.92906  21546567.340    88229610.49648
  21116868.300   110969913.10606  21116868.580    86470072.61848
 15 03 05 00 58 30.0000000  0  6G16G18G19G21G22G27
  20439019.040   107407774.39106  20439016.640    83694369.42849
  21791359.320   114514381.21706  21791357.280    89231984.86847
  22786495.660   119743848.04204  22786492.360    93306885.25547
  23097990.900   121380770.06404  23097988.740    94582413.22547
  21535092.440   113167689.47606  21535088.760    88182607.56248
  21108754.620   110927275.40606  21108754.900    86436848.44549
 15 03 05 00 59  0.0000000  0  6G16G18G19G21G22G27
  20438987.840   107407610.45506  20438985.460    83694241.67449
  21792567.220   114520728.60306  21792565.220    89236930.89647
  22773242.640   119674203.29904  22773239.380    93252616.66447
  23111490.740   121451712.64604  23111488.740    94637693.13547
  21523692.720   113107783.73206  21523689.080    88135927.78048
  21100675.300   110884818.07206  21100675.540    86403764.80649
 15 03 05 00 59 30.0000000  0  6G16G18G19G21G22G27
  20439060.280   107407991.12506  20439057.920    83694538.28749
  21793869.620   114527572.58806  21793867.640    89242263.87547
  22760008.740   119604658.57504  22760005.260    93198425.97647
  23125004.840   121522729.64704  23125002.960    94693031.01946
  21512370.860   113048286.99806  21512367.240    88089566.70748
  21092628.920   110842534.14106  21092629.180    86370816.29748
 15 03 05 01 00  0.0000000  0  6G16G18G19G21G22G27
  20439237.220   107408921.07906  20439234.920    83695262.91749
  21795267.160   114534916.82406  21795265.180    89247986.66647
  22746794.780   119535218.48104  22746791.180    93144316.84747
  23138533.440   121593823.43004  23138531.560    94748428.76846
  21501127.920   112989205.09706  21501124.320    88043528.88448
  21084616.360   110800428.07006  21084616.680    86338006.37949
 15 03 05 01 00 30.0000000  0  6G16G18G19G21G22G27
  20439519.060   107410402.49506  20439516.820    83696417.25649
  21796760.020   114542762.42306  21796758.100    89254100.12747
  22733600.960   119465885.00904  22733597.520    93090290.80647
  23152076.780   121664994.43004  23152074.960    94803886.69045
  21489964.560   112930541.45506  21489961.000    87997816.96948
  21076638.140   110758502.31906  21076638.460    86305336.96549
 15 03 05 01 01  0.0000000  0  6G16G18G19G21G22G27
  20439905.680   107412434.05506  20439903.420    83698000.28449
  21798348.000   114551107.48306  21798346.120    89260602.77147
  22720427.080   119396656.54304  22720423.740    93036346.57447
  23165634.300   121736239.34404  23165632.340    94859402.20247
  21478881.020   112872297.06906  21478877.460    87952431.75148
  21068694.020   110716755.90806  21068694.320    86272807.29248
 15 03 05 01 01 30.0000000  0  6G16G18G19G21G22G27
  20440397.080   107415015.98006  20440394.740    83700012.16349
  21800031.300   114559952.58806  21800029.320    89267495.07647
  22707273.360   119327533.75904  22707270.120    92982484.67847
  23179205.660   121807557.13604  23179203.620    94914974.48846
  21467877.560   112814473.66706  21467873.960    87907374.57147
  21060784.220   110675189.74606  21060784.500    86240418.07549
 15 03 05 01 02  0.0000000  0  6G16G18G19G21G22G27
  20440993.320   107418149.07406  20440990.980    83702453.52549
  21801809.420   114569296.43506  21801807.360    89274776.01347
  22694139.780   119258516.66104  22694136.580    92928705.16747
  23192790.500   121878946.13104  23192788.520    94970602.26446
  21456954.460   112757072.62606  21456950.840    87862646.51548
  21052908.880   110633804.28206  21052909.140    86208169.65848
 15 03 05 01 02 30.0000000  0  6G16G18G19G21G22G27
  20441694.700   107421834.68306  20441692.380    83705325.41649
  21803682.580   114579140.33806  21803680.540    89282446.59747
  22681026.480   119189606.54604  22681023.480    92875008.97747
  23206389.040   121950406.05304  23206386.980    95026285.28746
  21446112.240   112700097.02706  21446108.660    87818249.95748
  21045068.200   110592601.23606  21045068.540    86176063.39249
 15 03 05 01 03  0.0000000  0  6G16G18G19G21G22G27
  20442500.460   107426069.16106  20442498.180    83708625.00149
  21805649.980   114589479.61006  21805648.020    89290503.17847
  22667933.120   119120800.34604  22667930.140    92821393.77647
  23219999.920   122021931.67004  23219998.040    95082019.50846
  21435350.720   112643545.25206  21435347.220    87774183.65348
  21037261.620   110551577.71706  21037262.020    86144097.01648
 15 03 05 01 03 30.0000000  0  6G16G18G19G21G22G27
  20443411.240   107430855.53206  20443408.980    83712354.62449
  21807712.140   114600316.53606  21807710.260    89298947.53547
  22654860.100   119052101.05404  22654857.080    92767861.87747
  23233623.580   122093524.34204  23233621.640    95137805.98846
  21424670.820   112587421.52806  21424667.260    87730450.88948
  21029489.860   110510736.94006  21029490.240    86112273.03248
 15 03 05 01 04  0.0000000  0  6G16G18G19G21G22G27
  20444427.780   107436197.47806  20444425.500    83716517.17149
  21809869.720   114611654.36706  21809867.800    89307782.21847
  22641808.080   118983512.16104  22641805.000    92714416.02347
  23247260.320   122165185.89704  23247258.320    95193646.13446
  21414073.420   112531731.13006  21414069.720    87687055.79248
  21021753.700   110470083.15806  21021754.020    86080594.76049
 15 03 05 01 04 30.0000000  0  6G16G18G19G21G22G27
  20445549.520   107442092.09306  20445547.220    83721110.37249
  21812121.880   114623489.05406  21812119.860    89317004.07147
  22628776.480   118915030.40404  22628773.460    92661053.64047
  23260909.380   122236911.68504  23260907.180    95249536.35445
  21403558.120   112476472.31406  21403554.240    87643996.98948
  21014052.580   110429613.44906  21014052.860    86049059.92649
 15 03 05 01 05  0.0000000  0  6G16G18G19G21G22G27
  20446777.180   107448543.29306  20446774.880    83726137.26849
  21814469.300   114635824.34606  21814467.160    89326615.99047
  22615766.100   118846660.34804  22615763.060    92607778.29447
  23274571.260   122308704.46604  23274568.800    95305478.77646
  21393125.920   112421650.96706  21393122.040    87601279.07048
  21006387.380   110389332.64406  21006387.660    86017672.28749
 15 03 05 01 05 30.0000000  0  6G16G18G19G21G22G27
  20448110.520   107455549.59506  20448108.160    83731596.71649
  21816911.480   114648657.78606  21816909.260    89336616.07647
  22602776.660   118778400.56704  22602773.720    92554588.88147
  23288245.200   122380560.73304  23288242.420    95361470.66545
  21382776.900   112367266.82006  21382773.100    87558901.82748
  20998757.900   110349239.56306  20998758.220    85986430.93249
 15 03 05 01 06  0.0000000  0  6G16G18G19G21G22G27
  20449549.300   107463110.04606  20449546.860    83737487.96949
  21819447.980   114661987.57806  21819445.860    89347002.93047
  22589807.980   118710250.17204  22589805.100    92501484.69947
  23301930.720   122452478.26304  23301927.840    95417510.30746
  21372511.300   112313320.80906  21372507.600    87516865.99348
  20991164.140   110309333.90606  20991164.440    85955335.62749
 15 03 05 01 06 30.0000000  0  6G16G18G19G21G22G27
  20451092.740   107471220.78106  20451090.280    83743808.01249
  21822078.080   114675809.04306  21822076.040    89357772.90047
  22576859.620   118642205.94704  22576856.720    92448463.23147
  23315626.900   122524451.86004  23315624.100    95473593.64946
  21362328.740   112259810.80406  21362325.060    87475169.89348
  20983605.420   110269612.61706  20983605.740    85924383.97949
 15 03 05 01 07  0.0000000  0  6G16G18G19G21G22G27
  20452742.460   107479890.07306  20452739.960    83750563.29449
  21824803.260   114690129.78506  21824801.180    89368931.93347
  22563933.040   118574275.70604  22563929.920    92395530.59547
  23329334.800   122596487.83104  23329332.260    95529725.51546
  21352230.860   112206746.13606  21352227.160    87433820.82048
  20976083.400   110230083.94906  20976083.660    85893582.41349
 15 03 05 01 07 30.0000000  0  6G16G18G19G21G22G27
  20454498.060   107489115.85306  20454495.540    83757752.20149
  21827623.060   114704947.63206  21827620.860    89380478.33047
  22551027.760   118506457.97804  22551024.560    92342685.64547
  23343053.960   122668582.93404  23343051.680    95585903.48546
  21342217.700   112154126.49606  21342213.880    87392818.52048
  20968597.880   110190746.82406  20968598.040    85862930.12149
 15 03 05 01 08  0.0000000  0  6G16G18G19G21G22G27
  20456359.760   107498899.25506  20456357.280    83765375.62549
  21830537.280   114720262.22906  21830535.040    89392411.79347
  22538144.080   118438753.89605  22538140.880    92289929.24647
  23356784.100   122740736.58404  23356782.280    95642127.07447
  21332289.660   112101954.42006  21332285.780    87352164.96648
  20961148.980   110151602.72406  20961149.160    85832428.22549
 15 03 05 01 08 30.0000000  0  6G16G18G19G21G22G27
  20458327.000   107509237.35206  20458324.560    83773431.27549
  21833545.320   114736070.63205  21833543.240    89404730.03547
  22525281.540   118371160.90505  22525278.420    92237259.39747
  23370524.900   122812945.25604  23370523.180    95698393.54745
  21322446.600   112050228.97706  21322442.700    87311859.44348
  20953736.500   110112649.76806  20953736.660    85802075.26849
 15 03 05 01 09  0.0000000  0  6G16G18G19G21G22G27
  20460400.060   107520131.51606  20460397.680    83781920.22849
  21836647.400   114752372.72406  21836645.480    89417432.96047
  22512440.440   118303680.70505  22512437.420    92184677.45447
  23384276.020   122885207.81104  23384274.140    95754702.04246
  21312689.080   111998952.98506  21312685.200    87271904.13848
  20946360.720   110073889.69606  20946360.920    85771872.62349
 15 03 05 01 09 30.0000000  0  6G16G18G19G21G22G27
  20462579.300   107531583.30506  20462576.900    83790843.69049
  21839843.820   114769169.91706  21839841.880    89430521.69047
  22499621.240   118236315.21505  22499618.240    92132184.87347
  23398037.400   122957524.66104  23398035.480    95811052.83845
  21303017.700   111948129.33206  21303013.800    87232301.30648
  20939022.020   110035324.82006  20939022.320    85741822.07649
 15 03 05 01 10  0.0000000  0  6G16G18G19G21G22G27
  20464864.920   107543593.92506  20464862.460    83800202.59849
  21843134.520   114786462.21506  21843132.480    89443996.21847
  22486824.040   118169065.77205  22486821.080    92079782.73247
  23411809.160   123029895.60104  23411807.240    95867445.74643
  21293432.900   111897760.73706  21293428.920    87193053.06648
  20931720.820   109996957.04906  20931721.140    85711925.12449
 15 03 05 01 10 30.0000000  0  6G16G18G19G21G22G27
  20467256.240   107556160.20206  20467253.780    83809994.49449
  21846518.800   114804246.23506  21846516.620    89457853.89847
  22474048.440   118101929.86505  22474045.520    92027469.06447
  23425590.380   123102316.75304  23425588.680    95923877.83945
  21283934.400   111847845.81406  21283930.340    87154158.33448
  20924456.720   109958784.09306  20924457.020    85682179.96949
 15 03 05 01 11  0.0000000  0  6G16G18G19G21G22G27
  20469753.880   107569285.60706  20469751.480    83820222.07649
  21849997.060   114822524.67006  21849994.860    89472096.84548
  22461295.200   118034911.42005  22461292.320    91975246.92247
  23439381.300   123174776.99504  23439380.300    95980345.43846
  21274523.180   111798389.85006  21274519.120    87115621.23948
  20917230.540   109920810.16906  20917230.780    85652589.90749
 15 03 05 01 11 30.0000000  0  6G16G18G19G21G22G27
  20472356.980   107582965.01406  20472354.620    83830881.34249
  21853568.220   114841291.73206  21853566.120    89486720.53547
  22448563.460   117968005.80105  22448560.520    91923112.69347
  23453181.440   123247295.84304  23453179.920    96036853.62545
  21265198.640   111749389.22706  21265194.620    87077438.95048
  20910041.380   109883030.93806  20910041.620    85623151.54349
 15 03 05 01 12  0.0000000  0  6G16G18G19G21G22G27
  20475066.560   107597203.84006  20475064.220    83841976.52349
  21857233.280   114860551.80206  21857231.260    89501728.38447
  22435854.300   117901218.66705  22435851.280    91871070.78947
  23466991.100   123319864.67504  23466989.180    96093400.74247
  21255962.100   111700851.00006  21255958.100    87039616.97448
  20902890.460   109845452.64206  20902890.700    85593869.75049
 15 03 05 01 12 30.0000000  0  6G16G18G19G21G22G27
  20477881.840   107611998.16206  20477879.500    83853504.55249
  21860991.460   114880300.81406  21860989.360    89517117.23247
  22423167.060   117834546.88905  22423163.980    91819118.78148
  23480809.340   123392478.67604  23480807.180    96149983.05245
  21246813.160   111652772.88806  21246809.120    87002153.51848
  20895777.260   109808072.49006  20895777.500    85564742.35449
 15 03 05 01 13  0.0000000  0  6G16G18G19G21G22G27
  20480804.060   107627354.70606  20480801.780    83865470.68749
  21864843.820   114900544.73206  21864841.640    89532891.71247
  22410502.980   117767997.63505  22410499.940    91767262.25647
  23494637.040   123465143.15504  23494634.760    96206604.71646
  21237753.320   111605163.26006  21237749.260    86965055.12948
  20888703.200   109770897.96706  20888703.440    85535775.19049
 15 03 05 01 13 30.0000000  0  6G16G18G19G21G22G27
  20483832.420   107643269.19206  20483830.220    83877871.57149
  21868789.320   114921278.40306  21868787.140    89549047.82847
  22397861.540   117701567.18405  22397858.580    91715498.28147
  23508473.300   123537852.84204  23508470.780    96263261.59545
  21228782.040   111558019.28106  21228778.060    86928319.57348
  20881667.600   109733925.76806  20881667.860    85506965.67449
 15 03 05 01 14  0.0000000  0  6G16G18G19G21G22G27
  20486966.000   107659736.41306  20486963.840    83890703.16249
  21872826.880   114942495.66706  21872824.680    89565580.76047
  22385241.960   117635250.82505  22385238.900    91663823.22947
  23522316.840   123610601.13604  23522314.240    96319948.56345
  21219898.720   111511337.35306  21219894.800    86891944.07148
  20874669.660   109697151.42906  20874669.880    85478310.35149
 15 03 05 01 14 30.0000000  0  6G16G18G19G21G22G27
  20490207.140   107676768.61306  20490204.960    83903974.99449
  21876958.620   114964208.13806  21876956.480    89582499.57847
  22372646.520   117569061.14405  22372643.400    91612246.88148
  23536169.720   123683399.11404  23536167.220    96376674.22945
  21211105.940   111465131.61506  21211102.180    86855939.60948
  20867711.940   109660588.23007  20867712.080    85449819.55549
 15 03 05 01 15  0.0000000  0  6G16G18G19G21G22G27
  20493553.380   107694352.97106  20493551.160    83917677.07949
  21881182.180   114986403.46606  21881180.080    89599794.64547
  22360073.080   117502987.07605  22360069.980    91560760.60847
  23550029.680   123756233.74004  23550027.080    96433428.51545
  21202401.800   111419391.31606  21202398.100    86820297.83148
  20860792.280   109624224.99807  20860792.380    85421484.56649
 15 03 05 01 15 30.0000000  0  6G16G18G19G21G22G27
  20497006.160   107712497.16106  20497003.900    83931815.39449
  21885498.740   115009087.29206  21885496.620    89617470.35547
  22347522.980   117437036.18905  22347519.880    91509370.34047
  23563897.660   123829111.01004  23563895.140    96490215.94846
  21193787.900   111374124.71606  21193784.140    86785025.17148
  20853912.160   109588069.74406  20853912.300    85393311.64449
 15 03 05 01 16  0.0000000  0  6G16G18G19G21G22G27
  20500564.600   107731196.80506  20500562.340    83946386.53349
  21889907.380   115032255.02206  21889905.260    89635523.13447
  22334995.600   117371204.68905  22334992.560    91458073.08947
  23577772.900   123902025.75504  23577770.380    96547032.65845
  21185263.760   111329329.73506  21185259.900    86750120.00548
  20847070.960   109552119.16606  20847071.180    85365298.20449
 15 03 05 01 16 30.0000000  0  6G16G18G19G21G22G27
  20504229.980   107750458.54106  20504227.740    83961395.66849
  21894409.300   115055912.44306  21894407.080    89653957.49247
  22322492.320   117305499.85305  22322489.320    91406874.54047
  23591656.260   123974983.24904  23591653.960    96603882.63546
  21176830.820   111285014.66206  21176827.020    86715588.79848
  20840270.220   109516381.01507  20840270.480    85337450.29649
 15 03 05 01 17  0.0000000  0  6G16G18G19G21G22G27
  20508000.700   107770274.02106  20507998.500    83976836.29049
  21899002.720   115080051.01006  21899000.420    89672766.76947
  22310011.840   117239914.34905  22310008.720    91355768.98347
  23605545.980   124047974.63004  23605544.000    96660759.01846
  21168487.840   111241172.34006  21168484.080    86681425.96648
  20833508.540   109480848.10006  20833508.800    85309762.30849
 15 03 05 01 17 30.0000000  0  6G16G18G19G21G22G27
  20511877.620   107790647.83106  20511875.520    83992711.97549
  21903688.480   115104674.88206  21903686.200    89691954.20648
  22297555.200   117174453.91405  22297551.980    91304760.87747
  23619442.920   124121003.67604  23619441.080    96717664.74844
  21160236.180   111197809.71906  21160232.460    86647636.92048
  20826787.100   109445526.45307  20826787.320    85282238.94949
 15 03 05 01 18  0.0000000  0  6G16G18G19G21G22G27
  20515860.200   107811576.34606  20515858.100    84009019.89249
  21908465.740   115129779.53706  21908463.500    89711516.28347
  22285121.760   117109115.61505  22285118.520    91253847.93747
  23633346.340   124194066.31103  23633344.560    96774596.65446
  21152075.500   111154924.90606  21152071.680    86614220.19548
  20820105.420   109410413.81407  20820105.580    85254878.45549
 15 03 05 01 18 30.0000000  0  6G16G18G19G21G22G27
  20519950.060   107833068.49706  20519947.940    84025767.01349
  21913336.000   115155373.03606  21913333.860    89731459.26747
  22272713.320   117043908.98805  22272710.080    91203037.61748
  23647257.520   124267170.34103  23647255.760    96831560.82846
  21144007.640   111112528.24406  21144003.800    86581183.85648
  20813465.400   109375520.05207  20813465.480    85227688.50549
 15 03 05 01 19  0.0000000  0  6G16G18G19G21G22G27
  20524145.640   107855116.31106  20524143.460    84042947.11449
  21918297.620   115181446.60706  21918295.540    89751776.33547
  22260328.460   116978826.76605  22260325.360    91152324.21448
  23661174.660   124340306.28303  23661173.080    96888549.79846
  21136031.480   111070613.21706  21136027.600    86548522.80848
  20806865.620   109340837.89607  20806865.640    85200663.43849
 15 03 05 01 19 30.0000000  0  6G16G18G19G21G22G27
  20528446.000   107877714.86906  20528443.820    84060556.36549
  21923349.780   115207995.40806  21923347.560    89772463.72747
  22247966.740   116913865.46605  22247963.700    91101705.03748
  23675097.140   124413469.51704  23675095.480    96945560.07945
  21128146.540   111029177.26206  21128142.620    86516235.06348
  20800305.560   109306364.52907  20800305.580    85173801.07649
 15 03 05 01 20  0.0000000  0  6G16G18G19G21G22G27
  20532852.560   107900871.30906  20532850.360    84078600.33249
  21928493.380   115235025.16906  21928491.060    89793525.87947
  22235629.520   116849032.55105  22235626.380    91051185.91147
  23689025.820   124486665.50804  23689024.160    97002595.90246
  21120354.280   110988228.43106  21120350.340    86484326.90248
  20793786.620   109272107.58107  20793786.720    85147107.34249
 15 03 05 01 20 30.0000000  0  6G16G18G19G21G22G27
  20537364.540   107924581.94506  20537362.400    84097076.13849
  21933727.820   115262532.72106  21933725.600    89814960.32847
  22223316.340   116784326.01105  22223313.120    91000765.25247
  23702960.220   124559890.69104  23702958.560    97059654.51746
  21112654.460   110947765.18106  21112650.400    86452797.11548
  20787308.600   109238065.57907  20787308.740    85120581.10149
 15 03 05 01 21  0.0000000  0  6G16G18G19G21G22G27
  20541982.940   107948851.82706  20541980.820    84115987.72449
  21939053.700   115290521.11906  21939051.640    89836769.46147
  22211028.220   116719751.28705  22211024.880    90950447.30747
  23716900.800   124633148.73704  23716898.980    97116738.70044
  21105048.160   110907794.01206  21105044.080    86421650.77048
  20780872.580   109204244.14807  20780872.720    85094226.74549
 15 03 05 01 21 30.0000000  0  6G16G18G19G21G22G27
  20546707.240   107973678.11506  20546705.120    84135332.86749
  21944470.740   115318987.73206  21944468.700    89858951.24247
  22198764.780   116655306.72405  22198761.440    90900230.78448
  23730847.160   124706436.54404  23730845.120    97173846.06246
  21097535.200   110868313.63506  21097531.160    86390886.85448
  20774478.280   109170641.97407  20774478.420    85068043.22949
 15 03 05 01 22  0.0000000  0  6G16G18G19G21G22G27
  20551536.740   107999057.45806  20551534.700    84155108.96549
  21949978.080   115347928.51906  21949975.900    89881502.50447
  22186525.680   116590990.14305  22186522.360    90850113.98747
  23744798.500   124779750.29204  23744796.280    97230973.63544
  21090115.400   110829322.69606  21090111.420    86360504.31648
  20768125.360   109137257.23307  20768125.500    85042029.15349
 15 03 05 01 22 30.0000000  0  5G16G18G19G22G27
  20556472.620   108024995.74606  20556470.600    84175320.60549
  21955576.580   115377348.79006  21955574.320    89904427.39947
  22174312.380   116526808.56905  22174309.000    90800102.39647
  21082790.280   110790829.14306  21082786.340    86330509.36548
  20761815.280   109104097.42607  20761815.400    85016190.34449
 15 03 05 01 23  0.0000000  0  5G16G18G19G22G27
  20561512.100   108051478.28206  20561510.060    84195956.33349
  21961263.300   115407233.06506  21961261.060    89927713.85847
  22162122.160   116462748.25405  22162118.740    90750185.28447
  21075557.240   110752819.51406  21075553.320    86300891.49248
  20755545.460   109071149.01307  20755545.560    84990516.24449
 15 03 05 01 23 30.0000000  0  5G16G18G19G22G27
  20566659.360   108078527.06106  20566657.300    84217033.29349
  21967042.500   115437603.09806  21967040.280    89951378.81247
  22149959.300   116398832.30405  22149956.000    90700380.66847
  21068420.880   110715317.80406  21068416.940    86271669.40148
  20749320.320   109038435.52407  20749320.440    84965025.21349
 15 03 05 01 24  0.0000000  0  5G16G18G19G22G27
  20571910.380   108106121.00206  20571908.260    84238535.05449
  21972910.140   115468437.19706  21972907.940    89975405.37547
  22137820.320   116335041.46705  22137817.020    90650673.53348
  21061377.540   110678304.72606  21061373.580    86242828.05848
  20743136.240   109005937.77207  20743136.360    84939702.28849
 15 03 05 01 24 30.0000000  0  5G16G18G19G22G27
  20577266.540   108134267.30606  20577264.320    84260467.22649
  21978867.500   115499742.53906  21978865.260    89999799.15647
  22125706.800   116271384.20605  22125703.380    90601070.50148
  21054428.980   110641789.80006  21054425.060    86214374.88748
  20736994.880   108973664.78407  20736995.040    84914554.50949
 15 03 05 01 25  0.0000000  0  6G16G18G19G21G22G27
  20582730.220   108162979.00906  20582727.980    84282839.97049
  21984916.540   115531530.27706  21984914.300    90024568.82447
  22113620.960   116207873.23805  22113617.660    90551581.44748
  23828609.200   125220187.53004  23828607.500    97574160.52946
  21047577.660   110605786.18806  21047573.860    86186320.13548
  20730898.780   108941629.70407  20730898.980    84889592.12149
 15 03 05 01 25 30.0000000  0  6G16G18G19G21G22G27
  20588297.920   108192237.32106  20588295.640    84305638.64149
  21991053.660   115563781.36806  21991051.520    90049699.54647
  22101559.820   116144491.97605  22101556.600    90502193.45947
  23842593.220   125293675.07804  23842591.480    97631423.56645
  21040820.560   110570277.46206  21040816.760    86158651.01248
  20724844.760   108909815.98507  20724845.000    84864802.21449
 15 03 05 01 26  0.0000000  0  6G16G18G19G21G22G27
  20593969.620   108222042.19706  20593967.300    84328863.20648
  21997278.860   115596495.70306  21997276.800    90075191.24047
  22089523.600   116081241.60205  22089520.420    90452907.46548
  23856580.360   125367178.17303  23856578.460    97688698.69145
  21034158.080   110535265.45706  21034154.140    86131368.94948
  20718833.260   108878225.32007  20718833.480    84840186.11049
 15 03 05 01 26 30.0000000  0  5G16G18G19G22G27
  20599744.640   108252390.07706  20599742.300    84352510.89149
  22003591.520   115629669.32606  22003589.440    90101040.81047
  22077512.060   116018120.23405  22077508.760    90403721.98648
  21027589.820   110500748.57306  21027585.760    86104472.69248
  20712863.860   108846855.93807  20712864.060    84815742.43649
 15 03 05 01 27  0.0000000  0  5G16G18G19G22G27
  20605626.060   108283297.14806  20605623.720    84376594.31049
  22009994.680   115663318.14806  22009992.520    90127260.67647
  22065528.460   115955145.34705  22065525.040    90354650.66047
  21021119.120   110466744.92306  21021115.080    86077976.35248
  20706940.060   108815725.95107  20706940.220    84791485.31849
 15 03 05 01 27 30.0000000  0  5G16G18G19G22G27
  20611612.860   108314757.88706  20611610.500    84401109.15549
  22016486.940   115697435.16306  22016484.720    90153845.36447
  22053571.720   115892312.48605  22053568.320    90305689.99248
  21014745.300   110433250.38606  21014741.280    86051876.72948
  20701060.960   108784831.02507  20701061.100    84767411.34149
 15 03 05 01 28  0.0000000  0  5G16G18G19G22G27
  20617703.900   108346766.66006  20617701.580    84426051.04049
  22023067.180   115732014.62306  22023064.980    90180790.40347
  22041641.180   115829617.36905  22041637.760    90256836.65747
  21008467.620   110400261.04706  21008463.620    86026170.76248
  20695225.760   108754167.13907  20695225.980    84743517.40649
 15 03 05 01 28 30.0000000  0  6G04G16G18G19G22G27
  23393945.040   122936011.01904  23393944.900    95794289.01045
  20623904.580   108379351.64006  20623902.300    84451441.92349
  22029740.660   115767084.14406  22029738.520    90208117.30647
  22029742.540   115767089.65205  22029739.120    90208113.75647
  21002291.760   110367806.83906  21002287.780    86000881.78348
  20689440.280   108723764.41807  20689440.520    84719826.96749
 15 03 05 01 29  0.0000000  0  7G04G16G18G19G21G22G27
  23377102.180   122847502.15704  23377102.220    95725321.09446
  20630204.140   108412456.05606  20630201.880    84477237.56049
  22036496.560   115802586.62806  22036494.460    90235781.58747
  22017865.340   115704674.37905  22017861.860    90159478.49348
  23940583.260   125808616.06103  23940581.100    98032674.53646
  20996207.300   110335832.99306  20996203.300    85975967.11348
  20683694.100   108693568.02507  20683694.320    84696297.31349
 15 03 05 01 29 30.0000000  0  6G16G18G19G21G22G27
  20636606.720   108446102.05406  20636604.520    84503455.21249
  22043338.960   115838543.64605  22043336.900    90263800.03547
  22006014.040   115642394.81705  22006010.440    90110948.96047
  23954592.720   125882235.46703  23954590.300    98090040.33146
  20990218.720   110304363.07906  20990214.760    85951445.10848
  20677991.720   108663601.67407  20677991.920    84672946.91149
 15 03 05 01 30  0.0000000  0  7G04G16G18G19G21G22G27
  23343535.320   122671104.48704  23343534.400    95587873.03045
  20643116.700   108480312.27206  20643114.540    84530112.50449
  22050271.940   115874977.22705  22050269.980    90292189.82847
  21994193.080   115580275.18205  21994189.480    90062544.06848
  23968607.760   125955886.02903  23968605.420    98147430.35945
  20984330.680   110273421.39906  20984326.740    85927334.72648
  20672337.760   108633889.78207  20672337.900    84649794.79449
 15 03 05 01 30 30.0000000  0  7G04G16G18G19G21G22G27
  23326809.340   122583208.92904  23326808.240    95519383.03045
  20649727.520   108515052.39706  20649725.380    84557182.72249
  22057289.100   115911852.72306  22057287.140    90320923.99347
  21982396.360   115518282.86105  21982392.780    90014238.37648
  23982622.360   126029533.85603  23982620.120    98204818.22544
  20978537.060   110242975.63606  20978533.100    85903610.75548
  20666726.120   108604400.01007  20666726.160    84626815.74549
 15 03 05 01 31  0.0000000  0  7G04G16G18G19G21G22G27
  23310122.360   122495518.57804  23310121.480    95451052.94645
  20656441.640   108550335.25706  20656439.500    84584675.84949
  22064392.840   115949182.79005  22064390.820    90350012.35247
  21970626.600   115456432.37805  21970623.020    89966043.20148
  23996639.680   126103187.60803  23996637.680    98262224.84145
  20972840.700   110213040.72606  20972836.680    85880284.86648
  20661159.560   108575147.36907  20661159.560    84604021.48749
 15 03 05 01 31 30.0000000  0  6G04G16G18G19G22G27
  23293477.160   122408048.17304  23293476.540    95382894.20145
  20663261.720   108586174.78006  20663259.580    84612602.73649
  22071585.540   115986980.25205  22071583.440    90379464.91947
  21958886.660   115394738.73505  21958883.140    89917970.25248
  20967244.400   110183631.82406  20967240.340    85857368.84648
  20655640.960   108546147.03307  20655640.980    84581423.83149
 15 03 05 01 32  0.0000000  0  6G04G16G18G19G22G27
  23276870.700   122320781.13904  23276870.220    95314893.96845
  20670184.280   108622552.62906  20670182.060    84640949.09949
  22078863.620   116025226.45606  22078861.480    90409267.16747
  21947173.300   115333185.43805  21947169.940    89870006.65448
  20961744.980   110154732.34206  20961740.940    85834849.77648
  20650167.320   108517382.86107  20650167.380    84559010.19449
 15 03 05 01 32 30.0000000  0  6G04G16G18G19G22G27
  23260304.240   122233723.95104  23260303.720    95247057.25445
  20677210.080   108659473.22606  20677207.800    84669718.37949
  22086227.840   116063925.76605  22086225.700    90439422.47247
  21935487.980   115271779.13205  21935484.680    89822157.59748
  20956343.860   110126349.15206  20956339.800    85812733.01648
  20644739.820   108488861.53407  20644739.960    84536785.77449
 15 03 05 01 33  0.0000000  0  6G04G16G18G19G22G27
  23243777.740   122146877.22204  23243777.360    95179384.52546
  20684339.060   108696936.26606  20684336.760    84698910.35049
  22093678.000   116103077.02605  22093675.900    90469929.93946
  21923830.860   115210520.51105  21923827.560    89774423.63548
  20951041.100   110098482.95706  20951036.980    85791019.10748
  20639358.800   108460584.25407  20639358.980    84514751.53849
 15 03 05 01 33 30.0000000  0  6G04G16G18G19G22G27
  23227291.500   122060242.88104  23227291.460    95111877.26345
  20691571.280   108734941.76506  20691568.960    84728525.01149
  22101214.180   116142680.36905  22101212.140    90500789.69147
  21912202.280   115149411.67405  21912198.940    89726806.37447
  20945837.180   110071135.90806  20945832.960    85769709.73248
  20634024.740   108432553.44807  20634024.920    84492909.34949
 15 03 05 01 34  0.0000000  0  6G04G16G18G19G22G27
  23210845.360   121973818.40704  23210845.620    95044533.57646
  20698905.960   108773485.80806  20698903.660    84758559.31849
  22108835.480   116182730.77005  22108833.480    90531997.79847
  21900601.620   115088449.93305  21900598.260    89679303.74648
  20940731.420   110044305.27606  20940727.240    85748802.75448
  20628737.120   108404766.69607  20628737.280    84471257.33149
 15 03 05 01 34 30.0000000  0  7G04G16G18G19G21G22G27
  23194438.220   121887598.66004  23194438.400    94977349.41645
  20706341.840   108812561.64506  20706339.580    84789008.00548
  22116540.740   116223221.27305  22116538.540    90563548.82747
  21889028.140   115027631.09305  21889024.780    89631912.46048
  24094817.580   126619116.73503  24094813.760    98664235.34744
  20935723.160   110017986.94706  20935719.000    85728294.97148
  20623495.140   108377219.69307  20623495.260    84449792.12749
 15 03 05 01 35  0.0000000  0  7G04G16G18G19G21G22G27
  23178072.820   121801597.72104  23178072.720    94910335.72345
  20713881.280   108852181.64606  20713879.020    84819880.71949
  22124332.000   116264163.82205  22124329.700    90595452.12247
  21877484.440   114966968.76305  21877481.000    89584643.12747
  24108848.100   126692848.35103  24108844.680    98721688.54444
  20930815.140   109992194.92006  20930810.960    85708197.30148
  20618301.480   108349926.73607  20618301.600    84428524.89649
 15 03 05 01 35 30.0000000  0  7G04G16G18G19G21G22G27
  23161748.280   121715811.08204  23161747.980    94843489.02045
  20721523.160   108892339.89106  20721520.900    84851172.84249
  22132207.900   116305552.05805  22132205.680    90627702.68847
  21865969.820   114906458.98206  21865966.340    89537492.65048
  24122879.720   126766586.02903  24122876.800    98779146.44244
  20926006.380   109966924.62606  20926002.160    85688506.17948
  20613155.360   108322883.96307  20613155.540    84407452.60649
 15 03 05 01 36  0.0000000  0  6G04G16G18G19G22G27
  23145465.580   121630245.27404  23145465.380    94776814.41946
  20729268.320   108933041.13406  20729266.080    84882888.08449
  22140169.400   116347390.49605  22140167.240    90660304.06647
  21854485.520   114846108.36005  21854482.000    89490466.21448
  20921298.140   109942182.79506  20921293.940    85669226.83848
  20608058.240   108296098.38507  20608058.400    84386580.72149
 15 03 05 01 36 30.0000000  0  6G04G16G18G19G22G27
  23129222.620   121544888.63604  23129222.500    94710302.78445
  20737114.280   108974272.20506  20737112.100    84915016.17749
  22148214.040   116389665.64005  22148211.920    90693245.74147
  21843029.160   114785905.47605  21843025.760    89443554.88548
  20916688.220   109917957.94106  20916684.040    85650350.33648
  20603007.920   108269558.81907  20603008.080    84365900.54249
 15 03 05 01 37  0.0000000  0  6G04G16G18G19G22G27
  23113020.600   121459746.58104  23113020.500    94643958.35245
  20745061.760   109016036.47406  20745059.600    84947559.74648
  22156342.360   116432380.01405  22156340.100    90726529.67246
  21831602.040   114725855.77305  21831598.640    89396762.91948
  20912177.780   109894255.28406  20912173.560    85631880.75048
  20598005.520   108243271.00107  20598005.660    84345416.52149
 15 03 05 01 37 30.0000000  0  6G04G16G18G19G22G27
  23096859.900   121374822.39604  23096859.880    94577783.71644
  20753111.040   109058335.71806  20753108.880    84980520.18449
  22164554.680   116475535.51305  22164552.240    90760157.32847
  21820204.860   114665963.23505  21820201.420    89350093.41548
  20907767.340   109871078.37306  20907763.140    85613820.82648
  20593051.780   108217238.86407  20593051.880    84325131.72749
 15 03 05 01 38  0.0000000  0  6G04G16G18G19G22G27
  23080740.660   121290115.53304  23080740.640    94511778.41445
  20761261.740   109101167.93306  20761259.600    85013895.91948
  22172850.300   116519129.39805  22172847.860    90794126.58946
  21808837.480   114606227.54405  21808834.080    89303546.15748
  20903456.880   109848426.94206  20903452.700    85596170.37548
  20588146.720   108191462.43407  20588146.780    84305046.19949
 15 03 05 01 38 30.0000000  0  6G04G16G18G19G22G27
  23064659.420   121205607.89404  23064659.500    94445928.33646
  20769509.960   109144512.67406  20769507.860    85047671.03249
  22181225.360   116563141.26605  22181223.060    90828421.54347
  21797496.420   114546630.68905  21797493.200    89257107.05948
  20899242.940   109826282.84006  20899238.800    85578915.24248
  20583286.920   108165923.93407  20583286.980    84285146.06749
 15 03 05 01 39  0.0000000  0  6G04G16G18G19G22G27
  23048623.880   121121340.65004  23048624.120    94380265.57246
  20777863.400   109188410.44706  20777861.380    85081877.07749
  22189687.540   116607610.62705  22189685.360    90863073.00347
  21786189.700   114487214.25505  21786186.680    89210808.55148
  20895133.360   109804687.19606  20895129.260    85562087.47848
  20578480.380   108140665.34607  20578480.420    84265464.05649
 15 03 05 01 39 30.0000000  0  6G04G16G18G19G22G27
  23032628.760   121037285.54804  23032629.060    94314768.13446
  20786316.260   109232830.60806  20786314.320    85116490.17148
  22198231.080   116652506.88905  22198228.880    90898057.09747
  21774912.100   114427950.00605  21774909.080    89164628.62348
  20891122.800   109783611.83706  20891118.760    85545665.13048
  20573721.760   108115658.70507  20573721.800    84245978.35849
 15 03 05 01 40  0.0000000  0  6G04G16G18G19G22G27
  23016676.420   120953455.87404  23016676.760    94249446.33046
  20794870.720   109277784.73506  20794868.860    85151519.34049
  22206857.940   116697841.09705  22206855.720    90933382.46446
  21763666.220   114368851.96705  21763663.060    89118578.22748
  20887213.840   109763070.00606  20887209.840    85529658.51748
  20569013.740   108090917.93507  20569013.780    84226699.83249
 15 03 05 01 40 30.0000000  0  6G04G16G18G19G22G27
  23000764.860   120869840.34604  23000765.160    94184291.42446
  20803524.320   109323259.74706  20803522.520    85186954.39249
  22215565.540   116743600.15905  22215563.340    90969038.87447
  21752449.700   114309908.93005  21752446.560    89072648.60548
  20883404.140   109743049.91506  20883400.140    85514058.45948
  20564354.280   108066432.28107  20564354.300    84207620.09849
 15 03 05 01 41  0.0000000  0  6G04G16G18G19G22G27
  22984895.500   120786445.98104  22984895.680    94119308.83345
  20812278.060   109369260.99206  20812276.280    85222799.50649
  22224354.960   116789789.22505  22224352.860    91005030.36047
  21741264.140   114251128.32305  21741261.020    89026845.55748
  20879695.240   109723559.84306  20879691.300    85498871.39948
  20559744.800   108042209.46607  20559744.880    84188745.17749
 15 03 05 01 41 30.0000000  0  6G04G16G18G19G22G27
  22969068.740   120703276.05304  22969069.020    94054501.12846
  20821132.180   109415789.63406  20821130.380    85259055.57248
  22233226.300   116836408.92305  22233224.340    91041357.38746
  21730110.200   114192513.77605  21730107.080    88981171.90448
  20876087.620   109704602.17906  20876083.760    85484099.20648
  20555186.080   108018253.28307  20555186.200    84170078.02549
 15 03 05 01 42  0.0000000  0  6G04G16G18G19G22G27
  22953284.220   120620328.47904  22953284.600    93989866.69045
  20830085.980   109462841.94406  20830084.120    85295719.69548
  22242178.720   116883454.98805  22242177.000    91078016.64647
  21718987.440   114134063.20406  21718984.260    88935626.02248
  20872580.920   109686174.49806  20872577.120    85469739.98348
  20550677.700   107994561.91707  20550677.900    84151617.22349
 15 03 05 01 42 30.0000000  0  6G04G16G18G19G22G27
  22937541.340   120537599.52304  22937541.780    93925402.59445
  20839138.420   109510412.67706  20839136.560    85332787.77848
  22251211.360   116930921.88405  22251209.640    91115003.83647
  21707895.320   114075773.90705  21707892.040    88890205.81548
  20869174.560   109668273.77206  20869170.700    85455791.37348
  20546219.240   107971132.69107  20546219.480    84133360.67749
 15 03 05 01 43  0.0000000  0  6G04G16G18G19G22G27
  22921841.320   120455095.67404  22921841.780    93861113.90945
  20848290.320   109558506.18106  20848288.460    85370263.22448
  22260324.920   116978813.66805  22260323.080    91152322.10347
  21696835.120   114017651.96405  21696831.740    88844916.00848
  20865869.640   109650905.82706  20865865.660    85442257.92048
  20541811.920   107947972.28407  20541812.200    84115313.61249
 15 03 05 01 43 30.0000000  0  6G04G16G18G19G22G27
  22906183.780   120372815.38104  22906184.180    93796999.42047
  20857541.000   109607118.92706  20857539.200    85408143.26948
  22269518.760   117027126.85605  22269516.640    91189968.75446
  21685806.740   113959697.33605  21685803.320    88799756.56448
  20862665.800   109634069.59206  20862661.800    85429138.78648
  20537455.660   107925080.03807  20537455.980    84097475.49949
 15 03 05 01 44  0.0000000  0  6G04G16G18G19G22G27
  22890568.920   120290758.74104  22890569.380    93733059.23446
  20866890.260   109656249.48306  20866888.380    85446426.80348
  22278792.360   117075859.52205  22278790.040    91227942.26046
  21674810.180   113901909.72906  21674806.760    88754727.27248
  20859563.100   109617764.74406  20859559.080    85416433.71748
  20533150.540   107902456.53007  20533150.880    84079846.78349
 15 03 05 01 44 30.0000000  0  6G04G16G18G19G22G27
  22874996.700   120208925.97004  22874997.000    93669293.44745
  20876337.640   109705895.60106  20876335.720    85485112.06948
  22288145.240   117125009.28805  22288142.840    91266240.78347
  21663845.460   113844289.89406  21663842.120    88709828.70348
  20856561.560   109601991.02906  20856557.420    85404142.52348
  20528896.720   107880102.56007  20528897.040    84062428.10149
 15 03 05 01 45  0.0000000  0  6G04G16G18G19G22G27
  22859468.040   120127322.41904  22859468.140    93605706.31746
  20885883.880   109756061.26806  20885881.920    85524202.18348
  22297578.100   117174579.51505  22297575.780    91304866.93147
  21652913.800   113786843.83505  21652910.480    88665065.54348
  20853662.060   109586753.81806  20853657.880    85392269.38048
  20524695.280   107858024.07807  20524695.620    84045224.09149
 15 03 05 01 45 30.0000000  0  6G04G16G18G19G22G27
  22843982.260   120045943.56004  22843982.220    93542294.25445
  20895527.760   109806739.99406  20895525.760    85563692.08149
  22307089.620   117224563.40505  22307087.480    91343815.39446
  21642014.500   113729567.59305  21642011.100    88620434.72148
  20850863.700   109572048.66806  20850859.580    85380810.83148
  20520545.580   107836217.26007  20520545.920    84028231.75549
 15 03 05 01 46  0.0000000  0  6G04G16G18G19G22G27
  22828539.120   119964789.12704  22828539.020    93479057.06344
  20905268.840   109857929.59706  20905266.820    85603580.06948
  22316679.560   117274959.09305  22316677.580    91383084.76646
  21631147.420   113672460.91706  21631144.080    88575936.03348
  20848166.480   109557875.23306  20848162.460    85369766.60948
  20516447.640   107814682.47607  20516447.980    84011451.39849
 15 03 05 01 46 30.0000000  0  6G04G16G18G19G22G27
  22813139.320   119883862.89504  22813139.360    93415997.71646
  20915107.340   109909631.58606  20915105.360    85643867.32148
  22326348.160   117325767.53205  22326346.100    91422675.75946
  21620313.460   113615528.20706  21620310.160    88531572.89748
  20845571.220   109544236.82306  20845567.140    85359139.28348
  20512402.340   107793424.27607  20512402.700    83994886.55649
 15 03 05 01 47  0.0000000  0  6G04G16G18G19G22G27
  22797783.240   119803166.94304  22797783.360    93353117.75646
  20925043.520   109961846.28906  20925041.500    85684554.07648
  22336095.280   117376989.01405  22336093.220    91462588.61146
  21609513.040   113558771.57506  21609509.700    88487346.96448
  20843078.100   109531134.90106  20843073.940    85348930.00348
  20508410.160   107772445.06007  20508410.500    83978539.11449
 15 03 05 01 47 30.0000000  0  6G04G16G18G19G22G27
  22782470.580   119722698.92904  22782470.700    93290415.45246
  20935076.420   110014568.88306  20935074.340    85725636.60848
  22345920.080   117428618.83105  22345918.000    91502819.62746
  21598745.940   113502189.77006  21598742.520    88443257.25648
  20840686.560   109518567.47006  20840682.460    85339137.20448
  20504470.740   107751743.26907  20504471.100    83962407.84749
 15 03 05 01 48  0.0000000  0  6G04G16G18G19G22G27
  22767200.540   119642454.71104  22767200.680    93227887.50046
  20945204.860   110067793.74206  20945202.720    85767110.50848
  22355821.420   117480650.51905  22355819.360    91543363.79947
  21588011.380   113445779.07706  21588007.900    88399300.88648
  20838395.820   109506529.91006  20838391.760    85329757.29548
  20500583.500   107731315.52407  20500583.820    83946490.12449
 15 03 05 01 48 30.0000000  0  6G04G16G18G19G22G27
  22751974.560   119562441.90104  22751974.740    93165539.90146
  20955429.980   110121526.93406  20955427.820    85808980.51248
  22365800.340   117533089.60905  22365798.280    91584225.42646
  21577310.900   113389547.85906  21577307.440    88355484.36348
  20836207.360   109495029.78506  20836203.320    85320796.16948
  20496749.920   107711170.03007  20496750.260    83930792.33749
 15 03 05 01 49  0.0000000  0  6G04G16G18G19G22G27
  22736792.560   119482660.28804  22736792.700    93103372.44646
  20965751.280   110175765.79006  20965749.140    85851244.53448
  22375856.240   117585933.59605  22375854.240    91625402.55546
  21566644.600   113333496.27406  21566641.160    88311807.82448
  20834121.140   109484066.60406  20834117.080    85312253.44148
  20492970.200   107691307.37307  20492970.520    83915314.93649
 15 03 05 01 49 30.0000000  0  6G04G16G18G19G22G27
  22721654.000   119403105.86704  22721653.900    93041381.98646
  20976167.700   110230504.21206  20976165.540    85893897.83648
  22385988.060   117639176.40505  22385986.000    91666890.45746
  21556011.840   113277620.73806  21556008.380    88268268.45348
  20832136.200   109473635.88906  20832132.180    85304125.61749
  20489243.660   107671724.14707  20489243.940    83900055.27349
 15 03 05 01 50  0.0000000  0  6G04G16G18G19G22G27
  22706559.680   119323784.37504  22706559.480    92979573.07646
  20986679.840   110285746.08106  20986677.720    85936943.43448
  22396196.460   117692821.64605  22396194.280    91708691.95246
  21545413.900   113221927.93206  21545410.340    88224871.48248
  20830253.700   109463743.41406  20830249.740    85296417.19948
  20485571.540   107652426.87107  20485571.780    83885018.42849
 15 03 05 01 50 30.0000000  0  6G04G16G18G19G22G27
  22691509.700   119244696.52304  22691509.600    92917946.23545
  20997287.460   110341489.68706  20997285.400    85980379.98748
  22406481.060   117746867.98005  22406478.780    91750805.97946
  21534850.820   113166418.67706  21534847.240    88181617.52148
  20828473.680   109454389.36106  20828469.740    85289128.32748
  20481954.080   107633416.77007  20481954.280    83870205.35449
 15 03 05 01 51  0.0000000  0  6G04G16G18G19G22G27
  22676503.500   119165838.83804  22676503.520    92856498.69246
  21007989.660   110397729.79906  21007987.580    86024203.43748
  22416840.780   117801308.95005  22416838.540    91793227.52046
  21524322.140   113111089.95106  21524318.540    88138504.23848
  20826795.460   109445569.77506  20826791.420    85282255.93248
  20478390.720   107614691.06907  20478390.880    83855613.89849
 15 03 05 01 51 30.0000000  0  6G04G16G18G19G22G27
  22661541.520   119087213.58304  22661541.640    92795232.29345
  21018786.180   110454465.96306  21018784.120    86068413.41448
  22427275.720   117856145.16105  22427273.620    91835957.02746
  21513828.360   113055944.77506  21513824.760    88095533.99048
  20825219.280   109437286.40706  20825215.100    85275801.36848
  20474881.940   107596252.74407  20474882.180    83841246.36949
 15 03 05 01 52  0.0000000  0  6G04G16G18G19G22G27
  22646623.420   119008818.62704  22646623.380    92734145.36445
  21029676.400   110511694.79406  21029674.400    86113007.29448
  22437785.200   117911372.21005  22437782.980    91878991.09746
  21503369.220   113000981.58206  21503365.580    88052705.54448
  20823744.640   109429536.88806  20823740.380    85269762.79248
  20471427.720   107578100.50907  20471427.920    83827101.76649
 15 03 05 01 52 30.0000000  0  6G04G16G18G19G22G27
  22631749.400   118930654.40704  22631749.100    92673238.19846
  21040660.100   110569414.57206  21040658.160    86157983.73648
  22448368.760   117966988.23405  22448366.400    91922328.25945
  21492944.820   112946201.49206  21492941.280    88010019.78048
  20822371.640   109422321.71606  20822367.320    85264140.58648
  20468028.140   107560235.51107  20468028.340    83813180.98949
 15 03 05 01 53  0.0000000  0  6G04G16G18G19G22G27
  22616920.680   118852728.95504  22616920.320    92612517.09546
  21051738.300   110627630.74306  21051736.360    86203346.96048
  22459027.240   118022998.66205  22459024.780    91965972.74246
  21482556.960   112891613.07406  21482553.440    87967483.35748
  20821101.700   109415648.22106  20821097.380    85258940.46848
  20464684.860   107542666.32207  20464685.040    83799490.70949
 15 03 05 01 53 30.0000000  0  6G04G16G18G19G22G27
  22602136.740   118775038.77404  22602136.460    92551979.32646
  21062910.020   110686338.36506  21062908.100    86249093.15148
  22469759.660   118079398.25105  22469757.260    92009920.46346
  21472205.100   112837213.81406  21472201.600    87925094.35048
  20819934.060   109409512.22006  20819929.760    85254159.17748
  20461397.300   107525390.32007  20461397.520    83786028.88349
 15 03 05 01 54  0.0000000  0  6G04G16G18G19G22G27
  22587397.380   118697583.54204  22587397.300    92491624.64946
  21074174.560   110745533.89606  21074172.700    86295219.52048
  22480565.540   118136184.26105  22480563.240    92054169.29646
  21461889.240   112783003.84306  21461885.780    87882852.83248
  20818868.440   109403913.02006  20818864.280    85249796.16848
  20458165.620   107508407.75007  20458165.840    83772795.71249
 15 03 05 01 54 30.0000000  0  6G04G16G18G19G22G27
  22572702.580   118620362.27204  22572702.620    92431452.25646
  21085531.500   110805214.83406  21085529.660    86341724.13748
  22491444.380   118193353.48805  22491442.180    92098716.76245
  21451609.340   112728982.80306  21451605.960    87840758.53248
  20817904.860   109398849.62506  20817900.780    85245850.66548
  20454989.780   107491718.58007  20454990.020    83759791.16249
 15 03 05 01 55  0.0000000  0  6G04G16G18G19G22G27
  22558052.540   118543376.04504  22558052.560    92371463.01846
  21096980.640   110865380.30506  21096978.760    86388606.30648
  22502395.920   118250904.46805  22502393.780    92143561.67845
  21441365.780   112675152.32506  21441362.420    87798812.71948
  20817043.360   109394322.28606  20817039.240    85242322.87948
  20451870.100   107475324.51907  20451870.380    83747016.57149
 15 03 05 01 55 30.0000000  0  6G04G16G18G19G22G27
  22543447.200   118466624.04504  22543446.980    92311656.29646
  21108521.320   110926027.36606  21108519.460    86435863.73848
  22513419.680   118308834.65005  22513417.500    92188702.08545
  21431158.480   112621512.28106  21431155.080    87757015.29848
  20816283.580   109390329.76206  20816279.480    85239211.84248
  20448806.600   107459225.54707  20448806.840    83734471.91849
 15 03 05 01 56  0.0000000  0  6G04G16G18G19G22G27
  22528887.040   118390110.06404  22528886.820    92252035.05046
  21120153.960   110987157.24406  21120152.120    86483497.39748
  22524515.860   118367145.61405  22524513.720    92234139.20846
  21420988.200   112568067.26106  21420984.820    87715369.84548
  20815626.140   109386875.14906  20815622.060    85236519.93749
  20445800.060   107443426.18607  20445800.300    83722160.72549
 15 03 05 01 56 30.0000000  0  6G04G16G18G19G22G27
  22514371.900   118313832.86604  22514371.820    92192598.31046
  21131877.780   111048766.19806  21131875.960    86531504.35748
  22535683.740   118425833.27405  22535681.520    92279869.86546
  21410854.960   112514816.80506  21410851.540    87673875.98948
  20815070.820   109383957.10406  20815066.800    85234246.14049
  20442850.500   107427925.97007  20442850.700    83710082.62949
 15 03 05 01 57  0.0000000  0  6G04G16G18G19G22G27
  22499902.160   118237794.18704  22499902.100    92133347.41046
  21143692.820   111110854.62606  21143691.020    86579884.93448
  22546923.200   118484897.28805  22546921.080    92325893.74746
  21400759.260   112461763.24106  21400755.740    87632535.55048
  20814617.800   109381576.70106  20814613.840    85232391.29048
  20439958.320   107412727.47507  20439958.520    83698239.64349
 15 03 05 01 57 30.0000000  0  6G04G16G18G19G22G27
  22485477.180   118161990.15904  22485477.100    92074279.37747
  21155597.800   111173415.51006  21155595.980    86628633.66148
  22558233.160   118544331.66505  22558231.160    92372206.25346
  21390700.280   112408903.33606  21390696.820    87591346.03448
  20814266.340   109379729.49906  20814262.300    85230951.92748
  20437122.920   107397827.29707  20437123.120    83686629.11149
 15 03 05 01 58  0.0000000  0  6G04G16G18G19G22G27
  22471098.020   118086428.27204  22471098.100    92015400.01946
  21167593.780   111236454.76106  21167591.980    86677755.13648
  22569614.560   118604141.27605  22569612.660    92418811.14446
  21380679.740   112356245.44506  21380676.360    87550313.92548
  20814017.560   109378422.21406  20814013.460    85229933.27448
  20434345.860   107383234.04007  20434346.160    83675257.73849
 15 03 05 01 58 30.0000000  0  6G04G16G18G19G22G27
  22456763.980   118011102.96104  22456764.180    91956705.02746
  21179679.340   111299964.58906  21179677.540    86727243.30248
  22581065.960   118664318.92805  22581064.140    92465702.81346
  21370696.840   112303785.02706  21370693.460    87509435.68848
  20813870.340   109377648.85406  20813866.260    85229330.66648
  20431626.320   107368942.89307  20431626.660    83664121.78149
 15 03 05 01 59  0.0000000  0  6G04G16G18G19G22G27
  22442475.260   117936015.25204  22442475.360    91898195.12046
  21191854.060   111363942.98306  21191852.220    86777096.58148
  22592587.140   118724863.04905  22592585.300    92512880.05446
  21360751.800   112251523.37906  21360748.320    87468712.33048
  20813824.900   109377410.14406  20813820.860    85229144.66048
  20428964.580   107354955.49907  20428964.960    83653222.51149
 15 03 05 01 59 30.0000000  0  6G04G16G18G19G22G27
  22428232.160   117861166.82005  22428232.080    91839871.72646
  21204117.980   111428390.32806  21204116.140    86827315.27548
  22604177.900   118785772.65405  22604175.960    92560342.07046
  21350845.080   112199462.98306  21350841.460    87428145.79148
  20813881.460   109377706.98006  20813877.400    85229375.96549
  20426361.180   107341274.35007  20426361.560    83642561.88049
 15 03 05 02 00  0.0000000  0  6G04G16G18G19G22G27
  22414034.840   117786558.56404  22414034.600    91781735.42945
  21216470.680   111493304.47506  21216468.900    86877897.70948
  22615838.040   118847046.81905  22615835.980    92608088.19347
  21340976.960   112147605.69906  21340973.280    87387737.52448
  20814039.960   109378539.19106  20814035.820    85230024.44548
  20423816.380   107327901.05507  20423816.700    83632141.12449
 15 03 05 02 00 30.0000000  0  6G04G16G18G19G22G27
  22399883.300   117712191.31804  22399882.920    91723786.96447
  21228912.040   111558684.38906  21228910.280    86928843.08148
  22627567.120   118908683.80805  22627565.080    92656117.02046
  21331147.840   112095953.33506  21331144.160    87347488.93548
  20814300.300   109379907.45006  20814296.180    85231090.63148
  20421330.500   107314837.31307  20421330.760    83621961.57249
 15 03 05 02 01  0.0000000  0  6G04G16G18G19G22G27
  22385777.440   117638065.16704  22385777.140    91666026.34946
  21241441.640   111624527.81306  21241439.880    86980149.62748
  22639364.940   118970681.49005  22639362.800    92704426.90346
  21321357.780   112044506.20706  21321354.080    87307400.26848
  20814662.400   109381810.90806  20814658.320    85232573.84548
  20418903.680   107302084.08507  20418903.900    83612023.98849
 15 03 05 02 01 30.0000000  0  6G04G16G18G19G22G27
  22371717.660   117564181.47304  22371717.540    91608454.67447
  21254059.280   111690833.84906  21254057.500    87031816.65748
  22651231.240   119033039.22805  22651229.040    92753017.34146
  21311607.340   111993267.05706  21311603.620    87267473.66848
  20815126.600   109384250.61606  20815122.540    85234474.92549
  20416536.320   107289643.54007  20416536.560    83602330.05549
 15 03 05 02 02  0.0000000  0  6G04G16G18G19G22G27
  22357703.540   117490537.83404  22357703.620    91551070.04347
  21266764.020   111757597.46906  21266762.220    87083840.23948
  22663165.140   119095752.04605  22663163.000    92801884.46346
  21301896.080   111942234.08606  21301892.400    87227707.71948
  20815692.320   109387223.22106  20815688.200    85236791.25148
  20414228.160   107277513.91207  20414228.360    83592878.38849
 15 03 05 02 02 30.0000000  0  6G04G16G18G19G22G27
  22343735.140   117417133.78804  22343735.280    91493872.11446
  21279555.340   111824816.22006  21279553.500    87136218.46848
  22675166.100   119158817.34605  22675163.960    92851026.24747
  21292224.140   111891407.75606  21292220.460    87188102.78648
  20816359.140   109390727.41806  20816355.100    85239521.80049
  20411979.260   107265695.90207  20411979.480    83583669.54149
 15 03 05 02 03  0.0000000  0  6G04G16G18G19G22G27
  22329812.940   117343972.07805  22329813.040    91436863.00447
  21292433.200   111892490.12006  21292431.400    87188951.35648
  22687234.160   119222235.21105  22687232.080    92900442.75546
  21282592.160   111840791.55906  21282588.520    87148661.60048
  20817127.340   109394765.03006  20817123.460    85242667.99548
  20409790.240   107254192.60607  20409790.460    83574705.92649
 15 03 05 02 03 30.0000000  0  6G04G16G18G19G22G27
  22315937.140   117271053.76004  22315937.140    91380043.57846
  21305397.480   111960618.03206  21305395.740    87242038.02848
  22699369.080   119286004.85105  22699367.060    92950133.38046
  21273000.520   111790387.38006  21272996.960    87109385.61248
  20817997.300   109399337.28906  20817993.520    85246230.79949
  20407661.560   107243006.18007  20407661.760    83565989.22249
 15 03 05 02 04  0.0000000  0  6G04G16G18G19G22G27
  22302107.520   117198378.85605  22302107.560    91323413.79146
  21318447.800   112029197.73406  21318446.020    87295476.73748
  22711570.500   119350123.81405  22711568.500    93000096.21046
  21263449.360   111740196.13906  21263445.880    87070275.56048
  20818968.800   109404442.34306  20818964.920    85250208.76548
  20405593.280   107232137.31907  20405593.500    83557519.97449
 15 03 05 02 04 30.0000000  0  6G04G16G18G19G22G27
  22288324.500   117125948.64404  22288324.540    91266974.70446
  21331583.880   112098228.24006  21331582.100    87349266.72548
  22723838.140   119414591.24105  22723836.240    93050330.57546
  21253939.180   111690219.85006  21253935.720    87031333.00248
  20820042.100   109410081.94006  20820038.060    85254603.26448
  20403585.880   107221588.27707  20403586.120    83549299.93549
 15 03 05 02 05  0.0000000  0  6G04G16G18G19G22G27
  22274587.480   117053760.16705  22274587.480    91210723.97747
  21344804.680   112167704.04206  21344802.920    87403403.69348
  22736171.020   119479401.59404  22736169.240    93100832.14946
  21244469.480   111640456.27006  21244466.060    86992556.19248
  20821216.100   109416251.20406  20821212.020    85259410.49349
  20401638.900   107211356.60507  20401639.100    83541327.19749
 15 03 05 02 05 30.0000000  0  6G04G16G18G19G22G27
  22260896.700   116981814.75805  22260896.680    91154662.62646
  21358109.960   112237623.86306  21358108.240    87457886.65248
  22748569.060   119544554.07805  22748567.340    93151600.28946
  21235040.800   111590908.11406  21235037.420    86953947.24448
  20822490.900   109422951.21406  20822486.980    85264631.28448
  20399752.800   107201444.84107  20399752.960    83533603.73449
 15 03 05 02 06  0.0000000  0  6G04G16G18G19G22G27
  22247252.240   116910112.70805  22247252.180    91098790.91946
  21371499.420   112307985.81906  21371497.680    87512714.13248
  22761031.940   119610046.81205  22761030.260    93202633.59346
  21225653.260   111541576.43506  21225649.920    86915506.98048
  20823866.780   109430181.54106  20823862.900    85270265.30549
  20397927.740   107191853.97307  20397927.860    83526130.32649
 15 03 05 02 06 30.0000000  0  6G04G16G18G19G22G27
  22233654.360   116838655.34805  22233654.300    91043109.87746
  21384972.800   112378788.83006  21384971.060    87567885.29948
  22773559.460   119675878.43105  22773557.600    93253930.96046
  21216307.340   111492463.35706  21216304.000    86877237.05748
  20825343.760   109437942.53006  20825339.760    85276312.83948
  20396164.120   107182586.17907  20396164.220    83518908.67149
 15 03 05 02 07  0.0000000  0  7G04G11G16G18G19G22G27
  22220102.220   116767438.25905  22220102.120    90987616.06446
  23768722.160   124905487.04303  23768720.960    97328942.37044
  21398528.740   112450025.83306  21398527.020    87623394.63048
  22786150.180   119742042.26005  22786148.180    93305487.18746
  21207002.420   111443565.14706  21206998.960    86839134.56848
  20826920.700   109446228.64906  20826916.520    85282769.56148
  20394461.220   107173637.57107  20394461.340    83511935.72349
 15 03 05 02 07 30.0000000  0  7G04G11G16G18G19G22G27
  22206596.440   116696464.52005  22206596.260    90932311.87246
  23752266.060   124819003.52303  23752264.600    97261554.22044
  21412167.500   112521697.92906  21412165.760    87679242.99848
  22798804.120   119808539.35004  22798802.080    93357303.09547
  21197739.180   111394886.12906  21197735.600    86801202.87048
  20828597.820   109455042.42606  20828593.680    85289637.45048
  20392819.880   107165012.37907  20392820.040    83505214.78449
 15 03 05 02 08  0.0000000  0  7G04G11G16G18G19G22G27
  22193140.300   116625751.69305  22193140.040    90877211.00146
  23735831.040   124732638.03003  23735830.500    97194256.47944
  21425891.880   112593819.79106  21425890.140    87735441.84648
  22811524.200   119875384.83004  22811522.320    93409390.47246
  21188521.100   111346444.76806  21188517.480    86763456.36648
  20830378.360   109464400.11506  20830374.360    85296929.15549
  20391243.560   107156728.90307  20391243.780    83498760.12449
 15 03 05 02 08 30.0000000  0  7G04G11G16G18G19G22G27
  22179729.600   116555277.95205  22179729.380    90822296.42246
  23719414.020   124646367.10603  23719413.280    97127032.43244
  21439697.240   112666367.22706  21439695.540    87791972.29748
  22824306.000   119942554.42304  22824304.180    93461730.41846
  21179344.280   111298220.28006  21179340.660    86725878.85248
  20832258.460   109474279.87806  20832254.420    85304627.67548
  20389728.300   107148766.25507  20389728.540    83492555.45749
 15 03 05 02 09  0.0000000  0  7G04G11G16G18G19G22G27
  22166365.060   116485046.48405  22166364.800    90767570.61946
  23703015.860   124560193.92803  23703014.600    97059884.52444
  21453583.780   112739341.36906  21453582.120    87848835.25648
  22837149.840   120010049.38904  22837147.960    93514323.87846
  21170209.460   111250216.53506  21170205.840    86688473.33948
  20834238.400   109484683.35106  20834234.160    85312734.28948
  20388274.900   107141128.34707  20388275.100    83486603.83049
 15 03 05 02 09 30.0000000  0  7G04G11G16G18G19G22G27
  22153046.020   116415054.37005  22153045.660    90713031.31246
  23686635.600   124474115.51103  23686634.220    96992810.48846
  21467550.500   112812736.53906  21467548.760    87906026.28148
  22850054.620   120077864.04305  22850052.580    93567166.47746
  21161116.320   111202431.69106  21161112.720    86651238.40848
  20836317.160   109495606.68806  20836312.740    85321245.99348
  20386882.920   107133813.11707  20386883.060    83480903.64349
 15 03 05 02 10  0.0000000  0  7G04G16G18G19G22G27G32
  22139777.700   116345329.28205  22139777.420    90658700.09347
  21481602.100   112886577.82006  21481600.260    87963564.91548
  22863025.200   120146024.12605  22863022.820    93620278.22446
  21152070.180   111154894.39506  21152066.720    86614196.36348
  20838499.760   109507076.83106  20838495.340    85330183.76648
  20385557.720   107126849.15007  20385557.860    83475477.16649
  23491786.800   123450169.53603  23491787.380    96194942.41145
 15 03 05 02 10 30.0000000  0  8G04G11G16G18G19G22G27G32
  22126552.720   116275831.99005  22126552.440    90604546.38946
  23653938.200   124302281.03303  23653937.220    96858914.01045
  21495730.540   112960823.13406  21495728.660    88021418.39048
  22876053.500   120214487.65805  22876051.060    93673626.42346
  21143063.940   111107566.66606  21143060.600    86577317.61948
  20840778.700   109519053.44006  20840774.380    85339516.18948
  20384292.060   107120197.94807  20384292.200    83470294.40449
  23469823.180   123334750.73203  23469823.580    96105005.78146
 15 03 05 02 11  0.0000000  0  7G04G16G18G19G22G27G32
  22113377.160   116206594.74005  22113376.980    90550595.31347
  21509941.580   113035502.39606  21509939.680    88079610.00648
  22889145.260   120283284.81105  22889142.840    93727234.57447
  21134103.880   111060481.26106  21134100.540    86540627.69648
  20843160.080   109531567.73906  20843155.800    85349267.59748
  20383092.200   107113892.59707  20383092.340    83465381.13549
  23447889.540   123219488.81003  23447889.920    96015191.33146
 15 03 05 02 11 30.0000000  0  8G04G11G16G18G19G22G27G32
  22100246.960   116137595.11805  22100246.820    90496829.39246
  23621318.280   124130867.26003  23621317.480    96725342.80944
  21524230.540   113110591.37406  21524228.720    88138120.87848
  22902295.740   120352391.21304  22902293.560    93781083.70247
  21125185.880   111013616.90806  21125182.500    86504110.01848
  20845639.380   109544596.27306  20845635.140    85359419.70748
  20381954.020   107107911.56307  20381954.160    83460720.59149
  23425982.020   123104363.73203  23425982.320    95925483.52546
 15 03 05 02 12  0.0000000  0  7G04G11G16G18G19G22G27
  22087165.460   116068850.99605  22087165.360    90443262.56846
  23605038.460   124045317.39004  23605037.180    96658680.63044
  21538600.300   113186105.26706  21538598.580    88196962.85448
  22915508.080   120421822.22104  22915505.840    93835185.78646
  21116313.620   110966992.74306  21116310.180    86467779.50448
  20848219.640   109558156.03806  20848215.540    85369985.75648
  20380881.060   107102273.70307  20380881.300    83456327.44349
 15 03 05 02 12 30.0000000  0  8G04G11G16G18G19G22G27G32
  22074129.340   116000345.41305  22074129.160    90389881.61747
  23588776.800   123959862.60703  23588775.900    96592092.52646
  21553047.240   113262024.13106  21553045.500    88256120.38447
  22928778.360   120491558.31004  22928776.160    93889525.53446
  21107483.960   110920592.53506  21107480.480    86431623.50248
  20850897.440   109572229.04906  20850893.540    85380951.74148
  20379870.360   107096962.71707  20379870.660    83452189.00849
  23382254.340   122874574.51504  23382253.620    95746416.78046
 15 03 05 02 13  0.0000000  0  7G04G16G18G19G22G27G32
  22061141.860   115932095.63405  22061141.680    90336699.97747
  21567574.100   113338363.17206  21567572.320    88315605.33148
  22942109.740   120561614.95104  22942107.520    93944115.11245
  21098700.480   110874434.91306  21098696.960    86395656.52148
  20853676.280   109586831.90706  20853672.300    85392330.59348
  20378925.440   107091996.99207  20378925.740    83448319.60849
  23360434.740   122759912.76303  23360434.340    95657069.97845
 15 03 05 02 13 30.0000000  0  8G04G11G16G18G19G22G27G32
  22048201.480   115864093.65705  22048201.340    90283711.44047
  23556316.440   123789273.48203  23556314.480    96459173.78445
  21582178.840   113415111.34906  21582177.020    88375409.09348
  22955500.160   120631981.44404  22955497.760    93998946.13646
  21089961.760   110828512.49506  21089958.180    86359872.81948
  20856554.300   109601955.13506  20856550.100    85404114.93748
  20378044.820   107087369.05607  20378045.100    83444713.42449
  23338645.080   122645408.18304  23338644.880    95567845.73145
 15 03 05 02 14  0.0000000  0  7G04G16G18G19G22G27G32
  22035308.600   115796341.63105  22035308.500    90230917.65546
  21596861.360   113492268.62606  21596859.600    88435531.63147
  22968949.540   120702657.78305  22968946.900    94054018.62445
  21081268.400   110782828.71906  21081264.840    86324275.07048
  20859531.520   109617600.02406  20859527.260    85416305.76648
  20377229.060   107083082.03807  20377229.340    83441372.88049
  23316886.120   122531065.63703  23316886.140    95478747.66444
 15 03 05 02 14 30.0000000  0  8G04G11G16G18G19G22G27G32
  22022462.700   115728835.60305  22022462.420    90178315.57646
  23523936.100   123619118.83904  23523936.120    96326582.31345
  21611620.420   113569828.07006  21611618.660    88495967.53948
  22982456.620   120773637.43405  22982453.780    94109327.42645
  21072619.880   110737380.35606  21072616.280    86288860.75048
  20862606.820   109633761.25506  20862602.700    85428898.93348
  20376477.540   107079132.63407  20376477.800    83438295.42149
  23295157.860   122416883.55403  23295158.080    95389774.64746
 15 03 05 02 15  0.0000000  0  8G04G11G16G18G19G22G27G32
  22009664.420   115661579.80605  22009663.960    90125908.47647
  23507776.740   123534200.28304  23507776.360    96260412.03143
  21626456.420   113647791.74206  21626454.680    88556718.43848
  22996021.800   120844922.56304  22996018.900    94164874.29245
  21064017.300   110692173.39606  21064013.680    86253634.53748
  20865781.100   109650442.54306  20865777.080    85441897.33148
  20375791.280   107075526.35807  20375791.540    83435485.32749
  23273461.780   122302869.06403  23273461.860    95300932.22646
 15 03 05 02 15 30.0000000  0  7G04G16G18G19G22G27G32
  21996913.940   115594575.29005  21996913.380    90073697.17147
  21641368.980   113726157.69006  21641367.260    88617782.79548
  23009644.740   120916511.69304  23009641.920    94220658.02645
  21055460.980   110647209.68306  21055457.380    86218597.88448
  20869054.420   109667643.33306  20869050.280    85455300.54848
  20375170.580   107072264.80207  20375170.880    83432943.85949
  23251798.160   122189025.67304  23251798.260    95212223.13544
 15 03 05 02 16  0.0000000  0  8G04G11G16G18G19G22G27G32
  21984211.140   115527821.42805  21984210.500    90021681.21246
  23475520.020   123364686.42504  23475519.420    96128324.47044
  21656357.640   113804923.54506  21656355.920    88679158.75648
  23023324.920   120988402.41704  23023322.320    94276676.73346
  21046951.020   110602489.43906  21046947.380    86183750.94749
  20872426.300   109685361.75506  20872421.940    85469107.12248
  20374615.580   107069348.35207  20374615.880    83430671.29749
  23230167.420   122075355.16004  23230167.520    95123648.75646
 15 03 05 02 16 30.0000000  0  8G04G11G16G18G19G22G27G32
  21971555.140   115461313.86505  21971554.460    89969857.16147
  23459422.460   123280090.68303  23459420.960    96062405.69846
  21671420.960   113884081.67906  21671419.220    88740840.40247
  23037061.200   121060587.50804  23037058.840    94332924.83346
  21038486.740   110558009.13706  21038483.040    86149090.97249
  20875895.580   109703592.77606  20875891.180    85483313.11748
  20374125.500   107066773.37707  20374125.900    83428664.82649
  23208569.240   121961855.76104  23208569.260    95035207.72345
 15 03 05 02 17  0.0000000  0  8G04G11G16G18G19G22G27G32
  21958947.440   115395060.19905  21958946.740    89918230.94647
  23443345.880   123195607.56104  23443344.280    95996574.74945
  21686559.880   113963637.44806  21686558.200    88802831.88048
  23050854.600   121133072.60004  23050852.340    94389406.68946
  21030069.840   110513777.84806  21030066.100    86114625.03248
  20879463.460   109722342.65306  20879459.220    85497923.40749
  20373702.100   107064548.38107  20373702.500    83426931.06849
  23187005.540   121848537.83604  23187005.520    94946908.07346
 15 03 05 02 17 30.0000000  0  8G04G11G16G18G19G22G27G32
  21946387.020   115329054.97705  21946386.380    89866798.31847
  23427289.640   123111231.73704  23427288.200    95930827.39246
  21701772.940   114043582.69406  21701771.340    88865126.85648
  23064703.740   121205849.96504  23064701.440    94446116.30546
  21021699.460   110469791.09906  21021695.720    86080349.64748
  20883128.900   109741604.95706  20883124.760    85512932.99048
  20373344.460   107062668.71007  20373344.780    83425466.38349
  23165475.660   121735398.34704  23165475.600    94858747.48144
 15 03 05 02 18  0.0000000  0  8G04G11G16G18G19G22G27G32
  21933874.260   115263300.44705  21933873.740    89815561.02846
  23411254.400   123026966.00304  23411253.200    95865165.81445
  21717060.040   114123916.88106  21717058.460    88927724.89948
  23078608.480   121278919.40504  23078606.120    94503053.53745
  21013376.260   110426052.36906  21013372.600    86046267.51848
  20886892.160   109761380.60606  20886887.940    85528342.59148
  20373053.120   107061137.49007  20373053.400    83424273.21949
  23143980.700   121622442.17704  23143980.700    94770729.74144
 15 03 05 02 18 30.0000000  0  8G04G11G16G18G19G22G27G32
  21921409.600   115197798.33505  21921409.020    89764520.42146
  23395240.560   122942812.04104  23395239.280    95799591.35045
  21732421.060   114204639.36006  21732419.480    88990625.50847
  23092568.580   121352280.56104  23092566.360    94560218.07545
  21005100.800   110382564.44206  21005097.220    86012380.81149
  20890753.180   109781669.91706  20890748.840    85544152.45648
  20372828.640   107059957.27807  20372828.840    83423353.56649
  23122521.480   121509673.70604  23122521.700    94682858.25047
 15 03 05 02 19  0.0000000  0  8G04G11G16G18G19G22G27G32
  21908992.520   115132546.11605  21908991.880    89713674.56746
  23379247.540   122858767.39704  23379246.220    95734102.00446
  21747854.880   114285744.47706  21747853.280    89053824.27947
  23106583.320   121425928.40204  23106581.100    94617605.98246
  20996872.780   110339326.00206  20996869.260    85978688.51649
  20894711.100   109802469.21106  20894706.740    85560359.70448
  20372670.620   107059126.41707  20372670.800    83422706.13849
  23101097.860   121397092.94504  23101098.420    94595133.02546
 15 03 05 02 19 30.0000000  0  8G04G11G16G18G19G22G27G32
  21896623.340   115067545.56805  21896622.680    89663024.80546
  23363275.560   122774834.66204  23363274.340    95668699.92641
  21763361.560   114367232.25706  21763359.900    89117321.22648
  23120652.480   121499862.58904  23120650.300    94675217.02244
  20988692.760   110296339.82506  20988689.300    85945192.78649
  20898766.160   109823779.13706  20898761.860    85576964.84348
  20372579.420   107058647.52607  20372579.720    83422332.96649
  23079710.860   121284704.29504  23079711.440    94507557.51746
 15 03 05 02 20  0.0000000  0  8G04G11G16G18G19G22G27G32
  21884302.320   115002798.28405  21884301.640    89612572.39047
  23347325.100   122691015.61104  23347324.000    95603386.43344
  21778940.660   114449101.16206  21778939.020    89181115.16348
  23134775.880   121574082.11604  23134773.820    94733050.40444
  20980561.160   110253608.45106  20980557.780    85911895.61649
  20902918.560   109845600.22706  20902914.340    85593968.28648
  20372555.620   107058523.03407  20372556.040    83422235.95949
  23058361.220   121172511.73104  23058361.760    94420134.75146
 15 03 05 02 20 30.0000000  0  8G04G11G16G18G19G22G27G32
  21872028.400   114938298.99305  21872027.880    89562313.21146
  23331395.440   122607305.20804  23331394.500    95538157.56046
  21794590.780   114531342.94706  21794589.100    89245199.65648
  23148952.360   121648579.58304  23148950.160    94791100.36845
  20972477.440   110211128.06906  20972473.960    85878794.01749
  20907167.080   109867925.76506  20907162.840    85611364.81548
  20372598.360   107058748.45407  20372598.920    83422411.61149
  23037048.480   121060512.85204  23037048.980    94332862.93245
 15 03 05 02 21  0.0000000  0  8G04G11G16G18G19G22G27G32
  21859803.060   114874054.42105  21859802.600    89512252.50647
  23315487.900   122523710.36404  23315486.680    95473018.74345
  21810312.840   114613962.59906  21810311.080    89309578.58047
  23163182.560   121723359.54404  23163180.320    94849370.46345
  20964442.960   110168906.68406  20964439.460    85845894.24448
  20911512.560   109890761.31106  20911508.340    85629158.74948
  20372709.240   107059331.52107  20372709.840    83422865.93949
  23015774.420   120948716.98304  23015774.980    94245749.30444
 15 03 05 02 21 30.0000000  0  8G04G11G16G18G19G22G27G32
  21847624.960   114810058.14405  21847624.560    89462385.28947
  23299600.960   122440224.93704  23299599.800    95407965.22545
  21826104.920   114696950.10906  21826103.060    89374244.14647
  23177464.800   121798413.10904  23177462.600    94907853.74245
  20956456.620   110126938.71706  20956453.220    85813191.93949
  20915953.520   109914099.37006  20915949.440    85647344.24648
  20372887.180   107060266.50207  20372887.700    83423594.48649
  22994538.540   120837120.24604  22994538.820    94158790.82847
 15 03 05 02 22  0.0000000  0  8G04G11G16G18G19G22G27G32
  21835495.840   114746318.35005  21835495.320    89412717.94646
  23283736.480   122356857.60604  23283735.620    95343003.66946
  21841968.120   114780311.57706  21841966.220    89439201.12247
  23191800.200   121873746.28404  23191798.020    94966554.90745
  20948520.340   110085233.56506  20948516.960    85780694.41849
  20920491.300   109937946.40606  20920487.320    85665926.35348
  20373133.880   107061562.53607  20373134.300    83424604.37049
  22973342.420   120725733.43404  22973342.520    94071995.97645
 15 03 05 02 22 30.0000000  0  8G04G11G16G18G19G22G27G32
  21823414.640   114682830.89805  21823413.980    89363247.22447
  23267893.760   122273604.43104  23267892.900    95278131.12244
  21857901.140   114864040.03406  21857899.220    89504444.05247
  23206187.480   121949352.76204  23206185.400    95025469.03644
  20940633.560   110043788.33306  20940630.160    85748399.43648
  20925125.180   109962297.57806  20925121.140    85684901.29748
  20373448.620   107063216.08807  20373448.960    83425892.84849
  22952185.880   120614554.92704  22952185.980    93985363.41845
 15 03 05 02 23  0.0000000  0  8G04G11G16G18G19G22G27G32
  21811381.380   114619596.18105  21811380.780    89313973.45247
  23252073.060   122190465.94404  23252072.000    95213347.89645
  21873903.560   114948133.13506  21873901.660    89569971.12147
  23220626.400   122025230.44504  23220624.340    95084594.47946
  20932796.600   110002604.44406  20932793.120    85716308.09848
  20929854.800   109987151.47606  20929850.660    85704267.97748
  20373831.640   107065228.58507  20373831.920    83427461.01749
  22931069.340   120503587.69604  22931069.640    93898895.49246
 15 03 05 02 23 30.0000000  0  8G04G11G16G18G19G22G27G32
  21799395.680   114556611.69405  21799395.200    89264894.67346
  23236274.020   122107440.42804  23236272.860    95148652.72944
  21889974.440   115032585.93206  21889972.540    89635778.47447
  23235116.100   122101374.64804  23235114.060    95143927.61545
  20925009.080   109961680.65006  20925005.600    85684419.43349
  20934679.320   110012504.38106  20934675.220    85724023.49248
  20374282.580   107067598.39107  20374282.900    83429307.61549
  22909993.200   120392832.17704  22909993.460    93812592.50345
 15 03 05 02 24  0.0000000  0  8G04G11G16G18G19G22G27G32
  21787458.260   114493880.11005  21787457.780    89216012.95247
  23220496.840   122024530.44804  23220495.560    95084047.59146
  21906113.660   115117397.69306  21906111.700    89701865.55047
  23249656.620   122177785.66504  23249654.760    95203468.65946
  20917271.720   109921020.81206  20917268.360    85652736.44249
  20939598.860   110038357.41906  20939594.900    85744168.71449
  20374802.040   107070328.85507  20374802.500    83431435.24549
  22888958.360   120282293.22304  22888958.500    93726458.29846
 15 03 05 02 24 30.0000000  0  8G04G11G16G18G19G22G27G32
  21775568.820   114431400.78305  21775568.380    89167327.78847
  23204741.600   121941736.05904  23204740.260    95019532.50944
  21922320.640   115202565.88206  21922318.680    89768230.35247
  23264247.580   122254460.91804  23264245.660    95263215.60545
  20909584.740   109880625.72506  20909581.460    85621259.76349
  20944613.360   110064709.22006  20944609.480    85764702.57948
  20375390.280   107073420.39707  20375390.840    83433844.23149
  22867965.200   120171973.29104  22867965.320    93640494.77846
 15 03 05 02 25  0.0000000  0  8G04G11G16G18G19G22G27G32
  21763727.880   114369176.36305  21763727.460    89118841.26147
  23189008.740   121859059.91504  23189007.440    94955109.57145
  21938595.420   115288090.64406  21938593.480    89834873.00147
  23278888.920   122331400.45904  23278886.760    95323168.52045
  20901948.840   109840498.98306  20901945.580    85589992.17749
  20949723.060   110091560.50406  20949719.060    85785625.65948
  20376047.940   107076876.31607  20376048.520    83436537.15149
  22847014.640   120061877.30004  22847014.840    93554705.70546
 15 03 05 02 25 30.0000000  0  8G04G11G16G18G19G22G27G32
  21751935.260   114307205.77605  21751934.800    89070552.50947
  23173298.380   121776501.29304  23173297.040    94890778.16845
  21954937.300   115373967.94205  21954935.380    89901790.36247
  23293579.880   122408600.90604  23293577.340    95383324.68745
  20894364.060   109800640.76106  20894360.800    85558933.82849
  20954927.460   110118908.87806  20954923.260    85806936.08748
  20376774.960   107080696.33807  20376775.480    83439513.78349
  22826107.040   119952006.81004  22826107.200    93469092.38946
 15 03 05 02 26  0.0000000  0  8G04G11G16G18G19G22G27G32
  21740190.920   114245488.62205  21740190.380    89022461.25447
  23157610.560   121694060.56704  23157609.020    94826538.65445
  21971345.680   115460194.67906  21971343.800    89968980.00547
  23308319.960   122486060.10804  23308317.280    95443682.49746
  20886830.560   109761051.96706  20886827.280    85528085.42549
  20960225.960   110146752.90206  20960221.780    85828632.73048
  20377571.400   107084881.14607  20377571.820    83442774.66249
  22805242.760   119842364.39504  22805242.800    93383656.78646
 15 03 05 02 26 30.0000000  0  8G04G11G16G18G19G22G27G32
  21728495.000   114184026.42105  21728494.480    88974568.66147
  23141945.520   121611739.47704  23141943.960    94762392.40246
  21987820.280   115546769.17305  21987818.400    90036440.62547
  23323109.000   122563777.08504  23323106.360    95504241.17245
  20879348.900   109721735.32606  20879345.560    85497449.08648
  20965618.680   110175092.38606  20965614.600    85850715.44148
  20378437.600   107089432.75807  20378437.920    83446321.36749
  22784422.420   119732953.78604  22784422.480    93298401.80546
 15 03 05 02 27  0.0000000  0  8G04G11G16G18G19G22G27G32
  21716847.360   114122817.77805  21716846.820    88926873.64347
  23126302.700   121529536.59204  23126301.340    94698338.24244
  22004360.420   115633687.48406  22004358.460    90104169.15447
  23337946.340   122641748.03004  23337943.640    95564997.73846
  20871918.920   109682690.36306  20871915.500    85467024.44749
  20971105.220   110203924.48006  20971101.140    85873182.00548
  20379373.420   107094350.65207  20379373.700    83450153.49049
  22763646.540   119623776.39104  22763646.660    93213328.55346
 15 03 05 02 27 30.0000000  0  8G04G11G16G18G19G22G27G32
  21705248.260   114061864.04105  21705247.740    88879377.24747
  23110682.800   121447454.17504  23110681.860    94634377.96946
  22020965.740   115720948.47206  22020963.700    90172164.71347
  23352831.700   122719971.70004  23352829.160    95625951.24144
  20864541.220   109643919.94306  20864537.680    85436813.73549
  20976685.600   110233249.24106  20976681.440    85896032.46748
  20380379.280   107099636.99907  20380379.640    83454272.72649
  22742915.860   119514836.08504  22742915.920    93128440.04846
 15 03 05 02 28  0.0000000  0  8G04G11G16G18G19G22G27G32
  21693697.700   114001165.55905  21693697.240    88832079.74947
  23095085.940   121365492.64604  23095085.080    94570511.84846
  22037635.700   115808549.75605  22037633.680    90240425.42747
  23367764.840   122798446.57704  23367762.340    95687100.46145
  20857216.060   109605425.58706  20857212.420    85406818.13449
  20982359.560   110263065.73406  20982355.340    85919266.10848
  20381455.420   107105293.02007  20381455.940    83458680.01149
  22722230.760   119406135.94404  22722230.840    93043738.68546
 15 03 05 02 28 30.0000000  0  8G04G11G16G18G19G22G27G32
  21682195.240   113940719.77405  21682194.820    88784979.16447
  23079511.780   121283649.98504  23079510.820    94506738.34245
  22054369.380   115896486.00905  22054367.500    90308947.16447
  23382744.860   122877167.88604  23382742.640    95748441.73845
  20849943.120   109567205.87706  20849939.440    85377036.53649
  20988126.080   110293369.57106  20988121.940    85942879.48848
  20382601.720   107111316.95207  20382602.280    83463373.97949
  22701591.460   119297676.03504  22701591.520    92959224.52346
 15 03 05 02 29  0.0000000  0  8G04G11G16G18G19G22G27G32
  21670740.880   113880526.63505  21670740.400    88738075.42747
  23063960.320   121201926.64804  23063959.260    94443057.88345
  22071166.320   115984754.76805  22071164.560    90377727.99147
  23397771.480   122956133.54004  23397769.480    95809973.44045
  20842722.640   109529262.09306  20842718.980    85347469.94349
  20993985.060   110324159.59106  20993981.100    85966871.70548
  20383818.300   107117709.58907  20383818.780    83468355.25149
  22680998.460   119189458.96304  22680998.320    92874899.54847
 15 03 05 02 29 30.0000000  0  8G04G11G16G18G19G22G27G32
  21659335.040   113820588.13905  21659334.400    88691370.13147
  23048432.000   121120324.73604  23048430.600    94379471.98845
  22088026.460   116073355.13105  22088024.660    90446767.20247
  23412844.600   123035342.83504  23412842.640    95871694.96445
  20835555.300   109491597.48506  20835551.660    85318120.90048
  20999936.800   110355436.03306  20999932.840    85991242.95448
  20385105.640   107124473.59807  20385105.960    83473625.89449
  22660452.660   119081489.22504  22660452.320    92790767.30846
 15 03 05 02 30  0.0000000  0  8G04G11G16G18G19G22G27G32
  21647977.840   113760906.09105  21647977.200    88644864.65547
  23032927.060   121038846.84304  23032925.820    94315982.76146
  22104949.500   116162286.02605  22104947.680    90516063.98247
  23427964.120   123114795.71804  23427962.180    95933606.28146
  20828441.660   109454215.10206  20828438.040    85288991.76449
  21005981.220   110387199.40706  21005977.260    86015993.63348
  20386464.220   107131611.76507  20386464.360    83479188.09049
  22639954.700   118973771.45804  22639954.280    92706831.44346
 15 03 05 02 30 30.0000000  0  8G04G11G16G18G19G22G27G32
  21636669.260   113701479.25005  21636668.600    88598558.03446
  23017445.500   120957491.62904  23017444.520    94252589.10645
  22121934.580   116251543.02705  22121932.720    90585614.85747
  23443129.200   123194488.62304  23443127.360    95995704.64647
  20821381.760   109417114.95106  20821378.100    85260082.55249
  21012117.660   110419446.55306  21012113.700    86041121.28448
  20387893.760   107139123.44607  20387893.800    83485041.34249
  22619504.860   118866306.93704  22619504.400    92623092.87946
 15 03 05 02 31  0.0000000  0  8G04G11G16G18G19G22G27G32
  21625409.020   113642306.49105  21625408.360    88552449.39746
  23001987.340   120876258.61804  23001986.580    94189290.70645
  22138981.140   116341123.17805  22138979.300    90655417.54847
  23458339.160   123274418.13803  23458337.540    96057987.33646
  20814375.600   109380297.36606  20814371.940    85231393.52249
  21018345.740   110452175.65806  21018341.780    86066624.47448
  20389394.160   107147008.49307  20389394.260    83491185.52949
  22599103.500   118759097.24504  22599103.020    92539552.88446
 15 03 05 02 31 30.0000000  0  7G04G11G16G19G22G27G32
  21614194.560   113583374.51905  21614193.980    88506528.37747
  22986549.980   120795135.17204  22986549.300    94126077.63146
  22156085.980   116431009.65005  22156084.120    90725458.92947
  20807420.900   109343750.33606  20807417.300    85202915.31149
  21024662.660   110485371.54106  21024658.660    86092491.39648
  20390963.080   107155254.33707  20390963.380    83497610.85449
  22578748.540   118652131.71304  22578748.200    92456203.13545
 15 03 05 02 32  0.0000000  0  7G04G11G16G19G22G27G32
  21603032.860   113524719.58905  21603032.360    88460823.26247
  22971140.540   120714157.66304  22971139.720    94062978.29444
  22173255.620   116521236.64405  22173253.760    90795765.65847
  20800524.740   109307511.03306  20800521.180    85174676.88749
  21031075.080   110519068.77006  21031071.020    86118748.97748
  20392607.740   107163897.93307  20392608.160    83504346.11949
  22558447.480   118545449.07504  22558447.260    92373073.85246
 15 03 05 02 32 30.0000000  0  8G04G11G16G18G19G22G27G32
  21591919.740   113466319.83105  21591919.260    88415316.96347
  22955754.820   120633304.91704  22955753.860    93999976.17545
  22190485.240   116611779.10805  22190483.480    90866318.21147
  23504236.940   123515597.78004  23504234.860    96245917.31046
  20793683.320   109271558.99206  20793679.700    85146662.29749
  21037578.520   110553243.95806  21037574.380    86145378.99148
  20394324.180   107172918.21907  20394324.640    83511374.90549
  22538196.620   118439030.11104  22538196.500    92290150.01245
 15 03 05 02 33  0.0000000  0  8G04G11G16G18G19G22G27G32
  21580853.140   113408164.45805  21580852.600    88370001.09047
  22940390.800   120552566.48904  22940389.820    93937063.16345
  22207772.400   116702623.87005  22207770.640    90937106.31147
  23519623.320   123596452.87804  23519621.260    96308921.32145
  20786894.840   109235885.01806  20786891.160    85118864.39649
  21044170.580   110587884.84206  21044166.380    86172371.89448
  20396110.620   107182305.23207  20396110.980    83518689.45049
  22517994.400   118332866.85704  22517994.360    92207425.43446
 15 03 05 02 33 30.0000000  0  8G04G11G16G18G19G22G27G32
  21569835.560   113350266.72105  21569835.000    88324885.98347
  22925051.120   120471955.69004  22925050.060    93874249.56845
  22225119.000   116793780.76405  22225117.200    91008137.63247
  23535053.220   123677536.86704  23535050.980    96372103.64644
  20780161.940   109200503.25606  20780158.240    85091294.18749
  21050853.240   110623002.76206  21050849.120    86199736.50348
  20397969.520   107192072.72907  20397969.740    83526300.47549
  22497843.740   118226974.80204  22497843.740    92124912.17745
 15 03 05 02 34  0.0000000  0  8G04G11G16G18G19G22G27G32
  21558866.880   113292625.90006  21558866.300    88279971.05147
  22909735.800   120391472.69404  22909734.620    93811535.57546
  22242524.460   116885246.89705  22242522.620    91079409.92147
  23550526.060   123758847.01404  23550523.800    96435462.23345
  20773484.740   109165414.44106  20773481.100    85063952.24549
  21057626.300   110658596.01006  21057622.300    86227471.48948
  20399900.860   107202221.11407  20399900.960    83534208.29749
  22477745.100   118121356.35904  22477745.160    92042612.12047
 15 03 05 02 34 30.0000000  0  8G04G11G16G18G19G22G27G32
  21547946.920   113235240.66106  21547946.220    88235255.28647
  22894444.520   120311116.55404  22894443.320    93748920.40746
  22259987.800   116977017.41305  22259986.000    91150919.39047
  23566041.060   123840379.05404  23566038.820    96498993.67944
  20766863.220   109130618.18406  20766859.640    85036838.27749
  21064489.280   110694661.06906  21064485.200    86255574.13748
  20401904.320   107212749.34107  20401904.460    83542412.10649
  22457698.760   118016012.09704  22457698.720    91960525.72547
 15 03 05 02 35  0.0000000  0  8G04G11G16G18G19G22G27G32
  21537075.440   113178110.89706  21537074.760    88190738.59447
  22879177.380   120230887.69604  22879176.220    93686404.45146
  22277508.700   117069090.40305  22277506.960    91222664.55047
  23581598.040   123922131.81203  23581595.600    96562697.11244
  20760297.680   109096116.03806  20760294.120    85009953.48049
  21071441.800   110731196.46906  21071437.620    86284043.29048
  20403980.060   107223658.40907  20403980.400    83550912.67449
  22437705.240   117910945.09604  22437705.080    91878655.35546
 15 03 05 02 35 30.0000000  0  8G04G11G16G18G19G22G27G32
  21526252.620   113121236.56506  21526251.880    88146420.94346
  22863934.700   120150786.21304  22863933.220    93623987.72946
  22295086.640   117161462.55805  22295084.780    91294642.83647
  23597196.520   124004102.65903  23597194.140    96626570.45446
  20753788.380   109061909.33906  20753784.800    84983298.90249
  21078483.520   110768200.69006  21078479.280    86312877.75048
  20406128.360   107234949.04707  20406128.940    83559710.57649
  22417764.880   117806157.83704  22417764.680    91797002.96246
 15 03 05 02 36  0.0000000  0  8G04G11G16G18G19G22G27G32
  21515478.460   113064618.04906  21515477.760    88102302.62446
  22848716.540   120070813.31704  22848714.800    93561671.22446
  22312720.980   117254131.17205  22312719.040    91366852.11347
  23612836.160   124086289.43203  23612833.720    96690612.05946
  20747335.600   109027999.66406  20747332.000    84956875.78049
  21085614.040   110805672.27406  21085609.940    86342076.38348
  20408349.560   107246622.12007  20408350.220    83568806.47149
  22397878.320   117701653.23004  22397878.060    91715570.82546
 15 03 05 02 36 30.0000000  0  8G04G11G16G18G19G22G27G32
  21504753.040   113008255.91406  21504752.440    88058384.09647
  22833522.960   119990970.43404  22833521.320    93499456.01946
  22330411.380   117347094.89905  22330409.480    91439291.36047
  23628516.720   124168691.55204  23628514.600    96754821.47246
  20740939.680   108994389.17506  20740936.160    84930685.79249
  21092833.300   110843610.36206  21092829.380    86371638.52148
  20410643.980   107258679.40507  20410644.600    83578201.75449
  22378046.320   117597434.77005  22378045.960    91634361.67246
 15 03 05 02 37  0.0000000  0  8G04G11G16G18G19G22G27G32
  21494076.880   112952152.65906  21494076.380    88014667.27447
  22818354.460   119911259.90104  22818352.880    93437343.96744
  22348157.700   117440352.68205  22348155.880    91511959.74646
  23644238.120   124251308.02204  23644236.160    96819197.95646
  20734601.400   108961081.29106  20734597.920    84904731.59749
  21100141.700   110882015.82406  21100137.720    86401564.85948
  20413012.200   107271123.67107  20413012.640    83587898.57649
  22358269.620   117493507.15504  22358269.260    91553379.13046
 15 03 05 02 37 30.0000000  0  8G04G11G16G18G19G22G27G32
  21483449.200   112896303.90806  21483448.720    87971148.77147
  22803210.420   119831678.07204  22803208.920    93375332.14645
  22365958.600   117533897.55205  22365956.900    91584851.82247
  23659999.320   124334133.28004  23659997.380    96883737.08145
  20728320.100   108928072.85506  20728316.640    84879010.73449
  21107537.880   110920882.40606  21107533.800    86431850.50948
  20415453.420   107283951.38607  20415453.700    83597894.19049
  22338547.800   117389868.80405  22338547.480    91472622.02646
 15 03 05 02 38  0.0000000  0  8G04G11G16G18G19G22G27G32
  21472869.700   112840708.15006  21472869.180    87927827.40947
  22788090.740   119752223.68904  22788089.160    93313419.68246
  22383813.440   117627725.51405  22383811.760    91657964.48746
  23675799.560   124417162.91604  23675797.420    96948435.48943
  20722095.760   108895363.64406  20722092.280    84853523.04249
  21115021.180   110960207.12606  21115017.000    86462493.15348
  20417967.320   107297161.70907  20417967.600    83608187.94149
  22318881.140   117286520.74905  22318881.060    91392091.09046
 15 03 05 02 38 30.0000000  0  8G04G11G16G18G19G22G27G32
  21462339.480   112785370.93706  21462338.860    87884707.51147
  22772996.480   119672903.01904  22772995.020    93251611.38346
  22401722.680   117721839.04505  22401720.980    91731299.68847
  23691639.260   124500400.62304  23691636.940    97013296.02445
  20715929.760   108862960.85606  20715926.260    84828274.11749
  21122592.300   110999993.96406  21122588.140    86493495.88148
  20420555.100   107310760.99207  20420555.520    83618784.78249
  22299271.360   117183471.22704  22299271.240    91311792.79446
 15 03 05 02 39  0.0000000  0  8G04G11G16G18G19G22G27G32
  21451857.960   112730289.83306  21451857.240    87841787.17047
  22757927.440   119593714.48004  22757925.940    93189906.05846
  22419685.400   117816233.13205  22419683.640    91804853.49547
  23707517.600   124583842.03404  23707515.320    97078315.32145
  20709821.880   108830863.47806  20709818.300    84803263.17149
  21130250.580   111040238.78906  21130246.440    86524855.48748
  20423216.540   107324747.61107  20423217.120    83629683.44449
  22279718.460   117080720.48505  22279718.280    91231727.30647
 15 03 05 02 39 30.0000000  0  8G04G11G16G18G19G22G27G32
  21441425.160   112675465.18906  21441424.460    87799066.68947
  22742883.620   119514658.28304  22742882.100    93128303.84846
  22437700.900   117910904.80105  22437699.120    91878623.61047
  23723434.280   124667484.55204  23723431.780    97143491.25845
  20703772.280   108799072.52306  20703768.640    84778490.99849
  21137995.760   111080939.63006  21137991.540    86556570.42448
  20425951.860   107339122.20107  20425952.500    83640884.42149
  22260222.980   116978271.09405  22260222.720    91151896.65046
 15 03 05 02 40  0.0000000  0  8G04G11G16G18G19G22G27G32
  21431041.700   112620900.03206  21431041.080    87756548.41247
  22727865.440   119435738.36804  22727864.160    93066807.83045
  22455769.180   118005854.51605  22455767.420    91952610.37246
  23739389.440   124751329.75504  23739386.840    97208825.24244
  20697781.940   108767593.05606  20697778.240    84753961.53549
  21145828.100   111122098.29406  21145823.780    86588642.11148
  20428761.920   107353888.75807  20428762.460    83652390.81749
  22240785.960   116876128.90904  22240785.700    91072305.36646
 15 03 05 02 40 30.0000000  0  8G04G11G16G18G19G22G27G32
  21420705.680   112566584.31406  21420705.140    87714224.49447
  22712871.540   119356945.38604  22712870.300    93005410.72846
  22473888.040   118101069.79705  22473886.320    92026804.07146
  23755380.880   124835365.58304  23755377.980    97274307.69145
  20691849.160   108736416.30206  20691845.480    84729667.96249
  21153745.360   111163703.21206  21153740.940    86621061.53348
  20431644.880   107369038.16407  20431645.240    83664195.54749
  22221406.060   116774286.69705  22221405.880    90992947.84146
 15 03 05 02 41  0.0000000  0  8G04G11G16G18G19G22G27G32
  21410420.520   112512535.10006  21410419.960    87672108.21947
  22697905.160   119278296.67304  22697903.840    92944126.03946
  22492060.020   118196563.96205  22492058.260    92101215.08347
  23771411.340   124919606.36104  23771408.420    97339949.83544
  20685977.480   108705560.24206  20685973.760    84705624.27349
  21161750.240   111205769.19006  21161745.800    86653840.21348
  20434603.960   107384587.71607  20434604.200    83676312.06749
  22202086.900   116672763.78404  22202086.740    90913839.09647
 15 03 05 02 41 30.0000000  0  8G04G11G16G18G19G22G27G32
  21400183.160   112458737.01306  21400182.480    87630187.65047
  22682963.520   119199777.54604  22682962.140    92882942.34746
  22510281.880   118292320.36705  22510280.060    92175830.44346
  23787477.640   125004034.95904  23787474.640    97405738.32746
  20680164.180   108675011.17606  20680160.500    84681819.80249
  21169839.580   111248279.36606  21169835.220    86686965.02848
  20437636.400   107400522.97007  20437636.560    83688729.13849
  22182826.040   116571547.50205  22182825.900    90834969.29546
 15 03 05 02 42  0.0000000  0  8G04G11G16G18G19G22G27G32
  21389994.660   112405195.87106  21389993.860    87588467.29047
  22668047.680   119121394.27304  22668046.160    92821864.50246
  22528554.020   118388341.14205  22528552.220    92250651.80447
  23803580.300   125088654.81404  23803577.560    97471675.87046
  20674410.560   108644775.81406  20674406.940    84658259.78249
  21178014.260   111291238.00906  21178010.020    86720439.28948
  20440743.340   107416850.23407  20440743.560    83701451.68749
  22163625.100   116470646.19705  22163624.960    90756344.92846
 15 03 05 02 42 30.0000000  0  8G04G11G16G18G19G22G27G32
  21379854.700   112351910.35006  21379853.920    87546946.08547
  22653157.640   119043146.00404  22653156.020    92760891.84346
  22546875.700   118484622.49105  22546874.000    92325676.19446
  23819718.660   125173462.66004  23819716.140    97537759.86346
  20668716.720   108614854.60106  20668713.180    84634944.55149
  21186273.740   111334641.99306  21186269.480    86754260.57548
  20443924.660   107433569.06607  20443925.060    83714479.35949
  22144484.300   116370061.20805  22144484.160    90677967.04947
 15 03 05 02 43  0.0000000  0  8G04G11G16G18G19G22G27G32
  21369763.660   112298882.15306  21369763.000    87505625.38747
  22638293.700   118965035.14604  22638291.920    92700026.27146
  22565246.700   118581162.34105  22565244.940    92400902.02646
  23835892.800   125258458.02704  23835890.280    97603990.00446
  20663083.200   108585250.47406  20663079.740    84611876.40749
  21194618.040   111378491.15206  21194613.680    86788428.75348
  20447180.940   107450681.73007  20447181.540    83727813.91049
  22125404.580   116269796.89905  22125404.420    90599839.05447
 15 03 05 02 43 30.0000000  0  8G04G11G16G18G19G22G27G32
  21359721.600   112246111.24906  21359721.100    87464505.20847
  22623455.920   118887061.96205  22623454.240    92639267.95847
  22583666.580   118677958.79105  22583664.780    92476327.80347
  23852102.180   125343638.83603  23852099.760    97670364.66145
  20657510.300   108555964.64006  20657506.820    84589056.28049
  21203046.580   111422783.51806  21203042.180    86822942.28348
  20450512.420   107468188.63807  20450513.040    83741455.65749
  22106386.420   116169855.48905  22106386.160    90521962.65547
 15 03 05 02 44  0.0000000  0  7G04G11G16G19G22G27G32
  21349725.140   112193579.28206  21349724.680    87423571.22047
  22608640.900   118809208.70604  22608639.280    92578603.11046
  22602130.980   118774990.14605  22602129.280    92551936.61946
  20651994.800   108526980.14206  20651991.240    84566470.95949
  21211555.580   111467499.07206  21211551.260    86857785.56148
  20453915.640   107486072.08607  20453916.160    83755390.81149
  22087426.680   116070221.20205  22087426.380    90444325.57047
 15 03 05 02 44 30.0000000  0  7G04G11G16G19G22G27G32
  21339786.000   112141348.69606  21339785.600    87382872.07747
  22593860.860   118731538.93505  22593859.220    92518081.22346
  22620651.480   118872316.20905  22620649.860    92627775.08946
  20646548.760   108498360.67806  20646545.100    84544170.06849
  21220156.740   111512698.64906  21220152.480    86893006.00348
  20457402.580   107504395.28907  20457402.960    83769668.62949
  22068537.720   115970959.14705  22068537.520    90366978.53946
 15 03 05 02 45  0.0000000  0  8G04G11G16G18G19G22G27G32
  21329889.520   112089342.12206  21329889.140    87342347.50047
  22579100.920   118653975.33705  22579099.280    92457642.08045
  22639212.880   118969857.15105  22639211.320    92703780.98946
  23900938.160   125600274.19503  23900935.540    97870332.85544
  20641157.720   108470030.38806  20641154.020    84522094.51349
  21228835.000   111558302.96306  21228830.700    86928541.83648
  20460958.480   107523081.51207  20460958.740    83784229.31949
  22049705.300   115871994.58205  22049705.220    90289863.32847
 15 03 05 02 45 30.0000000  0  7G04G11G16G19G22G27G32
  21320040.060   112037582.50306  21320039.540    87302015.34847
  22564365.680   118576541.60405  22564364.100    92397304.09744
  22657818.900   119067632.45605  22657817.400    92779969.51047
  20635826.240   108442013.35806  20635822.560    84500263.05349
  21237594.300   111604333.10106  21237589.940    86964409.48048
  20464587.820   107542154.25907  20464588.100    83799091.20349
  22030934.320   115773352.92905  22030934.260    90212999.73147
 15 03 05 02 46  0.0000000  0  8G04G11G16G18G19G22G27G32
  21310246.780   111986117.75006  21310246.020    87261912.97547
  22549664.480   118499286.46804  22549662.840    92337105.31946
  22676478.260   119165687.92105  22676476.760    92856376.33947
  23933663.340   125772255.25203  23933661.820    98004349.70743
  20630563.800   108414358.96506  20630560.100    84478714.17149
  21246443.320   111650835.20706  21246439.000    87000644.88948
  20468299.980   107561662.19807  20468300.300    83814292.19749
  22012234.440   115675084.78005  22012234.400    90136427.18046
 15 03 05 02 46 30.0000000  0  8G04G11G16G18G19G22G27G32
  21300497.460   111934884.74606  21300496.600    87221991.16447
  22534985.340   118422147.21705  22534983.700    92276996.83646
  22695178.420   119263957.47004  22695176.860    92932949.97147
  23950074.920   125858497.35503  23950073.120    98071551.35642
  20625358.540   108387005.50206  20625354.900    84457399.78649
  21255369.720   111697744.39106  21255365.520    87037197.49748
  20472083.060   107581542.56207  20472083.420    83829783.39049
  21993594.100   115577129.38405  21993594.040    90060098.33346
 15 03 05 02 47  0.0000000  0  8G04G11G16G18G19G22G27G32
  21290797.980   111883913.81806  21290797.120    87182273.56647
  22520334.160   118345154.85404  22520332.480    92217002.81446
  22713924.380   119362468.07605  22713922.920    93009711.48446
  23966519.400   125944910.08103  23966518.380    98138884.84844
  20620216.580   108359984.53006  20620212.980    84436344.47349
  21264379.060   111745089.01806  21264374.880    87074089.41248
  20475942.960   107601826.41307  20475943.340    83845588.98649
  21975019.540   115479519.69605  21975019.460    89984038.86947
 15 03 05 02 47 30.0000000  0  7G04G11G16G19G22G27G32
  21281144.480   111833184.51706  21281143.620    87142744.25947
  22505707.100   118268289.52605  22505705.520    92157107.76546
  22732711.740   119461196.43204  22732710.400    93086642.61946
  20615134.300   108333276.92606  20615130.660    84415533.35149
  21273467.140   111792846.80706  21273462.820    87111303.28148
  20479875.900   107622493.74507  20479876.260    83861693.39949
  21956507.440   115382237.60705  21956507.240    89908234.65046
 15 03 05 02 48  0.0000000  0  7G04G11G16G19G22G27G32
  21271542.320   111782725.37006  21271541.600    87103425.46847
  22491109.680   118191580.03405  22491108.220    92097334.17046
  22751545.480   119560168.93005  22751544.260    93163764.02546
  20610117.320   108306912.62306  20610113.680    84394989.74149
  21282638.920   111841044.30806  21282634.480    87148859.77148
  20483887.360   107643573.64507  20483887.660    83878119.29049
  21938063.600   115285314.18205  21938063.280    89832709.91646
 15 03 05 02 48 30.0000000  0  7G04G11G16G19G22G27G32
  21261989.020   111732522.92006  21261988.420    87064306.69247
  22476539.700   118115013.92505  22476538.100    92037672.27346
  22770422.680   119659369.23004  22770421.500    93241062.93646
  20605163.420   108280879.53206  20605159.780    84374704.20749
  21291891.480   111889666.67406  21291887.100    87186747.32948
  20487974.860   107665053.41607  20487975.160    83894856.77249
  21919686.000   115188738.71505  21919685.620    89757456.34147
 15 03 05 02 49  0.0000000  0  7G04G11G16G19G22G27G32
  21252485.400   111682581.10506  21252484.780    87025391.00847
  22461997.840   118038595.80105  22461996.200    91978125.72646
  22789343.500   119758798.36305  22789342.320    93318540.14846
  20600273.520   108255182.98706  20600269.940    84354680.92549
  21301225.180   111938715.74506  21301220.880    87224967.37348
  20492139.200   107686937.48507  20492139.560    83911909.29449
  21901375.760   115092517.54905  21901375.320    89682478.83446
 15 03 05 02 49 30.0000000  0  7G04G11G16G19G22G27G32
  21243030.960   111632897.85806  21243030.280    86986676.79847
  22447483.660   117962324.01405  22447482.000    91918693.17746
  22808306.720   119858450.79404  22808305.540    93396191.37246
  20595447.540   108229822.20706  20595443.980    84334919.27649
  21310639.380   111988187.27706  21310635.020    87263516.61248
  20496380.060   107709224.17807  20496380.560    83929275.54149
  21883132.900   114996650.91705  21883132.480    89607777.59347
 15 03 05 02 50  0.0000000  0  8G01G04G11G16G19G22G27G32
  23429857.660   123124731.86003  23429859.600    95941360.85946
  21233625.780   111583473.01406  21233625.040    86948163.95247
  22432997.540   117886199.09505  22432995.900    91859375.08345
  22827312.000   119958324.29104  22827310.860    93474014.84546
  20590685.660   108204798.28506  20590682.080    84315420.12049
  21320133.660   112038079.55606  21320129.200    87302393.72348
  20500697.660   107731913.86807  20500698.220    83946955.81749
  21864957.940   114901141.24405  21864957.560    89533354.50247
 15 03 05 02 50 30.0000000  0  8G01G04G11G16G19G22G27G32
  23416045.760   123052148.06204  23416048.080    95884802.09647
  21224267.560   111534295.28106  21224266.840    86909843.66447
  22418537.360   117810210.46705  22418535.820    91800163.18846
  22846356.620   120058404.28404  22846355.480    93551999.22546
  20585985.920   108180101.17606  20585982.380    84296175.61449
  21329705.380   112088379.30806  21329700.920    87341588.34348
  20505090.040   107754995.93607  20505090.560    83964941.83649
  21846849.280   114805979.81105  21846848.880    89459202.75746
 15 03 05 02 51  0.0000000  0  7G04G11G16G19G22G27G32
  21214959.600   111485381.71006  21214958.920    86871729.22148
  22404106.460   117734375.67105  22404104.880    91741071.14946
  22865443.160   120158704.27704  22865441.980    93630155.03546
  20581351.880   108155749.21306  20581348.340    84277200.05849
  21339357.420   112139101.50106  21339353.040    87381112.12848
  20509560.520   107778487.75707  20509560.900    83983247.14149
  21828810.580   114711185.88405  21828810.200    89385337.38447
 15 03 05 02 51 30.0000000  0  8G01G04G11G16G19G22G27G32
  23388509.220   122907443.66903  23388512.300    95772045.38745
  21205701.240   111436729.04706  21205700.620    86833818.08347
  22389704.340   117658691.99805  22389702.680    91682096.86546
  22884570.740   120259219.42604  22884569.420    93708478.49547
  20576783.160   108131740.61106  20576779.620    84258492.04949
  21349088.860   112190241.15506  21349084.620    87420961.20248
  20514108.520   107802386.74707  20514108.760    84001869.72349
  21810841.780   114616759.04305  21810841.320    89311758.05347
 15 03 05 02 52  0.0000000  0  8G01G04G11G16G19G22G27G32
  23374782.420   122835309.62604  23374785.600    95715837.07045
  21196491.300   111388330.86706  21196490.680    86796105.24448
  22375330.040   117583154.17905  22375328.280    91623236.23746
  22903737.540   120359940.70205  22903735.980    93786962.59646
  20572278.920   108108070.68106  20572275.320    84240047.93949
  21358898.120   112241789.66906  21358894.000    87461128.86948
  20518732.820   107826687.06907  20518733.000    84020805.03249
  21792942.000   114522695.09605  21792941.560    89238461.49147
 15 03 05 02 52 30.0000000  0  7G04G11G16G19G22G27G32
  21187329.240   111340183.66906  21187328.480    86758587.96247
  22360982.900   117507758.99805  22360981.060    91564486.75546
  22922942.000   120460860.72104  22922940.300    93865601.55346
  20567838.620   108084736.58106  20567834.980    84221865.51949
  21368784.380   112293742.18406  21368780.260    87501611.34948
  20523432.700   107851385.37607  20523432.960    84040050.47049
  21775111.020   114428992.86605  21775110.620    89165446.78947
 15 03 05 02 53  0.0000000  0  8G01G04G11G16G19G22G27G32
  23347412.200   122691480.30603  23347416.200    95603761.36445
  21178217.960   111292303.28106  21178217.100    86721278.58647
  22346665.980   117432523.28005  22346664.260    91505861.53745
  22942186.900   120561993.27404  22942185.100    93944406.09945
  20563465.500   108061755.83306  20563461.920    84203958.43749
  21378750.100   112346112.28906  21378745.980    87542419.22048
  20528211.380   107876498.15207  20528211.760    84059618.86349
  21757352.380   114335670.82905  21757352.040    89092728.35646
 15 03 05 02 53 30.0000000  0  9G01G04G11G16G18G19G22G27G32
  23333770.680   122619792.59904  23333773.920    95547900.82046
  21169155.720   111244681.14306  21169154.920    86684170.41548
  22332377.800   117357438.94205  22332376.160    91447354.27946
  22961470.080   120663326.71104  22961468.220    94023367.21146
  24183071.340   127082897.08903  24183068.180    99025615.69343
  20559158.260   108039121.22906  20559154.740    84186321.07849
  21388793.260   112398889.62406  21388789.120    87583544.41748
  20533067.420   107902017.43207  20533067.900    84079504.00849
  21739664.880   114242722.88905  21739664.600    89020301.41447
 15 03 05 02 54  0.0000000  0  8G01G04G11G16G19G22G27G32
  23320154.380   122548237.04104  23320156.880    95492143.28944
  21160139.540   111197301.00206  21160138.840    86647250.83147
  22318115.540   117282490.35705  22318113.880    91388952.79246
  22980787.580   120764840.87504  22980785.800    94102469.12246
  20554914.080   108016817.99406  20554910.620    84168941.93049
  21398910.440   112452055.85306  21398906.280    87624972.64748
  20537997.840   107927927.27707  20537998.360    84099693.48349
  21722046.080   114150135.06505  21722045.700    88948155.08747
 15 03 05 02 54 30.0000000  0  7G04G11G16G19G22G27G32
  21151173.120   111150182.14706  21151172.440    86610534.86047
  22303882.940   117207697.58405  22303881.260    91330672.74046
  23000142.900   120866554.21704  23000141.260    94181726.24346
  20550736.840   107994866.42806  20550733.380    84151836.81049
  21409104.960   112505628.16506  21409100.740    87666717.30248
  20543006.460   107954247.43207  20543006.920    84120202.68549
  21704499.900   114057929.18005  21704499.440    88876306.36247
 15 03 05 02 55  0.0000000  0  8G01G04G11G16G19G22G27G32
  23293008.900   122405583.81904  23293010.740    95380985.36945
  21142257.640   111103331.14606  21142256.980    86574027.61147
  22289681.360   117133067.75405  22289679.680    91272519.63845
  23019536.680   120968469.13504  23019535.040    94261140.43046
  20546628.020   107973274.39906  20546624.520    84135011.84849
  21419377.660   112559611.34706  21419373.380    87708782.12548
  20548094.560   107980984.85307  20548094.880    84141037.02449
  21687028.080   113966114.02605  21687027.600    88804762.10847
 15 03 05 02 55 30.0000000  0  8G01G04G11G16G19G22G27G32
  23279478.140   122334479.23804  23279480.380    95325579.22846
  21133389.940   111056731.38906  21133389.360    86537716.15148
  22275507.800   117058585.12805  22275506.120    91214481.24846
  23038965.200   121070566.77604  23038963.520    94340697.01045
  20542584.740   107952026.91406  20542581.260    84118455.36449
  21429724.900   112613986.78606  21429720.680    87751152.58948
  20553258.940   108008123.42707  20553259.220    84162183.95549
  21669627.780   113874675.47805  21669627.440    88733511.31247
 15 03 05 02 56  0.0000000  0  8G01G04G11G16G19G22G27G32
  23265975.660   122263523.41803  23265978.220    95270289.01146
  21124571.380   111010390.01606  21124570.840    86501605.99947
  22261363.720   116984257.54605  22261362.140    91156563.64646
  23058429.220   121172851.33804  23058427.760    94420399.25046
  20538608.620   107931132.37506  20538605.160    84102173.90249
  21440147.840   112668759.82906  21440143.600    87793832.87848
  20558501.060   108035670.81407  20558501.320    84183649.44849
  21652301.080   113783623.20805  21652300.800    88662561.50547
 15 03 05 02 56 30.0000000  0  8G01G04G11G16G19G22G27G32
  23252501.360   122192715.91903  23252503.940    95215114.37047
  21115802.020   110964306.87906  21115801.460    86465697.09147
  22247249.220   116910085.34005  22247247.700    91098767.16146
  23077928.080   121275319.21404  23077926.860    94500244.29545
  20534699.820   107910591.59306  20534696.400    84086168.09149
  21450646.020   112723928.02206  21450641.720    87836821.08048
  20563820.860   108063626.90907  20563821.200    84205433.41049
  21635048.340   113692959.06105  21635047.940    88591914.13047
 15 03 05 02 57  0.0000000  0  8G01G04G11G16G19G22G27G32
  23239054.720   122122054.44504  23239057.540    95160053.52247
  21107081.220   110918479.27806  21107080.680    86429987.29548
  22233163.900   116836066.70705  22233162.360    91041090.31446
  23097461.040   121377965.69804  23097459.880    94580228.56346
  20530858.200   107890403.47506  20530854.740    84070437.09049
  21461218.600   112779487.13606  21461214.280    87880113.89148
  20569218.020   108091989.77607  20569218.480    84227534.34049
  21617869.460   113602683.10905  21617868.920    88521569.25947
 15 03 05 02 57 30.0000000  0  8G01G04G11G16G19G22G27G32
  23225636.400   122051540.22404  23225639.180    95105107.40246
  21098409.380   110872908.61706  21098408.860    86394477.70547
  22219108.260   116762203.87505  22219106.740    90983534.87146
  23117027.600   121480788.74604  23117026.500    94660350.37346
  20527084.220   107870570.71706  20527080.680    84054982.99749
  21471865.340   112835436.27206  21471861.080    87923710.61648
  20574692.960   108120761.02907  20574693.480    84249953.48549
  21600765.080   113512798.93505  21600764.460    88451529.66247
 15 03 05 02 58  0.0000000  0  8G01G04G11G16G19G22G27G32
  23212246.200   121981173.95404  23212248.780    95050276.54246
  21089786.540   110827595.49206  21089786.020    86359168.79347
  22205082.420   116688498.05105  22205080.860    90926101.79046
  23136627.460   121583786.97104  23136626.440    94740608.70844
  20523378.220   107851095.35006  20523374.620    84039807.39149
  21482586.020   112891774.09606  21482581.840    87967610.21948
  20580245.860   108149941.83407  20580246.400    84272691.76649
  21583735.760   113423309.59405  21583735.180    88381797.72247
 15 03 05 02 58 30.0000000  0  8G01G04G11G16G19G22G27G32
  23198883.860   121910953.56104  23198886.220    94995559.42946
  21081212.400   110782537.89006  21081211.800    86324059.00247
  22191086.260   116614947.86005  22191084.600    90868789.96745
  23156259.740   121686954.85004  23156258.660    94820999.23846
  20519740.060   107831976.39106  20519736.400    84024909.50849
  21493379.880   112948496.50006  21493375.740    88011809.48848
  20585876.400   108179530.23007  20585876.840    84295747.64849
  21566781.620   113334215.24105  21566781.060    88312373.56247
 15 03 05 02 59  0.0000000  0  8G01G04G11G16G19G22G27G32
  23185549.820   121840882.76604  23185552.060    94940958.83846
  21072687.600   110737739.66106  21072686.960    86289151.30748
  22177120.600   116541557.81605  22177118.880    90811602.94046
  23175924.460   121790293.24104  23175923.320    94901522.61946
  20516170.680   107813219.03806  20516167.020    84010293.39449
  21504247.340   113005605.37706  21504243.200    88056309.91648
  20591585.280   108209530.47607  20591585.700    84319124.45349
  21549903.840   113245521.96705  21549903.320    88243261.94647
 15 03 05 02 59 30.0000000  0  8G01G04G11G16G19G22G27G32
  23172243.420   121770956.32604  23172245.500    94886470.73446
  21064211.060   110693195.14806  21064210.460    86254441.32048
  22163184.560   116468323.32405  22163182.740    90754537.11347
  23195620.060   121893793.93404  23195618.880    94982172.49346
  20512669.280   107794819.11006  20512665.660    83995955.79149
  21515186.900   113063093.17106  21515182.760    88101105.60448
  20597371.560   108239937.45107  20597371.980    84342818.19449
  21533101.760   113157226.68705  21533101.360    88174460.45847
 15 03 05 03 00  0.0000000  0  8G01G04G11G16G19G22G27G32
  23158965.140   121701179.16904  23158967.380    94832098.97046
  21055783.820   110648909.50306  21055783.200    86219933.02748
  22149279.240   116395250.30605  22149277.340    90697597.08847
  23215347.100   121997459.58204  23215345.780    95062950.88746
  20509237.120   107776783.03406  20509233.520    83981901.70649
  21526199.240   113120962.95706  21526195.060    88146198.94548
  20603236.200   108270756.56007  20603236.720    84366833.07649
  21516376.760   113069336.85205  21516376.500    88105974.89947
 15 03 05 03 00 30.0000000  0  8G01G04G11G16G19G22G27G32
  23145715.240   121631552.02504  23145717.740    94777844.09847
  21047405.960   110604883.37306  21047405.340    86185626.97048
  22135404.900   116322340.01005  22135402.920    90640783.88546
  23235104.920   122101287.78004  23235103.600    95143855.94646
  20505874.580   107759112.84906  20505870.980    83968132.73749
  21537284.000   113179213.43806  21537279.820    88191588.93548
  20609179.480   108301988.73907  20609180.060    84391169.83349
  21499729.480   112981855.16805  21499729.240    88037807.37347
 15 03 05 03 01  0.0000000  0  8G01G04G11G16G19G22G27G32
  23132493.900   121562074.79904  23132496.680    94723706.01445
  21039077.360   110561116.63206  21039076.840    86151523.02648
  22121561.540   116249592.99905  22121559.640    90584097.91446
  23254892.960   122205275.11304  23254891.720    95224885.01246
  20502581.880   107741809.57006  20502578.260    83954649.65849
  21548440.680   113237842.28906  21548436.560    88237273.74448
  20615201.420   108333634.15007  20615202.000    84415828.57849
  21483160.400   112894784.01805  21483160.120    87969959.74647
 15 03 05 03 01 30.0000000  0  8G01G04G11G16G19G22G27G32
  23119300.080   121492740.83604  23119302.800    94669679.55947
  21030796.860   110517602.61206  21030796.400    86117615.99248
  22107748.120   116177003.34905  22107746.340    90527534.55546
  23274709.760   122309413.01004  23274708.600    95306031.40544
  20499358.020   107724867.75906  20499354.320    83941448.23449
  21559667.760   113296841.16906  21559663.720    88283246.89748
  20621300.800   108365686.36707  20621301.320    84440804.32149
  21466668.540   112808118.92705  21466668.280    87902428.53547
 15 03 05 03 02  0.0000000  0  8G01G04G11G16G19G22G27G32
  23106133.820   121423551.88504  23106136.400    94615766.13047
  21022564.860   110474343.13406  21022564.380    86083907.30348
  22093965.060   116104573.56805  22093963.520    90471095.79446
  23294555.000   122413699.85404  23294553.820    95387293.86046
  20496203.460   107708290.39206  20496199.720    83928530.80649
  21570965.240   113356209.58806  21570961.120    88329507.99648
  20627477.960   108398147.59007  20627478.460    84466098.76749
  21450254.740   112721863.87805  21450254.460    87835216.83347
 15 03 05 03 02 30.0000000  0  8G01G04G11G16G19G22G27G32
  23092996.420   121354514.80004  23092999.060    94561971.01345
  21014382.620   110431344.95506  21014382.080    86050402.25148
  22080213.880   116032310.99805  22080212.420    90414787.28046
  23314429.200   122518139.41404  23314428.100    95468675.31146
  20493119.820   107692085.62606  20493116.040    83915903.71549
  21582333.900   113415952.04506  21582329.740    88376060.55848
  20633734.300   108431024.79207  20633734.780    84491717.34949
  21433920.620   112636027.89705  21433920.360    87768331.68447
 15 03 05 03 03  0.0000000  0  8G01G04G11G16G19G22G27G32
  23079887.060   121285624.04904  23079889.720    94508289.93945
  21006249.060   110388602.47006  21006248.420    86017096.41247
  22066493.780   115960211.24405  22066492.240    90358605.64246
  23334330.920   122622723.77704  23334329.940    95550169.60545
  20490106.260   107676249.16106  20490102.480    83903563.60749
  21593772.300   113476061.31906  21593768.140    88422898.95548
  20640068.780   108464312.72507  20640069.280    84517655.99249
  21417665.680   112550607.70305  21417665.380    87701770.50847
 15 03 05 03 03 30.0000000  0  8G01G04G11G16G19G22G27G32
  23066806.060   121216882.56004  23066808.780    94454725.14545
  20998164.680   110346118.73406  20998164.000    85983992.21148
  22052805.360   115888278.04005  22052803.780    90302553.76647
  23354260.200   122727452.76104  23354259.340    95631776.55647
  20487163.620   107660785.36007  20487159.820    83891513.88849
  21605280.580   113536538.09506  21605276.480    88470023.71048
  20646482.040   108498014.56807  20646482.520    84543917.15449
  21401490.900   112465608.48406  21401490.500    87635537.39047
 15 03 05 03 04  0.0000000  0  8G01G04G11G16G19G22G27G32
  23053752.640   121148286.42204  23053755.180    94401273.63146
  20990128.860   110303889.73206  20990128.080    85951086.51548
  22039148.160   115816508.13905  22039146.440    90246629.17646
  23374215.860   122832319.94404  23374215.060    95713491.21646
  20484291.420   107645691.46907  20484287.540    83879752.41049
  21616857.700   113597376.42906  21616853.600    88517430.19648
  20652973.320   108532126.50107  20652973.800    84570497.86549
  21385395.860   112381028.32106  21385395.400    87569630.78147
 15 03 05 03 04 30.0000000  0  8G01G04G11G16G19G22G27G32
  23040728.840   121079846.23804  23040731.340    94347943.63246
  20982143.460   110261926.08006  20982142.660    85918387.58648
  22025524.140   115744912.72705  22025522.200    90190840.57046
  23394199.280   122937332.97304  23394198.420    95795319.52046
  20481491.780   107630979.19307  20481487.880    83868288.29149
  21628505.320   113658584.79906  21628501.140    88565125.02848
  20659544.720   108566659.42807  20659545.200    84597406.63549
  21369382.920   112296880.25806  21369382.520    87504060.89847
 15 03 05 03 05  0.0000000  0  8G01G04G11G16G19G22G27G32
  23027729.300   121011533.02904  23027731.740    94294712.58046
  20974202.900   110220198.58606  20974202.160    85885872.66648
  22011927.920   115673464.06105  22011925.940    90135166.31245
  23414204.380   123042459.96004  23414203.440    95877236.63246
  20478759.460   107616620.98607  20478755.620    83857100.07349
  21640217.440   113720132.22406  21640213.240    88613084.05848
  20666190.740   108601584.58607  20666191.300    84624621.03149
  21353447.100   112213137.32906  21353446.700    87438806.69747
 15 03 05 03 05 30.0000000  0  8G01G04G11G16G19G22G27G32
  23014760.480   120943382.07704  23014763.040    94241607.97746
  20966314.000   110178742.84406  20966313.360    85853569.49248
  21998366.420   115602197.97905  21998364.520    90079634.31446
  23434237.180   123147733.17704  23434236.360    95959267.68346
  20476101.440   107602653.12807  20476097.660    83846216.02249
  21652000.380   113782051.83906  21651996.140    88661333.10348
  20672918.160   108636937.36907  20672918.800    84652168.64449
  21337595.560   112129836.95805  21337595.140    87373897.33947
 15 03 05 03 06  0.0000000  0  8G01G04G11G16G19G22G27G32
  23001819.720   120875377.91104  23001822.420    94188617.75947
  20958473.960   110137543.13706  20958473.300    85821465.82148
  21984836.660   115531099.25105  21984834.860    90024232.72646
  23454294.360   123253133.89304  23454293.520    96041398.07143
  20473515.040   107589061.38806  20473511.280    83835625.05849
  21663850.840   113844326.17206  21663846.560    88709858.55148
  20679724.060   108672702.49707  20679724.720    84680037.57149
  21321825.640   112046965.82906  21321825.260    87309322.45647
 15 03 05 03 06 30.0000000  0  8G01G04G11G16G19G22G27G32
  22988907.780   120807526.14904  22988910.740    94135746.28647
  20950683.760   110096605.09906  20950683.020    85789566.06247
  21971340.080   115460174.97305  21971338.420    89968967.08147
  23474376.440   123358666.31204  23474375.580    96123631.07146
  20471001.460   107575852.71506  20470997.740    83825332.58149
  21675769.460   113906958.57006  21675765.180    88758663.00848
  20686609.540   108708885.71507  20686610.140    84708232.27049
  21306138.880   111964531.57506  21306138.500    87245087.99947
 15 03 05 03 07  0.0000000  0  8G01G04G11G16G19G22G27G32
  22976021.920   120739810.60504  22976024.900    94082980.96346
  20942940.300   110055912.67706  20942939.460    85757857.68347
  21957873.860   115389409.44105  21957872.180    89913825.13346
  23494479.880   123464310.36304  23494478.900    96205951.09745
  20468557.980   107563012.18306  20468554.220    83815326.96649
  21687752.740   113969931.00006  21687748.420    88807732.43448
  20693571.520   108745471.02007  20693572.060    84736740.29249
  21290532.680   111882520.30906  21290532.300    87181183.13548
 15 03 05 03 07 30.0000000  0  8G01G04G11G16G19G22G27G32
  22963168.820   120672267.28704  22963171.700    94030349.82247
  20935250.340   110015501.78306  20935249.560    85726368.69548
  21944444.860   115318839.75605  21944443.200    89858835.80946
  23514610.880   123570099.67904  23514609.880    96288384.31845
  20466191.620   107550577.00306  20466187.840    83805637.21349
  21699807.120   114033277.27306  21699802.800    88857093.17148
  20700616.840   108782494.58407  20700617.380    84765589.80849
  21275014.140   111800970.16206  21275013.840    87117637.59947
 15 03 05 03 08  0.0000000  0  8G01G04G11G16G19G22G27G32
  22950337.380   120604837.67004  22950340.280    93977807.29446
  20927602.780   109975313.68606  20927602.080    85695053.30148
  21931042.120   115248407.93405  21931040.500    89803953.88047
  23534757.820   123675972.51304  23534756.720    96370882.59746
  20463891.460   107538489.63306  20463887.680    83796218.46949
  21711921.080   114096936.74406  21711916.740    88906697.94548
  20707734.500   108819897.90607  20707734.980    84794735.24149
  21259572.560   111719824.50006  21259572.340    87054407.22948
 15 03 05 03 08 30.0000000  0  8G01G04G11G16G19G22G27G32
  22937535.880   120537566.03304  22937538.820    93925387.86745
  20920006.120   109935392.89206  20920005.440    85663946.21347
  21917674.240   115178159.14605  21917672.620    89749214.59346
  23554928.640   123781970.82504  23554927.400    96453478.66245
  20461666.180   107526795.70007  20461662.400    83787106.30549
  21724102.680   114160951.43606  21724098.340    88956579.52848
  20714932.860   108857725.45107  20714933.340    84824211.24849
  21244216.880   111639129.88906  21244216.640    86991528.34647
 15 03 05 03 09  0.0000000  0  9G01G04G11G14G16G19G22G27G32
  22924766.320   120470461.74104  22924769.280    93873098.85047
  20912462.140   109895748.87306  20912461.400    85633054.79448
  21904343.040   115108103.37705  21904341.480    89694625.70747
  23481961.680   123398544.09103  23481959.740    96154702.63647
  23575124.580   123888100.64104  23575123.220    96536177.20345
  20459517.840   107515505.85807  20459514.040    83778309.01549
  21736353.220   114225328.67906  21736348.980    89006743.61148
  20722213.780   108895986.72607  20722214.260    84854025.22249
  21228949.160   111558897.64406  21228948.900    86929009.74747
 15 03 05 03 09 30.0000000  0  9G01G04G11G14G16G19G22G27G32
  22912021.360   120403487.16604  22912024.360    93820910.90847
  20904963.480   109856343.46706  20904962.740    85602349.29748
  21891041.520   115038203.64105  21891040.000    89640158.39147
  23471423.000   123343161.60304  23471421.660    96111547.49044
  23595337.960   123994321.90504  23595336.500    96618946.99545
  20457439.440   107504583.53007  20457435.600    83769798.10249
  21748665.200   114290028.73906  21748661.080    89057159.23248
  20729570.040   108934644.02007  20729570.560    84884147.78149
  21213762.660   111479091.99806  21213762.360    86866823.55147
 15 03 05 03 10  0.0000000  0  9G01G04G11G14G16G19G22G27G32
  22899304.780   120336661.21804  22899307.760    93768838.75745
  20897513.900   109817196.02806  20897513.180    85571844.79548
  21877773.660   114968480.52705  21877772.080    89585828.71647
  23460946.480   123288106.41703  23460945.360    96068647.38045
  23615571.780   124100650.70604  23615570.260    96701800.56946
  20455434.780   107494048.88907  20455430.940    83761589.29149
  21761041.960   114355068.86506  21761037.840    89107839.84848
  20737005.320   108973716.49107  20737005.820    84914593.86049
  21198661.420   111399734.23106  21198661.080    86804986.35348
 15 03 05 03 10 30.0000000  0  9G01G04G11G14G16G19G22G27G32
  22886616.520   120269983.37304  22886619.420    93716882.01846
  20890113.340   109778305.92706  20890112.640    85541540.82747
  21864539.320   114898933.80805  21864537.740    89531636.47647
  23450532.560   123233380.61704  23450531.560    96026003.94445
  23635825.260   124207083.36204  23635823.860    96784735.08245
  20453503.940   107483902.38707  20453500.160    83753682.92449
  21773482.800   114420445.70806  21773478.620    89158782.84048
  20744519.520   109013203.53107  20744519.960    84945362.97349
  21183645.600   111320825.56706  21183645.240    86743499.10048
 15 03 05 03 11  0.0000000  0  9G01G04G11G14G16G19G22G27G32
  22873956.240   120203452.52504  22873958.920    93665039.81245
  20882761.460   109739671.78406  20882760.780    85511436.31048
  21851338.560   114829563.26005  21851336.960    89477581.52347
  23440181.440   123178985.44003  23440180.680    95983618.12544
  23656097.920   124313616.16804  23656096.240    96867747.61545
  20451647.040   107474144.13307  20451643.280    83746079.08249
  21785987.060   114486156.32906  21785982.900    89209985.92248
  20752112.380   109053104.14307  20752112.800    84976454.35349
  21168715.420   111242367.02806  21168715.120    86682362.60148
 15 03 05 03 11 30.0000000  0  9G01G04G11G14G16G19G22G27G32
  22861324.080   120137070.25204  22861326.760    93613313.40546
  20875458.680   109701295.64006  20875458.040    85481532.83148
  21838171.720   114760371.24805  21838170.180    89423665.68947
  23429894.300   123124925.82104  23429893.520    95941493.78744
  23676389.280   124420247.81104  23676387.820    96950837.20345
  20449864.520   107464777.22707  20449860.840    83738780.19249
  21798554.600   114552199.86006  21798550.540    89261448.40748
  20759784.200   109093419.98507  20759784.620    85007869.28449
  21153871.580   111164362.21106  21153871.300    86621579.65448
 15 03 05 03 12  0.0000000  0  9G01G04G11G14G16G19G22G27G32
  22848719.880   120070834.60304  22848722.440    93561701.23946
  20868204.660   109663175.17906  20868203.920    85451828.59048
  21825038.640   114691356.62005  21825037.100    89369888.07346
  23419670.920   123071201.49104  23419670.000    95899630.69445
  23696698.480   124526973.80104  23696697.240    97034000.31645
  20448156.280   107455800.56207  20448152.620    83731785.38049
  21811184.840   114618572.51106  21811180.820    89313167.34948
  20767534.580   109134148.98507  20767535.100    85039606.15649
  21139114.060   111086810.93406  21139113.740    86561150.10948
 15 03 05 03 12 30.0000000  0  9G01G04G11G14G16G19G22G27G32
  22836143.380   120004744.92204  22836145.960    93510202.79146
  20860999.120   109625309.85506  20860998.360    85422323.15548
  21811939.500   114622519.82005  21811937.840    89316249.03247
  23409511.960   123017815.11303  23409510.920    95858030.94144
  23717025.000   124633790.77304  23717023.940    97117234.28943
  20446522.380   107447214.54907  20446518.760    83725094.98249
  21823877.340   114685272.06706  21823873.340    89365141.02548
  20775363.500   109175290.63607  20775364.120    85071664.57649
  21124443.180   111009714.80006  21124442.740    86501075.22247
 15 03 05 03 13  0.0000000  0  9G01G04G11G14G16G19G22G27G32
  22823595.280   119938803.35004  22823597.640    93458819.75847
  20853842.460   109587701.65806  20853841.720    85393018.06748
  21798874.620   114553863.45505  21798872.980    89262750.60046
  23399418.020   122964771.16903  23399416.940    95816698.05245
  23737368.720   124740697.11304  23737367.320    97200537.88846
  20444963.440   107439022.34307  20444959.840    83718711.43849
  21836632.020   114752297.96906  21836628.000    89417369.00548
  20783271.380   109216846.98607  20783272.040    85104046.13949
  21109859.580   110933077.58506  21109859.160    86441357.92947
 15 03 05 03 13 30.0000000  0  9G01G04G11G14G16G19G22G27G32
  22811075.380   119873010.73904  22811077.700    93407552.80746
  20846734.900   109550351.40906  20846734.200    85363913.99348
  21785844.400   114485389.53805  21785842.800    89209394.33747
  23389389.860   122912073.16903  23389388.840    95775634.69445
  23757729.100   124847691.69004  23757727.560    97283910.30444
  20443479.900   107431226.24007  20443476.320    83712636.55149
  21849448.560   114819648.94406  21849444.460    89469850.27248
  20791258.420   109258818.91507  20791259.080    85136751.52649
  21095363.860   110856902.20206  21095363.480    86382000.49948
 15 03 05 03 14  0.0000000  0  9G01G04G11G14G16G19G22G27G32
  22798583.620   119807365.52204  22798585.800    93356400.72547
  20839676.200   109513257.82406  20839675.560    85335009.91548
  21772848.680   114417097.21505  21772847.080    89156179.57247
  23379427.620   122859722.11404  23379426.740    95734841.70145
  23778105.580   124954770.18904  23778104.080    97367348.05745
  20442071.640   107423825.81307  20442068.040    83706869.98449
  21862326.160   114887321.30706  21862322.060    89522581.98148
  20799324.260   109301204.76807  20799324.880    85169779.45549
  21080956.080   110781188.98006  21080955.740    86323003.20947
 15 03 05 03 14 30.0000000  0  9G01G04G11G14G16G19G22G27G32
  22786121.780   119741878.10304  22786123.860    93305371.58747
  20832668.340   109476431.13706  20832667.660    85306313.81048
  21759889.740   114348997.93605  21759888.200    89103115.21946
  23369533.900   122807731.05503  23369533.200    95694329.21746
  23798499.220   125061940.21903  23798497.840    97450857.17944
  20440740.800   107416832.47207  20440737.260    83701420.64049
  21875266.500   114955323.31606  21875262.360    89575570.55848
  20807470.760   109344014.89307  20807471.360    85203137.98849
  21066638.520   110705950.14606  21066638.240    86264375.56847
 15 03 05 03 15  0.0000000  0  9G01G04G11G14G16G19G22G27G32
  22773683.220   119676513.48904  22773685.380    93254438.15547
  20825704.560   109439836.25506  20825703.880    85277798.31848
  21746961.240   114281057.53405  21746959.540    89050174.66747
  23359702.540   122756067.38003  23359702.100    95654071.87145
  23818902.960   125169163.86804  23818901.840    97534408.04344
  20439481.000   107410212.21307  20439477.480    83696261.99249
  21888262.560   115023617.88306  21888258.360    89628787.11048
  20815691.280   109387214.30607  20815691.880    85236799.86649
  21052405.040   110631152.71506  21052404.700    86206091.88848
 15 03 05 03 15 30.0000000  0  9G01G04G11G14G16G19G22G27G32
  22761276.300   119611315.69804  22761278.800    93203634.70246
  20818793.300   109403517.45506  20818792.600    85249497.95948
  21734071.460   114213320.73405  21734069.620    88997392.77047
  23349942.340   122704777.83203  23349941.800    95614105.98346
  23839325.040   125276482.49604  23839323.680    97618032.93043
  20438300.920   107404010.25407  20438297.300    83691429.29349
  21901322.220   115092246.64406  21901317.980    89682264.06848
  20823994.260   109430846.95007  20823994.880    85270799.32149
  21038264.240   110556842.55606  21038263.880    86148187.88948
 15 03 05 03 16  0.0000000  0  9G01G04G11G14G16G19G22G27G32
  22748896.460   119546258.31504  22748898.960    93152940.66746
  20811929.480   109367447.96306  20811928.800    85221391.86648
  21721215.520   114145762.13505  21721213.580    88944749.72447
  23340248.780   122653838.39803  23340248.340    95574412.99945
  23859759.640   125383866.83903  23859758.240    97701708.99545
  20437195.560   107398201.22007  20437191.900    83686902.76549
  21914440.100   115161181.29806  21914435.840    89735979.37348
  20832374.640   109474886.19907  20832375.240    85305115.60749
  21024211.460   110482994.96906  21024211.140    86090644.33148
 15 03 05 03 16 30.0000000  0  9G01G04G11G14G16G19G22G27G32
  22736544.800   119481349.62704  22736547.200    93102362.48247
  20805114.740   109331636.23906  20805114.100    85193486.63348
  21708395.160   114078390.72505  21708393.240    88892252.54047
  23330623.940   122603259.99803  23330623.360    95535001.25745
  23880207.640   125491321.99104  23880206.380    97785440.31045
  20436166.760   107392794.47907  20436163.020    83682689.71649
  21927617.380   115230427.90906  21927613.080    89789937.76947
  20840834.020   109519340.34907  20840834.600    85339755.19649
  21010248.700   110409620.14406  21010248.360    86033469.16148
 15 03 05 03 17  0.0000000  0  8G01G04G11G16G19G22G27G32
  22724220.060   119416583.35904  22724222.460    93051895.29747
  20798347.940   109296075.98706  20798347.220    85165777.35248
  21695609.420   114011201.22605  21695607.400    88839897.10047
  23900667.440   125598839.53903  23900666.480    97869220.19543
  20435213.400   107387784.78307  20435209.680    83678786.05549
  21940852.360   115299977.99406  21940848.080    89844132.63447
  20849371.160   109564202.98107  20849371.700    85374713.08349
  20996375.120   110336713.56106  20996374.700    85976658.85548
 15 03 05 03 17 30.0000000  0  7G01G04G11G19G22G27G32
  22711924.240   119351967.60904  22711926.400    93001545.38047
  20791630.540   109260775.26006  20791629.720    85138270.30248
  21682860.040   113944202.75605  21682857.940    88787690.53547
  20434337.340   107383181.25107  20434333.640    83675198.88749
  21954146.200   115369837.65806  21954141.940    89898568.73648
  20857987.580   109609482.05607  20857988.040    85409995.46949
  20982592.460   110264285.14406  20982592.020    85920221.14048
 15 03 05 03 18  0.0000000  0  8G01G04G11G14G19G22G27G32
  22699658.860   119287512.56004  22699660.960    92951320.71346
  20784964.400   109225744.30306  20784963.520    85110973.46248
  21670149.140   113877406.18906  21670146.920    88735641.28746
  23302166.560   122453711.49904  23302165.400    95418473.59244
  20433540.700   107378995.12407  20433537.020    83671936.96649
  21967500.400   115440014.69406  21967496.160    89953252.15747
  20866685.080   109655187.57707  20866685.520    85445610.14249
  20968903.000   110192346.85606  20968902.640    85864165.35148
 15 03 05 03 18 30.0000000  0  9G01G04G11G14G16G19G22G27G32
  22687418.880   119223191.10704  22687420.900    92901200.10746
  20778344.380   109190956.06806  20778343.540    85083865.76548
  21657471.600   113810785.36906  21657469.500    88683728.97646
  23292819.960   122404595.02704  23292818.900    95380201.06345
  23962123.660   125921808.84713  23962122.140    98120883.96954
  20432818.600   107375200.63307  20432814.960    83668980.21649
  21980909.400   115510480.14006  21980905.280    90008160.29148
  20875458.540   109701292.34207  20875458.980    85481535.92349
  20955302.020   110120873.32606  20955301.640    85808471.71247
 15 03 05 03 19  0.0000000  0  8G01G04G11G14G19G22G27G32
  22675207.520   119159020.06904  22675209.440    92851196.73846
  20771773.680   109156426.95606  20771772.840    85056959.97648
  21644830.940   113744358.00606  21644828.780    88631967.41647
  23283544.580   122355853.80004  23283543.800    95342220.88044
  20432174.400   107371815.37407  20432170.760    83666342.35349
  21994376.060   115581248.48306  21994372.060    90063304.46048
  20884311.060   109747812.99007  20884311.560    85517785.77249
  20941793.160   110049883.17006  20941792.640    85753154.73648
 15 03 05 03 19 30.0000000  0  8G01G04G11G14G19G22G27G32
  22663023.860   119094994.89504  22663025.800    92801307.01247
  20765251.540   109122152.99706  20765250.640    85030253.00148
  21632226.340   113678120.53505  21632224.160    88580353.83447
  23274340.320   122307485.94404  23274339.660    95304531.66842
  20431607.420   107368835.89707  20431603.740    83664020.67349
  22007899.180   115652312.95606  22007895.200    90118679.35848
  20893241.860   109794744.80807  20893242.380    85554356.00849
  20928375.660   109979373.46106  20928375.060    85698212.12848
 15 03 05 03 20  0.0000000  0  8G01G04G11G14G19G22G27G32
  22650868.280   119031117.07204  22650870.320    92751532.10446
  20758778.120   109088135.21906  20758777.260    85003745.64848
  21619658.320   113612075.37605  21619656.180    88528890.08747
  23265207.900   122259494.94204  23265207.260    95267136.11744
  20431118.220   107366264.66607  20431114.400    83662017.11249
  22021478.520   115723673.06105  22021474.560    90174284.62647
  20902251.180   109842088.98307  20902251.660    85591247.55649
  20915050.180   109909347.45206  20915049.560    85643646.41948
 15 03 05 03 20 30.0000000  0  8G01G04G11G14G19G22G27G32
  22638740.540   118967385.23704  22638742.580    92701870.98046
  20752353.240   109054372.25206  20752352.400    84977436.85448
  21607126.720   113546221.98006  21607124.660    88477575.77247
  23256147.540   122211882.21904  23256146.840    95230035.31646
  20430706.540   107364101.28407  20430702.700    83660331.35649
  22035113.520   115795324.98105  22035109.500    90230117.29947
  20911338.660   109889844.03207  20911339.200    85628459.27049
  20901816.840   109839805.42406  20901816.120    85589457.84848
 15 03 05 03 21  0.0000000  0  8G01G04G11G14G19G22G27G32
  22626640.900   118903800.89204  22626642.900    92652324.75046
  20745977.180   109020865.90606  20745976.380    84951328.02448
  21594632.060   113480562.64805  21594630.140    88426412.68847
  23247159.900   122164651.77604  23247159.300    95193232.41045
  20430372.900   107362348.32007  20430369.140    83658965.40749
  22048803.960   115867268.24005  22048799.780    90286176.98447
  20920504.560   109938011.12707  20920505.160    85665992.06149
  20888676.140   109770750.59706  20888675.380    85535648.91948
 15 03 05 03 21 30.0000000  0  8G01G04G11G14G19G22G27G32
  22614569.360   118840364.41904  22614571.360    92602893.73046
  20739650.020   108987616.35106  20739649.180    84925419.28648
  21582174.660   113415098.85505  21582172.780    88375401.93947
  23238245.520   122117806.31604  23238244.840    95156729.51245
  20430117.700   107361007.34207  20430113.960    83657920.48849
  22062549.460   115939501.11205  22062545.180    90342462.33947
  20929748.920   109986590.55906  20929749.540    85703846.14849
  20875628.460   109702185.06206  20875627.760    85482221.25647
 15 03 05 03 22  0.0000000  0  8G01G04G11G14G19G22G27G32
  22602525.480   118777074.10904  22602527.480    92553576.62647
  20733371.380   108954621.85406  20733370.520    84899709.29748
  21569754.360   113349829.77005  21569752.480    88324542.94447
  23229404.660   122071346.28004  23229403.620    95120526.90146
  20429940.780   107360077.24807  20429937.000    83657195.73149
  22076349.320   116012019.78405  22076345.040    90398970.39548
  20939071.340   110035580.23307  20939071.960    85742019.90349
  20862673.920   109634108.51906  20862673.140    85429174.62448
 15 03 05 03 22 30.0000000  0  8G01G04G11G14G19G22G27G32
  22590510.140   118713933.71304  22590512.140    92504376.33347
  20727141.980   108921886.40706  20727141.180    84874201.16648
  21557371.960   113284760.15505  21557370.080    88273839.35847
  23220638.160   122025277.91904  23220637.060    95084629.50447
  20429843.020   107359562.80907  20429839.140    83656794.86349
  22090203.840   116084825.70505  22090199.540    90455702.27747
  20948472.520   110084983.68607  20948473.080    85780516.08449
  20849813.480   109566526.51306  20849812.640    85376513.34948
 15 03 05 03 23  0.0000000  0  8G01G04G11G14G19G22G27G32
  22578522.240   118650936.48404  22578524.180    92455287.61247
  20720960.520   108889402.81806  20720959.760    84848889.28748
  21545026.400   113219884.39105  21545024.600    88223286.84347
  23211945.360   121979596.87604  23211944.120    95049033.90446
  20429823.200   107359458.29707  20429819.280    83656713.42349
  22104111.340   116157909.76906  22104106.960    90512650.88647
  20957951.100   110134793.83407  20957951.620    85819329.17049
  20837046.160   109499433.78306  20837045.240    85324233.32548
 15 03 05 03 23 30.0000000  0  9G01G04G11G14G16G19G22G27G32
  22566560.500   118588077.09204  22566562.480    92406306.29746
  20714826.040   108857166.09406  20714825.340    84823769.77848
  21532716.820   113155197.63905  21532715.060    88172881.60147
  23203325.660   121934300.20704  23203324.340    95013737.81945
  24167577.000   127001475.42803  24167575.600    98962181.49146
  20429880.400   107359758.99007  20429876.560    83656947.72349
  22118070.320   116231264.83305  22118065.980    90569810.68247
  20967506.040   110185005.05907  20967506.520    85858454.78249
  20824371.180   109432826.52406  20824370.260    85272331.58948
 15 03 05 03 24  0.0000000  0  9G01G04G11G14G16G19G22G27G32
  22554629.080   118525376.97804  22554631.120    92357449.10647
  20708742.620   108825197.42206  20708741.860    84798859.13948
  21520447.600   113090722.44205  21520445.820    88122641.17847
  23194783.640   121889411.96504  23194782.320    94978760.00244
  24188160.280   127109638.30203  24188157.800    99046466.95145
  20430019.020   107360487.73507  20430015.260    83657515.57049
  22132084.500   116304910.12705  22132080.240    90627196.62147
  20977141.320   110235638.50607  20977141.780    85897909.40549
  20811792.900   109366727.80506  20811792.100    85220826.11848
 15 03 05 03 24 30.0000000  0  9G01G04G11G14G16G19G22G27G32
  22542727.360   118462833.58504  22542729.440    92308714.04346
  20702709.760   108793494.42406  20702708.980    84774155.51848
  21508218.300   113026457.20006  21508216.600    88072564.37647
  23186319.240   121844931.66804  23186317.880    94944100.04144
  24208752.240   127217851.48713  24208750.180    99130784.91355
  20430238.760   107361643.06207  20430235.120    83658415.82149
  22146152.900   116378840.50405  22146148.740    90684804.69747
  20986856.360   110286691.17506  20986856.820    85937690.68749
  20799311.280   109301136.61506  20799310.540    85169716.12048
 15 03 05 03 25  0.0000000  0  8G01G04G11G14G19G22G27G32
  22530851.760   118400427.24304  22530853.880    92260085.77247
  20696723.720   108762037.46606  20696722.920    84749643.62048
  21496025.420   112962383.15406  21496023.780    88022636.56247
  23177929.200   121800841.78704  23177927.780    94909744.35146
  20430536.060   107363205.78107  20430532.460    83659633.51649
  22160271.460   116453034.43905  22160267.420    90742618.16247
  20996647.320   110338143.27206  20996647.840    85977783.22049
  20786922.820   109236034.83706  20786922.100    85118987.47448
 15 03 05 03 25 30.0000000  0  8G01G04G11G14G19G22G27G32
  22519003.880   118338166.58404  22519005.980    92211571.00446
  20690786.120   108730835.12306  20690785.320    84725330.11248
  21483870.780   112898510.08006  21483869.060    87972865.34147
  23169615.520   121757153.41904  23169614.140    94875701.47146
  20430912.760   107365185.47607  20430909.200    83661176.12049
  22174441.420   116527498.46005  22174437.440    90800642.06647
  21006515.840   110390002.92106  21006516.420    86018193.32649
  20774629.340   109171432.52106  20774628.660    85068648.02748
 15 03 05 03 26  0.0000000  0  8G01G04G11G14G19G22G27G32
  22507184.220   118276053.46004  22507186.220    92163171.19147
  20684897.360   108699889.16806  20684896.500    84701216.39048
  21471754.940   112834840.45306  21471753.080    87923252.65447
  23161379.080   121713870.72604  23161377.700    94841974.73945
  20431369.460   107367585.06507  20431365.860    83663045.92349
  22188662.700   116602232.14005  22188658.680    90858876.09647
  21016462.260   110442271.66306  21016462.880    86058922.20449
  20762431.520   109107333.03006  20762430.920    85018700.39148
 15 03 05 03 26 30.0000000  0  8G01G04G11G14G19G22G27G32
  22495392.860   118214089.97804  22495394.920    92114887.98147
  20679057.740   108669201.68706  20679056.860    84677304.08248
  21459678.400   112771377.43706  21459676.460    87873800.97147
  23153220.620   121670998.10504  23153219.580    94808567.51046
  20431906.640   107370407.53907  20431903.000    83665245.24749
  22202935.360   116677235.63805  22202931.280    90917320.38647
  21026486.860   110494951.20006  21026487.480    86099971.18549
  20750330.080   109043739.97006  20750329.560    84969147.39848
 15 03 05 03 27  0.0000000  0  8G01G04G11G14G19G22G27G32
  22483628.760   118152269.75404  22483630.860    92066716.39946
  20673266.100   108638766.37606  20673265.200    84653588.26448
  21447640.080   112708115.65906  21447638.140    87824506.10447
  23145139.480   121628531.43804  23145138.480    94775476.63345
  20432523.060   107373647.10306  20432519.480    83667769.57649
  22217257.700   116752500.06405  22217253.540    90975967.97847
  21036588.320   110548034.74406  21036588.900    86141334.96748
  20738324.080   108980648.30506  20738323.580    84919985.08748
 15 03 05 03 27 30.0000000  0  8G01G04G11G14G19G22G27G32
  22471892.940   118090597.83204  22471895.020    92018660.36848
  20667523.360   108608588.21606  20667522.420    84630072.82648
  21435641.160   112645061.10406  21435639.220    87775372.70046
  23137137.000   121586477.73104  23137135.940    94742707.52346
  20433219.900   107377309.57107  20433216.420    83670623.43549
  22231630.360   116828028.30305  22231626.120    91034821.14347
  21046767.560   110601526.80306  21046768.040    86183017.08149
  20726414.740   108918064.45106  20726414.240    84871218.47348
 15 03 05 03 28  0.0000000  0  8G01G04G11G14G19G22G27G32
  22460185.200   118029073.15904  22460187.240    91970719.11547
  20661829.360   108578666.12006  20661828.480    84606756.92248
  21423681.600   112582213.62506  21423679.640    87726400.67247
  23129213.340   121544838.55104  23129212.160    94710261.44345
  20433997.300   107381395.04107  20433993.860    83673806.91049
  22246052.640   116903817.38305  22246048.400    91093877.57447
  21057024.300   110655426.10706  21057024.720    86225016.52749
  20714602.140   108855988.97406  20714601.640    84822848.00948
 15 03 05 03 28 30.0000000  0  8G01G04G11G14G19G22G27G32
  22448505.720   117967697.26204  22448507.840    91922893.76547
  20656184.400   108549001.65706  20656183.540    84583641.76448
  21411761.960   112519575.67806  21411759.980    87677591.89047
  23121369.120   121503617.36704  23121367.980    94678141.08545
  20434855.760   107385905.88707  20434852.240    83677321.85349
  22260524.380   116979866.47805  22260520.100    91153136.59847
  21067358.600   110709733.49906  21067359.120    86267333.97349
  20702886.840   108794424.48906  20702886.260    84774875.71148
 15 03 05 03 29  0.0000000  0  8G01G04G11G14G19G22G27G32
  22436854.080   117906467.04904  22436856.220    91875181.93847
  20650587.840   108519591.69606  20650586.960    84560724.93048
  21399881.820   112457145.47606  21399879.980    87628944.99547
  23113604.220   121462813.40104  23113603.280    94646345.81846
  20435794.700   107390839.75807  20435791.160    83681166.42449
  22275044.500   117056170.23405  22275040.240    91212594.07347
  21077769.980   110764445.54406  21077770.520    86309966.72349
  20691268.400   108733369.35306  20691267.820    84727300.31248
 15 03 05 03 29 30.0000000  0  8G01G04G11G14G19G22G27G32
  22425230.460   117845384.86104  22425232.660    91827585.45447
  20645040.160   108490438.45406  20645039.240    84538008.13048
  21388041.860   112394926.03206  21388040.060    87580462.31247
  23105919.680   121422431.04404  23105918.720    94614879.06345
  20436814.680   107396199.80507  20436811.160    83685343.08849
  22289613.100   117132729.06105  22289608.920    91272250.29247
  21088258.660   110819564.10306  21088259.260    86352916.23749
  20679747.560   108672827.30606  20679747.040    84680124.72548
 15 03 05 03 30  0.0000000  0  8G01G04G11G14G19G22G27G32
  22413634.640   117784448.62004  22413636.900    91780102.69847
  20639540.980   108461540.12406  20639540.040    84515489.97148
  21376241.860   112332916.26906  21376240.080    87532143.03147
  23098315.380   121382470.48304  23098314.500    94583740.96145
  20437915.500   107401984.70607  20437912.000    83689850.80349
  22304229.420   117209538.73005  22304225.320    91332101.98647
  21098824.240   110875086.58406  21098824.840    86396180.48649
  20668324.240   108612797.48906  20668323.700    84633348.26948
 15 03 05 03 30 30.0000000  0  8G01G04G11G14G19G22G27G32
  22402066.960   117723660.48004  22402069.260    91732735.34047
  20634090.680   108432898.75906  20634089.720    84493172.03748
  21364482.300   112271119.40106  21364480.520    87483989.64747
  23090792.220   121342935.96004  23090791.360    94552934.89044
  20439097.780   107408197.42407  20439094.200    83694691.87649
  22318893.500   117286598.98005  22318889.380    91392148.92447
  21109467.060   110931014.66106  21109467.580    86439760.79549
  20656999.100   108553283.38706  20656998.520    84586973.68148
 15 03 05 03 31  0.0000000  0  8G01G04G11G14G19G22G27G32
  22390528.700   117663026.05505  22390530.820    91685487.75747
  20628690.340   108404519.85906  20628689.360    84471058.61548
  21352764.420   112209541.98806  21352762.720    87436007.25447
  23083351.620   121303835.20904  23083350.560    94522466.79345
  20440362.660   107414844.12207  20440359.040    83699871.11749
  22333605.980   117363913.44305  22333601.820    91452393.94947
  21120187.960   110987353.34106  21120188.480    86483661.05148
  20645773.300   108494291.82506  20645772.760    84541006.25848
 15 03 05 03 31 30.0000000  0  8G01G04G11G14G19G22G27G32
  22379015.140   117602521.87005  22379017.020    91638341.66346
  20623335.480   108376379.88806  20623334.480    84449131.38548
  21341084.040   112148161.59006  21341082.420    87388178.37247
  23075989.520   121265146.84704  23075988.460    94492320.03445
  20441705.860   107421902.38107  20441702.200    83705371.05049
  22348361.860   117441456.18605  22348357.720    91512816.85847
  21130982.360   111044078.68206  21130982.960    86527862.60949
  20634642.760   108435800.59506  20634642.260    84495428.69748
 15 03 05 03 32  0.0000000  0  8G01G04G11G14G19G22G27G32
  22367531.520   117542174.85305  22367533.240    91591318.03047
  20618031.220   108348505.86906  20618030.200    84427411.38448
  21329446.560   112087006.07806  21329444.880    87340524.73447
  23068711.300   121226899.66704  23068710.120    94462517.04445
  20443132.640   107429399.77707  20443128.920    83711213.16949
  22363165.940   117519252.15705  22363161.880    91573437.08747
  21141855.340   111101217.07706  21141856.060    86572386.02449
  20623612.780   108377837.97106  20623612.340    84450263.04348
 15 03 05 03 32 30.0000000  0  8G01G04G11G14G19G22G27G32
  22356075.540   117481973.13304  22356077.240    91544407.62147
  20612775.260   108320885.81806  20612774.260    84405889.27648
  21317849.780   112026064.57206  21317848.060    87293037.85747
  23061515.240   121189084.17604  23061514.060    94433050.45945
  20444640.800   107437325.20307  20444637.060    83717388.82049
  22378015.540   117597287.40505  22378011.520    91634243.77847
  21152804.680   111158755.95006  21152805.440    86617221.48949
  20612681.360   108320393.08706  20612680.980    84405500.82448
 15 03 05 03 33  0.0000000  0  8G01G04G11G14G19G22G27G32
  22344647.600   117421918.39505  22344649.260    91497611.72447
  20607567.880   108293521.47406  20607567.000    84384566.42148
  21306294.320   111965339.56006  21306292.460    87245719.67447
  23054401.980   121151704.18204  23054400.960    94403923.19746
  20446230.780   107445680.83807  20446227.060    83723899.70049
  22392910.660   117675561.43505  22392906.600    91695236.52247
  21163830.460   111216696.49706  21163831.240    86662369.96348
  20601849.040   108263468.88506  20601848.640    84361144.34448
 15 03 05 03 33 30.0000000  0  8G01G04G11G14G19G22G27G32
  22333247.940   117362012.78005  22333249.640    91450932.06748
  20602409.660   108266415.06506  20602408.820    84363444.56348
  21294780.580   111904834.37406  21294778.620    87198572.79347
  23047372.360   121114763.66004  23047371.460    94375138.38746
  20447903.160   107454469.88007  20447899.580    83730748.29649
  22407851.220   117754074.24705  22407847.100    91756415.33347
  21174932.920   111275040.26106  21174933.720    86707832.62349
  20591116.420   108207068.66506  20591115.980    84317196.14748
 15 03 05 03 34  0.0000000  0  8G01G04G11G14G19G22G27G32
  22321876.340   117302254.94005  22321878.160    91404367.52847
  20597300.260   108239565.04806  20597299.400    84342522.48648
  21283308.620   111844548.63906  21283306.520    87151596.90547
  23040426.480   121078263.42904  23040425.660    94346696.69045
  20449657.920   107463691.38707  20449654.400    83737933.87649
  22422836.500   117832822.00505  22422832.280    91817777.21247
  21186111.740   111333785.25406  21186112.480    86753607.93449
  20580483.480   108151192.21206  20580482.980    84273656.08548
 15 03 05 03 34 30.0000000  0  8G01G04G11G14G19G22G27G32
  22310532.860   117242644.92005  22310534.740    91357918.19746
  20592239.740   108212971.63806  20592238.800    84321800.35748
  21271878.580   111784483.32606  21271876.360    87104792.77347
  23033564.760   121042205.25704  23033563.960    94318599.44845
  20451495.260   107473346.30607  20451491.700    83745457.18749
  22437866.100   117911802.69205  22437861.780    91879320.59847
  21197366.780   111392930.86506  21197367.440    86799695.40948
  20569950.440   108095840.63706  20569949.880    84230525.02048
 15 03 05 03 35  0.0000000  0  8G01G04G11G14G19G22G27G32
  22299217.160   117183180.30305  22299218.960    91311582.14647
  20587227.580   108186632.39206  20587226.580    84301276.28348
  21260490.200   111724636.91206  21260487.920    87058159.20247
  23026787.220   121006588.88604  23026786.440    94290846.44045
  20453414.720   107483432.61407  20453411.080    83753316.63549
  22452939.080   117991011.77005  22452934.760    91941041.96847
  21208697.480   111452474.02706  21208698.080    86846092.66448
  20559517.080   108041012.63906  20559516.420    84187801.93048
 15 03 05 03 35 30.0000000  0  8G01G04G11G14G19G22G27G32
  22287929.500   117123863.27305  22287931.260    91265361.10247
  20582264.120   108160549.23906  20582263.120    84280951.75648
  21249144.160   111665012.81206  21249141.860    87011698.87447
  23020094.460   120971418.41304  23020093.660    94263440.88645
  20455416.820   107493953.20807  20455413.080    83761514.49549
  22468055.460   118070449.40105  22468051.300    92002941.39647
  21220104.160   111512416.28806  21220104.740    86892800.91549
  20549183.980   107986711.44106  20549183.240    84145489.33848
 15 03 05 03 36  0.0000000  0  8G01G04G11G14G19G22G27G32
  22276670.120   117064695.27805  22276671.980    91219256.19447
  20577349.740   108134724.02606  20577348.740    84260828.21848
  21237840.760   111605613.28006  21237838.520    86965413.53747
  23013487.120   120936697.01504  23013486.340    94236385.27145
  20457501.820   107504910.07207  20457498.100    83770052.31149
  22483215.180   118150114.63305  22483211.140    92065018.19847
  21231586.900   111572758.38306  21231587.480    86939820.72448
  20538951.540   107932939.56406  20538950.740    84103589.19548
 15 03 05 03 36 30.0000000  0  8G01G04G11G14G19G22G27G32
  22265438.300   117005672.51704  22265440.280    91173264.45247
  20572483.700   108109152.53806  20572482.640    84240902.38948
  21226579.700   111546435.68706  21226577.400    86919301.14247
  23006965.000   120902423.07204  23006964.260    94209678.34245
  20459669.140   107516300.06207  20459665.540    83778927.62849
  22498417.160   118230001.62105  22498413.160    92127267.80847
  21243144.880   111633495.79706  21243145.480    86987148.57248
  20528819.340   107879694.23806  20528818.460    84062099.36248
 15 03 05 03 37  0.0000000  0  8G01G04G11G14G19G22G27G32
  22254234.020   116946794.15605  22254236.100    91127385.23347
  20567665.780   108083834.18406  20567664.700    84221173.81848
  21215360.800   111487480.02006  21215358.500    86873361.68747
  23000528.460   120868597.77204  23000527.600    94183320.99446
  20461918.880   107528123.26407  20461915.440    83788140.51549
  22513660.920   118310107.56405  22513656.840    92189688.02247
  21254777.800   111694627.06506  21254778.360    87034783.31848
  20518787.340   107826975.59906  20518786.420    84021019.92148
 15 03 05 03 37 30.0000000  0  8G01G04G11G14G19G22G27G32
  22243058.180   116888064.39005  22243060.260    91081621.79247
  20562896.780   108058773.01407  20562895.760    84201645.64048
  21204185.140   111428751.74306  21204182.900    86827599.39747
  22994178.280   120835226.97004  22994177.380    94157317.80245
  20464252.000   107540384.10207  20464248.580    83797694.41349
  22528946.520   118390434.04405  22528942.480    92252280.07946
  21266486.260   111756155.55606  21266486.820    87082727.59348
  20508856.460   107774788.77506  20508855.580    83980354.89348
 15 03 05 03 38  0.0000000  0  8G01G04G11G14G19G22G27G32
  22231910.960   116829484.78005  22231912.920    91035975.36647
  20558177.020   108033970.53706  20558176.020    84182319.04748
  21193053.120   111370253.27106  21193051.080    86782016.18747
  22987915.160   120802314.14904  22987914.220    94131671.47346
  20466668.920   107553084.75307  20466665.420    83807591.02249
  22544273.980   118470980.70305  22544269.940    92315043.70747
  21278270.540   111818082.17806  21278271.080    87130982.09848
  20499027.280   107723136.39506  20499026.420    83940106.30948
 15 03 05 03 38 30.0000000  0  8G01G04G11G14G19G22G27G32
  22220792.300   116771055.54905  22220794.200    90990446.10547
  20553506.560   108009427.03307  20553505.540    84163194.25148
  21181965.120   111311985.70606  21181963.220    86736612.90248
  22981739.340   120769861.16004  22981738.540    94106383.46046
  20469169.720   107566226.17607  20469166.160    83817831.08749
  22559642.940   118551745.63205  22559639.020    92377977.41247
  21290130.440   111880406.34506  21290131.000    87179546.37948
  20489300.040   107672019.50606  20489299.180    83900274.99148
 15 03 05 03 39  0.0000000  0  8G01G04G11G14G19G22G27G32
  22209700.900   116712769.87205  22209702.740    90945028.72247
  20548884.040   107985135.62706  20548883.040    84144265.89448
  21170919.980   111253943.36406  21170918.180    86691385.11547
  22975650.240   120737863.24404  22975649.460    94081450.04847
  20471753.200   107579802.01307  20471749.600    83828409.66649
  22575051.820   118632719.98005  22575047.920    92441074.28847
  21302064.500   111943120.39006  21302065.040    87228414.46448
  20479673.560   107621432.14406  20479672.680    83860856.29448
 15 03 05 03 39 30.0000000  0  8G01G04G11G14G19G22G27G32
  22198637.320   116654630.77205  22198639.200    90899725.53947
  20544310.100   107961099.36007  20544309.080    84125536.34048
  21159918.480   111196130.29306  21159916.740    86646335.97947
  22969648.880   120706325.21704  22969648.020    94056874.98046
  20474419.880   107593815.68207  20474416.320    83839329.41449
  22590500.680   118713904.19505  22590496.700    92504334.71547
  21314073.160   112006226.68106  21314073.760    87277588.19048
  20470148.560   107571378.34606  20470147.720    83821853.35748
 15 03 05 03 40  0.0000000  0  8G01G04G11G14G19G22G27G32
  22187602.240   116596642.11205  22187604.340    90854539.59148
  20539785.440   107937322.24206  20539784.440    84107008.72648
  21148961.540   111138551.22506  21148959.780    86601469.19547
  22963736.040   120675252.75404  22963735.100    94032662.68645
  20477170.760   107608271.58607  20477167.160    83850593.75849
  22605989.780   118795300.08805  22605985.760    92567760.08947
  21326157.060   112069728.11806  21326157.740    87327069.83048
  20460726.040   107521862.70906  20460725.140    83783269.76448
 15 03 05 03 40 30.0000000  0  8G01G04G11G14G19G22G27G32
  22176595.260   116538800.70405  22176597.420    90809468.36848
  20535309.400   107913800.66706  20535308.440    84088680.23448
  21138048.840   111081204.25706  21138046.980    86556783.26748
  22957911.500   120644644.28004  22957910.480    94008811.94146
  20480005.320   107623167.16007  20480001.640    83862200.70349
  22621518.140   118876902.45205  22621514.060    92631346.35646
  21338315.360   112133620.81206  21338316.220    87376856.33748
  20451405.480   107472882.85706  20451404.540    83745103.66648
 15 03 05 03 41  0.0000000  0  8G01G04G11G14G19G22G27G32
  22165616.040   116481104.66905  22165618.080    90764510.44648
  20530881.740   107890533.09606  20530880.760    84070549.65948
  21127180.060   111024088.31506  21127178.140    86512277.34847
  22952175.240   120614499.77004  22952174.260    93985322.76646
  20482923.280   107638501.02207  20482919.560    83874149.16849
  22637085.020   118958707.06105  22637080.940    92695090.22447
  21350547.740   112197901.99606  21350548.580    87426945.56748
  20442186.700   107424437.80906  20442185.720    83707354.31348
 15 03 05 03 41 30.0000000  0  8G01G04G11G14G19G22G27G32
  22154664.780   116423555.02005  22154666.700    90719666.57148
  20526502.540   107867520.39206  20526501.600    84052617.69448
  21116355.640   110967205.42506  21116353.660    86467953.03547
  22946527.740   120584821.68904  22946526.740    93962196.99947
  20485924.920   107654274.66807  20485921.200    83886440.31649
  22652690.280   119040712.96405  22652686.160    92758990.90747
  21362854.100   112262571.80706  21362854.820    87477337.61848
  20433070.060   107376529.33506  20433068.980    83670023.04548
 15 03 05 03 42  0.0000000  0  8G01G04G11G14G19G22G27G32
  22143742.300   116366156.37005  22143744.160    90674940.36247
  20522172.700   107844767.10006  20522171.780    84034887.86548
  21105576.640   110910561.46106  21105574.640    86423814.89747
  22940970.080   120555616.43604  22940969.100    93939439.71046
  20489011.180   107670493.21307  20489007.480    83899078.14749
  22668334.340   119122922.58705  22668330.200    92823050.34547
  21375235.080   112327633.98606  21375235.700    87528035.41648
  20424056.500   107329162.81506  20424055.380    83633114.09348
 15 03 05 03 42 30.0000000  0  9G01G03G04G11G14G19G22G27G32
  22132846.200   116308897.06205  22132848.180    90630322.74047
  23534805.740   123676232.54804  23534806.260    96371099.66046
  20517890.060   107822261.63306  20517889.120    84017351.14148
  21094840.920   110854145.23906  21094838.880    86379854.22347
  22935500.460   120526873.99004  22935499.420    93917043.00145
  20492179.860   107687145.15406  20492176.240    83912053.68649
  22684014.420   119205322.06304  22684010.400    92887257.71346
  21387688.320   112393076.05706  21387688.860    87579029.22948
  20415143.940   107282327.31206  20415142.840    83596618.91648
 15 03 05 03 43  0.0000000  0  9G01G03G04G11G14G19G22G27G32
  22121979.480   116251792.07605  22121981.500    90585825.35247
  23515978.320   123577295.94003  23515979.500    96294006.24346
  20513657.400   107800018.77006  20513656.420    84000019.05348
  21084151.700   110797973.09006  21084149.580    86336083.73448
  22930122.080   120498611.24804  22930121.080    93895020.12846
  20495434.000   107704245.93007  20495430.380    83925378.97049
  22699733.140   119287924.14204  22699729.060    92951622.97346
  21400216.440   112458911.99806  21400217.020    87630329.95848
  20406335.480   107236038.49706  20406334.360    83560549.73848
 15 03 05 03 43 30.0000000  0  9G01G03G04G11G14G19G22G27G32
  22111141.500   116194838.16205  22111143.460    90541445.68547
  23497191.020   123478569.49704  23497192.680    96217076.64946
  20509474.140   107778035.54606  20509473.120    83982889.27848
  21073508.540   110742043.24106  21073506.360    86292502.06248
  22924834.860   120470826.43604  22924833.860    93873369.62146
  20498773.100   107721792.63007  20498769.380    83939051.72349
  22715489.380   119370723.67905  22715485.160    93016142.07747
  21412818.700   112525137.70506  21412819.400    87681934.39748
  20397630.560   107190293.83406  20397629.440    83524904.57148
 15 03 05 03 44  0.0000000  0  9G01G03G04G11G14G19G22G27G32
  22100331.360   116138031.01805  22100333.320    90497180.38647
  23478443.480   123380050.39704  23478445.160    96140308.54746
  20505339.400   107756307.36406  20505338.400    83965958.22748
  21062910.720   110686351.54706  21062908.540    86249105.95947
  22919638.040   120443516.85204  22919637.040    93852089.47745
  20502196.240   107739781.31007  20502192.500    83953068.87549
  22731282.000   119453713.84305  22731277.580    93080809.73747
  21425494.220   112591747.87506  21425494.920    87733838.41548
  20389028.460   107145089.65906  20389027.380    83489680.55748
 15 03 05 03 44 30.0000000  0  9G01G03G04G11G14G19G22G27G32
  22089549.280   116081371.65105  22089551.400    90453030.23347
  23459735.860   123281741.40804  23459737.680    96063704.22446
  20501253.420   107734835.43606  20501252.440    83949226.86548
  21052358.660   110630900.52006  21052356.580    86205897.36948
  22914532.000   120416685.11904  22914531.140    93831181.67446
  20505703.880   107758213.88607  20505700.100    83967431.92749
  22747110.720   119536893.78105  22747106.180    93145625.31847
  21438243.000   112658742.69406  21438243.620    87786042.16648
  20380529.480   107100427.54606  20380528.460    83454878.93148
 15 03 05 03 45  0.0000000  0  9G01G03G04G11G14G19G22G27G32
  22078795.420   116024859.73805  22078797.620    90408994.97647
  23441068.420   123183643.63803  23441070.360    95987264.46547
  20497216.080   107713619.13206  20497215.100    83932694.68848
  21041852.580   110575690.86306  21041850.580    86162876.86947
  22909517.160   120390332.41704  22909516.300    93810647.08245
  20509295.860   107777090.10207  20509292.180    83982140.66849
  22762975.080   119620260.93004  22762970.400    93210586.71546
  21451064.620   112726120.74306  21451065.260    87838544.53248
  20372133.740   107056308.02906  20372132.780    83420500.11348
 15 03 05 03 45 30.0000000  0  9G01G03G04G11G14G19G22G27G32
  22068069.900   115968496.18505  22068072.040    90365075.30847
  23422441.720   123085759.52704  23422443.500    95910991.20146
  20493227.520   107692659.50206  20493226.600    83916362.50448
  21031392.800   110520724.49006  21031390.840    86120045.94847
  22904593.980   120364461.46704  22904593.160    93790487.93646
  20512972.400   107796410.90507  20512968.860    83997195.84149
  22778874.600   119703814.20704  22778870.160    93275693.14847
  21463959.140   112793881.99506  21463959.820    87891345.49748
  20363841.500   107012732.36306  20363840.600    83386545.06948
 15 03 05 03 46  0.0000000  0  9G01G03G04G11G14G19G22G27G32
  22057372.860   115912282.24605  22057374.840    90321272.24648
  23403856.020   122988091.75804  23403857.920    95834886.51246
  20489288.100   107671957.79906  20489287.160    83900231.31448
  21020979.760   110466003.57706  21020977.800    86077406.28548
  22899762.880   120339074.64304  22899762.100    93770706.04045
  20516733.960   107816178.16707  20516730.480    84012598.89549
  22794809.280   119787552.46504  22794805.140    93340943.70547
  21476926.600   112862026.72006  21476927.360    87944445.27248
  20355653.100   106969702.38206  20355652.280    83353015.23248
 15 03 05 03 46 30.0000000  0  9G01G03G04G11G14G19G22G27G32
  22046703.760   115856215.51805  22046705.620    90277583.89947
  23385311.460   122890639.54704  23385313.300    95758949.76546
  20485397.280   107651511.52806  20485396.320    83884299.15748
  21010613.180   110411526.82906  21010611.180    86034956.89647
  22895023.900   120314171.18004  22895023.140    93751300.74245
  20520580.100   107836389.70407  20520576.660    84028348.14249
  22810778.420   119871471.06905  22810774.440    93406334.80947
  21489966.420   112930551.42606  21489967.180    87997841.13748
  20347568.240   106927216.22506  20347567.420    83319909.15048
 15 03 05 03 47  0.0000000  0  9G01G03G04G11G14G19G22G27G32
  22036062.620   115800295.86305  22036064.480    90234010.17148
  23366808.400   122793404.14904  23366809.920    95683181.97846
  20481555.020   107631320.37106  20481554.060    83868565.79148
  21000293.180   110357294.82306  21000291.140    85992698.19448
  22890377.200   120289752.33304  22890376.360    93732273.10046
  20524510.800   107857045.63506  20524507.360    84044443.66749
  22826781.500   119955567.79305  22826777.580    93471864.72447
  21503078.380   112999454.92806  21503079.040    88051532.16648
  20339586.980   106885274.33606  20339586.140    83287227.18148
 15 03 05 03 47 30.0000000  0  9G01G03G04G11G14G19G22G27G32
  22025450.040   115744526.25005  22025451.880    90190553.37148
  23348347.220   122696390.10404  23348348.520    95607586.69046
  20477761.960   107611387.61106  20477760.940    83853033.77948
  20990020.620   110303311.91706  20990018.520    85950633.59648
  22885823.600   120265822.82204  22885822.580    93713626.75947
  20528526.640   107878149.20007  20528523.200    84060888.00149
  22842818.700   120039843.53505  22842814.720    93537534.14047
  21516262.780   113068739.22306  21516263.360    88105519.92648
  20331709.860   106843879.99106  20331709.020    83254971.86048
 15 03 05 03 48  0.0000000  0  9G01G03G04G11G14G19G22G27G32
  22014866.160   115688907.99305  22014868.040    90147214.50148
  23329928.480   122599600.25204  23329929.980    95532166.07946
  20474018.280   107591714.30607  20474017.200    83837703.93948
  20979795.860   110249580.08106  20979793.700    85908764.64548
  22881363.500   120242385.09904  22881362.540    93695363.62247
  20532628.000   107899701.96407  20532624.500    84077682.35849
  22858889.820   120124297.51804  22858885.700    93603342.42847
  21529519.660   113138404.63206  21529520.280    88159804.66248
  20323937.340   106803035.20906  20323936.480    83223144.77348
 15 03 05 03 48 30.0000000  0  9G01G03G04G11G14G19G22G27G32
  22004310.320   115633437.48105  22004312.320    90103990.74647
  23311552.040   122503032.38004  23311553.560    95456918.41746
  20470323.300   107572296.86106  20470322.160    83822573.46848
  20969618.500   110196097.17006  20969616.240    85867089.65848
  22876996.660   120219436.80604  22876995.660    93677481.87246
  20536814.280   107921700.82407  20536810.740    84094824.32649
  22874993.640   120208924.15204  22874989.420    93669285.26346
  21542848.060   113208446.33606  21542848.780    88214382.59948
  20316268.700   106762736.59406  20316267.880    83191743.27648
 15 03 05 03 49  0.0000000  0  9G01G03G04G11G14G19G22G27G32
  21993782.820   115578115.50505  21993784.860    90060882.73548
  23293218.400   122406688.80304  23293219.880    95381845.52347
  20466677.100   107553136.00307  20466675.940    83807642.94048
  20959488.700   110142864.53006  20959486.400    85825609.68748
  22872723.280   120196980.58904  22872722.300    93659983.54846
  20541085.540   107944146.38906  20541082.020    84112314.37049
  22891129.960   120293721.80804  22891125.900    93735361.35146
  21556248.020   113278864.03706  21556248.820    88269253.53548
  20308704.340   106722985.56106  20308703.500    83160768.47248
 15 03 05 03 49 30.0000000  0  9G01G03G04G11G14G19G22G27G32
  21983283.440   115522941.09805  21983285.540    90017889.71647
  23274927.480   122310569.93204  23274929.120    95306947.75746
  20463079.540   107534230.80506  20463078.400    83792911.62348
  20949406.660   110089882.71106  20949404.340    85784325.16748
  22868543.500   120175016.36404  22868542.580    93642868.59646
  20545441.720   107967038.18806  20545438.220    84130152.13649
  22907298.480   120378687.63704  22907294.460    93801568.46147
  21569719.240   113349655.71506  21569720.000    88324415.87548
  20301244.000   106683781.42606  20301243.180    83130219.81548
 15 03 05 03 50  0.0000000  0  9G01G03G04G11G14G19G22G27G32
  21972812.280   115467914.95905  21972814.420    89975012.23448
  23256679.900   122214677.97104  23256681.500    95232226.79947
  20459530.820   107515581.88507  20459529.620    83778379.99748
  20939372.620   110037153.43806  20939370.300    85743237.43648
  22864457.900   120153546.31504  22864456.860    93626138.69246
  20549882.940   107990377.01506  20549879.460    84148338.22849
  22923498.660   120463819.83405  22923494.660    93867905.24546
  21583261.620   113420820.92206  21583262.280    88379869.28148
  20293887.980   106645125.25606  20293887.120    83100098.14548
 15 03 05 03 50 30.0000000  0  9G01G03G04G11G14G19G22G27G32
  21962369.920   115413040.05605  21962372.100    89932252.60348
  23238476.220   122119017.25504  23238477.900    95157686.05547
  20456031.420   107497192.14107  20456030.200    83764050.33948
  20929387.200   109984680.14606  20929385.000    85702349.17948
  22860467.120   120132574.89504  22860466.140    93609797.38146
  20554409.780   108014165.92206  20554406.340    84166875.04149
  22939730.680   120549119.22005  22939726.680    93934372.29947
  21596875.360   113492361.44006  21596876.020    88435615.13348
  20286636.900   106607020.30506  20286635.940    83070405.98648
 15 03 05 03 51  0.0000000  0  9G01G03G04G11G14G19G22G27G32
  21951956.000   115358314.76305  21951958.140    89889609.54948
  23220316.420   122023587.65304  23220318.120    95083325.37146
  20452580.960   107479059.88307  20452579.760    83749921.31448
  20919450.520   109932462.67406  20919448.360    85661660.24847
  22856571.160   120112101.85004  22856570.380    93593844.38347
  20559021.860   108038402.98106  20559018.480    84185761.06349
  22955993.740   120634582.34005  22955989.840    94000966.91746
  21610560.060   113564274.53806  21610560.660    88491651.31348
  20279490.460   106569465.30506  20279489.460    83041142.36948
 15 03 05 03 51 30.0000000  0  9G01G03G04G11G14G19G22G27G32
  21941570.540   115303739.15905  21941572.700    89847083.11748
  23202200.760   121928390.64604  23202202.600    95009145.92445
  20449179.540   107461185.27406  20449178.380    83735993.05448
  20909562.640   109880501.86306  20909560.540    85621171.33348
  22852770.360   120092128.24004  22852769.520    93578280.55445
  20563719.480   108063089.30106  20563716.080    84204997.15049
  22972287.540   120720207.17304  22972283.640    94067687.55246
  21624315.380   113636559.13806  21624315.900    88547976.97848
  20272448.720   106532460.66906  20272447.700    83012307.60548
 15 03 05 03 52  0.0000000  0  9G01G03G04G11G14G19G22G27G32
  21931213.480   115249312.51005  21931215.660    89804672.78448
  23184129.680   121833426.78704  23184131.560    94935148.18446
  20445826.920   107443567.25506  20445825.800    83722264.73448
  20899723.740   109828798.43906  20899721.660    85580882.96748
  22849064.640   120072654.41604  22849063.780    93563106.18745
  20568502.460   108088223.72606  20568498.980    84224582.41449
  22988611.360   120805990.83204  22988607.580    94134531.94745
  21638140.980   113709213.25606  21638141.500    88604590.57248
  20265511.580   106496005.74506  20265510.560    82983901.19248
 15 03 05 03 52 30.0000000  0  9G01G03G04G11G14G19G22G27G32
  21920884.480   115195033.51705  21920886.700    89762377.49348
  23166103.020   121738696.22304  23166104.860    94861332.20347
  20442522.940   107426204.90707  20442521.860    83708735.64848
  20889933.660   109777351.68906  20889931.620    85540794.60948
  22845454.200   120053680.44304  22845453.080    93548321.29946
  20573370.460   108113805.27506  20573367.000    84244516.08149
  23004964.860   120891929.61704  23004961.200    94201497.22645
  21652036.400   113782234.37806  21652036.960    88661490.14848
  20258678.840   106460099.56906  20258677.820    82955922.36948
 15 03 05 03 53  0.0000000  0  9G01G03G04G11G14G19G22G27G32
  21910584.060   115140904.98805  21910586.380    89720199.46848
  23148121.460   121644203.17904  23148123.420    94787701.31447
  20439268.060   107409100.64406  20439267.000    83695407.65948
  20880193.220   109726165.48106  20880191.160    85500909.27148
  22841939.420   120035210.42304  22841938.220    93533929.14546
  20578324.060   108139836.80506  20578320.680    84264800.39449
  23021348.300   120978024.38704  23021344.640    94268584.05446
  21666001.980   113855624.08606  21666002.600    88718676.92548
  20251951.100   106424745.09406  20251950.060    82928373.43948
 15 03 05 03 53 30.0000000  0  9G01G03G04G11G14G19G22G27G32
  21900312.040   115086925.40005  21900314.380    89678137.48048
  23130185.240   121549947.55404  23130187.100    94714255.40447
  20436062.040   107392253.13206  20436061.020    83682279.73348
  20870502.320   109675239.44506  20870500.200    85461226.67048
  22838520.460   120017243.96904  22838519.140    93519929.30345
  20583363.020   108166316.95506  20583359.700    84285434.27849
  23037760.860   121064271.66905  23037757.000    94335789.72846
  21680037.240   113929379.74306  21680037.880    88776148.87048
  20245328.180   106389941.23806  20245327.100    82901253.56448
 15 03 05 03 54  0.0000000  0  9G01G03G04G11G14G19G22G27G32
  21890068.420   115033094.61405  21890070.660    89636191.43747
  23112294.380   121455930.36604  23112296.120    94640995.29647
  20432904.840   107375662.06007  20432903.900    83669351.64048
  20860861.040   109624574.36006  20860858.940    85421747.40147
  22835197.580   119999782.05404  22835196.160    93506322.63846
  20588487.260   108193245.22606  20588483.980    84306417.35049
  23054201.980   121150668.84505  23054197.820    94403112.22146
  21694141.780   114003499.77706  21694142.460    88833904.74548
  20238809.940   106355687.67906  20238808.860    82874562.49648
 15 03 05 03 54 30.0000000  0  9G01G03G04G11G14G19G22G27G32
  21879855.320   114979424.21405  21879857.480    89594370.38847
  23094451.420   121362164.70804  23094453.140    94567931.21446
  20429798.640   107359339.10807  20429797.720    83656632.46048
  20851271.860   109574183.01906  20851269.800    85382481.43748
  22831973.160   119982837.51804  22831971.580    93493119.16746
  20593699.020   108220633.39106  20593695.720    84327758.77749
  23070673.260   121237225.33305  23070668.880    94470558.83347
  21708317.680   114077994.59306  21708318.300    88891952.64248
  20232398.660   106321996.30706  20232397.600    82848309.49648
 15 03 05 03 55  0.0000000  0  9G01G03G04G11G14G19G22G27G32
  21869667.800   114925888.07005  21869669.840    89552653.96148
  23076651.400   121268625.69704  23076653.100    94495043.70847
  20426738.480   107343257.90007  20426737.580    83644101.64948
  20841729.940   109524040.11706  20841727.920    85343409.05648
  22828842.440   119966385.14704  22828840.700    93480299.15645
  20598993.400   108248455.34106  20598990.020    84349438.21649
  23087169.440   121323913.08904  23087164.960    94538107.72247
  21722559.720   114152836.75006  21722560.180    88950271.20448
  20226089.380   106288840.98006  20226088.360    82822474.19548
 15 03 05 03 55 30.0000000  0  9G01G03G04G11G14G19G22G27G32
  21859510.540   114872511.18005  21859512.580    89511061.62048
  23058899.780   121175339.74204  23058901.320    94422353.42747
  20423729.140   107327443.52307  20423728.200    83631778.76448
  20832240.200   109474171.60606  20832238.260    85304550.49948
  22825810.260   119950451.00504  22825808.540    93467883.02146
  20604375.160   108276736.21306  20604371.680    84371475.26349
  23103694.900   121410755.18304  23103690.480    94605776.88045
  21736872.280   114228049.96306  21736872.800    89008878.90348
  20219886.900   106256246.81106  20219885.900    82797076.15648
 15 03 05 03 56  0.0000000  0  9G01G03G04G11G14G19G22G27G32
  21849382.080   114819285.62705  21849384.120    89469587.20248
  23041194.900   121082300.08704  23041196.280    94349855.02247
  20420769.040   107311887.94507  20420768.080    83619657.53248
  20822801.400   109424570.59806  20822799.460    85265900.38648
  22822875.340   119935028.22404  22822873.700    93455865.27146
  20609842.720   108305468.10106  20609839.180    84393863.74749
  23120247.720   121497741.41204  23120243.280    94673558.32646
  21751253.660   114303624.99506  21751254.320    89067768.53048
  20213789.740   106224206.03806  20213788.700    82772109.33848
 15 03 05 03 56 30.0000000  0  9G01G03G04G11G14G19G22G27G32
  21839282.140   114766210.04705  21839284.120    89428229.65048
  23023536.760   120989506.78404  23023538.200    94277548.60547
  20417857.880   107296589.78806  20417856.900    83607736.90548
  20813413.520   109375236.84306  20813411.520    85227458.51348
  22820037.740   119920116.58004  22820036.080    93444245.82846
  20615395.760   108334649.30506  20615392.180    84416602.34449
  23136827.360   121584868.34704  23136823.040    94741449.44746
  21765703.500   114379559.14906  21765704.200    89126937.99948
  20207797.600   106192717.18706  20207796.560    82747572.59048
 15 03 05 03 57  0.0000000  0  9G01G03G04G11G14G19G22G27G32
  21829210.720   114713284.30705  21829212.600    89386988.84448
  23005925.660   120896960.95604  23005927.360    94205435.01246
  20414995.660   107281548.85406  20414994.680    83596016.70748
  20804076.700   109326171.22006  20804074.620    85189225.58748
  22817297.480   119905716.49104  22817295.820    93433025.01846
  20621034.260   108364279.83306  20621030.700    84439691.07349
  23153433.420   121672133.92304  23153429.080    94809448.60546
  21780221.440   114455850.88106  21780222.080    89186386.09848
  20201910.520   106161780.17306  20201909.420    82723465.84248
 15 03 05 03 57 30.0000000  0  9G01G03G04G11G14G19G22G27G32
  21819168.200   114660510.61605  21819170.040    89345866.52248
  22988362.360   120804666.15604  22988364.280    94133517.03747
  20412182.800   107266767.33807  20412181.820    83584498.65148
  20794791.500   109277377.08906  20794789.380    85151204.20848
  22814655.120   119891831.57004  22814653.800    93422205.63846
  20626758.640   108394361.79706  20626755.120    84463131.56949
  23170065.940   121759537.92205  23170061.480    94877555.63046
  21794807.600   114532501.17306  21794808.120    89246113.58748
  20196128.780   106131397.22106  20196127.760    82699790.83148
 15 03 05 03 58  0.0000000  0  9G01G03G04G11G14G19G22G27G32
  21809154.240   114607886.59305  21809155.940    89304860.81348
  22970846.700   120712621.19604  22970848.700    94061793.72847
  20409418.800   107252242.61206  20409417.840    83573180.69748
  20785557.600   109228852.87706  20785555.500    85113393.15848
  22812110.580   119878460.04304  22812109.300    93411786.30345
  20632568.440   108424892.68906  20632564.940    84486921.87649
  23186723.940   121847075.76205  23186719.380    94945766.96047
  21809461.140   114609506.14806  21809461.680    89306117.46448
  20190452.060   106101565.82806  20190451.020    82676545.59748
 15 03 05 03 58 30.0000000  0  9G01G03G04G11G14G19G22G27G32
  21799168.960   114555413.44805  21799170.580    89263972.66948
  22953379.260   120620828.47804  22953381.200    93990266.98847
  20406703.960   107237976.15506  20406703.020    83562063.97348
  20776375.520   109180600.82606  20776373.400    85075794.18048
  22809664.220   119865604.24204  22809662.840    93401768.81745
  20638463.900   108455873.57206  20638460.360    84511062.82449
  23203407.140   121934746.72504  23203402.720    95014082.01246
  21824182.020   114686865.61206  21824182.700    89366397.57248
  20184880.560   106072287.15606  20184879.480    82653731.05448
 15 03 05 03 59  0.0000000  0  9G01G03G04G11G14G19G22G27G32
  21789215.020   114503105.13305  21789216.600    89223212.95848
  22935962.560   120529303.31704  22935964.600    93918948.72647
  20404040.920   107223981.81406  20404040.000    83551159.30048
  20767248.140   109132636.00506  20767245.940    85038419.00348
  22807318.780   119853278.97704  22807317.420    93392164.75146
  20644447.640   108487318.25606  20644444.040    84535565.17449
  23220117.860   122022562.72904  23220113.580    95082510.04546
  21838972.860   114764592.24006  21838973.560    89426963.76348
  20179416.840   106043575.03506  20179415.760    82631358.00148
 15 03 05 03 59 30.0000000  0  9G01G03G04G11G14G19G22G27G32
  21779285.900   114450927.41805  21779287.480    89182555.02748
  22918590.440   120438012.56504  22918592.520    93847813.13747
  20401423.100   107210225.02506  20401422.200    83540439.73448
  20758169.020   109084924.99406  20758166.820    85001241.60648
  22805067.920   119841450.89904  22805066.540    93382948.08345
  20650513.120   108519192.35306  20650509.480    84560402.14349
  23236849.200   122110487.40204  23236845.100    95151022.77747
  21853826.860   114842650.18206  21853827.500    89487788.13248
  20174054.380   106015395.08006  20174053.280    82609399.61848
 15 03 05 04 00  0.0000000  0  9G01G03G04G11G14G19G22G27G32
  21769387.440   114398910.94305  21769389.040    89142022.74848
  22901269.040   120346988.13304  22901271.000    93776885.05546
  20398856.260   107196736.32406  20398855.360    83529929.06848
  20749144.200   109037499.38906  20749142.020    84964286.60848
  22802917.660   119830151.50304  22802916.260    93374143.41845
  20656666.140   108551526.26106  20656662.440    84585597.39949
  23253606.500   122198549.15304  23253602.700    95219642.30147
  21868749.480   114921068.71106  21868750.060    89548893.48348
  20168798.960   105987777.78806  20168797.840    82587879.67448
 15 03 05 04 00 30.0000000  0  9G01G03G04G11G14G19G22G27G32
  21759517.280   114347043.57505  21759518.960    89101606.66248
  22883996.320   120256219.08204  22883998.160    93706155.98247
  20396338.100   107183503.59506  20396337.240    83519617.86348
  20740171.720   108990348.31306  20740169.460    84927545.51848
  22800865.940   119819369.28404  22800864.340    93365741.69846
  20662904.320   108584307.70506  20662900.560    84611141.39049
  23270387.260   122286733.79304  23270383.700    95288357.57245
  21883738.000   114999834.26805  21883738.640    89610269.23748
  20163648.280   105960710.80506  20163647.140    82566788.53948
 15 03 05 04 01  0.0000000  0 10G01G03G04G11G14G19G22G27G28G32
  21749675.180   114295323.23705  21749676.880    89061305.13148
  22866771.820   120165704.51204  22866773.840    93635625.17447
  20393868.340   107170525.08706  20393867.520    83509504.74648
  20731251.180   108943470.45106  20731248.920    84891017.33848
  22798912.300   119809103.01804  22798910.800    93357742.04646
  20669227.080   108617534.34106  20669223.340    84637032.28349
  23287190.840   122375037.63804  23287187.400    95357165.76947
  21898791.940   115078943.23006  21898792.620    89671912.59148
  24329306.200   127851365.50604  24329305.220    99624436.93645
  20158601.900   105934191.91506  20158600.760    82546124.48848
 15 03 05 04 01 30.0000000  0  9G01G03G04G11G14G19G22G27G32
  21739864.840   114243770.05705  21739866.620    89021133.84948
  22849599.880   120075465.78104  22849601.880    93565309.30947
  20391450.700   107157820.45806  20391449.960    83499605.05248
  20722386.720   108896887.06806  20722384.400    84854718.62348
  22797060.880   119799373.69304  22797059.480    93350160.77746
  20675638.420   108651226.26806  20675634.700    84663285.74549
  23304020.620   122463478.19604  23304017.000    95426080.50546
  21913914.760   115158414.32005  21913915.580    89733838.10748
  20153663.560   105908240.94006  20153662.440    82525902.96248
 15 03 05 04 02  0.0000000  0  9G01G03G04G11G14G19G22G27G32
  21730081.880   114192360.37905  21730083.680    88981074.37448
  22832476.320   119985480.34304  22832478.160    93495190.83746
  20389080.680   107145365.95806  20389079.960    83489900.26148
  20713574.000   108850575.54906  20713571.600    84818631.74648
  22795307.080   119790158.23204  22795305.740    93342979.94946
  20682133.740   108685359.39706  20682130.020    84689882.99249
  23320871.680   122552029.84204  23320867.740    95495081.82146
  21929101.700   115238222.28305  21929102.600    89796026.13948
  20148828.700   105882834.03906  20148827.640    82506105.40048
 15 03 05 04 02 30.0000000  0  9G01G03G04G11G14G19G22G27G32
  21720327.980   114141103.52505  21720329.740    88941133.98848
  22815403.040   119895758.70504  22815404.660    93425277.89747
  20386760.080   107133170.93906  20386759.280    83480397.65748
  20704814.900   108804546.09206  20704812.520    84782764.65448
  22793653.040   119781466.68904  22793651.700    93336207.33146
  20688714.740   108719942.81906  20688711.040    84716831.11649
  23337745.240   122640699.79204  23337741.100    95564175.29346
  21944354.220   115318374.99505  21944355.080    89858482.79648
  20144099.080   105857980.12006  20144098.040    82486738.73248
 15 03 05 04 03  0.0000000  0 10G01G03G04G11G14G19G22G27G28G32
  21710603.180   114089999.39505  21710604.860    88901312.63048
  22798380.000   119806301.87904  22798381.480    93355571.32047
  20384488.860   107121235.28207  20384487.960    83471097.14948
  20696109.620   108758799.37106  20696107.220    84747117.88048
  22792099.000   119773299.79404  22792097.460    93329843.53545
  20695381.280   108754976.02306  20695377.640    84744129.72049
  23354640.600   122729485.77604  23354636.520    95633359.20946
  21959672.120   115398870.76705  21959672.840    89921206.77348
  24287809.360   127633297.30703  24287806.680    99454509.45344
  20139474.640   105833678.80506  20139473.640    82467802.66148
 15 03 05 04 03 30.0000000  0  9G01G03G04G11G14G19G22G27G32
  21700908.440   114039053.94705  21700910.180    88861614.91248
  22781408.680   119717116.97204  22781410.140    93286076.62947
  20382268.140   107109564.82807  20382267.120    83462003.29748
  20687459.400   108713342.70006  20687457.080    84711697.11948
  22790645.960   119765663.85704  22790644.440    93323893.48746
  20702134.480   108790464.55706  20702130.880    84771783.13049
  23371558.840   122818391.65404  23371554.800    95702636.48846
  21975056.160   115479714.02205  21975056.700    89984201.52648
  20134956.480   105809935.80006  20134955.440    82449301.63948
 15 03 05 04 04  0.0000000  0  9G01G03G04G11G14G19G22G27G32
  21691242.060   113988257.55205  21691243.940    88822033.32948
  22764487.540   119628195.44004  22764488.900    93216787.17247
  20380096.000   107098149.85607  20380094.920    83453108.53048
  20678862.640   108668167.17506  20678860.440    84676495.43048
  22789292.280   119758550.01604  22789290.780    93318350.26446
  20708972.500   108826398.70506  20708968.880    84799783.77149
  23388497.660   122907405.70604  23388493.680    95771998.06147
  21990504.140   115560893.54705  21990504.700    90047458.29548
  20130542.660   105786740.97806  20130541.580    82431227.76448
 15 03 05 04 04 30.0000000  0 10G01G03G04G11G14G19G22G27G28G32
  21681605.120   113937615.05405  21681607.060    88782571.66048
  22747617.660   119539543.24604  22747618.840    93147707.57747
  20377973.380   107086995.21607  20377972.280    83444416.61448
  20670320.600   108623278.81206  20670318.440    84641517.50548
  22788039.020   119751963.73804  22788037.440    93313218.12646
  20715896.260   108862783.07306  20715892.580    84828135.22849
  23405457.580   122996531.02104  23405453.660    95841446.34247
  22006016.740   115642412.60005  22006017.300    90110979.63748
  24257544.000   127474253.86713  24257540.340    99330572.33954
  20126234.000   105764098.89806  20126232.940    82413584.59148
 15 03 05 04 05  0.0000000  0 10G01G03G04G11G14G19G22G27G28G32
  21671995.840   113887117.92005  21671997.820    88743223.27148
  22730797.440   119451152.93504  22730798.660    93078832.06746
  20375898.540   107076092.07107  20375897.480    83435920.67248
  20661831.800   108578670.06906  20661829.660    84606757.46648
  22786884.600   119745896.95204  22786883.080    93308490.75946
  20722904.000   108899608.70906  20722900.260    84856830.53949
  23422436.760   123085756.99104  23422432.740    95910973.02446
  22021591.780   115724261.10505  22021592.620    90174757.69448
  24247618.980   127422098.42503  24247616.700    99289931.77246
  20122028.820   105742000.57506  20122027.760    82396365.13548
 15 03 05 04 05 30.0000000  0  9G01G03G04G11G14G19G22G27G32
  21662419.660   113836794.49705  21662421.580    88704010.22648
  22714032.620   119363053.95704  22714033.940    93010183.54846
  20373877.040   107065468.97206  20373875.940    83427642.95348
  20653401.780   108534370.12306  20653399.620    84572238.06048
  22785834.460   119740378.55504  22785832.960    93304190.74446
  20730001.020   108936903.42006  20729997.200    84885891.35549
  23439440.140   123175109.68304  23439436.000    95980598.50947
  22037234.740   115806465.78005  22037235.600    90238813.29348
  20117932.420   105720473.82206  20117931.360    82379591.05648
 15 03 05 04 06  0.0000000  0  9G01G03G04G11G14G19G22G27G32
  21652870.460   113786613.06005  21652872.320    88664907.84748
  22697317.400   119275215.53804  22697318.740    92941738.08047
  20371902.700   107055093.82607  20371901.600    83419558.44648
  20645024.680   108490348.18606  20645022.500    84537935.27548
  22784882.720   119735377.22204  22784881.200    93300293.64746
  20737181.100   108974635.01006  20737177.280    84915292.61149
  23456461.280   123264555.35604  23456456.940    96050296.43346
  22052939.280   115888993.13705  22052939.960    90303120.31548
  20113938.640   105699486.50806  20113937.580    82363237.32748
 15 03 05 04 06 30.0000000  0 10G01G03G04G11G14G19G22G27G28G32
  21643348.320   113736573.99206  21643350.120    88625916.40448
  22680652.120   119187639.19504  22680653.360    92873496.81446
  20369975.640   107044967.24406  20369974.560    83411667.61448
  20636700.740   108446605.55206  20636698.540    84503850.12648
  22784029.640   119730894.00404  22784028.080    93296800.24646
  20744444.280   109012803.56506  20744440.520    84945034.34849
  23473499.560   123354092.14204  23473495.160    96120065.37545
  22068704.980   115971842.03505  22068705.600    90367677.90448
  24218348.380   127268275.29704  24218345.000    99170069.85042
  20110047.460   105679038.45006  20110046.420    82347303.81348
 15 03 05 04 07  0.0000000  0  9G01G03G04G11G14G19G22G27G32
  21633859.880   113686712.16105  21633861.660    88587063.05448
  22664043.540   119100360.80704  22664044.720    92805487.74647
  20368102.440   107035123.86706  20368101.420    83403997.45748
  20628436.840   108403178.28006  20628434.580    84470010.71048
  22783281.780   119726964.21304  22783280.240    93293738.10245
  20751797.180   109051443.43106  20751793.460    84975143.34149
  23490561.400   123443753.13704  23490557.080    96189931.08746
  22084538.100   116055045.66805  22084538.800    90432511.90248
  20106265.500   105659164.10606  20106264.420    82331817.32948
 15 03 05 04 07 30.0000000  0  9G01G03G04G11G14G19G22G27G32
  21624400.300   113637001.83805  21624402.040    88548327.77248
  22647487.040   119013355.66504  22647488.100    92737691.57547
  20366278.240   107025537.67006  20366277.200    83396527.70248
  20620228.220   108360041.63906  20620225.940    84436397.75948
  22782634.320   119723562.50704  22782632.820    93291087.43746
  20759234.840   109090528.48806  20759231.140    85005599.23749
  23507641.540   123533510.33904  23507637.120    96259871.76146
  22100433.460   116138576.60405  22100434.240    90497600.95048
  20102587.640   105639837.09206  20102586.600    82316757.33648
 15 03 05 04 08  0.0000000  0  9G01G03G04G11G14G19G22G27G32
  21614969.400   113587442.21605  21614971.080    88509709.90748
  22630982.520   118926623.99204  22630983.680    92670108.51946
  20364502.840   107016207.89907  20364501.780    83389257.76048
  20612074.880   108317195.60606  20612072.600    84403011.26048
  22782087.300   119720688.45704  22782085.780    93288847.96446
  20766756.920   109130057.35906  20766753.200    85036400.95949
  23524739.420   123623361.06404  23524735.060    96329885.33445
  22116390.680   116222432.37105  22116391.480    90562943.10747
  20099013.700   105621056.07106  20099012.700    82302122.78748
 15 03 05 04 08 30.0000000  0 10G01G03G04G11G14G19G22G27G28G32
  21605565.660   113538025.10005  21605567.280    88471203.08648
  22614528.520   118840158.58204  22614530.000    92602732.90547
  20362774.640   107007126.12807  20362773.560    83382181.06648
  20603975.460   108274633.04206  20603973.180    84369845.65148
  22781639.300   119718334.30104  22781637.820    93287013.56945
  20774361.740   109170021.27606  20774358.040    85067541.68349
  23541853.220   123713294.87604  23541848.780    96399963.61945
  22132407.840   116306603.08905  22132408.660    90628530.67348
  24180497.360   127069369.26204  24180494.500    99015086.79346
  20095542.020   105602812.23506  20095541.000    82287906.82348
 15 03 05 04 09  0.0000000  0  9G01G03G04G11G14G19G22G27G32
  21596196.580   113488790.12106  21596198.140    88432838.19448
  22598132.900   118753999.97905  22598134.700    92535596.38947
  20361101.160   106998332.15707  20361100.120    83375328.63648
  20595937.680   108232394.44106  20595935.400    84336932.47648
  22781297.800   119716539.98004  22781296.240    93285615.42846
  20782056.780   109210459.49606  20782053.160    85099051.99749
  23558990.140   123803349.48104  23558985.760    96470136.03446
  22148492.180   116391126.59005  22148492.900    90694393.14248
  20092179.960   105585144.45906  20092178.900    82274139.73348
 15 03 05 04 09 30.0000000  0 10G01G03G04G11G14G19G22G27G28G32
  21586853.620   113439692.72405  21586855.200    88394580.50848
  22581787.660   118668104.59804  22581789.340    92468664.94847
  20359473.980   106989781.23707  20359472.920    83368665.59148
  20587953.180   108190436.02106  20587950.940    84304237.62348
  22781054.320   119715261.04904  22781052.740    93284618.86446
  20789833.520   109251326.88006  20789830.020    85130896.71849
  23576141.120   123893478.14804  23576136.780    96540366.17046
  22164634.780   116475956.58905  22164635.480    90760494.43748
  24162081.900   126972596.79814  24162082.680    98939689.03556
  20088919.000   105568007.79106  20088917.860    82260786.50848
 15 03 05 04 10  0.0000000  0 10G01G03G04G11G14G19G22G27G28G32
  21577541.040   113390754.64405  21577542.520    88356446.96048
  22565496.780   118582495.18804  22565498.320    92401956.36647
  20357897.160   106981494.93207  20357896.060    83362208.74248
  20580026.380   108148780.69206  20580024.180    84271778.94248
  22780913.360   119714519.81604  22780911.600    93284041.31046
  20797696.060   109292644.69306  20797692.580    85163092.42949
  23593309.980   123983700.69004  23593305.720    96610669.46446
  22180839.560   116561113.15405  22180840.180    90826850.20048
  24153001.900   126924881.23914  24153000.740    98902499.56756
  20085763.020   105551423.11406  20085761.880    82247863.39748
 15 03 05 04 10 30.0000000  0 10G01G03G04G11G14G19G22G27G28G32
  21568257.240   113341967.61705  21568258.540    88318431.11548
  22549259.000   118497164.41904  22549260.380    92335464.91747
  20356369.080   106973464.77506  20356367.920    83355951.49048
  20572155.880   108107421.21906  20572153.740    84239550.80148
  22780873.120   119714308.10904  22780871.280    93283876.39545
  20805642.560   109334403.80106  20805639.080    85195631.99849
  23610494.680   124074006.79104  23610490.460    96681037.85246
  22197104.540   116646586.19305  22197105.120    90893452.56448
  24144005.560   126877607.93603  24144003.900    98865658.03543
  20082710.440   105535381.45106  20082709.220    82235363.41748
 15 03 05 04 11  0.0000000  0  9G01G03G04G11G14G19G22G27G32
  21559005.340   113293348.80606  21559006.640    88280546.36348
  22533077.620   118412130.28905  22533078.920    92269204.58047
  20354893.000   106965708.06407  20354891.880    83349907.31648
  20564345.140   108066375.44306  20564343.000    84207567.09648
  22780936.900   119714643.33304  22780935.140    93284137.64146
  20813676.240   109376620.93506  20813672.680    85228528.47449
  23627698.040   124164411.37604  23627693.940    96751482.98346
  22213432.600   116732391.08205  22213433.200    90960313.52547
  20079764.240   105519899.32806  20079763.040    82223299.44949
 15 03 05 04 11 30.0000000  0 10G01G03G04G11G14G19G22G27G28G32
  21549782.120   113244881.13605  21549783.560    88242779.38248
  22516949.540   118327376.66704  22516950.820    92203162.82747
  20353465.620   106958207.41006  20353464.540    83344062.67548
  20556591.080   108025627.33006  20556588.860    84175815.33048
  22781101.560   119715508.63704  22781099.900    93284811.92946
  20821793.620   109419278.24706  20821790.060    85261767.94849
  23644916.620   124254895.50904  23644912.500    96821990.09846
  22229820.280   116818508.90005  22229820.880    91027418.31248
  24126276.260   126784438.37703  24126276.740    98793065.66145
  20076921.040   105504958.79706  20076919.940    82211657.50248
 15 03 05 04 12  0.0000000  0 10G01G03G04G11G14G19G22G27G28G32
  21540587.220   113196562.36706  21540588.800    88205128.42448
  22500874.640   118242902.26105  22500875.840    92137338.67047
  20352086.580   106950960.56906  20352085.540    83338415.80448
  20548893.440   107985175.65106  20548891.120    84144294.55248
  22781366.500   119716902.03404  22781365.160    93285897.68845
  20829994.300   109462373.12906  20829990.700    85295348.38649
  23662149.440   124345455.00904  23662145.460    96892555.92246
  22246266.820   116904935.72605  22246267.340    91094763.89648
  24117539.680   126738522.96703  24117538.940    98757287.46145
  20074180.420   105490556.88406  20074179.320    82200435.25048
 15 03 05 04 12 30.0000000  0  9G01G03G04G11G14G19G22G27G32
  21531426.180   113148420.59806  21531427.780    88167615.38048
  22484858.320   118158736.04405  22484859.480    92071754.64247
  20350761.200   106943995.55807  20350760.140    83332988.53948
  20541257.620   107945049.22506  20541255.300    84113027.21948
  22781737.420   119718851.62004  22781736.160    93287416.87146
  20838283.360   109505932.65706  20838279.800    85329290.89249
  23679401.620   124436115.72504  23679397.500    96963200.60945
  22262777.040   116991697.74305  22262777.660    91162370.66348
  20071547.480   105476720.84606  20071546.380    82189653.93648
 15 03 05 04 13  0.0000000  0  9G01G03G04G11G14G19G22G27G32
  21522292.840   113100424.74406  21522294.480    88130216.04348
  22468894.800   118074847.69005  22468896.040    92006387.13647
  20349483.460   106937281.06306  20349482.380    83327756.48148
  20533678.000   107905218.11906  20533675.660    84081990.01448
  22782208.540   119721326.39204  22782207.080    93289345.30645
  20846654.900   109549925.44906  20846651.380    85363571.00249
  23696666.860   124526844.62404  23696662.440    97033898.50445
  22279344.800   117078762.05205  22279345.500    91230212.97148
  20069016.160   105463418.68506  20069015.040    82179288.62648
 15 03 05 04 13 30.0000000  0 10G01G03G04G11G14G19G22G27G28G32
  21513187.720   113052577.43805  21513189.460    88092932.44548
  22452984.700   117991240.83005  22452986.180    91941238.96647
  20348253.880   106930819.70006  20348252.760    83322721.67148
  20526155.140   107865685.64106  20526152.860    84051185.50448
  22782779.920   119724329.30104  22782778.360    93291685.26246
  20855109.260   109594353.20606  20855105.720    85398190.04949
  23713945.160   124617642.24404  23713940.500    97104649.86344
  22295970.260   117166129.41505  22295971.000    91298291.44147
  24091853.280   126603542.20004  24091850.200    98652092.94842
  20066586.820   105450652.34106  20066585.660    82169340.86148
 15 03 05 04 14  0.0000000  0 10G01G03G04G11G14G19G22G27G28G32
  21504115.200   113004901.15806  21504117.000    88055782.11948
  22437132.700   117907938.69804  22437134.300    91876328.24847
  20347076.720   106924633.83206  20347075.600    83317901.52548
  20518693.500   107826475.15706  20518691.340    84020631.89248
  22783456.200   119727882.80304  22783454.540    93294454.23946
  20863650.360   109639237.59106  20863646.940    85433164.90749
  23731240.280   124708529.24104  23731235.680    97175470.88546
  22312657.260   117253820.40205  22312658.140    91366622.08048
  24083466.360   126559467.82604  24083463.780    98617749.28444
  20064263.560   105438443.30206  20064262.340    82159827.34248
 15 03 05 04 14 30.0000000  0 10G01G03G04G11G14G19G22G27G28G32
  21495072.260   112957380.23406  21495074.060    88018752.86548
  22421335.940   117824926.39804  22421337.520    91811643.38147
  20345948.900   106918707.42906  20345947.840    83313283.56348
  20511290.360   107787572.11406  20511288.380    83990317.84748
  22784234.200   119731971.25504  22784232.580    93297640.07046
  20872275.400   109684562.41606  20872271.960    85468482.96749
  23748549.100   124799487.62504  23748544.520    97246347.58745
  22329402.500   117341817.57705  22329403.440    91435191.29848
  24075166.540   126515850.91103  24075163.860    98583762.12843
  20062043.100   105426775.00006  20062041.900    82150735.17348
 15 03 05 04 15  0.0000000  0  9G01G03G04G11G14G19G22G27G32
  21486062.780   112910035.19506  21486064.540    87981860.64048
  22405598.500   117742225.36905  22405599.920    91747201.06447
  20344874.380   106913061.16706  20344873.400    83308883.88648
  20503949.940   107748997.97506  20503947.980    83960260.09148
  22785118.000   119736614.90904  22785116.100    93301258.53546
  20880988.080   109730347.37006  20880984.500    85504159.56349
  23765874.940   124890535.95204  23765870.640    97317294.33544
  22346209.700   117430139.44105  22346210.580    91504013.52447
  20059929.260   105415667.01606  20059928.080    82142079.62148
 15 03 05 04 15 30.0000000  0 10G01G03G04G11G14G19G22G27G28G32
  21477078.420   112862822.29006  21477080.240    87945071.38748
  22389912.040   117659792.57605  22389913.400    91682967.74747
  20343844.760   106907650.96806  20343843.840    83304668.17448
  20496664.020   107710709.89706  20496662.000    83930425.24148
  22786099.100   119741770.43804  22786097.180    93305275.84646
  20889779.760   109776547.82606  20889776.140    85540159.92649
  23783209.260   124981628.70704  23783205.080    97388275.74046
  22363069.880   117518740.35305  22363070.740    91573053.19647
  24058830.760   126430010.82303  24058829.140    98516878.03644
  20057913.560   105405074.66506  20057912.420    82133825.85148
 15 03 05 04 16  0.0000000  0  9G01G03G04G11G14G19G22G27G32
  21468129.700   112815796.42006  21468131.520    87908427.87048
  22374287.180   117577683.74805  22374288.580    91618986.87947
  20342870.560   106902531.74706  20342869.620    83300679.17248
  20489443.120   107672763.58506  20489441.020    83900856.70148
  22787187.900   119747492.39404  22787186.080    93309734.54246
  20898660.760   109823217.89106  20898657.120    85576526.22349
  23800562.040   125072818.60204  23800557.940    97459332.78646
  22379993.320   117607673.32905  22379993.980    91642351.62347
  20056006.200   105395051.87206  20056005.120    82126015.89948
 15 03 05 04 16 30.0000000  0 10G01G03G04G11G14G19G22G27G28G32
  21459205.980   112768901.74806  21459207.720    87871886.58948
  22358713.520   117495843.77005  22358714.840    91555215.52747
  20341941.040   106897647.22806  20341940.100    83296873.06448
  20482276.760   107635103.96206  20482274.560    83871511.55548
  22788373.900   119753724.79004  22788372.080    93314590.97446
  20907620.340   109870300.83606  20907616.740    85613214.24649
  23817922.440   125164047.62004  23817918.200    97530420.33546
  22396968.860   117696880.57705  22396969.440    91711863.75647
  24042848.560   126346019.26304  24042847.940    98451439.75544
  20054196.480   105385541.67706  20054195.420    82118605.36448
 15 03 05 04 17  0.0000000  0 10G01G03G04G11G14G19G22G27G28G32
  21450314.820   112722178.42106  21450316.560    87835478.81648
  22343198.840   117414313.59205  22343200.040    91491685.55147
  20341063.980   106893037.81006  20341062.960    83293281.32648
  20475172.800   107597772.21706  20475170.480    83842421.88948
  22789664.820   119760507.99204  22789662.960    93319876.61546
  20916665.980   109917836.20006  20916662.440    85650254.80249
  23835297.480   125255354.36103  23835293.220    97601568.44947
  22414003.880   117786400.27705  22414004.360    91781619.37347
  24034990.620   126304722.21204  24034988.620    98419260.27644
  20052491.800   105376583.28906  20052490.700    82111624.82248
 15 03 05 04 17 30.0000000  0  9G01G03G04G11G14G19G27G28G32
  21441454.740   112675618.67006  21441456.540    87799198.51848
  22327741.820   117333086.15105  22327742.860    91428391.48047
  20340237.740   106888695.30907  20340236.620    83289897.57148
  20468129.960   107560761.61706  20468127.540    83813582.48148
  22791058.960   119767833.95004  22791056.940    93325585.16546
  20925796.020   109965815.04406  20925792.520    85687640.92949
  22431096.440   117876222.67305  22431097.020    91851610.84447
  24027222.020   126263895.48703  24027219.440    98387447.22243
  20050890.440   105368167.86506  20050889.300    82105067.37548
 15 03 05 04 18  0.0000000  0  8G01G03G04G11G14G19G27G32
  21432630.440   112629246.76806  21432632.240    87763064.58948
  22312347.020   117252186.35405  22312348.140    91365352.69847
  20339466.860   106884643.91907  20339465.680    83286740.65048
  20461152.860   107524096.88206  20461150.420    83785012.56648
  22792560.920   119775726.75904  22792558.840    93331735.43146
  20935014.860   110014260.93006  20935011.460    85725390.97149
  22448250.860   117966370.08205  22448251.620    91921855.57448
  20049396.780   105360318.53606  20049395.620    82098951.03248
 15 03 05 04 18 30.0000000  0  8G01G03G04G11G14G19G27G32
  21423831.540   112583007.87606  21423833.240    87727034.30848
  22297004.260   117171560.16105  22297005.460    91302527.13247
  20338740.860   106880828.69707  20338739.640    83283767.76248
  20454231.300   107487724.06706  20454228.860    83756670.12948
  22794160.100   119784131.02104  22794158.040    93338284.24045
  20944312.040   110063118.12706  20944308.660    85763461.52549
  22465456.300   118056785.61505  22465457.160    91992309.23847
  20048000.200   105352979.33806  20047999.040    82093232.20148
 15 03 05 04 19  0.0000000  0 10G01G03G04G11G14G19G22G27G28G32
  21415058.860   112536906.93706  21415060.460    87691111.51548
  22281714.620   117091213.15905  22281715.960    91239919.11748
  20338060.760   106877254.53207  20338059.460    83280982.71548
  20447366.400   107451649.17106  20447364.040    83728559.82948
  22795857.480   119793051.94604  22795855.460    93345235.62646
  20953688.300   110112390.62206  20953684.860    85801855.68349
  23904920.000   125621203.52203  23904915.580    97886632.22545
  22482713.320   118147472.21405  22482714.220    92062974.10847
  24004451.080   126144239.54804  24004448.780    98294203.64745
  20046701.480   105346154.07206  20046700.220    82087913.83448
 15 03 05 04 19 30.0000000  0 10G01G03G04G11G14G19G22G27G28G32
  21406322.960   112490999.78606  21406324.560    87655339.73348
  22266489.040   117011201.86005  22266490.360    91177572.68147
  20337437.020   106873976.89307  20337435.740    83278428.71848
  20440569.100   107415929.01106  20440566.700    83700725.96248
  22797663.820   119802544.80004  22797661.940    93352632.68645
  20963154.020   110162133.39206  20963150.560    85840616.29149
  23922355.260   125712826.60504  23922351.540    97958026.82144
  22500032.300   118238483.73705  22500033.180    92133892.17248
  23997040.460   126105300.22403  23997038.060    98263861.31444
  20045510.920   105339897.45306  20045509.620    82083038.56749
 15 03 05 04 20  0.0000000  0 10G01G03G04G11G14G19G22G27G28G32
  21397616.300   112445245.81106  21397617.780    87619687.31548
  22251319.660   116931486.35405  22251320.980    91115456.73147
  20336861.940   106870955.09807  20336860.720    83276074.08748
  20433831.660   107380523.81106  20433829.360    83673137.50948
  22799571.320   119812569.10604  22799569.320    93360443.83646
  20972701.320   110212304.75806  20972697.860    85879710.87449
  23939799.560   125804496.79904  23939795.500    98029458.13945
  22517404.980   118329777.48205  22517405.860    92205030.15547
  23989718.420   126066824.51504  23989715.800    98233880.25544
  20044420.540   105334167.67706  20044419.260    82078573.82348
 15 03 05 04 20 30.0000000  0 10G01G03G04G11G14G19G22G27G28G32
  21388941.280   112399657.97606  21388942.620    87584164.35248
  22236209.140   116852080.19505  22236210.500    91053581.83547
  20336338.000   106868201.94807  20336336.820    83273928.78648
  20427156.820   107345447.16706  20427154.520    83645805.06948
  22801582.380   119823137.14504  22801580.240    93368678.69847
  20982332.460   110262916.52206  20982328.940    85919148.62149
  23957254.880   125896225.34304  23957250.720    98100934.95744
  22534833.360   118421364.37105  22534834.320    92276396.54447
  23982487.440   126028825.89504  23982484.840    98204270.94045
  20043432.660   105328976.48806  20043431.360    82074528.74948
 15 03 05 04 21  0.0000000  0 10G01G03G04G11G14G19G22G27G28G32
  21380297.100   112354232.56606  21380298.400    87548767.95448
  22221156.860   116772980.36105  22221158.260    90991945.63147
  20335864.420   106865713.65206  20335863.300    83271989.87448
  20420543.860   107310696.01106  20420541.620    83618726.26548
  22803696.140   119834244.88704  22803693.960    93377334.12446
  20992046.600   110313964.29406  20992042.980    85958926.11249
  23974720.200   125988006.33704  23974716.300    98172452.65045
  22552316.520   118513238.62405  22552317.460    92347986.87747
  23975346.720   125991301.17403  23975344.680    98175030.90045
  20042546.360   105324318.98406  20042545.040    82070899.54248
 15 03 05 04 21 30.0000000  0  9G01G03G04G11G14G19G22G27G32
  21371686.760   112308985.26806  21371688.060    87513510.35248
  22206166.020   116694203.07805  22206167.440    90930560.76247
  20335444.220   106863505.59107  20335443.140    83270269.32248
  20413996.140   107276287.18406  20413993.840    83591914.21148
  22805915.440   119845907.70004  22805913.320    93386422.04346
  21001846.380   110365462.39906  21001842.700    85999054.52149
  23992198.140   126079853.55804  23992194.400    98244021.91943
  22569856.820   118605413.79305  22569857.880    92419811.67647
  20041764.340   105320209.46806  20041762.980    82067697.34148
 15 03 05 04 22  0.0000000  0 10G01G03G04G11G14G19G22G27G28G32
  21363101.980   112263872.43606  21363103.340    87478357.52448
  22191228.440   116615705.31005  22191229.760    90869393.70747
  20335069.040   106861533.80707  20335067.900    83268732.87948
  20407505.360   107242177.74806  20407503.020    83565335.44148
  22808231.940   119858081.69104  22808229.960    93395908.30045
  21011723.360   110417366.42606  21011719.680    86039499.22049
  24009680.060   126171721.48704  24009676.300    98315607.34244
  22587445.840   118697844.18705  22587446.800    92491835.35747
  23961336.860   125917669.37204  23961334.900    98117654.29543
  20041078.040   105316603.03906  20041076.680    82064887.14648
 15 03 05 04 22 30.0000000  0 10G01G03G04G11G14G19G22G27G28G32
  21354551.440   112218939.26406  21354552.820    87443344.68548
  22176352.720   116537532.89005  22176354.000    90808480.15747
  20334747.420   106859843.84006  20334746.300    83267416.03848
  20401080.300   107208413.80606  20401077.940    83539025.88848
  22810654.240   119870811.62004  22810652.380    93405827.72846
  21021685.900   110469720.22706  21021682.260    86080294.39249
  24027174.240   126263653.21404  24027170.300    98387242.43446
  22605091.640   118790572.92405  22605092.480    92564091.50847
  23954468.260   125881575.12103  23954466.520    98089528.92946
  20040495.820   105313543.62906  20040494.480    82062503.21248
 15 03 05 04 23  0.0000000  0 10G01G03G04G11G14G19G22G27G28G32
  21346032.840   112174173.43506  21346034.100    87408462.24948
  22161536.620   116459674.03805  22161537.940    90747810.93247
  20334476.960   106858422.70307  20334475.880    83266308.67948
  20394718.800   107174983.75106  20394716.380    83512976.51148
  22813179.960   119884084.31804  22813178.060    93416170.09446
  21031731.480   110522510.33206  21031727.920    86121429.54548
  24044677.760   126355634.38303  24044673.680    98458916.07445
  22622791.240   118883585.48004  22622792.160    92636568.82847
  23947691.020   125845961.85903  23947689.440    98061778.37045
  20040015.080   105311017.60906  20040013.820    82060534.89948
 15 03 05 04 23 30.0000000  0  9G01G03G04G11G14G19G27G28G32
  21337549.820   112129594.97706  21337551.120    87373725.81148
  22146784.100   116382149.31605  22146785.520    90687402.09347
  20334261.480   106857290.41807  20334260.400    83265426.38848
  20388424.760   107141908.46306  20388422.340    83487203.56648
  22815812.920   119897919.84904  22815810.820    93426951.03847
  21041863.880   110575756.19106  21041860.280    86162919.82849
  22640548.300   118976899.82804  22640549.300    92709281.29948
  23941010.340   125810857.32404  23941007.460    98034427.77145
  20039639.380   105309043.58906  20039638.180    82058996.71248
 15 03 05 04 24  0.0000000  0  9G01G03G04G11G14G19G27G28G32
  21329088.580   112085130.93906  21329089.920    87339078.53648
  22132081.420   116304886.34505  22132082.820    90627197.21147
  20334087.060   106856373.90906  20334085.980    83264712.23448
  20382184.500   107109115.73606  20382182.060    83461650.80648
  22818538.780   119912244.62904  22818536.800    93438113.23345
  21052068.880   110629383.41806  21052065.220    86204707.28248
  22658348.640   119070440.81005  22658349.580    92782170.37447
  23934410.400   125776174.92204  23934407.740    98007402.55443
  20039354.580   105307547.18106  20039353.380    82057830.69448
 15 03 05 04 24 30.0000000  0  9G01G03G04G11G14G19G27G28G32
  21320664.240   112040860.89106  21320665.640    87304582.41548
  22117443.780   116227965.16405  22117445.080    90567258.65147
  20333968.720   106855752.27006  20333967.680    83264227.85048
  20376013.300   107076685.99506  20376010.860    83436380.89448
  22821372.700   119927137.66804  22821370.880    93449718.23046
  21062361.360   110683470.38706  21062357.620    86246852.96849
  22676206.780   119164285.79105  22676207.740    92855296.32247
  23927907.100   125742001.39803  23927905.320    97980773.81645
  20039175.560   105306606.65106  20039174.360    82057097.82648
 15 03 05 04 25  0.0000000  0  9G01G03G04G11G14G19G27G28G32
  21312271.080   111996754.95606  21312272.520    87270214.17848
  22102865.600   116151356.46905  22102866.860    90507563.60747
  20333900.840   106855395.91806  20333899.860    83263950.19248
  20369905.620   107044590.23806  20369903.180    83411371.24248
  22824309.120   119942568.39604  22824307.340    93461742.18946
  21072735.380   110737986.05106  21072731.600    86289332.71149
  22694116.700   119258402.83004  22694117.660    92928634.27147
  23921495.120   125708307.80003  23921494.140    97954519.13645
  20039096.400   105306190.70906  20039095.180    82056773.73248
 15 03 05 04 25 30.0000000  0  9G01G03G04G11G14G19G27G28G32
  21303909.900   111952816.88106  21303911.360    87235976.73648
  22088347.580   116075064.41305  22088348.960    90448115.27248
  20333884.180   106855308.07707  20333883.100    83263881.75748
  20363862.380   107012832.99706  20363859.940    83386625.35848
  22827348.500   119958539.70504  22827346.700    93474187.37947
  21083191.420   110792933.04406  21083187.700    86332148.54949
  22712078.580   119352793.39004  22712079.500    93002185.34947
  23915175.320   125675097.86504  23915174.540    97928641.26845
  20039117.500   105306301.59906  20039116.260    82056860.16248
 15 03 05 04 26  0.0000000  0  9G01G03G04G11G14G19G27G28G32
  21295580.040   111909043.31106  21295581.560    87201867.48548
  22073889.200   115999086.15405  22073890.820    90388911.46147
  20333917.920   106855485.23507  20333916.760    83264019.81048
  20357882.940   106981411.28206  20357880.540    83362140.92648
  22830490.020   119975048.11304  22830488.140    93487051.08146
  21093728.680   110848306.81106  21093724.980    86375296.93549
  22730091.500   119447451.91105  22730092.340    93075945.22548
  23908947.200   125642368.58204  23908946.120    97903137.98845
  20039237.960   105306934.51506  20039236.720    82057353.36248
 15 03 05 04 26 30.0000000  0  9G01G03G04G11G14G19G22G27G32
  21287284.640   111865450.32506  21287286.100    87167898.95548
  22059493.840   115923438.20505  22059495.400    90329965.03648
  20334005.100   106855943.26907  20334003.920    83264376.72648
  20351970.580   106950342.24806  20351968.280    83337931.29748
  22833736.460   119992108.80304  22833734.620    93500345.16945
  21104349.960   110904122.10806  21104346.280    86418789.37248
  24167424.380   127000670.21704  24167420.540    98961548.38943
  22748158.060   119542392.29304  22748158.880    93149924.73347
  20039460.480   105308103.89706  20039459.220    82058264.59148
 15 03 05 04 27  0.0000000  0 10G01G03G04G11G14G19G22G27G28G32
  21279016.220   111821999.55806  21279017.660    87134041.23348
  22045154.200   115848082.67005  22045155.660    90271246.45348
  20334138.340   106856643.65506  20334137.220    83264922.49848
  20346118.240   106919588.37306  20346115.980    83313967.24448
  22837080.660   120009682.75904  22837078.760    93514039.17945
  21115047.640   110960339.26406  21115044.060    86462594.94248
  24184985.120   127092956.75704  24184980.820    99033451.86745
  22766270.540   119637573.91304  22766271.400    93224092.22547
  23896767.720   125578362.01804  23896767.260    97853259.42144
  20039777.540   105309770.02206  20039776.240    82059562.89548
 15 03 05 04 27 30.0000000  0 10G01G03G04G11G14G19G22G27G28G32
  21270782.120   111778729.39906  21270783.600    87100324.24648
  22030877.620   115773058.36305  22030878.960    90212785.98348
  20334325.000   106857624.50207  20334323.880    83265686.80348
  20340333.400   106889188.73606  20340331.120    83290279.23448
  22840529.660   120027807.60204  22840527.800    93528162.45246
  21125828.860   111016995.48006  21125825.360    86506742.64548
  24202554.880   127185284.24604  24202550.280    99105395.35046
  22784435.660   119733032.93004  22784436.660    93298475.87747
  23890816.520   125547087.15804  23890815.520    97828889.44546
  20040196.100   105311969.58006  20040194.760    82061276.85849
 15 03 05 04 28  0.0000000  0 10G01G03G04G11G14G19G22G27G28G32
  21262581.260   111735633.64406  21262582.700    87066743.15748
  22016662.900   115698359.53405  22016664.240    90154579.13447
  20334563.800   106858879.39707  20334562.680    83266664.65548
  20334614.960   106859137.95206  20334612.660    83266863.05148
  22844082.240   120046476.72204  22844080.440    93542709.80646
  21136692.300   111074083.40306  21136688.760    86551226.74348
  24220131.200   127277648.59104  24220126.460    99177367.58045
  22802652.000   119828760.85804  22802653.120    93373069.04347
  23884958.600   125516304.04103  23884957.380    97804902.66845
  20040714.720   105314694.98606  20040713.380    82063400.56648
 15 03 05 04 28 30.0000000  0  9G01G03G04G11G14G19G22G27G32
  21254414.020   111692714.87006  21254415.520    87033299.97548
  22002510.700   115623989.08205  22002512.020    90096628.16347
  20334855.240   106860410.84807  20334854.120    83267858.01248
  20328963.480   106829439.19006  20328961.160    83243721.17348
  22847738.800   120065691.76204  22847737.100    93557682.58546
  21147638.120   111131604.16006  21147634.580    86596048.10549
  24237714.720   127370050.43904  24237709.940    99249369.04844
  22820919.740   119924758.03804  22820920.740    93447872.04047
  20041333.600   105317947.16406  20041332.220    82065934.74148
 15 03 05 04 29  0.0000000  0 10G01G03G04G11G14G19G22G27G28G32
  21246274.840   111649942.99106  21246276.300    86999971.27748
  21988415.340   115549917.28405  21988416.640    90038909.89147
  20335193.500   106862188.38707  20335192.340    83269243.11848
  20323373.440   106800063.02406  20323371.080    83220830.66348
  22851493.280   120085421.74304  22851491.600    93573056.62646
  21158660.380   111189526.31706  21158656.800    86641182.24748
  24255299.200   127462457.80704  24255294.340    99321374.81044
  22839232.580   120020992.01504  22839233.440    93522859.55547
  23873519.400   125456187.14404  23873517.600    97758065.31544
  20042046.680   105321694.29606  20042045.280    82068854.60348
 15 03 05 04 29 30.0000000  0  9G01G03G04G11G14G19G22G27G32
  21238172.360   111607364.31306  21238173.860    86966793.12148
  21974385.660   115476190.80205  21974386.880    89981460.70547
  20335587.340   106864258.17507  20335586.180    83270855.95648
  20317853.760   106771056.55506  20317851.340    83198228.23449
  22855354.460   120105712.06004  22855352.600    93588867.28646
  21169767.580   111247894.88606  21169764.020    86686664.24649
  24272893.160   127554915.02504  24272888.580    99393419.41043
  22857598.900   120117506.91105  22857599.600    93598065.95547
  20042862.460   105325981.14706  20042861.020    82072195.01648
 15 03 05 04 30  0.0000000  0 10G01G03G04G11G14G19G22G27G28G32
  21230098.160   111564934.31106  21230099.700    86933730.80648
  21960413.300   115402765.56005  21960414.400    89924246.24947
  20336028.300   106866575.38806  20336027.100    83272661.59148
  20312396.020   106742376.10406  20312393.600    83175879.84249
  22859313.700   120126517.59404  22859311.720    93605079.40245
  21180950.960   111306663.97106  21180947.460    86732458.33848
  24290487.840   127647375.60503  24290483.420    99465466.62844
  22876009.840   120214255.86404  22876010.380    93673454.75147
  23862451.740   125398027.85704  23862450.700    97712748.07245
  20043772.120   105330761.50806  20043770.660    82075919.98748
 15 03 05 04 30 30.0000000  0 10G01G03G04G11G14G19G22G27G28G32
  21222058.440   111522685.17306  21222059.940    86900809.42548
  21946504.360   115329674.03405  21946505.500    89867291.83948
  20336522.400   106869171.96707  20336521.200    83274684.90748
  20307006.560   106714054.47606  20307004.160    83153811.06049
  22863376.880   120147869.52904  22863374.780    93621717.27346
  21192216.300   111365864.00006  21192212.880    86778588.22749
  24308088.920   127739869.88903  24308084.480    99537540.08944
  22894470.780   120311268.75004  22894471.380    93749049.19447
  23857058.020   125369681.96904  23857056.480    97690660.40145
  20044781.540   105336065.92206  20044780.060    82080053.30348
 15 03 05 04 31  0.0000000  0  9G01G03G04G11G14G19G27G28G32
  21214051.980   111480610.82106  21214053.460    86868024.24648
  21932657.900   115256910.42905  21932658.960    89810592.95848
  20337068.440   106872041.54207  20337067.220    83276920.94248
  20301684.360   106686086.20006  20301682.020    83132017.61048
  22867542.640   120169760.81304  22867540.460    93638775.43445
  21203562.340   111425488.26306  21203559.020    86825048.68549
  22912980.240   120408537.04204  22912980.940    93824842.64847
  23851757.880   125341829.15403  23851755.740    97668956.93541
  20045889.140   105341886.62606  20045887.700    82084588.92848
 15 03 05 04 31 30.0000000  0  9G01G03G04G11G14G19G27G28G32
  21206078.040   111438707.84406  21206079.580    86835372.60448
  21918873.240   115184471.61505  21918874.280    89754147.14747
  20337665.800   106875180.77207  20337664.560    83279367.10748
  20296428.940   106658468.79206  20296426.600    83110497.57048
  22871810.020   120192187.14504  22871807.740    93656250.52246
  21214988.200   111485531.47906  21214984.840    86871835.60248
  22931537.320   120506055.12104  22931537.940    93900830.75747
  23846550.900   125314466.45004  23846548.600    97647635.45644
  20047093.980   105348218.36806  20047092.640    82089522.77248
 15 03 05 04 32  0.0000000  0  9G01G03G04G11G14G19G27G28G32
  21198136.680   111396976.31406  21198138.320    86802854.56448
  21905150.460   115112358.00105  21905151.420    89697954.73747
  20338314.360   106878589.28707  20338313.180    83282023.10148
  20291240.320   106631202.76206  20291238.040    83089251.31548
  22876179.060   120215147.75604  22876176.820    93674141.94645
  21226493.480   111545992.11506  21226490.100    86918947.78648
  22950141.520   120603820.64704  22950142.040    93977011.69146
  23841437.220   125287593.79904  23841435.020    97626695.75244
  20048395.760   105355059.58906  20048394.440    82094853.61148
 15 03 05 04 32 30.0000000  0  8G01G03G04G11G14G19G27G32
  21190232.740   111355441.19206  21190234.400    86770489.55848
  21891494.320   115040594.74305  21891495.320    89642035.33347
  20339018.880   106882291.88307  20339017.720    83284908.25948
  20286123.520   106604313.81806  20286121.220    83068298.89749
  22880654.300   120238666.51204  22880652.300    93692468.25644
  21238082.780   111606893.90106  21238079.260    86966403.71348
  22968797.140   120701856.17704  22968797.520    94053403.00647
  20049798.940   105362433.37306  20049797.580    82100599.43048
 15 03 05 04 33  0.0000000  0  9G01G03G04G11G14G19G27G28G32
  21182353.600   111314035.95006  21182355.200    86738225.76648
  21877892.220   114969115.64805  21877893.280    89586337.34947
  20339766.620   106886221.60606  20339765.520    83287970.39148
  20281065.920   106577735.90306  20281063.600    83047588.84648
  22885223.100   120262675.85204  22885221.140    93711176.82046
  21249743.100   111668168.87806  21249739.460    87014150.44748
  22987490.900   120800092.89004  22987491.360    94129951.07247
  23831490.320   125235330.96003  23831488.860    97585959.46645
  20051290.400   105370271.42906  20051289.080    82106707.02648
 15 03 05 04 33 30.0000000  0  9G01G03G04G11G14G19G27G28G32
  21174511.620   111272826.23506  21174513.200    86706114.31948
  21864356.760   114897986.57005  21864357.880    89530912.12447
  20340570.120   106890444.01907  20340569.020    83291260.59648
  20276080.200   106551535.66206  20276077.840    83027173.08749
  22889897.600   120287240.56804  22889895.520    93730318.20846
  21261486.520   111729881.00106  21261482.900    87062237.80949
  23006234.940   120898593.96604  23006235.560    94206705.14347
  23826657.600   125209936.01404  23826656.280    97566171.23845
  20052882.360   105378637.62906  20052881.120    82113226.14249
 15 03 05 04 34  0.0000000  0  9G01G03G04G11G14G19G27G28G32
  21166702.540   111231789.15106  21166704.040    86674137.39948
  21850883.580   114827184.82305  21850884.760    89475741.94647
  20341424.940   106894935.96306  20341423.820    83294760.83248
  20271162.080   106525690.87006  20271159.720    83007034.29149
  22894673.260   120312336.29504  22894670.940    93749873.33446
  21273308.520   111792006.01706  21273304.980    87110646.91248
  23025024.500   120997334.09904  23025025.160    94283645.51047
  23821918.660   125185032.54604  23821917.140    97546765.96445
  20054570.220   105387507.19706  20054568.940    82120137.50548
 15 03 05 04 34 30.0000000  0  9G01G03G04G11G14G19G27G28G32
  21158926.240   111190924.17706  21158927.680    86642294.58048
  21837472.720   114756710.10705  21837473.940    89420826.61648
  20342330.840   106899696.51607  20342329.700    83298470.37248
  20266311.680   106500201.47306  20266309.260    82987172.43848
  22899549.760   120337961.65604  22899547.320    93769841.15645
  21285208.680   111854541.83806  21285205.220    87159376.12348
  23043859.020   121096310.39304  23043859.680    94360769.88746
  23817273.420   125160619.69804  23817271.480    97527743.02944
  20056353.460   105396877.87306  20056352.140    82127439.34749
 15 03 05 04 35  0.0000000  0  9G01G03G04G11G14G19G27G28G32
  21151183.760   111150237.00206  21151185.140    86610590.30648
  21824125.220   114686568.25805  21824126.400    89366170.65148
  20343288.900   106904731.22606  20343287.760    83302393.52748
  20261530.080   106475073.91906  20261527.660    82967592.54249
  22904527.920   120364121.25104  22904525.400    93790225.29747
  21297187.800   111917492.28306  21297184.300    87208428.41448
  23062739.140   121195526.05604  23062739.740    94438080.79447
  23812722.600   125136703.02204  23812720.320    97509106.67544
  20058232.740   105406753.46706  20058231.380    82135134.62749
 15 03 05 04 35 30.0000000  0  9G01G03G04G11G14G19G27G28G32
  21143475.160   111109727.89106  21143476.440    86579024.79248
  21810841.120   114616759.73105  21810842.240    89311774.41847
  20344299.060   106910039.92807  20344297.940    83306530.19948
  20256817.440   106450308.91806  20256815.040    82948295.15349
  22909607.500   120390814.37704  22909605.120    93811025.14247
  21309245.660   111980856.23706  21309242.020    87257802.92248
  23081664.460   121294978.91904  23081664.900    94515576.52246
  23808265.860   125113282.65904  23808263.600    97490857.06843
  20060207.660   105417132.16706  20060206.360    82143221.94348
 15 03 05 04 36  0.0000000  0  9G01G03G04G11G14G19G27G28G32
  21135800.240   111069395.97506  21135801.460    86547597.34348
  21797620.200   114547283.77405  21797621.300    89257637.32348
  20345361.220   106915621.75907  20345360.100    83310879.68948
  20252173.760   106425906.24606  20252171.360    82929280.09649
  22914788.200   120418038.80304  22914785.940    93832239.00947
  21321381.720   112044631.42106  21321378.000    87307497.86448
  23100634.200   121394665.72004  23100634.640    94593254.53747
  23803903.180   125090357.65104  23803901.160    97472993.44645
  20062277.860   105428011.26806  20062276.540    82151699.17048
 15 03 05 04 36 30.0000000  0 10G01G03G04G11G14G19G22G27G28G32
  21128159.380   111029243.03706  21128160.540    86516309.37248
  21784462.940   114478142.34305  21784464.040    89203760.90348
  20346475.620   106921478.08307  20346474.480    83315443.06748
  20247599.520   106401868.56606  20247597.120    82910549.44049
  22920070.000   120445795.03904  22920067.980    93853867.26946
  21333595.960   112108817.78306  21333592.220    87357513.21548
  24519560.960   128851163.18904  24519557.520   100403485.49645
  23119648.220   121494585.65804  23119648.700    94671114.21547
  23799635.000   125067929.55604  23799633.180    97455517.09846
  20064443.280   105439390.61106  20064441.920    82160566.20949
 15 03 05 04 37  0.0000000  0 10G01G03G04G11G14G19G22G27G28G32
  21120551.560   110989263.92806  21120552.720    86485156.84048
  21771368.440   114409330.40105  21771369.540    89150141.22348
  20347641.240   106927603.31807  20347640.080    83320215.98648
  20243093.780   106378190.82106  20243091.360    82892099.26449
  22925451.600   120474076.53104  22925449.940    93875904.78346
  21345887.080   112173408.51706  21345883.440    87407843.64548
  24537196.600   128943838.56604  24537193.080   100475700.04346
  23138705.160   121594731.16304  23138705.780    94749149.67347
  23795460.680   125045993.21704  23795458.900    97438423.87046
  20066702.540   105451263.17106  20066701.180    82169817.57149
 15 03 05 04 37 30.0000000  0 10G01G03G04G11G14G19G22G27G28G32
  21112977.680   110949463.31906  21112978.920    86454143.41248
  21758337.580   114340852.73805  21758338.680    89096782.02248
  20348858.920   106934002.04907  20348857.700    83325202.02248
  20238657.540   106354878.47206  20238655.100    82873933.80249
  22930933.740   120502886.93404  22930932.500    93898354.45247
  21358255.880   112238406.91806  21358252.240    87458491.75048
  24554833.140   129036518.40304  24554829.320   100547918.12445
  23157805.560   121695104.52404  23157806.240    94827362.67447
  23791380.960   125024553.00304  23791379.080    97421717.19843
  20069056.160   105463631.53806  20069054.800    82179455.27048
 15 03 05 04 38  0.0000000  0 10G01G03G04G11G14G19G22G27G28G32
  21105437.560   110909840.20206  21105438.880    86423268.27048
  21745370.160   114272708.40005  21745371.240    89043682.55448
  20350128.380   106940672.77307  20350127.060    83330399.99748
  20234290.760   106331931.27706  20234288.380    82856052.88149
  22936515.840   120532223.88403  22936515.040    93921214.39946
  21370701.660   112303809.92006  21370698.060    87509455.12848
  24572469.980   129129199.90503  24572465.980   100620137.47545
  23176948.680   121795702.01204  23176949.460    94905750.29647
  23787395.380   125003607.61204  23787393.280    97405396.15245
  20071503.520   105476492.74606  20071502.180    82189477.00049
 15 03 05 04 38 30.0000000  0  9G01G03G04G11G19G22G27G28G32
  21097932.160   110870399.16406  21097933.420    86392535.00848
  21732467.100   114204902.10205  21732468.140    88990846.50048
  20351450.420   106947620.06707  20351449.060    83335813.49148
  20229994.520   106309354.47006  20229992.140    82838460.57049
  21383225.000   112369620.50306  21383221.460    87560736.10048
  24590107.500   129221885.67004  24590103.500   100692360.10345
  23196134.760   121896525.87204  23196135.720    94984314.34047
  23783504.740   124983161.50104  23783502.660    97389464.18746
  20074045.180   105489849.39306  20074043.820    82199884.78848
 15 03 05 04 39  0.0000000  0 10G01G03G04G11G14G19G22G27G28G32
  21090461.120   110831138.52806  21090462.380    86361942.32548
  21719628.020   114137432.20505  21719629.020    88938272.57848
  20352824.660   106954841.87307  20352823.320    83341440.88648
  20225768.520   106287146.74306  20225766.160    82821155.86149
  22947983.560   120592466.58404  22947980.660    93968146.77344
  21395825.280   112435835.55506  21395821.820    87612332.24048
  24607745.100   129314571.89604  24607741.080   100764583.16146
  23215363.160   121997571.87704  23215364.220    95063051.48547
  23779708.440   124963212.30403  23779706.320    97373919.36746
  20076680.360   105503697.73106  20076679.020    82210675.71648
 15 03 05 04 39 30.0000000  0  9G01G03G04G11G14G19G27G28G32
  21083024.580   110792058.95306  21083025.800    86331490.73648
  21706853.040   114070299.39205  21706854.060    88885961.31848
  20354251.160   106962338.29107  20354249.860    83347282.26648
  20221612.980   106265309.24406  20221610.620    82804139.63249
  22953867.580   120623386.41904  22953864.880    93992240.15545
  21408502.380   112502453.76906  21408498.880    87664242.53448
  23234633.480   122098838.13704  23234634.520    95141960.26147
  23776006.520   124943760.56904  23776004.640    97358762.22046
  20079408.880   105518036.36306  20079407.540    82221848.68948
