     2.11           OBSERVATION DATA    M                   RINEX VERSION / TYPE
SPIDER V4,0,0,3554                      2015 03 16 01:56    PGM / RUN BY / DATE 
OLHC                                                        MARKER NAME         
OLHC                                                        MARKER NUMBER       
                                                            OBSERVER / AGENCY   
496563              LEICA GRX1200+GNSS  8.20/4.007          REC # / TYPE / VERS 
10401012            LEIAR25         NONE                    ANT # / TYPE        
  5213038.6056  -137570.4416  3660672.8464                  APPROX POSITION XYZ 
        0.0750        0.0000        0.0000                  ANTENNA: DELTA H/E/N
     1     1                                                WAVELENGTH FACT L1/2
     4    C1    L1    P2    L2                              # / TYPES OF OBSERV 
    30.000                                                  INTERVAL            
  2015    03    05    00    00    0.0000000     GPS         TIME OF FIRST OBS   
  2015    03    05    23    59   30.0000000     GPS         TIME OF LAST OBS    
    16                                                      LEAP SECONDS        
    38                                                      # OF SATELLITES     
   G 1   841   841   841   841                              PRN / # OF OBS      
   G 2   914   914   914   914                              PRN / # OF OBS      
   G 3   834   834   834   834                              PRN / # OF OBS      
   G 4   847   847   847   847                              PRN / # OF OBS      
   G 5   684   684   684   684                              PRN / # OF OBS      
   G 6   648   648   648   648                              PRN / # OF OBS      
   G 7   778   778   777   777                              PRN / # OF OBS      
   G 9   772   772   772   772                              PRN / # OF OBS      
   G10   795   795   795   795                              PRN / # OF OBS      
   G11   808   808   808   808                              PRN / # OF OBS      
   G12   802   802   802   802                              PRN / # OF OBS      
   G13   832   831   831   831                              PRN / # OF OBS      
   G14   418   413   408   408                              PRN / # OF OBS      
   G15   745   745   745   745                              PRN / # OF OBS      
   G16   706   706   705   705                              PRN / # OF OBS      
   G17   922   921   921   921                              PRN / # OF OBS      
   G18   947   943   941   940                              PRN / # OF OBS      
   G19   803   803   803   803                              PRN / # OF OBS      
   G20   805   804   804   804                              PRN / # OF OBS      
   G21   701   701   700   700                              PRN / # OF OBS      
   G22   838   838   838   838                              PRN / # OF OBS      
   G23   716   716   716   716                              PRN / # OF OBS      
   G24   848   844   842   842                              PRN / # OF OBS      
   G25   855   855   854   854                              PRN / # OF OBS      
   G27   841   841   841   841                              PRN / # OF OBS      
   G28   922   922   922   922                              PRN / # OF OBS      
   G29   730   730   730   730                              PRN / # OF OBS      
   G30   682   682   682   682                              PRN / # OF OBS      
   G31   737   737   737   737                              PRN / # OF OBS      
   G32   727   727   727   727                              PRN / # OF OBS      
   R 2    30    30    30    30                              PRN / # OF OBS      
   R 3    30    30    30    30                              PRN / # OF OBS      
   R 9    30    30    30    30                              PRN / # OF OBS      
   R15    30    30    30    30                              PRN / # OF OBS      
   R16    30    30    30    30                              PRN / # OF OBS      
   R17    30    30    30    30                              PRN / # OF OBS      
   R18    30    30    30    30                              PRN / # OF OBS      
   R19    30    30    30    30                              PRN / # OF OBS      
BIT 2 OF LLI FLAGS DATA COLLECTED UNDER A/S CONDITION       COMMENT             
SNR is mapped to RINEX snr flag value [2-9]                 COMMENT             
Lx:     = 25dBHz -> 1; 26-27dBHz -> 2; 28-31dBHz -> 3       COMMENT             
       32-35dBHz -> 4; 36-38dBHz -> 5; 39-41dBHz -> 6       COMMENT             
       42-44dBHz -> 7; 45-48dBHz -> 8; >=49dBHz -> 9        COMMENT             
                                                            END OF HEADER       
 15 03 05 00 00  0.0000000  0 15G16G18G19G21G22G27G31R02R03R09R15R16
                                R17R18R19
  21010010.940   110408378.76809  21010008.060    86032497.12848
  22525723.780   118373524.74909  22525720.460    92239135.50646
  24073569.860   126507473.73807  24073567.440    98577251.30946
  21908411.060   115129595.75209  21908407.540    89711418.23447
  23326919.800   122583839.87508  23326915.760    95519885.13346
  21994541.940   115582149.69609  21994541.580    90064030.71248
  23493305.160   123458187.54809  23493303.440    96201192.74747
  22872867.240   122054013.09608  22872870.440    94930914.71707
  22817063.400   122141537.17407  22817065.280    94998977.97907
  21457700.920   114582938.97708  21457702.100    89120061.07404
  22407737.260   119740182.37008  22407743.120    93131301.42207
  19615389.720   104781908.18608  19615392.320    81497057.39108
  22899375.420   122539554.75408  22899377.140    95308709.84307
  20139962.280   107508811.93009  20139965.300    83617958.13408
  21464531.220   114820831.71309  21464531.740    89305120.76608
 15 03 05 00 00 30.0000000  0 15G16G18G19G21G22G27G31R02R03R09R15R16
                                R17R18R19
  21000050.020   110356033.65709  21000047.120    85991708.73748
  22517215.260   118328811.78809  22517211.960    92204294.25847
  24059030.600   126431070.54807  24059028.340    98517716.42646
  21919131.740   115185933.39809  21919128.220    89755317.69848
  23310298.500   122496494.54008  23310294.420    95451823.90746
  21984606.400   115529938.25909  21984605.940    90023346.50648
  23512066.640   123556778.24308  23512064.520    96278016.59847
  22871531.800   122046886.36408  22871534.820    94925371.74107
  22800326.240   122051942.30608  22800328.260    94929293.12607
  21442402.060   114501243.34408  21442403.140    89056520.04904
  22432161.960   119870700.82308  22432167.860    93232815.70606
  19621681.500   104815517.91908  19621684.080    81523198.28608
  22915091.920   122623657.42108  22915093.660    95374123.01307
  20146606.600   107544279.75409  20146609.580    83645544.22108
  21454887.200   114769242.74108  21454887.780    89264996.05008
 15 03 05 00 01  0.0000000  0 15G16G18G19G21G22G27G31R02R03R09R15R16
                                R17R18R19
  20990153.340   110304026.25009  20990150.380    85951183.50248
  22508775.920   118284462.48109  22508772.620    92169736.37947
  24044511.400   126354772.95707  24044509.420    98458263.83546
  21929902.040   115242532.08008  21929898.540    89799420.57748
  23293696.480   122409250.47308  23293692.300    95383841.59246
  21974696.960   115477864.15309  21974696.640    89982769.32548
  23530843.260   123655449.42708  23530840.880    96354903.16346
  22870328.420   122040464.47808  22870331.360    94920376.98907
  22783649.860   121962672.42208  22783651.860    94859861.04307
  21427216.040   114420150.69508  21427217.020    88993448.01604
  22456624.680   120001421.59608  22456630.380    93334487.35407
  19628126.100   104849943.52109  19628128.580    81549973.75508
  22930798.940   122707710.00307  22930800.740    95439497.23307
  20153288.700   107579948.82809  20153291.600    83673286.84808
  21445291.980   114717915.19309  21445292.660    89225074.66808
 15 03 05 00 01 30.0000000  0 15G16G18G19G21G22G27G31R02R03R09R15R16
                                R17R18R19
  20980321.600   110252360.01809  20980318.660    85910924.10648
  22500406.240   118240479.78109  22500402.880    92135464.16447
  24030012.720   126278582.46507  24030010.740    98398894.67646
  21940721.980   115299391.66109  21940718.480    89843726.75248
  23277114.520   122322111.83508  23277110.300    95315941.41447
  21964813.920   115425928.70309  21964813.780    89942300.17448
  23549634.580   123754199.34508  23549632.220    96431851.07746
  22869257.500   122034749.92408  22869260.520    94915932.38506
  22767035.320   121873733.15107  22767037.060    94790686.10506
  21412143.720   114339666.11108  21412144.820    88930848.90704
  22481124.860   120132342.15508  22481130.320    93436314.36806
  19634723.380   104885184.65208  19634725.820    81577383.50808
  22946496.760   122791712.88007  22946498.500    95504832.78806
  20160008.460   107615818.88809  20160011.300    83701185.78608
  21435745.760   114666849.67208  21435746.420    89185357.08107
 15 03 05 00 02  0.0000000  0 15G16G18G19G21G22G27G31R02R03R09R15R16
                                R17R18R19
  20970555.300   110201037.62809  20970552.380    85870932.64848
  22492106.880   118196866.77009  22492103.480    92101480.02447
  24015534.680   126202499.75408  24015532.520    98339609.52446
  21951591.300   115356510.54309  21951587.800    89888234.98148
  23260553.220   122235082.02608  23260549.080    95248126.02847
  21954957.360   115374132.45309  21954957.300    89901939.48948
  23568440.300   123853025.64108  23568438.160    96508858.51646
  22868319.360   122029744.23808  22868322.360    94912039.11307
  22750483.460   121785129.54007  22750484.780    94721772.24107
  21397186.000   114259793.57208  21397187.300    88868725.84405
  22505661.760   120263458.80508  22505667.020    93538293.90607
  19641473.120   104921240.35908  19641475.640    81605426.82408
  22962185.380   122875666.35207  22962187.020    95570129.93507
  20166765.620   107651888.73309  20166768.520    83729240.12708
  21426248.560   114616045.95709  21426249.160    89145843.12008
 15 03 05 00 02 30.0000000  0 15G16G18G19G21G22G27G31R02R03R09R15R16
                                R17R18R19
  20960854.900   110150061.32509  20960851.900    85831210.86448
  22483878.160   118153625.18009  22483874.700    92067785.29947
  24001077.240   126126524.87108  24001074.860    98280408.39146
  21962509.720   115413887.36709  21962506.260    89932944.19448
  23244013.060   122148164.01208  23244009.160    95180397.76347
  21945127.300   115322475.56309  21945127.320    89861687.38748
  23587260.060   123951925.75308  23587258.200    96585923.47647
  22867514.280   122025448.68308  22867517.140    94908698.17407
  22733995.240   121696866.32307  22733996.100    94653123.12007
  21382343.600   114180536.85808  21382344.960    88807081.74104
  22530234.440   120394766.77908  22530239.620    93640422.24307
  19648375.100   104958109.32608  19648377.560    81634102.67908
  22977864.760   122959569.74008  22977866.300    95635388.12107
  20173559.920   107688157.08309  20173562.840    83757448.84508
  21416800.220   114565503.46809  21416800.780    89106532.32908
 15 03 05 00 03  0.0000000  0 15G16G18G19G21G22G27G31R02R03R09R15R16
                                R17R18R19
  20951220.960   110099434.23409  20951217.860    85791761.19548
  22475720.800   118110758.52909  22475717.320    92034382.73547
  23986640.620   126050659.08508  23986637.980    98221292.26646
  21973477.060   115471521.26209  21973473.660    89977853.73048
  23227495.000   122061362.07208  23227491.320    95112759.94147
  21935324.060   115270959.46509  21935324.180    89821544.99448
  23606093.800   124050898.29508  23606092.160    96663044.87447
  22866842.620   122021865.61508  22866845.520    94905911.37006
  22717571.640   121608949.48707  22717572.220    94584743.41506
  21367617.500   114101900.99408  21367618.860    88745920.52604
  22554842.540   120526264.33607  22554847.780    93742698.03506
  19655429.180   104995791.08408  19655431.600    81663410.69408
  22993535.100   123043424.06508  22993536.360    95700608.15606
  20180391.320   107724623.66609  20180394.300    83785811.74108
  21407400.880   114515223.06708  21407401.340    89067425.38007
 15 03 05 00 03 30.0000000  0 15G16G18G19G21G22G27G31R02R03R09R15R16
                                R17R18R19
  20941653.540   110049156.69309  20941650.320    85752583.91148
  22467634.840   118068267.00909  22467631.320    92001272.48547
  23972224.460   125974900.50508  23972221.480    98162259.68946
  21984492.720   115529409.14308  21984489.320    90022961.17848
  23210999.220   121974676.78908  23210995.680    95045213.01647
  21925547.240   115219582.01009  21925547.360    89781510.64248
  23624940.540   124149938.09108  23624939.000    96740218.67647
  22866304.300   122018993.91108  22866307.320    94903677.86007
  22701213.120   121521381.03007  22701213.480    94516634.66307
  21353008.060   114023887.21808  21353009.280    88685243.15904
  22579484.960   120657945.57307  22579490.280    93845116.70007
  19662634.720   105034281.80608  19662637.080    81693347.92008
  23009195.800   123127226.25408  23009196.760    95765787.63407
  20187259.120   107761284.64709  20187262.140    83814325.83908
  21398049.980   114465201.91808  21398050.300    89028520.07508
 15 03 05 00 04  0.0000000  0 15G16G18G19G21G22G27G31R02R03R09R15R16
                                R17R18R19
  20932153.380   109999233.12009  20932150.180    85713682.45048
  22459621.040   118026154.50809  22459617.560    91968457.57046
  23957829.160   125899251.76808  23957825.880    98103312.70246
  21995556.800   115587551.25209  21995553.320    90068266.72247
  23194526.640   121888113.28308  23194523.100    94977760.98046
  21915797.320   115168345.72209  21915797.320    89741586.28248
  23643800.220   124249045.00108  23643798.640    96817444.75046
  22865900.040   122016836.92108  22865903.140    94902000.23006
  22684920.980   121434167.89708  22684921.180    94448802.28106
  21338516.300   113946501.70508  21338517.460    88625054.44604
  22604161.320   120789808.38208  22604166.740    93947676.58806
  19669991.860   105073582.59008  19669994.300    81723915.19408
  23024847.140   123210978.67108  23024847.840    95830928.40106
  20194163.560   107798141.02709  20194166.520    83842991.91308
  21388747.820   114415441.91009  21388748.140    88989817.89007
 15 03 05 00 04 30.0000000  0 15G16G18G19G21G22G27G31R02R03R09R15R16
                                R17R18R19
  20922720.860   109949665.21709  20922717.700    85675058.12349
  22451679.760   117984423.21509  22451676.360    91935939.69647
  23943454.540   125823712.27508  23943451.080    98044450.84746
  22006668.740   115645944.79109  22006665.180    90113768.18548
  23178077.740   121801674.12108  23178074.160    94910405.83047
  21906074.240   115117250.23109  21906074.140    89701771.63548
  23662672.020   124348215.76608  23662670.360    96894720.58047
  22865629.940   122015395.07408  22865633.080    94900878.83906
  22668696.080   121347314.58208  22668696.200    94381249.73506
  21324142.660   113869747.30908  21324143.760    88565356.59904
  22628870.760   120921847.94607  22628876.240    94050373.94106
  19677500.180   105113690.74608  19677502.680    81755110.41408
  23040488.920   123294680.09608  23040489.460    95896029.51106
  20201104.280   107835190.89409  20201107.100    83871808.47808
  21379494.260   114365941.67308  21379494.500    88951317.73307
 15 03 05 00 05  0.0000000  0 15G16G18G19G21G22G27G31R02R03R09R15R16
                                R17R18R19
  20913356.400   109900454.99909  20913353.280    85636712.52248
  22443811.200   117943074.70409  22443807.920    91903720.10847
  23929100.580   125748282.21108  23929097.240    97985674.25846
  22017828.160   115704588.06508  22017824.640    90159464.24947
  23161653.060   121715361.99808  23161649.360    94843149.67946
  21896377.900   115066295.56609  21896377.800    89662066.73148
  23681555.320   124447447.54908  23681553.660    96972043.96747
  22865494.100   122014669.52008  22865497.340    94900314.55706
  22652539.200   121260825.13108  22652539.200    94313980.21106
  21309887.820   113793627.68908  21309888.980    88506152.47104
  22653612.780   121054061.66508  22653618.220    94153206.74906
  19685159.300   105154604.69808  19685161.860    81786932.36208
  23056120.900   123378329.73308  23056121.540    95961090.34406
  20208080.920   107872432.55209  20208083.620    83900774.23308
  21370289.060   114316700.46209  21370289.220    88913019.04607
 15 03 05 00 05 30.0000000  0 15G16G18G19G21G22G27G31R02R03R09R15R16
                                R17R18R19
  20904061.020   109851607.34809  20904057.820    85598649.43349
  22436016.420   117902114.15109  22436013.300    91871802.81647
  23914767.860   125672964.18608  23914764.740    97926984.97046
  22029035.340   115763482.40908  22029031.900    90205355.95248
  23145253.700   121629182.57208  23145249.760    94775996.92747
  21886708.920   115015484.66509  21886708.780    89622473.85248
  23700450.140   124546740.29608  23700448.540    97049414.85347
  22865493.060   122014663.69808  22865496.540    94900310.06607
  22636451.680   121174706.77508  22636451.600    94246999.31307
  21295752.980   113718149.10708  21295754.440    88447446.92004
  22678386.900   121186446.86408  22678392.100    94256172.92106
  19692969.520   105196325.46408  19692972.100    81819381.83108
  23071743.560   123461930.30908  23071744.480    96026113.03106
  20215093.700   107909867.45809  20215096.400    83929890.28608
  21361132.820   114267720.62309  21361132.880    88874923.64508
 15 03 05 00 06  0.0000000  0 15G16G18G19G21G22G27G31R02R03R09R15R16
                                R17R18R19
  20894834.060   109803119.15909  20894830.800    85560866.44848
  22428294.860   117861538.03109  22428291.940    91840185.08346
  23900455.480   125597753.39408  23900452.560    97868379.23746
  22040288.920   115822620.70709  22040285.520    90251437.74947
  23128879.060   121543133.38408  23128874.880    94708945.67946
  21877066.280   114964812.26809  21877066.140    89582988.90048
  23719354.900   124646085.83008  23719353.460    97126826.87346
  22865626.040   122015373.01208  22865629.600    94900861.78807
  22620433.240   121088958.76808  22620433.100    94180306.46306
  21281737.980   113643309.68508  21281739.460    88389238.49304
  22703191.760   121318995.86608  22703196.620    94359266.49606
  19700929.340   105238845.48708  19700932.020    81852452.94708
  23087355.900   123545475.77408  23087357.100    96091092.84306
  20222141.340   107947488.72509  20222144.220    83959151.26908
  21352024.320   114218996.23109  21352024.380    88837026.93107
 15 03 05 00 06 30.0000000  0 15G16G18G19G21G22G27G31R02R03R09R15R16
                                R17R18R19
  20885675.760   109754991.75009  20885672.420    85523364.58748
  22420646.760   117821347.45109  22420643.900    91808867.76446
  23886163.400   125522648.81308  23886160.580    97809856.25145
  22051588.500   115882000.49308  22051585.100    90297707.69947
  23112529.620   121457216.58908  23112525.260    94641997.56646
  21867449.820   114914277.71009  21867449.720    89543611.35048
  23738269.100   124745480.80608  23738267.700    97204277.42245
  22865893.040   122016797.54008  22865896.420    94901969.78707
  22604484.620   121003584.90807  22604484.460    94113904.60807
  21267843.160   113569112.03908  21267844.640    88331529.22504
  22728026.320   121451703.21208  22728030.840    94462483.22706
  19709038.360   105282162.55008  19709041.140    81886143.98208
  23102957.760   123628965.11007  23102959.240    96156028.98506
  20229223.460   107985294.07809  20229226.520    83988555.43808
  21342963.300   114170525.66709  21342963.300    88799327.63108
 15 03 05 00 07  0.0000000  0 15G16G18G19G21G22G27G31R02R03R09R15R16
                                R17R18R19
  20876587.280   109707231.43909  20876583.940    85486148.77848
  22413073.200   117781548.59509  22413070.400    91777855.69147
  23871892.440   125447655.05008  23871889.660    97751419.62247
  22062934.480   115941624.06508  22062931.080    90344167.64048
  23096206.820   121371439.64808  23096202.320    94575158.44747
  21857860.500   114863885.40709  21857860.320    89504344.65248
  23757193.160   124844926.78208  23757191.540    97281767.72546
  22866294.880   122018942.31008  22866297.920    94903637.97307
  22588607.380   120918593.89907  22588607.280    94047800.53207
  21254069.960   113495564.09008  21254071.500    88274325.27304
  22752890.380   121584567.94108  22752894.780    94565822.36506
  19717296.980   105326278.71208  19717299.760    81920456.55008
  23118549.860   123712402.09208  23118551.380    96220924.42606
  20236340.700   108023286.37709  20236343.840    84018105.01108
  21333950.280   114122312.52109  21333950.400    88761828.54408
 15 03 05 00 07 30.0000000  0 15G16G18G19G21G22G27G31R02R03R09R15R16
                                R17R18R19
  20867568.640   109659838.22109  20867565.320    85449219.00848
  22405574.180   117742141.55209  22405571.460    91747148.92346
  23857642.220   125372770.09108  23857639.500    97693067.76546
  22074326.060   116001487.46608  22074322.740    90390814.45447
  23079910.720   121285802.96808  23079906.100    94508428.62546
  21848297.920   114813633.35009  21848297.640    89465187.22848
  23776126.080   124944418.66508  23776124.120    97359293.78745
  22866831.380   122021805.93208  22866834.160    94905865.26607
  22572801.880   120833987.88607  22572801.940    93981995.89706
  21240418.720   113422667.17708  21240420.360    88217627.68405
  22777782.900   121717585.29907  22777787.480    94669280.19606
  19725704.520   105371189.90808  19725707.220    81955387.46708
  23134131.800   123795784.26508  23134133.140    96285777.22706
  20243492.300   108061462.02109  20243495.380    84047797.17808
  21324984.920   114074354.19609  21324985.120    88724527.64708
 15 03 05 00 08  0.0000000  0 15G16G18G19G21G22G27G31R02R03R09R15R16
                                R17R18R19
  20858620.220   109612814.01409  20858616.920    85412576.79448
  22398150.000   117703127.85009  22398147.480    91716748.66347
  23843412.680   125297993.95508  23843410.020    97634800.71847
  22085762.900   116061588.70808  22085759.680    90437646.59548
  23063641.780   121200309.18708  23063637.160    94441810.16946
  21838761.940   114763521.41309  21838761.600    89426139.00048
  23795067.220   125043953.48308  23795064.860    97436853.30746
  22867502.800   122025389.07008  22867505.500    94908652.19207
  22557069.240   120749771.52708  22557069.320    93916494.32807
  21226889.940   113350424.14808  21226891.680    88161438.66705
  22802703.160   121850751.09507  22802708.000    94772853.47606
  19734260.460   105416893.80309  19734263.160    81990934.93308
  23149703.360   123879110.83007  23149704.500    96350586.79106
  20250677.960   108099819.31909  20250680.920    84077630.63908
  21316067.000   114026649.63609  21316067.280    88687424.13708
 15 03 05 00 08 30.0000000  0 15G16G18G19G21G22G27G31R02R03R09R15R16
                                R17R18R19
  20849742.620   109566161.78009  20849739.320    85376224.41448
  22390801.280   117664510.53109  22390798.940    91686657.25947
  23829203.900   125223327.19308  23829201.220    97576618.88446
  22097244.840   116121926.82809  22097241.680    90484663.31647
  23047400.780   121114962.00609  23047396.160    94375305.92946
  21829252.880   114713550.62909  21829252.360    89387200.75648
  23814016.160   125143529.84208  23814013.600    97514445.18346
  22868309.360   122029693.12708  22868312.060    94911999.83607
  22541410.580   120665949.86007  22541410.580    93851299.74406
  21213484.500   113278839.64008  21213486.220    88105761.83704
  22827650.500   121984061.99307  22827655.600    94876539.61006
  19742964.600   105463389.36908  19742967.260    82027098.14508
  23165264.560   123962382.35607  23165265.440    96415353.52306
  20257897.580   108138357.89309  20257900.420    84107605.09708
  21307196.600   113979199.02609  21307196.880    88650518.12708
 15 03 05 00 09  0.0000000  0 15G16G18G19G21G22G27G31R02R03R09R15R16
                                R17R18R19
  20840935.900   109519882.21209  20840932.620    85340162.41748
  22383528.040   117626290.09109  22383525.880    91656875.11646
  23815015.760   125148768.90708  23815013.140    97518521.57446
  22108771.340   116182498.72908  22108768.160    90531862.19647
  23031188.060   121029763.30909  23031183.520    94308917.37746
  21819770.380   114663719.91309  21819769.720    89348371.65148
  23832971.980   125243143.37208  23832969.640    97592065.98646
  22869250.900   122034717.42408  22869253.740    94915907.65907
  22525826.220   120582525.89308  22525826.280    93786414.47607
  21200202.720   113207915.45708  21200204.360    88050598.58505
  22852623.940   122117513.02407  22852629.240    94980334.73406
  19751816.220   105510673.34508  19751818.920    82063874.54408
  23180815.140   124045597.25607  23180816.000    96480076.19906
  20265150.600   108177074.90009  20265153.340    84137718.31608
  21298373.320   113932000.48409  21298373.540    88613808.15808
 15 03 05 00 09 30.0000000  0 15G16G18G19G21G22G27G31R02R03R09R15R16
                                R17R18R19
  20832200.300   109473976.57909  20832197.060    85304391.81248
  22376330.460   117588467.29109  22376328.280    91627402.84047
  23800848.140   125074318.16008  23800845.560    97460508.09446
  22120341.820   116243301.89308  22120338.620    90579241.29147
  23015003.880   120944714.65409  23014999.420    94242645.75547
  21810314.300   114614028.30609  21810313.660    89309650.95748
  23851934.100   125342790.65708  23851932.260    97669713.11546
  22870327.300   122040461.39408  22870330.160    94920375.22907
  22510316.900   120499503.55607  22510317.140    93721841.59107
  21187045.100   113137654.06508  21187046.620    87995950.85505
  22877622.620   122251098.81808  22877627.940    95084234.69206
  19760814.840   105558742.22708  19760817.520    82101261.44408
  23196354.920   124128753.97407  23196355.900    96544753.63306
  20272436.600   108215967.96109  20272439.360    84167968.48608
  21289596.840   113885052.29809  21289597.040    88577292.93608
 15 03 05 00 10  0.0000000  0 15G16G18G19G21G22G27G31R02R03R09R15R16
                                R17R18R19
  20823536.480   109428448.31509  20823533.260    85268915.25548
  22369209.160   117551045.06409  22369206.820    91598242.68747
  23786701.360   124999976.29808  23786698.580    97402579.43746
  22131956.200   116304335.92509  22131952.980    90626800.28147
  22998848.960   120859820.00509  22998844.640    94176494.13047
  21800884.980   114564477.07909  21800884.340    89271039.63748
  23870902.320   125442469.57308  23870900.960    97747384.89546
  22871538.880   122046926.86008  22871541.780    94925403.96207
  22494883.440   120416887.79408  22494884.080    93657584.92507
  21174012.380   113068059.74408  21174013.820    87941821.94905
  22902646.040   122384816.60107  22902651.340    95188237.29606
  19769960.200   105607595.01108  19769962.820    82139258.04508
  23211884.020   124211853.40808  23211885.000    96609386.48006
  20279755.560   108255036.77009  20279758.440    84198355.34508
  21280867.180   113838354.96609  21280867.500    88540972.83208
 15 03 05 00 10 30.0000000  0 15G16G18G19G21G22G27G31R02R03R09R15R16
                                R17R18R19
  20814944.500   109383297.76009  20814941.320    85233733.01148
  22362164.320   117514024.48209  22362161.840    91569395.50346
  23772575.100   124925741.82008  23772572.000    97344734.44546
  22143613.860   116365597.34408  22143610.620    90674536.45847
  22982723.600   120775081.05809  22982719.500    94110463.82647
  21791482.140   114515065.01309  21791481.520    89232536.75648
  23889875.940   125542176.44908  23889874.880    97825078.47246
  22872885.440   122054112.53608  22872888.300    94930992.82707
  22479526.580   120334682.07208  22479527.680    93593647.17207
  21161104.900   112999134.51308  21161106.220    87888213.45504
  22927693.320   122518661.31307  22927698.660    95292338.60306
  19779251.660   105657228.24808  19779254.200    82177861.66508
  23227402.140   124294893.80507  23227403.300    96673973.44306
  20287106.900   108294278.60009  20287109.780    84228876.76408
  21272183.960   113791906.41209  21272184.380    88504846.21507
 15 03 05 00 11  0.0000000  0 15G16G18G19G21G22G27G31R02R03R09R15R16
                                R17R18R19
  20806425.180   109338528.79409  20806422.060    85198848.10448
  22355196.500   117477408.44109  22355193.860    91540863.54147
  23758469.740   124851617.03308  23758466.440    97286974.94246
  22155314.600   116427085.19808  22155311.340    90722449.06948
  22966628.700   120690502.35509  22966624.820    94044558.38547
  21782106.120   114465793.97909  21782105.520    89194143.76548
  23908854.660   125641909.95908  23908853.780    97902792.79047
  22874367.520   122062020.97708  22874370.300    94937143.86607
  22464247.680   120252892.65908  22464249.120    93530033.21307
  21148323.720   112930883.29508  21148324.800    87835129.18005
  22952764.100   122652630.99307  22952769.520    95396537.10606
  19788689.120   105707641.31008  19788691.600    82217071.80608
  23242909.460   124377876.55307  23242910.820    96738515.56307
  20294490.700   108333693.66309  20294493.520    84259532.92608
  21263547.540   113745707.52809  21263547.900    88468913.77608
 15 03 05 00 11 30.0000000  0 15G16G18G19G21G22G27G31R02R03R09R15R16
                                R17R18R19
  20797978.920   109294143.56609  20797975.840    85164262.22048
  22348306.140   117441199.21509  22348303.400    91512648.57747
  23744385.260   124777601.79508  23744381.800    97229300.79846
  22167058.340   116488799.02608  22167055.080    90770537.77647
  22950564.840   120606086.98908  22950561.120    93978780.23147
  21772757.000   114416664.33209  21772756.460    89155860.94748
  23927838.020   125741667.64308  23927837.160    97980525.95346
  22875985.120   122070652.68608  22875987.980    94943857.43607
  22449047.460   120171523.69008  22449048.840    93466746.27307
  21135669.380   112863309.40708  21135670.300    87782571.71705
  22977857.480   122786721.49707  22977863.080    95500829.56606
  19798272.160   105758831.85308  19798274.640    82256886.65908
  23258405.940   124460801.42307  23258407.400    96803012.68007
  20301906.760   108373281.05409  20301909.540    84290323.13308
  21254957.740   113699757.99509  21254958.140    88433175.29208
 15 03 05 00 12  0.0000000  0 15G16G18G19G21G22G27G31R02R03R09R15R16
                                R17R18R19
  20789606.340   109250145.44509  20789603.280    85129977.98748
  22341493.760   117405399.57209  22341490.940    91484752.77847
  23730321.840   124703697.39608  23730318.120    97171713.00846
  22178844.940   116550738.18208  22178841.740    90818802.05847
  22934532.760   120521838.82508  22934529.160    93913132.36847
  21763435.020   114367677.41409  21763434.540    89117689.36248
  23946825.720   125841448.28808  23946824.780    98058277.01146
  22877738.540   122080009.23608  22877741.400    94951134.78207
  22433926.880   120090580.97108  22433928.000    93403790.86607
  21123142.700   112796417.58408  21123143.580    87730544.75805
  23002973.040   122920929.88707  23002978.700    95605213.73106
  19808000.540   105810799.02508  19808003.100    82297305.55108
  23273891.840   124543669.40407  23273893.320    96867465.52506
  20309354.920   108413040.40409  20309357.720    84321247.08608
  21246414.640   113654057.92909  21246415.040    88397630.82608
 15 03 05 00 12 30.0000000  0 15G16G18G19G21G22G27G31R02R03R09R15R16
                                R17R18R19
  20781307.240   109206533.48809  20781304.240    85095994.65648
  22334759.180   117370008.92109  22334756.280    91457175.67847
  23716278.780   124629901.04808  23716275.100    97114209.41646
  22190673.580   116612898.17608  22190670.440    90867238.41747
  22918532.600   120437758.02109  22918528.940    93847614.90847
  21754139.680   114318830.48209  21754139.260    89079626.84748
  23965816.560   125941245.91508  23965815.580    98136041.29646
  22879627.300   122090088.05608  22879630.220    94958973.88706
  22418886.240   120010065.91708  22418887.040    93341168.09306
  21110743.720   112730207.84508  21110744.620    87679048.31405
  23028109.560   123055250.43207  23028115.100    95709685.12205
  19817873.260   105863537.40308  19817875.860    82338324.27708
  23289366.600   124626477.29307  23289367.880    96931871.66406
  20316834.520   108452967.52409  20316837.420    84352301.52308
  21237917.540   113608604.23609  21237917.940    88362277.98007
 15 03 05 00 13  0.0000000  0 15G16G18G19G21G22G27G31R02R03R09R15R16
                                R17R18R19
  20773082.440   109163311.45709  20773079.360    85062315.16048
  22328102.980   117335030.34409  22328100.080    91429919.66447
  23702256.580   124556214.49708  23702252.960    97056791.39846
  22202544.080   116675277.94508  22202540.900    90915846.02747
  22902565.100   120353848.67908  22902561.240    93782231.05847
  21744871.360   114270125.08709  21744870.980    89041674.62448
  23984810.360   126041059.54108  23984809.360    98213818.02746
  22881651.780   122100890.86408  22881654.700    94967376.09007
  22403926.620   119929984.37208  22403927.060    93278882.49606
  21098473.340   112664684.74008  21098474.280    87628085.91405
  23053266.300   123189679.67707  23053271.700    95814241.05006
  19827890.180   105917045.83108  19827892.740    82379941.93408
  23304830.380   124709226.36007  23304831.240    96996232.02406
  20324345.640   108493062.47509  20324348.600    84383486.50608
  21229466.620   113563397.38608  21229467.040    88327117.13107
 15 03 05 00 13 30.0000000  0 15G16G18G19G21G22G27G31R02R03R09R15R16
                                R17R18R19
  20764932.220   109120481.23609  20764928.940    85028940.96648
  22321525.460   117300465.71009  22321522.580    91402986.20247
  23688255.360   124482637.72908  23688251.760    96999458.90246
  22214456.240   116737876.13009  22214452.920    90964623.84048
  22886630.820   120270113.92408  22886626.840    93716983.24847
  21735630.020   114221561.44709  21735629.680    89003832.85048
  24003806.740   126140886.53108  24003805.740    98291605.17046
  22883811.980   122112417.77408  22883814.940    94976341.49107
  22389048.520   119850340.62308  22389048.880    93216937.39707
  21086332.160   112599851.48208  21086333.140    87577660.05805
  23078442.620   123324213.56307  23078447.760    95918878.34806
  19838050.780   105971322.11208  19838053.420    82422156.79808
  23320283.060   124791915.94007  23320283.380    97060546.10406
  20331888.060   108533324.07909  20331890.960    84414801.08608
  21221061.620   113518436.64308  21221062.040    88292147.68708
 15 03 05 00 14  0.0000000  0 15G16G18G19G21G22G27G31R02R03R09R15R16
                                R17R18R19
  20756856.900   109078044.64909  20756853.480    84995873.50848
  22315026.960   117266316.48009  22315024.120    91376376.43847
  23674274.960   124409170.66408  23674271.360    96942211.89246
  22226409.540   116800690.58109  22226406.100    91013570.16947
  22870730.320   120186556.50909  22870726.240    93651873.62746
  21726415.620   114173139.53709  21726415.300    88966101.52948
  24022805.180   126240723.65508  24022804.220    98369400.20346
  22886107.860   122124668.90408  22886110.880    94985870.17107
  22374252.880   119771138.88508  22374253.340    93155336.07907
  21074320.620   112535711.01408  21074321.660    87527773.04505
  23103637.960   123458848.77407  23103642.960    96023594.45706
  19848354.620   106026363.53608  19848357.360    82464966.78808
  23335724.420   124874545.81107  23335724.640    97124813.74806
  20339461.460   108573750.73809  20339464.320    84446244.04508
  21212702.520   113473721.29608  21212702.820    88257369.11408
 15 03 05 00 14 30.0000000  0 15G16G18G19G21G22G27G31R02R03R09R15R16
                                R17R18R19
  20748856.640   109036002.72309  20748853.140    84963113.57848
  22308607.720   117232583.32709  22308604.920    91350090.88847
  23660315.320   124335812.61808  23660311.680    96885049.83846
  22238403.480   116863718.80109  22238399.940    91062683.08047
  22854863.920   120103178.01609  22854859.800    93586903.42047
  21717227.980   114124858.53109  21717227.780    88928480.00148
  24041805.060   126340567.39508  24041803.980    98447200.38945
  22888539.160   122137643.50508  22888542.320    94995961.56607
  22359540.380   119692382.41908  22359541.000    93094081.08107
  21062439.180   112472265.19108  21062440.340    87478426.32205
  23128851.140   123593579.61807  23128856.240    96128384.94306
  19858801.040   106082166.30608  19858803.740    82508368.94808
  23351154.280   124957114.78907  23351154.720    97189034.03106
  20347065.280   108614339.92209  20347068.000    84477813.42508
  21204388.920   113429249.31309  21204389.280    88222779.83408
 15 03 05 00 15  0.0000000  0  7G16G18G19G21G22G27G31
  20740931.700   108994357.02709  20740928.220    84930662.38448
  22302267.960   117199267.62409  22302265.180    91324130.60847
  23646376.300   124262562.91308  23646372.640    96827972.19847
  22250437.640   116926958.36009  22250434.020    91111960.64647
  22839032.000   120019980.94709  22839028.000    93522074.57347
  21708067.080   114076718.17609  21708067.000    88890968.05848
  24060805.760   126440414.72108  24060804.520    98525003.35946
 15 03 05 00 15 30.0000000  0  7G16G18G19G21G22G27G31
  20733082.560   108953109.59409  20733079.160    84898521.53948
  22296008.020   117166371.07909  22296005.200    91298496.96046
  23632457.980   124189421.78108  23632454.420    96770979.16046
  22262511.720   116990407.95009  22262508.080    91161401.88747
  22823235.160   119936968.03909  22823231.220    93457389.23647
  21698933.080   114028718.61409  21698932.900    88853565.82648
  24079806.540   126540262.72108  24079805.140    98602806.85445
 15 03 05 00 16  0.0000000  0  7G16G18G19G21G22G27G31
  20725309.680   108912262.96809  20725306.380    84866693.00548
  22289828.400   117133896.05009  22289825.460    91273191.76147
  23618560.380   124116389.95808  23618557.000    96714071.30546
  22274625.460   117054066.00509  22274621.780    91211005.56447
  22807474.100   119854142.93709  22807470.100    93392850.23647
  21689826.060   113980860.64609  21689825.720    88816273.92848
  24098807.020   126640109.61408  24098805.560    98680609.48046
 15 03 05 00 16 30.0000000  0  7G16G18G19G21G22G27G31
  20717613.900   108871821.53709  20717610.660    84835180.21848
  22283729.640   117101845.90409  22283726.580    91248217.64647
  23604684.080   124043469.94808  23604680.840    96657250.56946
  22286778.960   117117933.24109  22286775.260    91260772.24647
  22791749.760   119771510.81409  22791745.660    93328461.61547
  21680746.460   113933146.65009  21680745.980    88779094.21148
  24117807.020   126739954.80408  24117805.620    98758410.79246
 15 03 05 00 17  0.0000000  0  7G16G18G19G21G22G27G31
  20709995.120   108831784.85909  20709991.960    84803982.81548
  22277711.720   117070220.51209  22277708.480    91223574.50046
  23590828.680   123970659.30308  23590825.440    96600515.05546
  22298971.380   117182005.06109  22298967.680    91310698.33447
  22776062.240   119689071.98309  22776058.040    93264223.60746
  21671693.800   113885574.49809  21671693.220    88742025.02748
  24136805.480   126839793.08208  24136804.460    98836206.69945
 15 03 05 00 17 30.0000000  0  7G16G18G19G21G22G27G31
  20702454.020   108792156.00809  20702450.800    84773103.19149
  22271774.980   117039022.12009  22271771.640    91199264.08147
  23576994.180   123897958.87708  23576990.960    96543865.42447
  22311202.540   117246280.66708  22311198.900    91360783.20947
  22760412.160   119606830.03209  22760407.800    93200139.00747
  21662668.220   113838145.20209  21662667.620    88705067.15048
  24155802.280   126939622.74408  24155801.500    98913995.89046
 15 03 05 00 18  0.0000000  0  7G16G18G19G21G22G27G31
  20694990.820   108752936.48309  20694987.560    84742542.52848
  22265919.640   117008252.00109  22265916.280    91175287.38647
  23563180.580   123825368.35008  23563177.260    96487301.42246
  22323472.260   117310758.68508  22323468.680    91411025.81647
  22744800.040   119524787.87909  22744795.540    93136210.10047
  21653669.820   113790858.84509  21653669.340    88668220.65948
  24174796.920   127039440.92308  24174796.360    98991776.14046
 15 03 05 00 18 30.0000000  0  7G16G18G19G21G22G27G31
  20687605.540   108714126.32309  20687602.200    84712300.84948
  22260145.700   116977910.25109  22260142.480    91151644.49447
  23549387.720   123752886.67308  23549384.260    96430822.24046
  22335779.780   117375435.38908  22335776.280    91461423.24847
  22729226.020   119442946.53809  22729221.460    93072437.67347
  21644698.320   113743713.85109  21644697.960    88631484.33348
  24193788.720   127139243.35908  24193788.260    99069544.11845
 15 03 05 00 19  0.0000000  0  7G16G18G19G21G22G27G31
  20680298.900   108675729.45209  20680295.480    84682381.21848
  22254453.860   116948000.37109  22254450.840    91128338.11747
  23535615.780   123680515.29208  23535612.380    96374429.02146
  22348125.020   117440310.27308  22348121.580    91511975.10847
  22713691.080   119361310.40009  22713686.540    93008825.13747
  21635754.120   113696712.03609  21635753.840    88594859.56848
  24212777.460   127239028.92808  24212776.920    99147298.92745
 15 03 05 00 19 30.0000000  0  7G16G18G19G21G22G27G31
  20673070.800   108637745.37309  20673067.300    84652783.23648
  22248843.920   116918521.16209  22248841.140    91105367.32547
  23521864.560   123608252.38708  23521861.120    96318120.30046
  22360507.320   117505379.61208  22360503.880    91562678.48747
  22698195.220   119279880.11208  22698190.880    92945372.99947
  21626836.820   113649851.39009  21626836.600    88558344.79748
  24231762.160   127338792.88308  24231761.400    99225036.89846
 15 03 05 00 20  0.0000000  0  7G16G18G19G21G22G27G31
  20665921.720   108600176.81909  20665918.180    84623509.04748
  22243316.500   116889475.46109  22243313.940    91082734.32847
  23508134.060   123536098.31508  23508130.540    96261896.40046
  22372926.340   117570641.87908  22372922.960    91613532.19947
  22682739.140   119198659.00109  22682735.080    92882083.86547
  21617946.600   113603132.74309  21617946.320    88521940.68148
  24250742.400   127438533.03108  24250741.340    99302756.31445
 15 03 05 00 20 30.0000000  0  7G16G18G19G21G22G27G31
  20658852.000   108563025.62109  20658848.480    84594560.06549
  22237871.880   116860864.50709  22237869.460    91060440.09447
  23494424.360   123464053.55508  23494420.780    96205757.67347
  22385381.900   117636096.28108  22385378.500    91664535.63148
  22667323.580   119117649.93409  22667319.600    92818959.95148
  21609083.500   113556556.36509  21609083.020    88485647.41449
  24269717.560   127538246.75408  24269716.280    99380455.10946
 15 03 05 00 21  0.0000000  0  7G16G18G19G21G22G27G31
  20651862.500   108526296.17309  20651859.040    84565939.71648
  22232510.800   116832692.18609  22232508.380    91038487.65147
  23480735.920   123392120.01208  23480732.220    96149705.59946
  22397874.020   117701742.89108  22397870.660    91715688.82647
  22651949.580   119036858.42709  22651945.480    92756005.56947
  21600247.900   113510124.72109  21600247.300    88449466.93148
  24288687.580   127637933.77308  24288686.120    99458133.09946
 15 03 05 00 21 30.0000000  0  7G16G18G19G21G22G27G31
  20644953.200   108489988.01109  20644949.820    84537647.65248
  22227233.020   116804957.37509  22227230.620    91016876.13647
  23467068.300   123320295.89808  23467064.640    96093738.81246
  22410401.920   117767577.49709  22410398.620    91766988.51747
  22636617.060   118956284.68909  22636612.740    92693220.88247
  21591439.440   113463835.89609  21591438.820    88413397.74548
  24307651.540   127737589.29808  24307650.000    99535786.53745
 15 03 05 00 22  0.0000000  0  7G16G18G19G21G22G27G31
  20638125.100   108454106.16109  20638121.760    84509687.77148
  22222039.400   116777664.90509  22222036.980    90995609.29047
  23453422.020   123248584.16508  23453418.340    96037859.57847
  22422965.840   117833601.20808  22422962.540    91818435.57347
  22621327.100   118875934.41109  22621322.560    92630610.31847
  21582658.800   113417693.09009  21582658.200    88377442.33148
  24326609.560   127837213.79008  24326608.080    99613415.78645
 15 03 05 00 22 30.0000000  0  7G16G18G19G21G22G27G31
  20631377.080   108418644.96709  20631373.800    84482055.67148
  22216928.780   116750808.53609  22216926.380    90974682.26847
  23439795.800   123176977.49908  23439791.940    95982062.21146
  22435564.080   117899805.63008  22435560.920    91870023.43347
  22606078.740   118795803.30509  22606073.980    92568170.54047
  21573904.560   113371689.05709  21573903.900    88341595.05448
  24345559.680   127936796.77808  24345558.200    99691012.71645
 15 03 05 00 23  0.0000000  0  7G16G18G19G21G22G27G31
  20624711.120   108383614.71109  20624707.840    84454759.37248
  22211903.180   116724398.69609  22211900.720    90954103.19547
  23426191.200   123105484.53908  23426187.300    95926353.45647
  22448197.940   117966197.29308  22448194.920    91921757.19747
  22590874.080   118715902.52509  22590869.220    92505910.23147
  21565178.380   113325832.50309  21565177.660    88305862.68348
  24364503.060   128036344.36808  24364501.800    99768582.04445
 15 03 05 00 23 30.0000000  0  7G16G18G19G21G22G27G31
  20618126.880   108349014.13109  20618123.580    84427797.89148
  22206962.040   116698432.75109  22206959.520    90933870.01147
  23412607.560   123034102.16508  23412603.700    95870730.88147
  22460866.340   118032770.72108  22460863.580    91973632.60347
  22575713.020   118636231.40009  22575708.140    92443828.87647
  21556479.600   113280120.35809  21556478.880    88270242.84648
  24383438.660   128135850.79308  24383437.540    99846119.27845
 15 03 05 00 24  0.0000000  0  7G16G18G19G21G22G27G31
  20611624.480   108314843.68609  20611621.140    84401171.56848
  22202105.600   116672911.32409  22202102.920    90913983.20847
  23399044.640   122962828.90508  23399040.720    95815193.32046
  22473568.780   118099522.89808  22473566.160    92025647.27547
  22560595.940   118556791.78009  22560591.160    92381927.90247
  21547808.000   113234551.53909  21547807.380    88234734.69248
  24402365.620   128235311.82408  24402364.700    99923621.14545
 15 03 05 00 24 30.0000000  0  7G16G18G19G21G22G27G31
  20605204.480   108281106.60209  20605201.180    84374882.94249
  22197334.360   116647837.10109  22197331.460    90894444.86747
  23385502.780   122891666.29208  23385498.860    95759741.96247
  22486305.180   118166453.60708  22486302.720    92077801.06447
  22545523.660   118477587.53109  22545519.100    92320210.33447
  21539164.000   113189127.68509  21539163.480    88199339.49348
  24421283.740   128334726.40108  24421283.000   100001086.80846
 15 03 05 00 25  0.0000000  0  7G16G18G19G21G22G27G31
  20598867.480   108247805.48709  20598864.220    84348934.03048
  22192648.600   116623212.00509  22192645.440    90875256.51147
  23371982.120   122820615.15908  23371978.240    95704377.49646
  22499075.400   118233561.84008  22499073.040    92130093.19547
  22530496.860   118398622.00209  22530492.560    92258678.78847
  21530547.800   113143849.71109  21530547.380    88164057.96948
  24440192.680   128434092.23508  24440192.180   100078514.48145
 15 03 05 00 25 30.0000000  0  7G16G18G19G21G22G27G31
  20592613.200   108214939.09509  20592609.960    84323323.86249
  22188047.980   116599034.45409  22188044.560    90856416.88748
  23358482.180   122749672.64508  23358478.280    95649097.65047
  22511878.560   118300843.13108  22511876.260    92182520.17548
  22515515.600   118319895.28309  22515511.460    92197333.33348
  21521958.900   113098714.92609  21521958.480    88128888.02149
  24459091.520   128533404.30808  24459091.140   100155900.23046
 15 03 05 00 26  0.0000000  0  7G16G18G19G21G22G27G31
  20586442.360   108182511.20909  20586439.100    84298055.38448
  22183532.920   116575307.60409  22183529.540    90837928.45747
  23345003.300   122678840.95808  23344999.360    95593904.15647
  22524714.640   118368297.05508  22524712.300    92235081.66447
  22500580.760   118241412.16109  22500576.580    92136177.68147
  21513397.680   113053725.43209  21513397.240    88093831.28148
  24477980.020   128632661.65408  24477979.620   100233243.31046
 15 03 05 00 26 30.0000000  0  7G16G18G19G21G22G27G31
  20580355.400   108150524.27609  20580352.140    84273130.50949
  22179104.000   116552034.05309  22179100.800    90819793.24547
  23331545.760   122608121.24208  23331541.820    95538797.91847
  22537583.460   118435923.16908  22537581.060    92287777.33747
  22485693.000   118163176.12809  22485688.740    92075214.57347
  21504864.360   113008882.36509  21504863.900    88058888.64548
  24496857.780   128731862.63208  24496857.380   100310542.46046
 15 03 05 00 27  0.0000000  0  7G16G18G19G21G22G27G31
  20574352.460   108118978.53709  20574349.140    84248549.40949
  22174761.100   116529213.15509  22174758.260    90802010.74548
  23318109.180   122537511.75308  23318105.340    95483777.56848
  22550484.460   118503718.25508  22550481.980    92340604.65748
  22470852.420   118085188.08409  22470848.180    92014444.68648
  21496358.660   112964184.45209  21496358.160    88024059.10149
  24515723.880   128831002.97808  24515723.500   100387794.35046
 15 03 05 00 27 30.0000000  0  7G16G18G19G21G22G27G31
  20568434.200   108087877.87909  20568430.900    84224315.13648
  22170504.760   116506847.75309  22170502.320    90784583.18247
  23304693.880   122467014.26708  23304690.160    95428844.49746
  22563417.640   118571682.43808  22563415.080    92393563.75847
  22456059.980   118007453.13209  22456055.680    91953872.03147
  21487880.980   112919633.89509  21487880.440    87989344.39848
  24534578.200   128930082.01307  24534577.940   100464998.47046
 15 03 05 00 28  0.0000000  0  7G16G18G19G21G22G27G31
  20562600.640   108057221.92809  20562597.260    84200427.38248
  22166335.100   116484937.58909  22166332.980    90767510.34147
  23291299.540   122396626.85308  23291295.740    95373997.19446
  22576382.300   118639811.72608  22576379.620    92446651.50747
  22441315.820   117929971.75909  22441311.400    91893496.96847
  21479430.920   112875228.64309  21479430.380    87954742.91348
  24553419.960   129029095.13708  24553419.720   100542151.19745
 15 03 05 00 28 30.0000000  0  7G16G18G19G21G22G27G31
  20556852.080   108027012.80409  20556848.600    84176887.80448
  22162252.480   116463484.23309  22162250.500    90750793.45547
  23277926.240   122326350.17608  23277922.480    95319236.17846
  22589378.180   118708105.02208  22589375.320    92499867.05247
  22426620.560   117852747.14409  22426616.040    91833321.97147
  21471008.680   112830969.66309  21471008.220    87920255.40848
  24572248.780   129128040.39008  24572248.620   100619251.02146
 15 03 05 00 29  0.0000000  0  7G16G18G19G21G22G27G31
  20551188.680   107997251.11109  20551185.120    84153696.87248
  22158256.880   116442487.65409  22158254.860    90734432.50347
  23264573.820   122256183.01608  23264570.100    95264560.51646
  22602404.760   118776559.66208  22602401.700    92553208.33746
  22411974.480   117775780.93109  22411969.920    91773348.33147
  21462614.200   112786856.10709  21462613.680    87885881.20748
  24591063.880   129226913.85308  24591063.720   100696294.90645
 15 03 05 00 29 30.0000000  0  7G16G18G19G21G22G27G31
  20545611.340   107967941.74209  20545607.780    84130858.40248
  22154349.140   116421951.87209  22154346.960    90718430.60547
  23251242.880   122186128.86908  23251239.200    95209972.90646
  22615462.220   118845176.71308  22615459.040    92606676.15647
  22397378.520   117699078.47009  22397374.020    91713580.20847
  21454248.020   112742891.17709  21454247.480    87851622.82648
  24609865.420   129325715.95808  24609865.380   100773283.18745
 15 03 05 00 30  0.0000000  0  7G16G18G19G21G22G27G31
  20540119.140   107939080.15909  20540115.680    84108368.86448
  22150528.160   116401872.03209  22150525.800    90702783.99547
  23237932.320   122116181.60608  23237928.740    95155468.60746
  22628549.080   118913948.46308  22628545.800    92660264.53347
  22382832.080   117622636.49009  22382827.640    91654015.06047
  21445909.000   112699069.13409  21445908.420    87817475.79648
  24628651.880   129424438.17408  24628651.960   100850209.18145
 15 03 05 00 30 30.0000000  0  7G16G18G19G21G22G27G31
  20534713.280   107910672.55209  20534709.920    84086233.06649
  22146795.040   116382253.94409  22146792.580    90687497.19147
  23224643.020   122046345.69308  23224639.540    95101051.06347
  22641665.840   118982877.52808  22641662.540    92713975.48947
  22368336.500   117546462.37909  22368332.160    91594658.62648
  21437598.000   112655394.62609  21437597.380    87783443.72048
  24647423.440   129523081.85108  24647423.600   100927073.94945
 15 03 05 00 31  0.0000000  0  7G16G18G19G21G22G27G31
  20529394.660   107882723.28809  20529391.360    84064454.41548
  22143150.440   116363101.01809  22143147.860    90672572.84247
  23211375.460   121976623.88708  23211371.980    95046722.43447
  22654812.660   119051964.54408  22654809.340    92767809.51146
  22353892.880   117470561.97809  22353888.740    91535515.46647
  21429315.640   112611870.60409  21429315.040    87749528.90648
  24666180.200   129621647.50807  24666180.340   101003877.92045
 15 03 05 00 31 30.0000000  0  7G16G18G19G21G22G27G31
  20524162.640   107855229.15309  20524159.400    84043030.41348
  22139593.660   116344410.07609  22139591.000    90658008.48647
  23198128.740   121907011.65908  23198125.180    94992479.18546
  22667988.460   119121203.71208  22667985.080    92821762.11347
  22339500.800   117394932.75009  22339496.940    91476583.63647
  21421061.040   112568492.49109  21421060.480    87715727.79348
  24684920.720   129720128.12108  24684920.980   101080615.59744
 15 03 05 00 32  0.0000000  0  6G16G18G19G21G22G27
  20519016.700   107828187.24509  20519013.520    84021958.79048
  22136124.060   116326176.97409  22136121.240    90643800.88847
  23184901.940   121837504.09308  23184898.240    94938317.48047
  22681191.880   119190588.40208  22681188.480    92875828.08947
  22325159.980   117319572.54409  22325156.260    91417861.41947
  21412833.380   112525256.02209  21412832.860    87682037.05848
 15 03 05 00 32 30.0000000  0  6G16G18G19G21G22G27
  20513960.020   107801614.25909  20513956.840    84001252.56849
  22132744.700   116308417.85209  22132741.760    90629962.63447
  23171697.860   121768116.33408  23171694.160    94884249.14247
  22694425.560   119260132.04108  22694422.120    92930017.93547
  22310873.820   117244498.83609  22310870.000    91359362.45948
  21404635.580   112482176.55009  21404635.060    87648468.64048
 15 03 05 00 33  0.0000000  0  6G16G18G19G21G22G27
  20508991.480   107775504.20609  20508988.240    83980907.06548
  22129454.340   116291126.76809  22129451.300    90616489.07247
  23158515.080   121698841.04908  23158511.460    94830268.43546
  22707687.700   119329825.11008  22707684.200    92984324.21247
  22296641.480   117169707.31409  22296637.480    91301083.38247
  21396466.240   112439246.80409  21396465.760    87615016.89248
 15 03 05 00 33 30.0000000  0  6G16G18G19G21G22G27
  20504110.800   107749856.02509  20504107.520    83960921.47648
  22126252.520   116274301.39209  22126249.460    90603378.41047
  23145353.280   121629675.95608  23145349.780    94776373.58847
  22720977.500   119399663.30408  22720973.960    93038743.58846
  22282463.000   117095198.15809  22282458.840    91243024.33647
  21388324.980   112396464.37809  21388324.500    87581679.95148
 15 03 05 00 34  0.0000000  0  6G16G18G19G21G22G27
  20499319.000   107724674.78109  20499315.680    83941299.72348
  22123140.260   116257946.90509  22123137.280    90590634.65147
  23132213.080   121560624.25408  23132209.720    94722567.10046
  22734295.260   119469648.20808  22734291.680    93093277.26046
  22268339.360   117020976.93509  22268335.060    91185189.63547
  21380212.560   112353833.02309  21380212.000    87548460.72248
 15 03 05 00 34 30.0000000  0  6G16G18G19G21G22G27
  20494615.760   107699959.06409  20494612.460    83922040.72548
  22120117.080   116242060.70409  22120114.240    90578255.81447
  23119093.920   121491683.39708  23119090.680    94668846.99247
  22747640.160   119539775.71308  22747636.560    93147922.06747
  22254270.380   116947043.41809  22254266.040    91127579.13347
  21372128.400   112311350.09509  21372127.780    87515357.15848
 15 03 05 00 35  0.0000000  0  6G16G18G19G21G22G27
  20490001.680   107675711.96809  20489998.400    83903146.87849
  22117183.540   116226645.52209  22117180.880    90566243.98447
  23105996.180   121422854.76808  23105992.900    94615214.31147
  22761012.160   119610045.45708  22761008.520    93202677.68847
  22240256.840   116873401.65309  22240252.620    91070195.95848
  21364072.760   112269017.40809  21364072.160    87482370.64748
 15 03 05 00 35 30.0000000  0  6G16G18G19G21G22G27
  20485476.900   107651934.21409  20485473.620    83884618.75848
  22114339.700   116211701.45509  22114337.060    90554599.26347
  23092919.640   121354137.54908  23092916.400    94561668.45846
  22774410.760   119680454.81508  22774407.040    93257542.10746
  22226299.200   116800053.71509  22226295.200    91013041.73947
  21356045.600   112226834.46609  21356045.040    87449500.82448
 15 03 05 00 36  0.0000000  0  6G16G18G19G21G22G27
  20481041.220   107628624.93709  20481037.980    83866455.69148
  22111585.320   116197226.84309  22111582.620    90543320.35947
  23079863.980   121285529.66608  23079860.680    94508207.80146
  22787835.140   119750999.77308  22787831.300    93312512.19446
  22212397.520   116726999.72009  22212393.580    90956116.56947
  21348046.500   112184799.21109  21348046.060    87416746.09048
 15 03 05 00 36 30.0000000  0  6G16G18G19G21G22G27
  20476695.860   107605790.02909  20476692.640    83848662.25648
  22108921.420   116183227.32909  22108918.620    90532411.66147
  23066830.060   121217035.99608  23066826.660    94454836.13746
  22801285.800   119821682.87408  22801281.840    93367589.92547
  22198553.220   116654246.99109  22198549.160    90899426.14947
  21340076.460   112142916.52309  21340076.020    87384110.23548
 15 03 05 00 37  0.0000000  0  6G16G18G19G21G22G27
  20472440.840   107583429.54009  20472437.600    83831238.49148
  22106347.780   116169702.01309  22106344.900    90521872.46247
  23053817.540   121148654.48008  23053813.980    94401551.86747
  22814762.180   119892501.12208  22814758.120    93422772.95347
  22184766.440   116581796.29509  22184762.120    90842971.07248
  21332135.180   112101185.10709  21332134.720    87351592.25348
 15 03 05 00 37 30.0000000  0  6G16G18G19G21G22G27
  20468276.240   107561544.11209  20468272.920    83814184.91148
  22103864.400   116156650.96709  22103861.480    90511702.83847
  23040826.240   121080384.32208  23040822.680    94348354.39147
  22828263.860   119963452.40608  22828259.800    93478059.65647
  22171037.460   116509649.52209  22171032.860    90786752.83147
  21324222.560   112059604.35509  21324222.100    87319191.67148
 15 03 05 00 38  0.0000000  0  6G16G18G19G21G22G27
  20464202.820   107540137.71709  20464199.440    83797504.59348
  22101471.760   116144076.75009  22101468.700    90501904.74747
  23027856.600   121012228.23108  23027852.860    94295245.77247
  22841790.760   120034536.51208  22841786.680    93533449.85347
  22157367.220   116437811.62609  22157362.340    90730775.26947
  21316339.120   112018176.85509  21316338.700    87286910.50748
 15 03 05 00 38 30.0000000  0  6G16G18G19G21G22G27
  20460221.140   107519213.35909  20460217.700    83781199.89048
  22099170.400   116131982.74309  22099167.220    90492480.85747
  23014908.980   120944188.00508  23014905.120    94242227.43947
  22855343.000   120105754.17908  22855339.000    93588944.13146
  22143756.500   116366286.77609  22143751.340    90675041.63947
  21308485.320   111976904.79009  21308484.860    87254750.45748
 15 03 05 00 39  0.0000000  0  6G16G18G19G21G22G27
  20456330.400   107498767.05409  20456326.880    83765267.69149
  22096959.320   116120363.96509  22096956.200    90483427.27248
  23001982.340   120876258.23408  23001978.560    94189295.18148
  22868919.220   120177097.90508  22868915.260    93644536.63247
  22130204.640   116295071.95709  22130199.400    90619549.59548
  21300660.160   111935782.99909  21300659.680    87222707.50249
 15 03 05 00 39 30.0000000  0  6G16G18G19G21G22G27
  20452532.040   107478806.31409  20452528.440    83749713.86848
  22094839.900   116109227.42509  22094836.920    90474749.45747
  22989077.880   120808445.40708  22989074.260    94136454.04647
  22882520.260   120248572.33608  22882516.380    93700230.99446
  22116713.400   116224175.97409  22116708.360    90564305.99647
  21292864.900   111894818.19809  21292864.420    87190786.88848
 15 03 05 00 40  0.0000000  0  6G16G18G19G21G22G27
  20448824.960   107459325.49309  20448821.380    83734534.00149
  22092811.000   116098566.47909  22092808.180    90466442.23147
  22976194.340   120740742.57808  22976190.780    94083698.61747
  22896144.600   120320169.19608  22896140.820    93756020.74747
  22103282.000   116153594.44709  22103277.240    90509307.42248
  21285098.200   111854003.55109  21285097.540    87158983.27148
 15 03 05 00 40 30.0000000  0  6G16G18G19G21G22G27
  20445210.080   107440329.30409  20445206.600    83719731.77948
  22090873.440   116088385.35009  22090870.720    90458508.89847
  22963332.340   120673152.93908  22963328.940    94031031.39947
  22909792.520   120391889.77808  22909788.860    93811906.90346
  22089911.620   116083333.13509  22089907.040    90454558.37148
  21277360.720   111813342.48609  21277359.940    87127299.33048
 15 03 05 00 41  0.0000000  0  6G16G18G19G21G22G27
  20441688.120   107421821.33209  20441684.660    83705309.98049
  22089027.840   116078686.86209  22089025.120    90450951.63847
  22950492.420   120605679.02508  22950489.180    93978454.35647
  22923464.060   120463734.53408  22923460.520    93867889.82847
  22076603.160   116013396.73009  22076598.680    90400062.49548
  21269652.940   111772837.75809  21269652.080    87095737.21048
 15 03 05 00 41 30.0000000  0  6G16G18G19G21G22G27
  20438258.160   107403796.70809  20438254.660    83691264.81049
  22087273.120   116069465.48609  22087270.400    90443766.16147
  22937673.400   120538314.73308  22937670.060    93925962.72847
  22937157.720   120535695.79708  22937154.380    93923963.52947
  22063355.900   115943781.81909  22063351.540    90345817.14148
  21261973.780   111732483.67309  21261972.860    87064292.47748
 15 03 05 00 42  0.0000000  0  6G16G18G19G21G22G27
  20434921.680   107386263.13209  20434918.120    83677602.28348
  22085610.500   116060728.16409  22085607.780    90436957.86047
  22924876.420   120471065.93408  22924872.840    93873561.07547
  22950874.320   120607777.56308  22950871.060    93980131.12846
  22050171.340   115874496.61009  22050167.060    90291828.69347
  21254324.420   111692286.48809  21254323.580    87032969.99948
 15 03 05 00 42 30.0000000  0  6G16G18G19G21G22G27
  20431678.800   107369221.35209  20431675.200    83664322.96849
  22084039.980   116052475.01509  22084037.280    90430526.84947
  22912101.360   120403932.39308  22912097.660    93821249.23747
  22964613.580   120679978.24008  22964610.360    94036391.37847
  22037049.900   115805543.48109  22037045.680    90238098.99948
  21246704.960   111652246.16509  21246704.080    87001769.75248
 15 03 05 00 43  0.0000000  0  6G16G18G19G21G22G27
  20428529.160   107352669.80809  20428525.520    83651425.65748
  22082561.180   116044703.95609  22082558.500    90424471.48247
  22899347.660   120336911.38208  22899343.980    93769025.08747
  22978374.700   120752293.59808  22978371.480    94092740.99546
  22023991.460   115736922.08509  22023987.360    90184627.80348
  21239114.920   111612360.33109  21239114.120    86970689.89148
 15 03 05 00 43 30.0000000  0  6G16G18G19G21G22G27
  20425473.260   107336611.20309  20425469.660    83638912.44849
  22081174.500   116037416.84509  22081171.800    90418793.21947
  22886615.740   120270004.86408  22886612.040    93716890.14647
  22992157.620   120824723.24208  22992154.440    94149179.66447
  22010996.900   115668636.37009  22010992.920    90131418.17048
  21231554.660   111572630.95109  21231553.900    86939731.93549
 15 03 05 00 44  0.0000000  0  6G16G18G19G21G22G27
  20422510.740   107321043.42609  20422507.200    83626781.70848
  22079879.360   116030610.72809  22079876.600    90413489.75547
  22873905.040   120203209.53508  22873901.240    93664841.86447
  23005961.380   120897261.88008  23005958.140    94205703.26846
  21998066.120   115600685.07309  21998062.180    90078469.12147
  21224023.540   111533054.69309  21224022.840    86908893.29748
 15 03 05 00 44 30.0000000  0  6G16G18G19G21G22G27
  20419642.700   107305972.23309  20419639.240    83615037.90849
  22078676.800   116024290.95209  22078673.880    90408565.25447
  22861216.380   120136529.73508  22861212.420    93612883.60347
  23019786.460   120969912.58308  23019783.100    94262314.18547
  21985200.520   115533075.60509  21985196.480    90025786.44348
  21216522.520   111493636.65609  21216521.860    86878177.94349
 15 03 05 00 45  0.0000000  0  7G04G16G18G19G21G22G27
  24603072.540   129290018.06908  24603073.000   100745477.66245
  20416868.680   107291395.05109  20416865.280    83603679.06748
  22077566.120   116018453.97609  22077563.040    90404016.97947
  22848549.020   120069961.72308  22848544.900    93561012.45247
  23033631.860   121042669.94908  23033628.460    94319008.23546
  21972399.680   115465805.83009  21972395.380    89973368.47248
  21209050.860   111454373.13909  21209050.340    86847583.00548
 15 03 05 00 45 30.0000000  0  7G04G16G18G19G21G22G27
  24583368.000   129186470.56408  24583368.560   100664791.57645
  20414193.200   107277335.31209  20414189.860    83592723.41749
  22076551.600   116013122.76409  22076548.440    90399862.80447
  22835907.200   120003527.93508  22835902.960    93509245.89447
  23047501.460   121115554.65108  23047497.960    94375801.49647
  21959668.340   115398901.17809  21959663.800    89921234.99948
  21201612.960   111415286.98909  21201612.540    86817126.26149
 15 03 05 00 46  0.0000000  0  7G04G16G18G19G21G22G27
  24563687.660   129083050.67508  24563688.460   100584204.89945
  20411610.140   107263761.21109  20411606.860    83582146.19049
  22075627.080   116008264.38409  22075623.900    90396077.06247
  22823284.600   119937195.39608  22823280.340    93457558.22648
  23061388.580   121188531.91908  23061385.040    94432666.88447
  21947000.540   115332330.62509  21946995.900    89869361.85548
  21194202.660   111376345.47609  21194202.240    86786782.21849
 15 03 05 00 46 30.0000000  0  7G04G16G18G19G21G22G27
  24544034.320   128979772.63808  24544035.340   100503728.74844
  20409122.180   107250686.77709  20409118.940    83571958.31748
  22074795.040   116003891.95509  22074791.860    90392669.99346
  22810683.620   119870976.76209  22810679.420    93405959.31347
  23075295.360   121261612.88308  23075291.820    94489613.07746
  21934399.180   115266109.56109  21934394.500    89817761.04547
  21186822.460   111337561.73009  21186821.960    86756561.12248
 15 03 05 00 47  0.0000000  0  7G04G16G18G19G21G22G27
  24524408.760   128876640.81208  24524409.940   100423366.51744
  20406730.160   107238116.24409  20406726.880    83562163.09848
  22074056.220   116000009.41409  22074053.120    90389644.64447
  22798104.940   119804875.59408  22798100.840    93354451.92447
  23089222.020   121334798.65308  23089218.560    94546640.93646
  21921865.280   115200243.17009  21921860.580    89766436.59848
  21179472.960   111298939.35809  21179472.360    86726465.77548
 15 03 05 00 47 30.0000000  0  7G04G16G18G19G21G22G27
  24504810.960   128773655.11508  24504812.220   100343118.15644
  20404433.960   107226049.22109  20404430.580    83552760.22048
  22073410.440   115996615.74109  22073407.380    90387000.22446
  22785548.300   119738890.69708  22785544.240    93303035.13946
  23103168.320   121408087.66408  23103164.960    94603749.24546
  21909399.140   115134732.90209  21909394.420    89715389.65247
  21172153.960   111260477.37009  21172153.300    86696495.39748
 15 03 05 00 48  0.0000000  0  7G04G16G18G19G21G22G27
  24485240.800   128670814.52008  24485242.020   100262982.85744
  20402233.300   107214484.31209  20402229.840    83543748.59848
  22072857.280   115993708.78709  22072854.260    90384735.06947
  22773013.300   119673019.74408  22773009.300    93251707.14147
  23117133.360   121481475.08608  23117130.140    94660934.24746
  21897000.740   115069578.60709  21896995.960    89664620.09748
  21164865.040   111222173.69709  21164864.380    86666648.39048
 15 03 05 00 48 30.0000000  0  7G04G16G18G19G21G22G27
  24465698.780   128568121.47408  24465699.920   100182962.51045
  20400128.580   107203423.87609  20400125.120    83535130.07349
  22072396.980   115991289.82509  22072394.020    90382850.17847
  22760500.220   119607263.73008  22760496.340    93200468.69847
  23131116.880   121554959.54108  23131113.820    94718194.85246
  21884670.640   115004783.41509  21884665.760    89614130.36048
  21157606.540   111184029.83109  21157605.800    86636925.90249
 15 03 05 00 49  0.0000000  0  7G04G16G18G19G21G22G27
  24446185.060   128465576.82407  24446186.180   100103057.77645
  20398119.980   107192868.86209  20398116.580    83526905.37248
  22072029.560   115989359.15409  22072026.680    90381345.76147
  22748009.060   119541622.90808  22748005.340    93149320.01447
  23145118.740   121628540.11708  23145115.720    94775530.34746
  21872409.260   114940349.59209  21872404.380    89563922.20248
  21150378.420   111146045.97209  21150377.680    86607328.08848
 15 03 05 00 49 30.0000000  0  7G04G16G18G19G21G22G27
  24426700.380   128363185.07807  24426701.640   100023272.21344
  20396208.300   107182823.36809  20396204.980    83519077.72048
  22071755.740   115987920.26309  22071752.860    90380224.55947
  22735540.400   119476100.06808  22735536.740    93098263.29047
  23159139.240   121702218.37908  23159136.160    94832941.98046
  21860217.640   114876282.66409  21860212.880    89513999.95348
  21143181.360   111108225.66009  21143180.640    86577857.73249
 15 03 05 00 50  0.0000000  0  7G04G16G18G19G21G22G27
  24407244.520   128260945.33308  24407245.940    99943605.04145
  20394393.460   107173286.67909  20394390.160    83511646.51848
  22071575.220   115986971.51309  22071572.300    90379485.27647
  22723093.960   119410693.56308  22723090.260    93047297.18447
  23173177.700   121775990.64508  23173174.540    94890426.85246
  21848095.880   114812582.94709  21848091.240    89464363.82548
  21136015.160   111070567.38209  21136014.460    86548513.62149
 15 03 05 00 50 30.0000000  0  7G04G16G18G19G21G22G27
  24387817.420   128158856.15608  24387818.840    99864055.21145
  20392675.020   107164256.54909  20392671.760    83504610.04748
  22071487.500   115986510.21609  22071484.520    90379125.82647
  22710669.280   119345400.65108  22710665.540    92996419.60347
  23187233.240   121849852.62308  23187230.000    94947981.61946
  21836043.860   114749249.80909  21836039.360    89415013.34248
  21128879.320   111033068.61309  21128878.760    86519293.80749
 15 03 05 00 51  0.0000000  0  7G04G16G18G19G21G22G27
  24368420.200   128056923.14008  24368421.240    99784627.05745
  20391054.160   107155738.97309  20391050.960    83497972.97049
  22071493.320   115986540.63409  22071490.260    90379149.54347
  22698267.180   119280226.54008  22698263.320    92945634.59447
  23201306.360   121923807.30708  23201303.160    95005608.61546
  21824062.860   114686289.81809  21824058.480    89365953.62848
  21121774.740   110995734.44209  21121774.340    86490202.25449
 15 03 05 00 51 30.0000000  0  7G04G16G18G19G21G22G27
  24349052.680   127955145.68108  24349053.220    99705320.12845
  20389530.600   107147732.63709  20389527.500    83491734.25949
  22071592.460   115987061.71109  22071589.380    90379555.57847
  22685886.980   119215168.17608  22685883.020    92894939.77947
  23215396.360   121997850.56508  23215393.240    95063304.63846
  21812152.980   114623703.64609  21812148.740    89317185.20148
  21114701.160   110958562.97009  21114700.860    86461237.47849
 15 03 05 00 52  0.0000000  0  7G04G16G18G19G21G22G27
  24329715.600   127853528.20808  24329715.900    99626137.85444
  20388105.200   107140241.78109  20388102.140    83485897.22248
  22071785.620   115988076.67309  22071782.440    90380346.45447
  22673529.680   119150230.16008  22673525.720    92844338.74847
  23229503.620   122071984.54608  23229500.580    95121071.36246
  21800315.260   114561496.76709  21800311.040    89268712.33748
  21107659.320   110921558.20309  21107659.040    86432402.60948
 15 03 05 00 52 30.0000000  0  7G04G16G18G19G21G22G27
  24310408.280   127752067.08108  24310408.400    99547077.39745
  20386777.100   107133262.27109  20386774.020    83480458.63548
  22072071.840   115989580.57809  22072068.620    90381518.34047
  22661194.220   119085406.74908  22661190.340    92793827.01447
  23243626.840   122146202.40508  23243623.780    95178903.43846
  21788549.240   114499666.38509  21788544.980    89220532.83348
  21100648.360   110884715.40409  21100648.100    86403693.94548
 15 03 05 00 53  0.0000000  0  7G04G16G18G19G21G22G27
  24291131.880   127650768.84508  24291131.940    99468143.87445
  20385547.540   107126800.66409  20385544.400    83475423.60449
  22072452.200   115991579.38309  22072448.960    90383075.85747
  22648881.740   119020704.17508  22648877.760    92743409.45447
  23257766.720   122220507.83408  23257763.680    95236803.75846
  21776856.360   114438219.95109  21776852.040    89172652.51248
  21093669.420   110848040.62709  21093669.080    86375116.20149
 15 03 05 00 53 30.0000000  0  7G04G16G18G19G21G22G27
  24271885.780   127549630.31108  24271885.840    99389334.76145
  20384415.820   107120853.48809  20384412.640    83470789.43948
  22072925.800   115994068.28109  22072922.620    90385015.26647
  22636591.380   118956117.70508  22636587.200    92693082.35147
  23271922.280   122294895.85408  23271919.300    95294768.43446
  21765236.320   114377155.86909  21765231.900    89125070.12648
  21086721.720   110811529.87309  21086721.340    86346666.27348
 15 03 05 00 54  0.0000000  0  7G04G16G18G19G21G22G27
  24252670.640   127448655.00208  24252670.840    99310652.84745
  20383382.560   107115423.75709  20383379.340    83466558.47549
  22073493.140   115997049.89909  22073490.120    90387338.61147
  22624323.680   118891650.13908  22624319.340    92642847.90248
  23286093.580   122369366.91108  23286090.700    95352797.81547
  21753689.900   114316478.28609  21753685.240    89077788.91448
  21079805.760   110775185.87209  21079805.300    86318346.28649
 15 03 05 00 54 30.0000000  0  7G04G16G18G19G21G22G27
  24233487.120   127347846.31608  24233487.520    99232100.74945
  20382448.380   107110514.58109  20382445.120    83462733.14048
  22074154.700   116000526.60709  22074151.800    90390047.74647
  22612078.900   118827303.38608  22612074.600    92592707.60647
  23300280.700   122443921.18408  23300277.980    95410892.04046
  21742217.740   114256191.13509  21742212.960    89030811.93748
  21072922.020   110739011.15109  21072921.460    86290158.20648
 15 03 05 00 55  0.0000000  0  7G04G16G18G19G21G22G27
  24214334.760   127247201.99308  24214335.560    99153676.73845
  20381612.840   107106123.57409  20381609.580    83459311.57548
  22074909.820   116004495.10909  22074906.940    90393140.08647
  22599856.500   118763074.33009  22599852.160    92542659.02347
  23314482.660   122518554.03408  23314480.220    95469047.49846
  21730819.780   114196293.88809  21730814.960    88984138.77448
  21066069.940   110703002.89709  21066069.320    86262099.83848
 15 03 05 00 55 30.0000000  0  7G04G16G18G19G21G22G27
  24195214.340   127146725.26508  24195215.320    99075383.32345
  20380876.420   107102253.47109  20380873.200    83456295.89948
  22075758.960   116008957.73609  22075756.120    90396617.46747
  22587656.920   118698965.46409  22587652.580    92492704.10047
  23328699.740   122593266.02408  23328697.580    95527264.61946
  21719496.740   114136790.65209  21719491.920    88937772.63248
  21059250.040   110667163.76009  21059249.340    86234173.24448
 15 03 05 00 56  0.0000000  0  7G04G16G18G19G21G22G27
  24176125.720   127046414.93808  24176126.540    98997219.55345
  20380238.780   107098902.48209  20380235.540    83453684.72848
  22076701.540   116013911.40809  22076698.760    90400477.46947
  22575479.800   118634974.56908  22575475.340    92442841.08547
  23342931.180   122668052.96408  23342929.100    95585540.13046
  21708248.420   114077680.65409  21708243.660    88891712.90848
  21052461.880   110631491.44909  21052461.100    86206376.64748
 15 03 05 00 56 30.0000000  0  7G04G16G18G19G21G22G27
  24157068.880   126946270.71008  24157069.500    98919185.21445
  20379699.880   107096070.35209  20379696.600    83451477.86549
  22077737.360   116019355.08109  22077734.680    90404719.30547
  22563324.840   118571100.05108  22563320.400    92393068.76347
  23357176.460   122742912.17108  23357174.400    95643871.98246
  21697075.140   114018965.08709  21697070.500    88845960.54548
  21045705.260   110595985.15809  21045704.480    86178709.42248
 15 03 05 00 57  0.0000000  0  7G04G16G18G19G21G22G27
  24138044.620   126846297.33108  24138044.980    98841284.02544
  20379260.480   107093761.31809  20379257.180    83449678.60248
  22078867.220   116025292.58009  22078864.620    90409345.93147
  22551192.840   118507345.96909  22551188.460    92343390.27747
  23371435.960   122817845.85008  23371433.820    95702261.84846
  21685978.080   113960649.88409  21685973.480    88800520.14648
  21038981.000   110560649.12509  21038980.240    86151174.85548
 15 03 05 00 57 30.0000000  0  7G04G16G18G19G21G22G27
  24119053.060   126746496.00408  24119053.360    98763516.87745
  20378920.720   107091975.81509  20378917.400    83448287.29249
  22080091.000   116031723.40609  22080088.360    90414356.97747
  22539083.720   118443712.13709  22539079.440    92293805.49448
  23385709.320   122892852.09908  23385707.040    95760708.25247
  21674957.520   113902736.47409  21674952.860    88755392.82648
  21032289.180   110525483.56309  21032288.420    86123773.12249
 15 03 05 00 58  0.0000000  0  7G04G16G18G19G21G22G27
  24100094.100   126646866.46208  24100094.480    98685883.59445
  20378680.580   107090713.90709  20378677.280    83447303.98848
  22081408.580   116038646.74909  22081405.760    90419751.79647
  22526997.340   118380197.72909  22526993.100    92244313.77847
  23399996.120   122967928.66208  23399993.620    95819209.46046
  21664013.720   113845226.23109  21664008.960    88710579.66548
  21025629.780   110490487.92709  21025628.980    86096503.80448
 15 03 05 00 58 30.0000000  0  7G04G16G18G19G21G22G27
  24081168.180   126547411.03008  24081168.740    98608385.99445
  20378540.300   107089976.98609  20378537.040    83446729.76149
  22082819.920   116046062.95209  22082816.900    90425530.66447
  22514933.940   118316804.14809  22514929.760    92194916.20547
  23414296.120   123043074.58908  23414293.340    95877764.70846
  21653147.160   113788121.78309  21653142.340    88666082.70948
  21019002.920   110455663.44309  21019002.060    86069367.85848
 15 03 05 00 59  0.0000000  0  7G04G16G18G19G21G22G27
  24062276.260   126448134.02708  24062276.940    98531027.41744
  20378500.620   107089768.95509  20378497.440    83446567.66148
  22084325.700   116053975.47009  22084322.520    90431696.27047
  22502894.020   118253534.16709  22502889.900    92145614.93947
  23428609.660   123118291.76708  23428606.680    95936375.47746
  21642358.920   113731428.81609  21642354.120    88621906.38848
  21012409.400   110421014.13009  21012408.420    86042368.39848
 15 03 05 00 59 30.0000000  0  7G04G16G18G19G21G22G27
  24043417.500   126349030.80808  24043418.060    98453804.24245
  20378560.580   107090084.37009  20378557.440    83446813.43149
  22085924.700   116062378.22709  22085921.500    90438243.87347
  22490876.580   118190382.14109  22490872.420    92096405.57748
  23442935.300   123193572.96708  23442932.180    95995036.13446
  21631648.200   113675143.30309  21631643.380    88578047.55448
  21005848.100   110386534.46909  21005847.200    86015501.13748
 15 03 05 01 00  0.0000000  0  7G04G16G18G19G21G22G27
  24024592.860   126250107.05908  24024593.240    98376720.92745
  20378721.340   107090929.11409  20378718.180    83447471.67549
  22087617.840   116071276.02909  22087614.680    90445177.23647
  22478882.620   118127353.61309  22478878.520    92047292.47148
  23457273.680   123268921.42308  23457270.460    96053749.20146
  21621016.300   113619272.14709  21621011.480    88534511.60948
  20999320.120   110352229.81209  20999319.240    85988770.25148
 15 03 05 01 00 30.0000000  0  7G04G16G18G19G21G22G27
  24005802.280   126151362.51208  24005802.580    98299777.21845
  20378982.700   107092302.31009  20378979.500    83448541.68649
  22089404.800   116080666.88009  22089401.640    90452494.77847
  22466911.880   118064447.14409  22466907.820    91998274.46248
  23471624.300   123344334.39808  23471621.120    96112512.54546
  21610463.280   113563815.73409  21610458.460    88491298.82848
  20992825.160   110318099.16109  20992824.380    85962174.94649
 15 03 05 01 01  0.0000000  0  7G04G16G18G19G21G22G27
  23987046.060   126052798.44208  23987046.240    98222974.13245
  20379344.740   107094204.44109  20379341.500    83450023.85549
  22091285.520   116090550.57209  22091282.440    90460196.36647
  22454964.420   118001662.65809  22454960.220    91949351.49648
  23485986.820   123419810.16608  23485983.720    96171324.82446
  21599989.600   113508776.66309  21599984.800    88448411.26548
  20986363.380   110284143.08709  20986362.760    85935715.67248
 15 03 05 01 01 30.0000000  0  7G04G16G18G19G21G22G27
  23968324.100   125954414.09908  23968324.140    98146311.09245
  20379807.100   107096633.92809  20379803.860    83451916.95249
  22093259.760   116100925.88809  22093256.780    90468281.03447
  22443039.880   117938998.71408  22443035.660    91900522.46948
  23500360.680   123495345.66208  23500357.720    96230183.63847
  21589595.220   113454154.87809  21589590.580    88405848.85848
  20979934.560   110250360.30409  20979934.100    85909391.43149
 15 03 05 01 02  0.0000000  0  8G04G07G16G18G19G21G22G27
  23949637.020   125856212.89108  23949636.740    98069790.76445
  24557900.080   129052636.40108                                
  20380370.560   107099594.68909  20380367.300    83454224.02648
  22095327.900   116111794.53409  22095325.000    90476750.11147
  22431138.780   117876458.21709  22431134.640    91851789.63648
  23514746.120   123570942.02708  23514743.340    96289089.87846
  21579281.140   113399954.75809  21579276.700    88363615.01048
  20973539.380   110216753.99209  20973539.040    85883204.69848
 15 03 05 01 02 30.0000000  0  8G04G07G16G18G19G21G22G27
  23930985.040   125758195.88008  23930984.460    97993413.98345
  24550154.620   129011932.30408  24550152.720   100528776.03246
  20381035.100   107103086.78309  20381031.840    83456945.13849
  22097489.920   116123156.47209  22097487.120    90485603.57147
  22419261.120   117814040.84208  22419257.000    91803152.73148
  23529142.860   123646597.55608  23529140.240    96348042.22046
  21569047.720   113346178.01209  21569043.360    88321711.06848
  20967177.900   110183324.28309  20967177.580    85857155.57949
 15 03 05 01 03  0.0000000  0  8G04G07G16G18G19G21G22G27
  23912368.100   125660363.18408  23912367.420    97917180.80445
  24542504.420   128971730.28708  24542502.500   100497449.80346
  20381800.620   107107109.53909  20381797.360    83460079.74949
  22099745.500   116135009.97709  22099742.760    90494840.07147
  22407406.760   117751746.14808  22407402.600    91754611.42248
  23543550.520   123722309.80608  23543547.880    96407038.76746
  21558895.200   113292825.88609  21558890.780    88280138.00448
  20960850.060   110150070.92609  20960849.680    85831243.88048
 15 03 05 01 03 30.0000000  0  8G04G07G16G18G19G21G22G27
  23893786.720   125562717.48608  23893786.000    97841093.32545
  24534950.140   128932032.84008  24534948.460   100466516.71345
  20382667.540   107111665.10609  20382664.240    83463629.53549
  22102094.940   116147356.33909  22102092.180    90504460.61447
  22395576.020   117689575.90208  22395572.020    91706167.09948
  23557969.020   123798078.92208  23557966.320    96466079.62946
  21548824.160   113239901.67709  21548819.560    88238898.38348
  20954556.240   110116995.89609  20954555.720    85805471.13848
 15 03 05 01 04  0.0000000  0  8G04G07G16G18G19G21G22G27
  23875240.760   125465258.17608  23875240.080    97765151.10045
  24527492.000   128892839.08308  24527490.280   100435976.11745
  20383635.640   107116752.23509  20383632.300    83467593.52248
  22104537.880   116160193.79909  22104534.980    90514463.82847
  22383768.680   117627528.40308  22383764.740    91657818.40247
  23572397.720   123873901.71908  23572394.900    96525162.30846
  21538834.580   113187405.60209  21538829.820    88197992.36948
  20948296.060   110084098.09109  20948295.520    85779836.48948
 15 03 05 01 04 30.0000000  0  8G04G07G16G18G19G21G22G27
  23856730.820   125367988.28708  23856730.220    97689356.48145
  24520130.300   128854152.14008  24520128.360   100405830.42845
  20384705.440   107122373.90409  20384702.060    83471974.03549
  22107074.640   116173524.14009  22107071.600    90524851.11347
  22371985.200   117565605.99508  22371981.280    91609567.18548
  23586836.760   123949779.01108  23586833.900    96584287.45846
  21528927.220   113135341.70809  21528922.280    88157423.12048
  20942070.080   110051380.17509  20942069.500    85754342.01748
 15 03 05 01 05  0.0000000  0  8G04G07G16G18G19G21G22G27
  23838256.380   125270905.02508  23838255.920    97613707.28445
  24512864.440   128815968.81008  24512862.280   100376077.16845
  20385876.220   107128526.04509  20385872.720    83476767.90348
  22109704.360   116187343.06809  22109701.220    90535619.12147
  22360224.840   117503804.94609  22360220.920    91561410.53847
  23601285.100   124025705.52408  23601282.260    96643450.95646
  21519101.640   113083707.83209  21519096.660    88117188.95348
  20935877.560   110018838.64909  20935877.020    85728984.99248
 15 03 05 01 05 30.0000000  0  8G04G07G16G18G19G21G22G27
  23819818.940   125174016.97208  23819818.720    97538210.20045
  24505695.740   128778297.49008  24505693.920   100346722.87245
  20387149.540   107135217.08709  20387145.980    83481981.69448
  22112428.420   116201657.95509  22112425.200    90546773.58946
  22348489.180   117442133.36309  22348485.300    91513354.77647
  23615743.960   124101687.36708  23615741.120    96702657.56645
  21509359.660   113032513.52609  21509354.720    88077297.29848
  20929720.180   109986481.87409  20929719.640    85703771.92148
 15 03 05 01 06  0.0000000  0  8G04G07G16G18G19G21G22G27
  23801417.840   125077319.92108  23801417.860    97462861.94345
  24498623.600   128741133.65308  24498622.260   100317764.02846
  20388524.380   107142442.01209  20388520.840    83487611.49148
  22115245.680   116216462.81109  22115242.420    90558309.84547
  22336777.160   117380586.03309  22336773.280    91465395.84648
  23630212.080   124177717.90008  23630209.160    96761902.13046
  21499700.700   112981755.50909  21499695.800    88037745.60948
  20923597.080   109954305.06109  20923596.560    85678699.08148
 15 03 05 01 06 30.0000000  0  8G04G07G16G18G19G21G22G27
  23783053.260   124980814.19008  23783053.400    97387662.75045
  24491648.320   128704477.58908  24491647.180   100289200.85545
  20390000.620   107150200.03409  20389997.120    83493656.69348
  22118155.920   116231756.04209  22118152.620    90570226.65247
  22325088.680   117319162.47009  22325084.720    91417533.34747
  23644689.060   124253794.96008  23644686.060    96821182.93546
  21490124.960   112931434.69809  21490120.140    87998534.59548
  20917508.240   109922307.99609  20917507.720    85653766.30948
 15 03 05 01 07  0.0000000  0  8G04G07G16G18G19G21G22G27
  23764725.760   124884502.95808  23764725.980    97312615.14145
  24484770.120   128668331.57608  24484768.760   100261035.12545
  20391578.920   107158494.34809  20391575.500    83500119.79748
  22121159.580   116247540.06609  22121156.240    90582525.90847
  22313424.180   117257865.11609  22313420.100    91369769.21347
  23659175.000   124329919.37208  23659171.900    96880500.64645
  21480633.220   112881555.21709  21480628.420    87959667.49048
  20911454.200   109890493.48609  20911453.640    85628975.79248
 15 03 05 01 07 30.0000000  0  8G04G07G16G18G19G21G22G27
  23746434.960   124788383.93708  23746435.120    97237717.27845
  24477988.700   128632693.62808  24477986.500   100233265.29945
  20393258.640   107167321.64609  20393255.360    83506998.19049
  22124255.980   116263811.37509  22124252.580    90595204.84747
  22301783.080   117196690.86009  22301778.960    91322100.98748
  23673669.020   124406086.55508  23673665.940    96939851.68245
  21471225.120   112832115.41809  21471220.300    87921142.97948
  20905434.380   109858858.73409  20905433.780    85604325.33049
 15 03 05 01 08  0.0000000  0  8G04G07G16G18G19G21G22G27
  23728182.760   124692467.44608  23728182.840    97162977.22946
  24471305.540   128597573.59107  24471303.040   100205899.02445
  20395041.700   107176691.80509  20395038.500    83514299.60349
  22127446.640   116280578.29009  22127443.260    90608269.97247
  22290167.240   117135649.34809  22290163.180    91274536.21248
  23688172.700   124482304.36508  23688169.640    96999242.16946
  21461902.780   112783126.46909  21461897.980    87882969.78548
  20899450.680   109827413.68509  20899450.080    85579822.68849
 15 03 05 01 08 30.0000000  0  8G04G07G16G18G19G21G22G27
  23709967.980   124596747.73408  23709967.920    97088390.51445
  24464719.480   128562965.41407  24464717.520   100178931.60145
  20396926.820   107186598.09609  20396923.580    83522018.78048
  22130730.240   116297833.97409  22130727.000    90621715.96047
  22278575.380   117074733.82509  22278571.240    91227069.61447
  23702684.580   124558565.24008  23702681.540    97058666.22346
  21452665.340   112734583.53909  21452660.560    87845144.14748
  20893501.880   109796152.29809  20893501.260    85555463.17348
 15 03 05 01 09  0.0000000  0  8G04G07G16G18G19G21G22G27
  23691790.520   124501224.82808  23691790.420    97013957.15946
  24458230.700   128528868.47407  24458229.260   100152362.55746
  20398913.840   107197039.87309  20398910.540    83530155.21548
  22134106.400   116315576.16709  22134103.300    90635541.05147
  22267007.400   117013943.68309  22267003.120    91179700.69647
  23717204.120   124634865.78308  23717201.140    97118121.18346
  21443512.900   112686487.28709  21443508.120    87807666.56448
  20887587.820   109765073.85309  20887587.200    85531246.20448
 15 03 05 01 09 30.0000000  0  8G04G07G16G18G19G21G22G27
  23673651.400   124405904.52008  23673651.460    96939681.66846
  24451840.180   128495288.29007  24451839.340   100126196.17045
  20401003.760   107208022.31109  20401000.420    83538712.94749
  22137576.100   116333809.83709  22137573.080    90649749.11447
  22255464.260   116953284.08609  22255460.020    91132433.51348
  23731731.960   124711209.77108  23731729.000    97177609.99346
  21434446.700   112638844.15009  21434441.900    87770542.06148
  20881709.700   109734183.98209  20881709.040    85507176.17149
 15 03 05 01 10  0.0000000  0  8G04G07G16G18G19G21G22G27
  23655550.440   124310784.69208  23655550.660    96865562.38746
  24445547.820   128462222.62707  24445547.060   100100430.74045
  20403196.020   107219542.54209  20403192.620    83547689.74049
  22141138.620   116352530.89809  22141135.640    90664336.96447
  22243945.300   116892751.96809  22243941.140    91085265.66148
  23746267.300   124787592.73108  23746264.280    97237129.17746
  21425466.440   112591652.68009  21425461.720    87733769.51048
  20875866.920   109703480.12409  20875866.280    85483251.09049
 15 03 05 01 10 30.0000000  0  8G04G07G16G18G19G21G22G27
  23637487.740   124215865.04608  23637487.940    96791599.08045
  24439353.220   128429670.67507  24439352.260   100075065.57345
  20405490.400   107231599.54509  20405487.020    83557084.79748
  22144793.640   116371737.95809  22144790.680    90679303.51147
  22232450.500   116832346.69609  22232446.300    91038196.63147
  23760809.660   124864012.59708  23760806.520    97296677.11046
  21416572.220   112544913.47509  21416567.600    87697349.36248
  20870059.420   109672961.77309  20870058.800    85459470.55548
 15 03 05 01 11  0.0000000  0  8G04G07G16G18G19G21G22G27
  23619463.440   124121146.21908  23619463.340    96717792.25745
  24433256.480   128397632.28707  24433255.380   100050100.58345
  20407886.840   107244193.03309  20407883.500    83566897.89449
  22148540.940   116391429.86409  22148537.920    90694647.85947
  22220979.820   116772068.01109  22220975.640    90991226.25347
  23775358.640   124940467.34908  23775355.460    97356252.23746
  21407764.340   112498628.01109  21407759.760    87661282.77948
  20864287.220   109642629.04909  20864286.680    85435834.67149
 15 03 05 01 11 30.0000000  0  8G04G07G16G18G19G21G22G27
  23601478.120   124026631.75808  23601477.700    96644144.69246
  24427258.320   128366110.88407  24427257.080   100025538.47846
  20410385.940   107257325.93409  20410382.620    83577131.31249
  22152380.900   116411608.78709  22152377.780    90710371.71447
  22209533.820   116711919.02709  22209529.640    90944356.94248
  23789914.480   125016958.18408  23789911.200    97415855.48546
  21399043.600   112452800.53609  21399039.060    87625573.07948
  20858551.020   109612485.24609  20858550.540    85412346.00549
 15 03 05 01 12  0.0000000  0  8G04G07G16G18G19G21G22G27
  23583532.160   123932324.11108  23583531.460    96570658.27845
  24421358.900   128335108.62107  24421357.700   100001380.84145
  20412987.980   107270999.69409  20412984.700    83587786.17549
  22156313.540   116432275.09709  22156310.400    90726475.34247
  22198112.780   116651901.18809  22198108.500    90897589.82747
  23804477.240   125093485.40608  23804473.900    97475487.07846
  21390410.540   112407434.08009  21390406.040    87590222.60648
  20852851.180   109582532.30609  20852850.680    85389006.05249
 15 03 05 01 12 30.0000000  0  8G04G07G16G18G19G21G22G27
  23565625.480   123838222.86608  23565624.480    96497332.67945
  24415558.220   128304624.66808  24415556.780    99977627.10945
  20415692.760   107285213.20109  20415689.520    83598861.62548
  22160338.600   116453427.40809  22160335.560    90742957.67147
  22186716.580   116592013.66609  22186712.140    90850924.25447
  23819046.460   125170046.67208  23819043.040    97535145.19745
  21381865.300   112362529.00909  21381860.840    87555231.65548
  20847187.580   109552769.81909  20847187.120    85365814.50548
 15 03 05 01 13  0.0000000  0  8G04G07G16G18G19G21G22G27
  23547758.000   123744328.53308  23547756.840    96424168.30745
  24409856.020   128274658.99407  24409854.660    99954277.23845
  20418500.120   107299965.89309  20418496.940    83610357.22149
  22164455.840   116475064.28409  22164453.000    90759817.58047
  22175345.100   116532256.03309  22175340.620    90804359.89448
  23833621.700   125246639.83108  23833618.160    97594828.17846
  21373408.000   112318086.33009  21373403.680    87520601.01148
  20841560.200   109523197.64509  20841559.780    85342771.25749
 15 03 05 01 13 30.0000000  0  8G04G07G16G18G19G21G22G27
  23529930.580   123650645.56508  23529929.520    96351168.63545
  24404253.020   128245215.38307  24404251.980    99931334.13745
  20421410.800   107315261.53109  20421407.640    83622275.87949
  22168665.800   116497188.48009  22168663.160    90777057.20547
  22163999.120   116472632.31409  22163994.640    90757899.86348
  23848203.420   125323267.22308  23848199.880    97654537.81046
  21365039.720   112274111.10609  21365035.500    87486334.60548
  20835969.840   109493820.15009  20835969.440    85319879.70549
 15 03 05 01 14  0.0000000  0  8G04G07G16G18G19G21G22G27
  23512142.720   123557171.13808  23512141.840    96278331.46245
  24398748.740   128216290.08807  24398747.860    99908794.94945
  20424424.100   107331096.56109  20424420.900    83634614.85749
  22172967.740   116519795.45609  22172965.140    90794673.03247
  22152677.900   116413139.06409  22152673.480    90711541.50148
  23862790.700   125399923.76808  23862787.060    97714270.17345
  21356760.080   112230601.27509  21356755.860    87452430.85148
  20830415.920   109464634.05109  20830415.420    85297137.29649
 15 03 05 01 14 30.0000000  0  8G04G07G16G18G19G21G22G27
  23494394.700   123463906.32408  23494394.160    96205657.63245
  24393343.340   128187884.40408  24393342.600    99886660.62945
  20427540.120   107347471.27709  20427536.820    83647374.37749
  22177361.520   116542884.76309  22177358.940    90812664.71247
  22141381.540   116353776.57809  22141377.220    90665285.03748
  23877383.300   125476608.42308  23877379.540    97774024.43646
  21348569.440   112187558.91909  21348565.020    87418891.36948
  20824898.660   109435640.45109  20824898.080    85274544.88549
 15 03 05 01 15  0.0000000  0  8G04G07G16G18G19G21G22G27
  23476686.860   123370852.33708  23476686.620    96133148.07545
  24388036.960   128159998.68408  24388036.200    99864931.48145
  20430758.720   107364385.09309  20430755.400    83660553.96149
  22181847.080   116566456.16409  22181844.400    90831032.03847
  22130110.280   116294545.67009  22130105.900    90619131.09148
  23891981.000   125553319.98008  23891977.240    97833799.66845
  21340468.080   112144985.36209  21340463.360    87385717.18748
  20819418.080   109406839.89609  20819417.440    85252102.89549
 15 03 05 01 15 30.0000000  0  8G04G07G16G18G19G21G22G27
  23459019.780   123278012.25308  23459019.780    96060805.21245
  24382830.000   128132635.69108  24382829.280    99843609.64145
  20434080.480   107381841.05909  20434077.220    83674156.00048
  22186424.560   116590510.55309  22186421.660    90849775.72647
  22118864.540   116235448.92609  22118860.180    90573081.69848
  23906584.020   125630059.68608  23906580.280    97893596.82145
  21332456.620   112102884.16509  21332451.620    87352911.08048
  20813974.800   109378235.48409  20813974.160    85229813.74848
 15 03 05 01 16  0.0000000  0  8G04G07G16G18G19G21G22G27
  23441393.040   123185383.58508  23441393.200    95988627.07845
  24377721.820   128105791.97908  24377720.740    99822692.46345
  20437504.800   107399835.77509  20437501.520    83688177.84648
  22191093.280   116615044.22209  22191090.120    90868892.88347
  22107643.760   116176483.18209  22107639.420    90527134.39648
  23921191.480   125706822.93208  23921187.840    97953412.32945
  21324534.740   112061254.03109  21324529.540    87320472.03748
  20808568.380   109349824.46109  20808567.680    85207675.29048
 15 03 05 01 16 30.0000000  0  8G04G07G16G18G19G21G22G27
  23423807.800   123092972.29108  23423807.940    95916618.32546
  24372713.620   128079473.46908  24372712.400    99802184.51445
  20441032.620   107418374.22109  20441029.240    83702623.37748
  22195853.920   116640061.24109  22195850.660    90888386.67847
  22096448.940   116117653.71709  22096444.520    90481293.27048
  23935804.060   125783613.22508  23935800.600    98013248.91345
  21316703.700   112020101.48609  21316698.480    87288405.13548
  20803199.840   109321612.55909  20803199.140    85185691.99648
 15 03 05 01 17  0.0000000  0  8G04G07G16G18G19G21G22G27
  23406263.000   123000772.68908  23406262.940    95844774.52145
  24367804.060   128053673.55208  24367802.700    99782080.64844
  20444662.640   107437449.74209  20444659.200    83717487.41148
  22200705.180   116665554.63509  22200701.960    90908251.66847
  22085278.860   116058954.51309  22085274.400    90435553.65648
  23950420.420   125860423.06808  23950417.120    98073100.72245
  21308962.380   111979420.98709  21308957.320    87256706.05548
  20797868.040   109293593.91309  20797867.360    85163859.28348
 15 03 05 01 17 30.0000000  0  8G04G07G16G18G19G21G22G27
  23388760.080   122908793.25108  23388759.760    95773102.28646
  24362994.700   128028399.59008  24362993.240    99762386.65246
  20448396.160   107457069.38809  20448392.740    83732775.43949
  22205648.280   116691530.88509  22205645.160    90928492.90647
  22074135.040   116000393.40709  22074130.640    90389921.63948
  23965041.660   125937258.51208  23965038.560    98132972.47945
  21301312.540   111939221.74509  21301307.740    87225381.98348
  20792574.520   109265776.59809  20792573.900    85142183.45949
 15 03 05 01 18  0.0000000  0  8G04G07G16G18G19G21G22G27
  23371298.260   122817030.20608  23371297.800    95701598.66745
  24358284.540   128003647.72708  24358283.280    99743099.46746
  20452232.240   107477228.53209  20452228.960    83748483.85848
  22210682.100   116717984.34409  22210679.180    90949106.00847
  22063016.640   115941966.02809  22063012.300    90344393.83048
  23979666.740   126014114.07408  23979663.800    98192859.92945
  21293753.660   111899500.80209  21293749.100    87194430.61348
  20787318.660   109238156.98609  20787318.040    85120661.69149
 15 03 05 01 18 30.0000000  0  8G04G07G16G18G19G21G22G27
  23353878.600   122725489.29808  23353877.980    95630268.12846
  24353674.620   127979422.78608  24353673.600    99724222.87145
  20456171.880   107497931.86909  20456168.680    83764616.31648
  22215807.420   116744918.75009  22215804.660    90970093.85347
  22051924.700   115883677.43509  22051920.340    90298974.14348
  23994296.340   126090993.11208  23994293.440    98252765.64445
  21286286.860   111860264.03309  21286282.500    87163856.51748
  20782101.480   109210740.31209  20782100.800    85099298.05249
 15 03 05 01 19  0.0000000  0  8G04G07G16G18G19G21G22G27
  23336499.860   122634163.72108  23336499.220    95559105.37046
  24349163.560   127955717.32608  24349162.500    99705751.07845
  20460213.760   107519172.31509  20460210.640    83781167.29948
  22221022.780   116772326.12009  22221020.100    90991450.24647
  22040857.780   115825520.76709  22040853.520    90253657.27348
  24008928.760   126167886.84808  24008925.900    98312682.82945
  21278911.220   111821505.77609  21278906.880    87133655.28548
  20776921.660   109183519.86409  20776920.960    85078087.31549
 15 03 05 01 19 30.0000000  0  8G04G07G16G18G19G21G22G27
  23319163.520   122543060.80008  23319162.840    95488116.13645
  24344752.600   127932538.20808  24344751.680    99687689.41245
  20464358.880   107540955.19109  20464355.820    83798140.95848
  22226329.160   116800211.73709  22226326.540    91013179.30947
  22029817.260   115767502.50609  22029813.040    90208448.25548
  24023565.020   126244800.60108  24023562.100    98372615.61945
  21271628.220   111783233.55809  21271623.860    87103832.79948
  20771780.460   109156502.57309  20771779.760    85057034.89749
 15 03 05 01 20  0.0000000  0  8G04G07G16G18G19G21G22G27
  23301869.060   122452178.38008  23301868.540    95417298.72146
  24340441.320   127909882.31808  24340440.340    99670035.47145
  20468606.840   107563277.98509  20468603.720    83815535.33548
  22231725.780   116828571.55009  22231723.280    91035277.87147
  22018802.620   115709620.04809  22018798.320    90163345.06148
  24038204.220   126321729.90008  24038201.340    98432560.51645
  21264437.520   111745445.57309  21264433.140    87074387.63448
  20766677.500   109129686.11409  20766676.760    85036138.96149
 15 03 05 01 20 30.0000000  0  8G04G07G16G18G19G21G22G27
  23284617.120   122361519.28308  23284616.700    95346655.32446
  24336229.980   127887751.90308  24336229.000    99652790.95346
  20472957.820   107586141.91909  20472954.500    83833351.37349
  22237212.980   116857407.12509  22237210.480    91057747.14847
  22007814.260   115651875.94209  22007809.920    90118349.66648
  24052846.620   126398675.82708  24052843.720    98492518.36046
  21257339.700   111708145.09709  21257335.180    87045322.34148
  20761613.280   109103073.47709  20761612.500    85015401.84549
 15 03 05 01 21  0.0000000  0  8G04G07G16G18G19G21G22G27
  23267407.340   122271081.77808  23267407.060    95276184.58046
  24332118.360   127866144.44008  24332117.200    99635953.95245
  20477411.280   107609544.72609  20477407.800    83851587.31048
  22242789.960   116886714.21909  22242787.300    91080583.85147
  21996851.800   115594267.92609  21996847.440    90073460.31548
  24067491.460   126475634.59208  24067488.400    98552486.20245
  21250334.420   111671331.19809  21250329.780    87016636.20248
  20756587.440   109076662.64109  20756586.680    84994821.97549
 15 03 05 01 21 30.0000000  0  8G04G07G16G18G19G21G22G27
  23250240.360   122180869.40408  23250240.200    95205889.26846
  24328106.800   127845062.86908  24328105.560    99619526.74845
  20481967.640   107633488.81909  20481964.180    83870245.03948
  22248457.200   116916495.24609  22248454.340    91103789.84647
  21985915.840   115536799.24709  21985911.420    90028679.54148
  24082139.040   126552607.92608  24082136.000    98612465.39745
  21243422.320   111635007.67809  21243417.640    86988332.17148
  20751600.660   109050457.09809  20751599.960    84974402.07449
 15 03 05 01 22  0.0000000  0  8G04G07G16G18G19G21G22G27
  23233116.500   122090883.57908  23233116.380    95135770.48745
  24324195.300   127824507.76108  24324194.160    99603509.77146
  20486627.000   107657974.35509  20486623.680    83889324.66548
  22254214.560   116946749.51209  22254211.500    91127364.60347
  21975006.540   115479470.80609  21975002.040    89984008.03748
  24096789.200   126629595.21808  24096786.140    98672455.47245
  21236603.740   111599176.46309  21236599.100    86960411.75448
  20746653.180   109024458.14409  20746652.560    84954143.14249
 15 03 05 01 22 30.0000000  0  8G04G07G16G18G19G21G22G27
  23216035.600   122001123.06208  23216035.340    95065827.26245
  24320383.660   127804477.18408  24320382.500    99587901.55446
  20491388.980   107682998.79409  20491385.780    83908824.22249
  22260061.340   116977473.85209  22260058.240    91151305.65547
  21964123.620   115422280.82009  21964119.140    89939444.43448
  24111441.360   126706593.09908  24111438.340    98732453.80045
  21229878.680   111563836.98609  21229874.180    86932874.51748
  20741744.740   108998664.44309  20741744.240    84934044.15349
 15 03 05 01 23  0.0000000  0  8G04G07G16G18G19G21G22G27
  23198997.920   121911589.09208  23198997.300    94996060.57745
  24316671.800   127784971.21808  24316670.740    99572702.09546
  20496253.580   107708562.31609  20496250.380    83928743.83349
  22265997.380   117008667.50409  22265994.340    91175612.39947
  21953267.200   115365230.06909  21953262.760    89894989.30548
  24126095.400   126783600.83008  24126092.340    98792459.80646
  21223247.520   111528990.60409  21223243.120    86905721.50148
  20736875.540   108973077.05509  20736875.160    84914105.93649
 15 03 05 01 23 30.0000000  0  8G04G07G16G18G19G21G22G27
  23182003.420   121822281.82708  23182002.500    94926470.55345
  24313059.860   127765989.44908  24313058.580    99557911.11146
  20501220.620   107734664.10109  20501217.360    83949082.87649
  22272022.460   117040329.29709  22272019.480    91200283.92847
  21942437.260   115308318.45809  21942432.840    89850642.60748
  24140751.020   126860616.86708  24140747.900    98852472.28045
  21216710.460   111494638.26609  21216706.100    86878953.45648
  20732045.660   108947696.18809  20732045.280    84894328.63749
 15 03 05 01 24  0.0000000  0  8G04G07G16G18G19G21G22G27
  23165052.680   121733204.87908  23165051.440    94857060.00046
  24309548.080   127747534.79708  24309546.880    99543530.86746
  20506290.500   107761306.34309  20506287.200    83969843.04648
  22278136.840   117072460.64909  22278133.920    91225321.35047
  21931634.460   115251549.61509  21931630.100    89806407.16848
  24155408.620   126937642.91208  24155405.360    98912492.55845
  21210268.220   111460783.80909  21210263.840    86852573.36548
  20727255.800   108922525.54309  20727255.380    84874715.14549
 15 03 05 01 24 30.0000000  0  8G04G07G16G18G19G21G22G27
  23148145.960   121644359.68908  23148144.760    94787830.04646
  24306136.620   127729607.60408  24306135.580    99529561.63546
  20511463.100   107788488.66509  20511459.840    83991024.06048
  22284340.440   117105061.13209  22284337.560    91250724.32747
  21920858.980   115194924.09909  21920854.560    89762283.40448
  24170068.020   127014678.16608  24170064.620    98972520.01345
  21203921.100   111427429.09309  21203916.660    86826582.69648
  20722506.180   108897566.26609  20722505.800    84855266.36448
 15 03 05 01 25  0.0000000  0  8G04G07G16G18G19G21G22G27
  23131282.680   121555742.94908  23131281.680    94718778.09146
  24302824.780   127712203.43608  24302823.520    99515999.98146
  20516737.900   107816207.98709  20516734.680    84012623.51348
  22290632.300   117138125.50709  22290629.440    91276488.77547
  21910110.040   115138438.03809  21910105.620    89718268.29948
  24184728.200   127091717.36208  24184724.660    99032550.52845
  21197668.500   111394570.90109  21197663.900    86800978.91648
  20717796.200   108872814.87309  20717795.780    84835979.55649
 15 03 05 01 25 30.0000000  0  8G04G07G16G18G19G21G22G27
  23114464.040   121467361.01908  23114463.300    94649909.10046
  24299613.460   127695328.11408  24299612.160    99502850.37546
  20522115.840   107844469.12609  20522112.620    84034645.16848
  22297013.260   117171658.32209  22297010.360    91302618.24446
  21899388.940   115082098.12709  21899384.520    89674367.08348
  24199390.040   127168765.42508  24199386.400    99092587.95245
  21191511.760   111362216.35709  21191507.000    86775767.59348
  20713127.100   108848278.09309  20713126.580    84816859.98348
 15 03 05 01 26  0.0000000  0  8G04G07G16G18G19G21G22G27
  23097689.320   121379210.18508  23097688.880    94581220.18246
  24296502.080   127678977.32608  24296500.660    99490109.48146
  20527595.940   107873267.02509  20527592.680    84057085.07748
  22303482.380   117205654.26609  22303479.520    91329108.59147
  21888694.840   115025900.14009  21888690.380    89630576.45148
  24214052.480   127245816.79908  24214048.780    99152627.95545
  21185450.180   111330362.04509  21185445.300    86750946.06648
  20708498.160   108823952.25009  20708497.600    84797904.77349
 15 03 05 01 26 30.0000000  0  8G04G07G16G18G19G21G22G27
  23080959.140   121291293.65508  23080958.880    94512713.84346
  24293490.820   127663152.80108  24293489.360    99477778.67645
  20533178.500   107902603.35309  20533175.260    84079944.53748
  22310039.900   117240114.53709  22310037.080    91355960.75547
  21878028.280   114969846.97009  21878023.840    89586898.67548
  24228715.760   127322872.64308  24228712.080    99212671.44345
  21179484.420   111299011.54609  21179479.460    86726517.11648
  20703909.880   108799840.33909  20703909.340    84779116.27349
 15 03 05 01 27  0.0000000  0  9G04G07G11G16G18G19G21G22G27
  23064273.360   121203609.25508  23064273.080    94444388.38446
  24290579.260   127647851.92408  24290577.640    99465855.91145
  24728005.500   129946546.29807  24728004.000   101257044.15444
  20538862.820   107932474.37209  20538859.600    84103220.63948
  22316685.020   117275034.96709  22316682.200    91383171.47847
  21867388.760   114913935.84709  21867384.340    89543331.57648
  24243378.980   127399928.63908  24243375.420    99272715.05645
  21173614.120   111268162.83009  21173609.140    86702479.16248
  20699361.820   108775940.15709  20699361.320    84760492.75249
 15 03 05 01 27 30.0000000  0  9G04G07G11G16G18G19G21G22G27
  23047631.300   121116154.11408  23047631.000    94376241.57646
  24287766.460   127633070.28208  24287764.680    99454337.74645
  24710537.620   129854751.76907  24710536.200   101185516.05043
  20544648.160   107962876.46309  20544644.900    84126910.56848
  22323416.660   117310410.26309  22323413.860    91410736.63947
  21856775.660   114858163.81909  21856771.300    89499872.86648
  24258041.340   127476980.22608  24258037.840    99332755.24345
  21167838.840   111237813.54209  21167833.840    86678830.37648
  20694853.560   108752248.94109  20694853.000    84742032.07349
 15 03 05 01 28  0.0000000  0  9G04G07G11G16G18G19G21G22G27
  23031036.060   121028944.93208  23031035.620    94308286.42346
  24285055.460   127618823.82808  24285053.560    99443236.61545
  24693089.760   129763062.30507  24693088.300   101114069.81243
  20550537.400   107993825.08509  20550534.200    84151026.36548
  22330237.740   117346255.67209  22330234.940    91438668.12347
  21846192.140   114802547.26909  21846187.860    89456535.30948
  24272705.760   127554042.77008  24272702.400    99392803.96244
  21162161.820   111207980.65309  21162156.800    86655583.97548
  20690388.220   108728783.29709  20690387.580    84723747.16249
 15 03 05 01 28 30.0000000  0  9G04G07G11G16G18G19G21G22G27
  23014485.060   120941968.52508  23014484.440    94240512.66246
  24282443.760   127605098.60608  24282441.700    99432541.63345
  24675659.300   129671463.96207  24675657.880   101042694.59144
  20556527.960   108025305.82209  20556524.780    84175556.79548
  22337145.440   117382556.15409  22337142.680    91466954.20846
  21835635.660   114747072.91009  21835631.460    89413308.55248
  24287369.360   127631101.08108  24287366.220    99452849.38545
  21156580.620   111178651.47309  21156575.620    86632730.06648
  20685963.380   108705530.43509  20685962.720    84705628.04248
 15 03 05 01 29  0.0000000  0  9G04G07G11G16G18G19G21G22G27
  22997979.640   120855232.13608  22997978.880    94172925.93545
  24279932.340   127591900.68908  24279930.280    99422257.54445
  24658247.460   129579963.66307  24658246.180   100971395.71843
  20562620.900   108057324.25909  20562617.680    84200506.21448
  22344140.820   117419316.72709  22344138.040    91495598.82347
  21825107.600   114691747.75509  21825103.360    89370198.05448
  24302033.060   127708160.02508  24302030.280    99512895.29945
  21151096.700   111149833.28409  21151091.740    86610274.35348
  20681580.340   108682497.39109  20681579.620    84687680.21249
 15 03 05 01 29 30.0000000  0  9G04G07G11G16G18G19G21G22G27
  22981519.560   120768734.03408  22981518.780    94105524.86645
  24277520.780   127579227.32308  24277518.760    99412382.18745
  24640853.820   129488559.27107  24640852.300   100900171.58244
  20568815.560   108089877.55409  20568812.380    84225872.39948
  22351223.180   117456533.88709  22351220.300    91524599.20947
  21814607.520   114636569.59409  21814603.260    89327202.10048
  24316696.420   127785216.90708  24316693.860    99572939.59645
  21145709.780   111121524.59709  21145704.780    86588215.64848
  20677238.840   108659682.52909  20677238.040    84669902.39749
 15 03 05 01 30  0.0000000  0  9G04G07G11G16G18G19G21G22G27
  22965104.880   120682474.45308  22965104.180    94038309.66646
  24275208.720   127567077.49408  24275206.860    99402914.78245
  24623478.320   129397250.69907  24623476.900   100829022.10444
  20575111.820   108122964.67809  20575108.720    84251654.56448
  22358392.120   117494205.86709  22358389.120    91553954.01147
  21804135.500   114581538.68609  21804131.260    89284320.90048
  24331359.140   127862269.90708  24331356.520    99632980.87545
  21140419.960   111093725.89009  21140414.920    86566554.33748
  20672938.900   108637086.23609  20672938.100    84652294.89649
 15 03 05 01 30 30.0000000  0  9G04G07G11G16G18G19G21G22G27
  22948735.940   120596454.70908  22948735.100    93971281.32646
  24272996.440   127555451.84508  24272994.540    99393855.82245
  24606121.280   129306039.15907  24606119.980   100757948.19144
  20581509.740   108156585.52309  20581506.620    84277852.60448
  22365647.440   117532332.06109  22365644.280    91583662.73847
  21793691.760   114526656.15509  21793687.360    89241555.29548
  24346021.220   127939318.99608  24346018.480    99693019.10345
  21135227.480   111066438.83509  21135222.380    86545291.70248
  20668680.840   108614709.95409  20668680.100    84634858.83049
 15 03 05 01 31  0.0000000  0  9G04G07G11G16G18G19G21G22G27
  22932412.860   120510676.04208  22932411.820    93904440.84846
  24270883.980   127544350.46908  24270881.860    99385205.39046
  24588782.860   129214925.51207  24588781.560   100686950.60644
  20588009.120   108190739.59309  20588005.960    84304466.14749
  22372988.980   117570911.64909  22372985.640    91613724.76547
  21783276.380   114471922.83709  21783271.960    89198905.98048
  24360682.480   128016363.28308  24360679.540    99753053.59845
  21130132.560   111039664.91509  21130127.440    86524428.92048
  20664464.840   108592554.98909  20664464.220    84617595.22849
 15 03 05 01 31 30.0000000  0  9G04G07G11G16G18G19G21G22G27
  22916135.800   120425139.67008  22916134.760    93837789.19046
  24268871.160   127533773.35508  24268868.980    99376963.44545
  24571463.340   129123910.93307  24571461.980   100616030.21844
  20594610.020   108225427.48309  20594606.860    84331495.66448
  22380416.600   117609943.98809  22380413.140    91644139.57847
  21772889.660   114417340.00809  21772885.260    89156373.91948
  24375342.860   128093402.60808  24375339.580    99813084.23545
  21125135.580   111013405.77909  21125130.480    86503967.26648
  20660291.240   108570622.77809  20660290.700    84600505.20149
 15 03 05 01 32  0.0000000  0  9G04G07G11G16G18G19G21G22G27
  22899904.600   120339845.12108  22899903.760    93771325.97746
  24266957.980   127523719.21908  24266955.680    99369129.04544
  24554162.560   129032994.33907  24554161.040   100545186.17543
  20601312.060   108260647.03309  20601308.980    84358939.45948
  22387929.820   117649426.49309  22387926.340    91674905.17146
  21762531.400   114362906.91409  21762526.940    89113958.53748
  24390001.760   128170434.39908  24389998.180    99873108.99145
  21120236.440   110987660.86909  21120231.360    86483906.30348
  20656160.000   108548912.94509  20656159.460    84583588.44348
 15 03 05 01 32 30.0000000  0  9G04G07G11G16G18G19G21G22G27
  22883720.320   120254797.11708  22883719.520    93705054.85546
  24265144.760   127514191.55308  24265142.720    99361704.88645
  24536881.260   128942179.93507  24536879.560   100474421.74544
  20608115.840   108296401.06809  20608112.800    84386799.73548
  22395529.100   117689361.75209  22395525.740    91706023.55047
  21752202.500   114308628.19109  21752197.920    89071663.43948
  24404659.740   128247461.91808  24404656.160    99933130.42045
  21115436.120   110962435.26909  21115431.020    86464250.00048
  20652072.040   108527430.20209  20652071.420    84566848.64049
 15 03 05 01 33  0.0000000  0  9G04G07G11G16G18G19G21G22G27
  22867582.240   120169991.40208  22867581.240    93638972.49146
  24263430.580   127505184.60908  24263428.900    99354686.48044
  24519618.500   128851463.43208  24519616.900   100403733.63244
  20615020.320   108332684.44709  20615017.300    84415072.49448
  22403213.360   117729743.65909  22403210.240    91737489.98046
  21741902.020   114254499.36609  21741897.540    89029485.15848
  24419315.640   128324479.25808  24419312.300    99993143.92144
  21110733.740   110937724.70809  21110728.640    86444995.03348
  20648026.520   108506170.50909  20648025.800    84550282.65248
 15 03 05 01 33 30.0000000  0  9G04G07G11G16G18G19G21G22G27
  22851491.100   120085432.90508  22851490.120    93573082.78646
  24261816.320   127496702.41408  24261814.740    99348076.97845
  24502375.280   128760849.73408  24502373.860   100333125.59944
  20622026.160   108369500.43709  20622023.120    84443760.26048
  22410983.240   117770575.39809  22410980.340    91769306.90947
  21731631.000   114200525.34309  21731626.620    88987427.49448
  24433970.200   128401490.10007  24433967.120   100053152.35745
  21106130.320   110913534.41809  21106125.300    86426145.46748
  20644024.420   108485139.14809  20644023.600    84533894.57649
 15 03 05 01 34  0.0000000  0  9G04G07G11G16G18G19G21G22G27
  22835446.440   120001119.01608  22835445.780    93507383.71646
  24260301.280   127488740.95608  24260299.700    99341873.22245
  24485150.880   128670335.34208  24485149.440   100262594.96544
  20629132.680   108406845.11309  20629129.560    84472859.98548
  22418837.800   117811851.82009  22418835.140    91801470.35747
  21721388.820   114146702.99109  21721384.560    88945488.02248
  24448622.560   128478489.62607  24448619.880   100113151.96345
  21101625.420   110889861.43709  21101620.500    86407698.98848
  20640065.200   108464333.29309  20640064.340    84517682.21849
 15 03 05 01 34 30.0000000  0  9G04G07G11G16G18G19G21G22G27
  22819448.660   119917050.83508  22819448.260    93441876.11046
  24258885.520   127481300.68508  24258883.800    99336075.59845
  24467945.540   128579921.07508  24467943.960   100192142.33744
  20636339.720   108444718.04009  20636336.540    84502371.34148
  22426776.880   117853572.12709  22426774.260    91833979.67946
  21711175.880   114093034.03609  21711171.740    88903668.06548
  24463272.600   128555477.36707  24463270.360   100173142.39445
  21097219.460   110866707.86909  21097214.600    86389657.25148
  20636149.120   108443754.54809  20636148.280    84501646.83448
 15 03 05 01 35  0.0000000  0  9G04G07G11G16G18G19G21G22G27
  22803498.560   119833232.28309  22803498.080    93376562.99647
  24257569.280   127474383.77608  24257567.360    99330685.80345
  24450759.920   128489610.90508  24450758.440   100121770.83345
  20643647.720   108483121.57409  20643644.480    84532296.16048
  22434800.800   117895738.14309  22434798.100    91866836.32547
  21700992.780   114039521.63709  21700988.660    88861970.11248
  24477920.860   128632455.80707  24477919.020   100233125.58245
  21092913.080   110844077.49009  21092908.260    86372023.20248
  20632276.980   108423406.83009  20632276.200    84485791.47349
 15 03 05 01 35 30.0000000  0  9G04G07G11G16G18G19G21G22G27
  22787595.400   119749660.01709  22787594.700    93311441.77446
  24256351.900   127467985.97808  24256349.760    99325700.50645
  24433593.500   128399401.47908  24433592.000   100051477.83544
  20651055.740   108522051.10809  20651052.540    84562630.84748
  22442908.560   117938344.59909  22442905.780    91900036.16547
  21690839.000   113986162.89509  21690834.740    88820391.88848
  24492566.520   128709420.25507  24492564.880   100293097.83845
  21088705.540   110821966.90709  21088700.800    86354794.18848
  20628448.260   108403287.14409  20628447.500    84470113.78749
 15 03 05 01 36  0.0000000  0  9G04G07G11G16G18G19G21G22G27
  22771739.800   119666337.71708  22771739.040    93246515.35746
  24255233.840   127462109.85008  24255231.660    99321121.67445
  24416446.940   128309295.99708  24416445.500    99981265.83345
  20658564.180   108561508.63109  20658561.080    84593376.96348
  22451100.460   117981393.13209  22451097.640    91933580.47647
  21680715.140   113932961.04209  21680710.640    88778935.91748
  24507209.900   128786372.52907  24507208.420   100353060.63745
  21084597.540   110800379.87609  21084592.860    86337973.13748
  20624663.680   108383399.37009  20624663.000    84454616.82349
 15 03 05 01 36 30.0000000  0  9G04G07G11G16G18G19G21G22G27
  22755931.140   119583262.41708  22755930.320    93181781.39846
  24254214.120   127456750.77508  24254211.920    99316945.75545
  24399319.620   128219291.13908  24399318.100    99911132.23345
  20666172.300   108601489.89209  20666169.280    84624531.17048
  22459375.600   118024878.97909  22459372.740    91967465.55447
  21670620.600   113879913.31109  21670616.000    88737600.03048
  24521850.260   128863308.09107  24521848.760   100413010.39645
  21080588.760   110779313.66809  21080584.140    86321557.91348
  20620922.780   108363740.84209  20620922.160    84439298.47949
 15 03 05 01 37  0.0000000  0  9G04G07G11G16G18G19G21G22G27
  22740170.260   119500438.08908  22740169.320    93117242.99046
  24253293.240   127451911.71008  24253291.080    99313175.02445
  24382212.140   128129390.64908  24382210.600    99841079.95245
  20673880.560   108641996.88309  20673877.520    84656095.04748
  22467734.160   118068803.27209  22467731.300    92001692.26747
  21660556.000   113827023.32109  21660551.440    88696387.07148
  24536488.040   128940229.79707  24536486.540   100472949.36845
  21076679.960   110758772.02109  21076675.340    86305551.43848
  20617226.300   108344315.59809  20617225.740    84424161.92349
 15 03 05 01 37 30.0000000  0  9G04G07G11G16G18G19G21G22G27
  22724456.900   119417863.57309  22724455.880    93052899.23546
  24252470.720   127447590.02408  24252468.780    99309807.48546
  24365124.240   128039593.13108  24365122.780    99771107.92745
  20681688.360   108683027.07309  20681685.320    84688066.61148
  22476175.640   118113163.28809  22476172.740    92036258.51047
  21650521.220   113774290.29609  21650516.740    88655296.41248
  24551122.680   129017134.75007  24551121.020   100532875.29345
  21072870.820   110738753.89909  21072866.120    86289952.90848
  20613574.080   108325122.74809  20613573.520    84409206.44749
 15 03 05 01 38  0.0000000  0  9G04G07G11G16G18G19G21G22G27
  22708791.680   119335541.73709  22708790.540    92988752.39146
  24251747.120   127443787.75908  24251745.280    99306844.67545
  24348056.340   127949901.04008  24348055.020    99701218.03544
  20689596.020   108724582.00709  20689592.900    84720447.06248
  22484700.180   118157959.73109  22484697.100    92071164.82846
  21640516.820   113721717.05309  21640512.400    88614330.27348
  24565754.320   129094023.71207  24565752.400   100592788.74845
  21069161.940   110719262.42609  21069157.160    86274764.75548
  20609966.640   108306165.54109  20609966.120    84394434.60249
 15 03 05 01 38 30.0000000  0  9G04G07G11G16G18G19G21G22G27
  22693174.420   119253472.28708  22693173.300    92924802.21646
  24251121.980   127440502.83408  24251120.140    99304284.98245
  24331008.360   127860314.04907  24331007.140    99631410.04344
  20697603.140   108766659.27309  20697599.860    84753234.52648
  22493307.320   118203190.08909  22493304.020    92106409.25747
  21630542.840   113669303.24809  21630538.340    88573488.35948
  24580382.800   129170895.80308  24580380.460   100652689.04345
  21065553.220   110700297.38109  21065548.320    86259986.80248
  20606404.000   108287443.83609  20606403.480    84379846.26949
 15 03 05 01 39  0.0000000  0  9G04G07G11G16G18G19G21G22G27
  22677605.120   119171655.57608  22677603.960    92861048.98946
  24250595.220   127437734.51308  24250593.460    99302127.83545
  24313980.380   127770832.03807  24313979.200    99561683.86345
  20705709.640   108809258.60509  20705706.240    84786428.79748
  22501996.740   118248852.91009  22501993.240    92141990.68147
  21620599.260   113617049.26709  21620594.700    88532770.99048
  24595007.800   129247749.55408  24595005.040   100712575.06245
  21062044.640   110681858.87809  21062039.600    86245619.15448
  20602886.300   108268958.39509  20602885.800    84365442.02749
 15 03 05 01 39 30.0000000  0  9G04G07G11G16G18G19G21G22G27
  22662084.340   119090093.78608  22662083.100    92797494.36946
  24250166.900   127435483.31108  24250165.160    99300373.62546
  24296972.760   127681457.51907  24296971.580    99492041.41944
  20713915.420   108852379.95009  20713911.980    84820029.82248
  22510768.380   118294948.07909  22510764.860    92177908.99447
  21610686.420   113564957.02509  21610681.880    88492179.65348
  24609629.360   129324585.39008  24609626.220   100772447.11045
  21058636.660   110663949.17009  21058631.520    86231663.54848
  20599413.980   108250711.54009  20599413.500    84351223.70049
 15 03 05 01 40  0.0000000  0  9G04G07G11G16G18G19G21G22G27
  22646612.020   119008786.60608  22646610.800    92734138.15146
  24249836.640   127433747.59308  24249834.820    99299021.10745
  24279985.320   127592189.28307  24279984.120    99422481.81444
  20722220.100   108896021.43809  20722216.760    84854036.16648
  22519621.720   118341473.01309  22519618.280    92214162.19346
  21600804.360   113513026.71509  21600799.820    88451714.49748
  24624247.180   129401401.95907  24624243.700   100832304.16044
  21055329.280   110646567.89909  21055324.020    86218119.71848
  20595987.080   108232703.27409  20595986.640    84337191.28649
 15 03 05 01 40 30.0000000  0  9G04G07G11G16G18G19G21G22G27
  22631188.180   118927734.41308  22631187.160    92670980.65546
  24249604.320   127432526.82808  24249602.380    99298069.84545
  24263018.260   127503027.97107  24263017.100    99353005.50845
  20730623.520   108940181.85509  20730620.320    84888446.86648
  22528556.540   118388426.36309  22528553.180    92250749.21346
  21590953.160   113461258.56709  21590948.620    88411375.68248
  24638861.080   129478198.25407  24638857.340   100892145.41044
  21052122.340   110629714.96609  21052117.020    86204987.57148
  20592605.720   108214934.33409  20592605.340    84323345.34849
 15 03 05 01 41  0.0000000  0  9G04G07G11G16G18G19G21G22G27
  22615812.860   118846937.65908  22615811.980    92608022.19946
  24249469.700   127431819.74208  24249467.820    99297518.87145
  24246071.760   127413973.77807  24246070.440    99283612.68144
  20739125.460   108984860.01709  20739122.380    84923261.01448
  22537572.580   118435806.56209  22537569.300    92287668.84946
  21581132.860   113409653.07009  21581128.380    88371163.62548
  24653470.840   129554972.92407  24653466.980   100951969.78845
  21049016.220   110613391.95609  21049010.900    86192268.34948
  20589270.120   108197405.60109  20589269.780    84309686.58649
 15 03 05 01 41 30.0000000  0  9G04G07G11G16G18G19G21G22G27
  22600486.240   118766396.58408  22600485.380    92545262.95446
  24249432.680   127431625.21608  24249430.820    99297367.28045
  24229145.760   127325026.73708  24229144.200    99214303.35944
  20747725.580   109030054.31209  20747722.640    84958477.32848
  22546669.460   118483611.29409  22546666.260    92324919.28747
  21571343.620   113358210.69009  21571339.240    88331078.67048
  24668076.320   129631725.35207  24668072.460   101011776.85045
  21046010.680   110597598.21809  21046005.420    86179961.55848
  20585980.400   108180117.59009  20585980.000    84296215.40349
 15 03 05 01 42  0.0000000  0  9G04G07G11G16G18G19G21G22G27
  22585208.800   118686113.27608  22585207.840    92482704.54346
  24249493.180   127431943.57107  24249491.400    99297615.33346
  24212240.400   127236187.94508  24212238.720    99145078.35944
  20756424.060   109075765.24609  20756421.120    84994096.21148
  22555847.060   118531840.36209  22555844.080    92362500.36946
  21561585.800   113306933.11009  21561581.440    88291122.12048
  24682677.520   129708455.64407  24682673.660   101071566.64545
  21043106.220   110582335.47409  21043101.020    86168068.51548
  20582736.880   108163072.38909  20582736.400    84282933.41849
 15 03 05 01 42 30.0000000  0  9G04G07G11G16G18G19G21G22G27
  22569980.620   118606088.54808  22569979.700    92420347.64046
  24249651.260   127432774.63408  24249649.540    99298262.87745
  24195355.980   127147459.08108  24195354.100    99075939.05144
  20765220.740   109121992.31909  20765217.720    85030117.29248
  22565105.260   118580492.84609  22565102.480    92400411.39447
  21551859.720   113255822.00209  21551855.300    88251295.30548
  24697274.480   129785163.56507  24697270.540   101131339.03645
  21040303.020   110567605.24509  21040297.900    86156590.42448
  20579539.860   108146271.67009  20579539.340    84269841.94949
 15 03 05 01 43  0.0000000  0 10G04G07G11G16G18G19G21G22G27G32
  22554801.360   118526321.15808  22554800.660    92358191.27446
  24249906.400   127434115.43308  24249904.760    99299307.65245
  24178492.080   127058838.27108  24178490.060    99006883.93844
  20774115.060   109168732.33609  20774112.000    85066538.06648
  22574443.380   118629565.10109  22574440.720    92438649.50847
  21542164.980   113204875.45209  21542160.500    88211596.71048
  24711866.660   129861846.37507  24711862.860   101191091.86744
  21037600.600   110553405.60009  21037595.720    86145525.78148
  20576389.120   108129714.20109  20576388.540    84256940.01549
  24505493.220   128777238.49507  24505493.900   100345906.31544
 15 03 05 01 43 30.0000000  0 10G04G07G11G16G18G19G21G22G27G32
  22539670.720   118446809.17909  22539670.180    92296233.93146
  24250258.000   127435963.25808  24250256.540    99300747.50745
  24161648.380   126970323.55108  24161646.320    98937911.49745
  20783106.300   109215981.56409  20783103.300    85103355.63248
  22583860.700   118679053.27809  22583858.020    92477211.72846
  21532501.440   113154092.82309  21532496.880    88172025.84648
  24726453.480   129938500.87007  24726449.960   101250822.58345
  21034998.800   110539735.09809  21034994.300    86134873.45648
  20573284.420   108113398.71409  20573283.820    84244226.64249
  24483080.320   128659458.18908  24483080.940   100254129.81244
 15 03 05 01 44  0.0000000  0 10G04G07G11G16G18G19G21G22G27G32
  22524590.520   118367561.76309  22524589.900    92234482.72846
  24250707.320   127438324.54308  24250706.000    99302587.45145
  24144826.480   126881923.74908  24144824.320    98869028.59445
  20792195.820   109263747.66009  20792192.940    85140575.95748
  22593358.500   118728964.34909  22593355.740    92516103.47846
  21522870.580   113103482.53809  21522866.020    88132589.28148
  24741036.460   130015135.17907  24741033.200   101310537.63345
  21032499.380   110526602.37309  21032495.180    86124640.17248
  20570227.500   108097334.49609  20570226.880    84231709.07449
  24460667.480   128541678.23808  24460668.220   100162353.55044
 15 03 05 01 44 30.0000000  0 10G04G07G11G16G18G19G21G22G27G32
  22509559.460   118288572.83308  22509558.680    92172932.93346
  24251253.120   127441192.31308  24251251.780    99304822.04445
  24128025.280   126793632.98208  24128023.200    98800230.65045
  20801382.100   109312022.35309  20801379.340    85178192.57848
  22602935.120   118779289.75809  22602932.260    92555318.08046
  21513271.400   113053038.83309  21513266.880    88093282.49648
  24755614.140   130091741.41207  24755610.960   101370230.76145
  21030101.100   110514000.85309  21030097.080    86114820.80848
  20567217.400   108081515.90909  20567216.640    84219382.89249
  24438253.880   128423894.70808  24438254.820   100070574.47944
 15 03 05 01 45  0.0000000  0 10G04G07G11G16G18G19G21G22G27G32
  22494578.460   118209847.31808  22494577.560    92111588.40646
  24251895.980   127444570.25208  24251894.700    99307454.16645
  24111245.600   126705455.63008  24111243.640    98731521.07745
  20810665.920   109360809.31609  20810663.200    85216208.37748
  22612591.140   118830032.41809  22612588.180    92594857.80346
  21503704.940   113002767.00409  21503700.460    88054109.65448
  24770187.240   130168323.75807  24770184.260   101429905.30245
  21027804.940   110501935.56209  21027800.920    86105419.28948
  20564255.040   108065948.23509  20564254.140    84207252.22649
  24415840.820   128306114.57308  24415841.980    99978798.05145
 15 03 05 01 45 30.0000000  0 10G04G07G11G16G18G19G21G22G27G32
  22479647.040   118131382.23109  22479646.000    92050446.83546
  24252635.080   127448453.60808  24252633.840    99310480.13545
  24094486.880   126617388.76407  24094485.200    98662897.61045
  20820046.320   109410103.79809  20820043.600    85254619.65348
  22622325.540   118881187.03009  22622322.540    92634718.54146
  21494170.700   112952664.36609  21494166.320    88015068.65848
  24784754.900   130244877.47607  24784751.980   101489557.52145
  21025610.300   110490403.46609  21025606.200    86096433.25648
  20561339.880   108050628.96809  20561338.960    84195315.13949
  24393428.180   128188337.14608  24393429.580    99887023.75545
 15 03 05 01 46  0.0000000  0 10G04G07G11G16G18G19G21G22G27G32
  22464765.440   118053178.83209  22464764.300    91989509.16346
  24253470.280   127452842.27208  24253469.160    99313899.83245
  24077749.340   126529433.73707  24077747.860    98594361.30445
  20829523.280   109459905.26009  20829520.400    85293425.97148
  22632138.340   118932753.30309  22632135.280    92674900.04946
  21484668.820   112902732.03509  21484664.480    87976160.36748
  24799317.380   130321403.78807  24799314.640   101549188.38144
  21023517.440   110479405.81209  21023513.260    86087863.66148
  20558472.280   108035559.82309  20558471.480    84183572.93849
  24371016.640   128070565.88407  24371018.320    99795254.23745
 15 03 05 01 46 30.0000000  0 10G04G07G11G16G18G19G21G22G27G32
  22449933.780   117975238.12209  22449932.600    91928776.18346
  24254401.480   127457735.44608  24254400.300    99317712.67045
  24061033.220   126441590.98208  24061031.940    98525912.45745
  20839096.600   109510212.71009  20839093.540    85332626.56548
  22642029.160   118984729.46909  22642026.060    92715400.94746
  21475199.560   112852971.30309  21475195.300    87937385.77948
  24813874.280   130397900.78507  24813871.540   101608796.40145
  21021526.460   110468943.07309  21021522.220    86079710.89448
  20555652.540   108020742.34409  20555651.920    84172026.85049
  24348606.900   127952803.99207  24348608.680    99703492.01244
 15 03 05 01 47  0.0000000  0 10G04G07G11G16G18G19G21G22G27G32
  22435152.220   117897560.80709  22435150.900    91868248.43646
  24255428.540   127463132.07008  24255427.260    99321917.80745
  24044338.620   126353860.59608  24044337.400    98457551.16245
  20848765.980   109561025.15109  20848762.900    85372220.65248
  22651997.740   119037114.33709  22651994.640    92756220.32346
  21465763.020   112803382.63909  21465758.920    87898745.27648
  24828425.600   130474368.04907  24828423.000   101668381.26445
  21019637.440   110459015.35509  21019633.000    86071975.02048
  20552880.840   108006177.29609  20552880.340    84160677.45249
  24326199.480   127835054.09407  24326201.300    99611739.12445
 15 03 05 01 47 30.0000000  0 10G04G07G11G16G18G19G21G22G27G32
  22420420.960   117820147.65809  22420419.540    91807926.53646
  24256551.240   127469031.48608  24256549.900    99326514.73444
  24027665.740   126266244.02308  24027664.620    98389278.57145
  20858531.080   109612341.04009  20858528.140    85412207.04748
  22662043.740   119089906.37609  22662040.680    92797356.96846
  21456359.620   112753967.67309  21456355.520    87860240.11548
  24842971.280   130550805.64307  24842968.620   101727942.99545
  21017850.560   110449623.67609  21017845.800    86064656.84548
  20550157.440   107991866.03409  20550157.040    84149525.82649
  24303794.980   127717319.17607  24303796.760    99519997.89945
 15 03 05 01 48  0.0000000  0 10G04G07G11G16G18G19G21G22G27G32
  22405739.780   117742997.28709  22405738.440    91747809.38847
  24257769.000   127475430.88408  24257767.360    99331501.25445
  24011014.160   126178739.42608  24011012.980    98321093.23945
  20868391.480   109664157.74409  20868388.660    85452583.68748
  22672166.500   119143101.88309  22672163.480    92838808.00147
  21446989.140   112704725.25209  21446984.980    87821869.41048
  24857510.860   130627211.24907  24857508.180   101787479.81145
  21016165.380   110440766.24009  21016160.340    86057754.96048
  20547482.220   107977807.75509  20547481.840    84138571.31349
  24281393.700   127599600.29407  24281395.240    99428269.14645
 15 03 05 01 48 30.0000000  0 10G04G07G11G16G18G19G21G22G27G32
  22391109.240   117666113.00709  22391108.020    91687899.60947
  24259082.200   127482331.65508  24259080.500    99336878.46345
  23994384.520   126091350.18908  23994383.160    98252997.79544
  20878347.520   109716477.20809  20878344.780    85493352.08948
  22682366.260   119196702.05009  22682363.240    92880574.35847
  21437652.320   112655659.18609  21437647.940    87783636.11848
  24872044.640   130703586.83607  24872042.120   101846993.23745
  21014582.480   110432446.28709  21014577.200    86051271.88948
  20544855.860   107964006.18509  20544855.500    84127816.85549
  24258996.600   127481902.82308  24258997.840    99336557.05245
 15 03 05 01 49  0.0000000  0 10G04G07G11G16G18G19G21G22G27G32
  22376528.900   117589492.67409  22376527.720    91628195.48047
  24260489.920   127489730.19007  24260488.340    99342643.51546
  23977776.400   126004073.82908  23977774.820    98184990.28945
  20888398.420   109769294.96609  20888395.720    85534508.76649
  22692642.240   119250702.47409  22692639.160    92922652.60947
  21428348.620   112606767.37109  21428344.140    87745538.61848
  24886572.180   130779929.74807  24886569.780   101906481.17345
  21013101.280   110424661.36209  21013095.820    86045205.72649
  20542278.060   107950459.71309  20542277.680    84117261.16049
  24236603.680   127364226.95608  24236604.600    99244861.76745
 15 03 05 01 49 30.0000000  0 10G04G07G11G16G18G19G21G22G27G32
  22361999.380   117513139.39509  22361998.180    91568699.43947
  24261992.700   127497627.92508  24261991.100    99348797.57645
  23961190.340   125916913.42508  23961188.500    98117073.14644
  20898544.420   109822612.23009  20898541.600    85576054.67848
  22702994.600   119305104.18309  22702991.380    92965043.55346
  21419078.620   112558053.15309  21419074.100    87707579.49948
  24901093.580   130856240.18007  24901091.200   101965943.81144
  21011722.280   110417414.09009  21011716.740    86039558.51548
  20539749.520   107937171.84609  20539749.040    84106906.98649
  24214215.880   127246578.10408  24214216.460    99153187.52845
 15 03 05 01 50  0.0000000  0 10G04G07G11G16G18G19G21G22G27G32
  22347520.540   117437052.55909  22347519.420    91509411.02047
  24263590.160   127506022.89207  24263588.600    99355339.08245
  23944626.360   125829868.77508  23944624.300    98049246.18744
  20908784.940   109876426.71509  20908782.080    85617988.01948
  22713422.800   119359904.49609  22713419.460    93007745.09246
  21409842.380   112509516.68609  21409837.920    87669758.88248
  24915608.700   130932517.29607  24915606.480   102025380.50444
  21010445.380   110410703.92409  21010439.880    86034329.81748
  20537270.200   107924142.60509  20537269.660    84096754.32149
  24191833.480   127128957.92208  24191834.000    99061535.61444
 15 03 05 01 50 30.0000000  0 10G04G07G11G16G18G19G21G22G27G32
  22333092.600   117361233.78708  22333091.680    91450331.49947
  24265282.120   127514914.70907  24265280.660    99362267.73945
  23928084.520   125742940.78808  23928082.240    97981510.15544
  20919120.000   109930737.70109  20919117.140    85660308.24748
  22723926.720   119415102.87709  22723923.340    93050756.81347
  21400640.200   112461159.32209  21400635.840    87632077.82748
  24930117.640   131008761.80407  24930115.400   102084791.78844
  21009270.740   110404531.83809  21009265.420    86029520.40548
  20534840.480   107911373.84709  20534839.820    84086804.62649
  24169457.160   127011370.09508  24169457.640    98969908.91445
 15 03 05 01 51  0.0000000  0 10G04G07G11G16G18G19G21G22G27G32
  22318715.100   117285680.43709  22318714.280    91391458.80147
  24267067.880   127524298.78608  24267066.700    99369579.95845
  23911564.360   125656126.87908  23911562.080    97913863.00644
  20929548.760   109985541.14909  20929545.920    85703012.22348
  22734505.380   119470693.90009  22734502.000    93094074.48947
  21391471.680   112412978.78709  21391467.360    87594534.55948
  24944619.640   131084969.61107  24944617.440   102144174.47744
  21008197.820   110398894.87409  21008192.720    86025127.96648
  20532459.900   107898863.55209  20532459.180    84077056.34249
  24147086.840   126893814.35008  24147087.440    98878307.22545
 15 03 05 01 51 30.0000000  0 10G04G07G11G16G18G19G21G22G27G32
  22304388.740   117210395.48009  22304387.720    91332795.22346
  24268947.600   127534176.43708  24268946.660    99377276.80545
  23895066.460   125569429.79008  23895064.160    97846306.89245
  20940071.200   110040837.41809  20940068.420    85746100.20348
  22745159.040   119526678.81409  22745155.700    93137699.09646
  21382337.480   112364978.47309  21382333.240    87557131.73848
  24959115.060   131161142.88807  24959112.840   102203530.27645
  21007227.160   110393795.41909  21007222.280    86021154.37748
  20530129.120   107886615.15409  20530128.420    84067512.13549
  24124723.540   126776295.92307  24124724.260    98786734.63445
 15 03 05 01 52  0.0000000  0 10G04G07G11G16G18G19G21G22G27G32
  22290113.600   117135379.60408  22290112.500    91274341.33346
  24270921.120   127544546.69808  24270920.300    99385357.52745
  23878590.940   125482850.23808  23878588.520    97778842.35945
  20950687.360   110096626.01209  20950684.620    85789571.82348
  22755887.400   119583055.97309  22755883.900    93181629.35146
  21373237.840   112317159.38709  21373233.560    87519870.12048
  24973603.920   131237281.45708  24973601.600   102262859.02544
  21006358.900   110389233.82309  21006354.200    86017599.89248
  20527848.360   107874629.94509  20527847.780    84058173.00049
  24102367.960   126658817.81107  24102368.700    98695193.43645
 15 03 05 01 52 30.0000000  0 10G04G07G11G16G18G19G21G22G27G32
  22275889.640   117060632.37109  22275888.420    91216096.77846
  24272987.960   127555407.54708  24272987.020    99393820.50045
  23862137.640   125396387.76508  23862135.240    97711469.04544
  20961396.860   110152904.65409  20961394.140    85833425.30048
  22766689.860   119639822.70809  22766686.240    93225863.17046
  21364172.760   112269521.57909  21364168.320    87482749.76148
  24988085.860   131313383.64807  24988083.240   102322159.43044
  21005593.020   110385209.79209  21005588.420    86014464.28948
  20525617.700   107862908.08709  20525617.220    84049039.07948
  24080020.520   126541382.01408  24080021.240    98603685.22044
 15 03 05 01 53  0.0000000  0 10G04G07G11G16G18G19G21G22G27G32
  22261717.360   116986156.00909  22261715.820    91158063.28446
  24275148.200   127566759.31508  24275147.240    99402666.00146
  23845706.880   125310044.37208  23845704.720    97644188.54245
  20972199.580   110209673.11509  20972196.820    85877660.44448
  22777566.320   119696978.64609  22777562.640    93270400.26146
  21355142.660   112222067.55709  21355138.040    87445772.60548
  25002560.960   131389449.82207  25002557.980   102381431.74844
  21004929.820   110381724.81609  21004925.200    86011748.73148
  20523437.620   107851452.12509  20523437.200    84040112.34549
  24057682.020   126423992.94608  24057682.760    98512213.39045
 15 03 05 01 53 30.0000000  0 10G04G07G11G16G18G19G21G22G27G32
  22247596.160   116911947.99509  22247594.340    91100238.87847
  24277401.080   127578597.75408  24277400.080    99411890.73846
  23829298.420   125223817.88108  23829296.440    97576999.11445
  20983094.860   110266927.61209  20983092.000    85922274.32648
  22788515.980   119754519.48209  22788512.300    93315237.27246
  21346147.180   112174795.55509  21346142.440    87408937.28548
  25017028.560   131465476.79507  25017025.400   102440673.50744
  21004368.660   110378775.70609  21004364.000    86009450.73348
  20521307.860   107840260.26309  20521307.400    84031391.41649
  24035352.420   126306650.47108  24035353.060    98420777.87245
 15 03 05 01 54  0.0000000  0 10G04G07G11G16G18G19G21G22G27G32
  22233526.880   116838013.16709  22233525.080    91042627.35747
  24279746.960   127590925.71708  24279746.180    99421496.90046
  23812913.100   125137712.49108  23812911.120    97509904.05245
  20994082.880   110324669.97909  20994080.020    85967268.36948
  22799539.240   119812447.72508  22799535.700    93360376.15447
  21337187.220   112127710.62609  21337182.500    87372247.73648
  25031489.500   131541469.14007  25031486.320   102499888.30944
  21003910.400   110376366.89709  21003905.560    86007573.75648
  20519229.360   107829337.69309  20519228.880    84022880.32449
  24013033.040   126189361.67908  24013033.520    98329384.16046
 15 03 05 01 54 30.0000000  0 10G04G07G11G16G18G19G21G22G27G32
  22219508.920   116764348.17709  22219507.400    90985226.10947
  24282185.100   127603738.37408  24282184.440    99431480.77645
  23796550.260   125051725.34108  23796548.240    97442901.13545
  21005162.740   110382895.52709  21005160.000    86012638.91448
  22810635.120   119870757.83708  22810631.800    93405812.60146
  21328262.280   112080809.86809  21328257.580    87335701.70748
  25045942.840   131617421.89207  25045939.720   102559072.24744
  21003554.300   110374495.09009  21003549.340    86006115.22148
  20517201.620   107818681.84509  20517201.120    84014577.06649
  23990723.660   126072125.77108  23990724.060    98238031.64945
 15 03 05 01 55  0.0000000  0 10G04G07G11G16G18G19G21G22G27G32
  22205543.080   116690957.33209  22205541.840    90928038.45147
  24284715.820   127617038.07508  24284715.380    99441844.16145
  23780210.640   124965860.60008  23780208.720    97375993.60845
  21016335.120   110441606.78009  21016332.400    86058387.92648
  22821803.980   119929451.58108  22821800.960    93451547.96546
  21319373.280   112034097.86009  21319368.620    87299302.75248
  25060389.180   131693338.40707  25060386.040   102618227.94444
  21003301.100   110373163.71909  21003295.940    86005077.79948
  20515225.600   107808297.52409  20515225.040    84006485.38549
  23968425.440   125954949.32908  23968425.960    98146725.46644
 15 03 05 01 55 30.0000000  0 10G04G07G11G16G18G19G21G22G27G32
  22191628.440   116617836.30608  22191627.400    90871061.04747
  24287338.080   127630818.56508  24287337.660    99452582.17745
  23763893.520   124880113.79508  23763891.600    97309177.98845
  21027598.820   110500797.54209  21027596.040    86104510.58248
  22833044.780   119988522.90409  22833041.900    93497577.55546
  21310519.480   111987570.84809  21310514.800    87263047.94648
  25074827.620   131769213.81407  25074824.540   102677351.59344
  21003149.820   110372368.05709  21003144.480    86004457.81148
  20513300.580   107798180.99509  20513299.940    83998602.36949
  23946138.100   125837830.51108  23946138.800    98055464.17945
 15 03 05 01 56  0.0000000  0 10G04G07G11G16G18G19G21G22G27G32
  22177765.880   116544988.77409  22177764.920    90814296.74747
  24290052.320   127645081.78008  24290051.760    99463696.37245
  23747599.540   124794488.66508  23747597.700    97242457.15445
  21038954.060   110560469.09809  21038951.200    86151007.87548
  22844357.800   120047973.29309  22844354.900    93543902.52446
  21301701.620   111941232.94109  21301696.980    87226940.49448
  25089258.600   131845050.42707  25089255.780   102736445.02544
  21003100.960   110372111.10709  21003095.560    86004257.59248
  20511427.320   107788336.51909  20511426.640    83990931.33949
  23923862.880   125720775.32908  23923863.700    97964252.45745
 15 03 05 01 56 30.0000000  0 10G04G07G11G16G18G19G21G22G27G32
  22163955.540   116472415.07309  22163954.560    90757745.84247
  24292858.040   127659825.93808  24292857.260    99475185.30245
  23731328.720   124708985.46508  23731327.000    97175831.36145
  21050400.420   110620619.37209  21050397.420    86197878.20648
  22855742.540   120107800.20109  22855739.540    93590520.89646
  21292919.940   111895085.05409  21292915.360    87190981.10648
  25103681.940   131920847.01207  25103679.280   102795507.29345
  21003154.620   110372393.01309  21003149.260    86004477.27248
  20509605.940   107778764.97609  20509605.260    83983472.99249
  23901600.400   125603786.45808  23901601.460    97873092.43945
 15 03 05 01 57  0.0000000  0 10G04G07G11G16G18G19G21G22G27G32
  22150196.740   116400112.00209  22150195.580    90701405.82147
  24295754.540   127675046.50407  24295753.480    99487045.45145
  23715080.460   124623601.11008  23715078.880    97109298.18445
  21061937.000   110681244.12009  21061933.940    86245118.26248
  22867198.000   120167998.49309  22867194.820    93637428.65846
  21284173.940   111849124.43509  21284169.380    87155167.64948
  25118097.060   131996600.11407  25118094.640   102854535.68644
  21003310.080   110373210.00809  21003304.780    86005113.91048
  20507835.980   107769463.92109  20507835.360    83976225.41249
  23879350.640   125486863.32708  23879351.640    97781983.62046
 15 03 05 01 57 30.0000000  0  9G04G07G11G16G18G19G22G27G32
  22136489.380   116328078.99009  22136487.860    90645276.22247
  24298741.160   127690740.53907  24298739.880    99499274.55245
  23698854.580   124538334.58308  23698853.060    97042856.80445
  21073563.140   110742339.79009  21073560.120    86292725.26548
  22878723.580   120228565.35909  22878720.240    93684623.61546
  21275463.520   111803350.84009  21275458.960    87119499.91448
  21003567.120   110374560.90209  21003561.900    86006166.55448
  20506117.440   107760433.07709  20506116.860    83969188.38149
  23857113.820   125370007.39508  23857114.620    97690927.15646
 15 03 05 01 58  0.0000000  0  9G04G07G11G16G18G19G22G27G32
  22122835.200   116256325.31909  22122833.420    90589364.29947
  24301819.120   127706915.52007  24301817.860    99511878.43145
  23682653.000   124453195.52308  23682651.520    96976514.75545
  21085280.340   110803914.30509  21085277.400    86340705.39648
  22890320.580   120289507.65908  22890317.180    93732111.11446
  21266790.580   111757774.23809  21266785.980    87083985.67948
  21003927.300   110376454.31509  21003922.260    86007641.95348
  20504452.280   107751682.68609  20504451.740    83962369.89649
  23834892.140   125253230.78508  23834892.640    97599932.51646
 15 03 05 01 58 30.0000000  0 10G01G04G07G11G16G18G19G22G27G32
  24587034.280   129205731.06507  24587036.740   100679795.57944
  22109232.800   116184843.85109  22109230.960    90533664.49547
  24304986.880   127723562.64707  24304985.620    99524850.18244
  23666474.380   124368176.86008  23666472.880    96910266.51845
  21097086.900   110865958.47809  21097083.920    86389051.48848
  22901987.240   120350816.47608  22901983.860    93779884.21146
  21258153.920   111712388.31209  21258149.280    87048620.03148
  21004389.200   110378882.56909  21004384.360    86009534.11048
  20502839.240   107743206.17409  20502838.740    83955764.81849
  23812684.640   125136528.86308  23812684.700    97508996.06845
 15 03 05 01 59  0.0000000  0 10G01G04G07G11G16G18G19G22G27G32
  24570547.560   129119092.75607  24570550.140   100612285.31745
  22095682.480   116113636.38909  22095680.720    90478178.20047
  24308244.440   127740681.47207  24308243.040    99538189.48945
  23650319.040   124283280.17308  23650317.440    96844113.30945
  21108982.680   110928471.30509  21108979.620    86437762.76248
  22913723.520   120412491.15908  22913720.140    93827942.39546
  21249553.920   111667194.97809  21249549.320    87013404.45248
  21004953.260   110381847.24209  21004948.520    86011844.25148
  20501278.800   107735005.83909  20501278.300    83949374.92849
  23790491.960   125019905.51108  23790491.680    97418120.84945
 15 03 05 01 59 30.0000000  0 10G01G04G07G11G16G18G19G22G27G32
  24554090.820   129032612.29807  24554093.220   100544898.05845
  22082185.040   116042707.32309  22082183.300    90422908.81847
  24311592.340   127758274.76808  24311590.860    99551898.50445
  23634187.840   124198510.03908  23634186.200    96778058.73545
  21120968.340   110991456.05509  21120965.200    86486841.77048
  22925529.680   120474533.36108  22925526.400    93876286.96446
  21240991.480   111622199.08409  21240986.920    86978342.72448
  21005620.120   110385351.93109  21005615.480    86014575.18348
  20499771.920   107727086.70309  20499771.340    83943204.17049
  23768315.520   124903367.71608  23768314.980    97327312.29745
 15 03 05 02 00  0.0000000  0 10G01G04G07G11G16G18G19G22G27G32
  24537663.180   128946285.42908  24537665.600   100477630.48045
  22068739.720   115972052.34409  22068738.100    90367853.00347
  24315029.400   127776335.93908  24315027.700    99565972.10745
  23618079.960   124113862.01008  23618078.300    96712099.30746
  21133042.440   111054905.50309  21133039.240    86536282.88048
  22937404.560   120536937.04708  22937401.420    93924913.21546
  21232465.900   111577397.12709  21232461.400    86943432.12948
  21006388.760   110389391.24209  21006384.200    86017722.70748
  20498317.840   107719445.04809  20498317.180    83937249.63449
  23746154.980   124786913.62808  23746154.160    97236568.96045
 15 03 05 02 00 30.0000000  0 10G01G04G07G11G16G18G19G22G27G32
  24521265.580   128860116.11408  24521268.040   100410485.65645
  22055347.200   115901675.05109  22055345.900    90313013.57247
  24318555.880   127794866.70508  24318553.880    99580411.64245
  23601996.000   124029339.65708  23601994.340    96646237.79145
  21145205.360   111118821.72509  21145202.180    86586087.71148
  22949348.400   120599703.36608  22949345.400    93973822.02746
  21223978.060   111532793.54209  21223973.580    86908676.09348
  21007259.840   110393968.67809  21007255.280    86021289.54048
  20496917.380   107712085.24209  20496916.640    83931514.71749
  23724011.600   124670549.44108  23724010.500    97145895.65845
 15 03 05 02 01  0.0000000  0 10G01G04G07G11G16G18G19G22G27G32
  24504897.440   128774101.63307  24504900.060   100343461.49946
  22042006.880   115831572.58709  22042006.040    90258388.32247
  24322170.820   127813862.31508  24322168.560    99595213.38445
  23585935.420   123944940.48408  23585933.720    96580472.26146
  21157456.120   111183199.67409  21157453.000    86636252.34148
  22961360.280   120662827.09208  22961357.420    94023009.35146
  21215527.440   111488385.45509  21215522.960    86874072.39948
  21008232.640   110399080.49809  21008228.000    86025272.78648
  20495570.100   107705005.11409  20495569.340    83925997.73249
  23701885.280   124554274.89008  23701883.980    97055292.20145
 15 03 05 02 01 30.0000000  0 10G01G04G07G11G16G18G19G22G27G32
  24488559.380   128688245.43907  24488562.320   100276560.65346
  22028719.680   115761748.24709  22028718.880    90203979.76647
  24325874.480   127833324.07908  24325871.940    99610378.36445
  23569898.820   123860667.90008  23569897.200    96514805.36446
  21169794.920   111248040.56609  21169791.960    86686777.69748
  22973440.520   120726309.67808  22973437.780    94072476.28146
  21207114.880   111444177.29809  21207110.320    86839624.47848
  21009307.700   110404729.60609  21009302.920    86029674.69748
  20494276.720   107698208.63509  20494276.020    83920701.76649
  23679777.060   124438095.73808  23679775.700    96964763.08645
 15 03 05 02 02  0.0000000  0 10G01G04G07G11G16G18G19G22G27G32
  24472250.900   128602544.84607  24472254.060   100209781.06746
  22015485.000   115692199.22909  22015484.160    90149785.73947
  24329665.920   127853246.98008  24329663.200    99625902.66745
  23553885.720   123776519.04608  23553884.160    96449234.89246
  21182220.800   111313339.24609  21182217.980    86737659.76448
  22985588.140   120790145.80208  22985585.500    94122218.70746
  21198739.960   111400166.75209  21198735.320    86805330.54648
  21010484.360   110410912.38909  21010479.460    86034492.45648
  20493036.880   107691693.60809  20493036.220    83915625.11949
  23657686.900   124322011.65008  23657685.740    96874308.05745
 15 03 05 02 02 30.0000000  0 10G01G04G07G11G16G18G19G22G27G32
  24455972.300   128517001.08507  24455975.680   100143123.69146
  22002302.940   115622926.47209  22002302.040    90095807.00647
  24333545.020   127873630.39007  24333542.140    99641785.81545
  23537896.480   123692494.99708  23537894.860    96383761.66346
  21194733.720   111379094.81309  21194730.820    86788897.85748
  22997802.940   120854334.23908  22997800.200    94172235.67646
  21190402.980   111356355.42409  21190398.280    86771191.86548
  21011762.560   110417628.88709  21011757.600    86039726.10348
  20491850.980   107685461.84309  20491850.340    83910769.19849
  23635615.420   124206026.17208  23635614.640    96783929.85946
 15 03 05 02 03  0.0000000  0 10G01G04G07G11G16G18G19G22G27G32
  24439724.800   128431620.65807  24439728.320   100076593.60346
  21989174.760   115553936.65009  21989173.740    90042048.75047
  24337512.320   127894478.53707  24337509.580    99658031.09045
  23521932.120   123608601.88908  23521930.420    96318390.47246
  21207334.460   111445311.45009  21207331.240    86840495.22848
  23010085.580   120918879.02608  23010082.740    94222530.32346
  21182105.320   111312750.52109  21182100.580    86737214.03649
  21013143.380   110424884.87409  21013138.340    86045380.13148
  20490720.320   107679520.32109  20490719.680    83906139.44549
  23613564.420   124090148.31308  23613564.020    96693635.52646
 15 03 05 02 03 30.0000000  0 10G01G04G07G11G16G18G19G22G27G32
  24423507.280   128346397.53308  24423510.880   100010186.05445
  21976099.140   115485223.26009  21976097.900    89988505.86747
  24341566.400   127915782.96907  24341564.040    99674631.89944
  23505991.500   123524833.97008  23505989.780    96253116.81445
  21220021.220   111511980.62909  21220017.820    86892445.21148
  23022434.400   120983771.83508  23022431.420    94273096.13846
  21173845.840   111269346.22009  21173841.040    86703392.50048
  21014625.600   110432674.04509  21014620.460    86051449.61148
  20489643.880   107673863.50909  20489643.240    83901731.52749
  23591533.160   123974374.34008  23591533.180    96603422.11845
 15 03 05 02 04  0.0000000  0 10G01G04G07G11G16G18G19G22G27G32
  24407320.040   128261333.01808  24407323.500    99943902.09546
  21963076.300   115416787.62109  21963074.940    89935179.41847
  24345707.080   127937542.95907  24345705.160    99691587.71945
  23490074.820   123441192.13808  23490073.160    96187941.42245
  21232793.820   111579101.68109  21232790.520    86944747.31148
  23034849.200   121049011.61308  23034846.140    94323932.31646
  21165624.880   111226144.50209  21165620.100    86669728.83248
  21016209.120   110440995.87709  21016203.900    86057934.16048
  20488621.960   107668493.27509  20488621.360    83897546.91749
  23569522.380   123858707.94808  23569522.660    96513292.54445
 15 03 05 02 04 30.0000000  0 10G01G04G07G11G16G18G19G22G27G32
  24391163.420   128176428.92108  24391166.600    99877743.11945
  21950106.580   115348631.27709  21950105.160    89882070.59947
  24349934.280   127959758.03607  24349932.700    99708898.11745
  23474182.560   123357678.59908  23474180.920    96122865.99045
  21245652.260   111646674.05909  21245649.200    86997401.09648
  23047329.860   121114597.76708  23047326.700    94375038.39746
  21157442.800   111183147.43409  21157438.080    86636224.62548
  21017894.280   110449852.44309  21017889.200    86064835.38448
  20487655.000   107663412.02609  20487654.480    83893587.49949
  23547532.940   123743153.51008  23547533.400    96423250.17646
 15 03 05 02 05  0.0000000  0 10G01G04G07G11G16G18G19G22G27G32
  24375037.440   128091685.93808  24375040.480    99811709.71245
  21937190.040   115280754.96909  21937188.660    89829180.00247
  24354247.920   127982426.50907  24354246.520    99726561.84445
  23458314.820   123274293.69808  23458313.080    96057890.80345
  21258596.340   111714696.22909  21258593.500    87050405.37648
  23059876.040   121180528.51608  23059872.960    94426413.01046
  21149299.840   111140356.31109  21149295.200    86602880.90348
  21019680.920   110459242.50909  21019676.040    86072152.33448
  20486743.260   107658620.89509  20486742.780    83889854.15249
  23525565.420   123627713.98808  23525565.860    96333297.34746
 15 03 05 02 05 30.0000000  0 10G01G04G07G11G16G18G19G22G27G32
  24358941.900   128007102.83108  24358944.680    99745800.86945
  21924326.500   115213157.05409  21924325.140    89776506.32247
  24358647.160   128005544.99407  24358646.000    99744576.25445
  23442471.300   123191035.97008  23442469.640    95993014.71445
  21271625.400   111783164.12609  21271622.620    87103756.96348
  23072487.020   121246800.07308  23072484.020    94478053.18646
  21141196.020   111097770.70909  21141191.420    86569697.32848
  21021568.840   110469164.29209  21021564.100    86079883.59848
  20485886.700   107654119.32109  20485886.160    83886346.43049
  23503620.060   123512390.64508  23503620.480    96243435.07145
 15 03 05 02 06  0.0000000  0 10G01G04G07G11G16G18G19G22G27G32
  24342877.280   127922682.32608  24342879.860    99680018.73145
  21911516.500   115145840.13109  21911515.160    89724051.59247
  24363132.220   128029114.15708  24363131.020    99762941.81545
  23426652.580   123107908.16908  23426650.820    95928239.85545
  21284739.440   111852078.43709  21284736.640    87157456.39648
  23085163.000   121313413.04708  23085160.100    94529959.38946
  21133131.920   111055393.77809  21133127.320    86536676.34448
  21023558.420   110479619.67109  21023553.740    86088030.64548
  20485085.900   107649910.55009  20485085.260    83883066.86649
  23481697.840   123397188.64108  23481698.240    96153667.34346
 15 03 05 02 06 30.0000000  0 10G01G04G07G11G16G18G19G22G27G32
  24326842.940   127838421.37908  24326845.400    99614360.93944
  21898759.380   115078801.02609  21898758.020    89671813.35747
  24367702.100   128053128.44208  24367700.760    99781654.19844
  23410858.200   123024907.59008  23410856.260    95863564.14145
  21297937.380   111921433.69909  21297934.460    87211499.42848
  23097902.780   121380361.51108  23097900.040    94582127.01946
  21125107.020   111013222.95609  21125102.520    86503815.98048
  21025648.900   110490604.50509  21025644.140    86096590.26048
  20484340.300   107645992.09109  20484339.560    83880013.52149
  23459798.680   123282107.34008  23459798.860    96063993.66245
 15 03 05 02 07  0.0000000  0 10G01G04G07G11G16G18G19G22G27G32
  24310839.500   127754323.02307  24310841.760    99548829.82245
  21886055.740   115012042.81309  21886054.280    89619793.98647
  24372356.840   128077588.43808  24372355.300    99800713.91044
  23395088.560   122942036.95208  23395086.420    95798989.67545
  21311219.320   111991230.66009  21311216.340    87265886.63848
  23110706.600   121447646.34708  23110704.000    94634556.74746
  21117121.960   110971261.85009  21117117.600    86471119.02448
  21027840.560   110502120.82609  21027835.620    86105564.01848
  20483650.540   107642367.51209  20483649.780    83877189.16749
  23437923.580   123167152.25608  23437923.480    95974418.34246
 15 03 05 02 07 30.0000000  0 10G01G04G07G11G16G18G19G22G27G32
  24294867.000   127670387.61607  24294869.320    99483425.71145
  21873405.420   114945565.47209  21873403.960    89567993.51047
  24377096.040   128102492.49008  24377094.400    99820119.64344
  23379343.620   122859296.29308  23379341.400    95734516.51046
  21324584.920   112061467.47509  21324581.920    87320616.61548
  23123574.080   121515265.53608  23123571.540    94687247.02746
  21109177.040   110929511.41609  21109172.820    86438586.23748
  21030133.180   110514168.05309  21030128.160    86114951.49448
  20483016.800   107639037.78209  20483016.140    83874594.57949
  23416073.000   123052326.23708  23416072.580    95884943.61546
 15 03 05 02 08  0.0000000  0 10G01G04G07G11G16G18G19G22G27G32
  24278925.600   127586616.21307  24278928.140    99418149.39546
  21860808.740   114879370.03909  21860807.280    89516412.67447
  24381919.360   128127839.29908  24381918.040    99839870.36545
  23363623.680   122776686.98808  23363621.420    95670145.68146
  21338033.880   112132142.51809  21338030.940    87375688.05748
  23136504.960   121583217.73008  23136502.420    94740196.78046
  21101272.560   110887973.48709  21101268.460    86406219.02648
  21032526.740   110526745.93809  21032521.660    86124752.44448
  20482439.440   107636004.57009  20482438.920    83872231.02949
  23394247.600   122937632.81008  23394246.900    95795572.17945
 15 03 05 02 08 30.0000000  0 10G01G04G07G11G16G18G19G22G27G32
  24263015.680   127503010.14307  24263018.580    99353001.91546
  21848265.940   114813457.49009  21848264.520    89465052.25647
  24386826.660   128153627.84508  24386825.580    99859965.27145
  23347928.940   122694210.34208  23347926.580    95605878.19646
  21351566.020   112203254.56209  21351563.160    87431100.02348
  23149498.940   121651501.41708  23149496.400    94793404.84346
  21093408.860   110846649.81109  21093404.840    86374018.77548
  21035021.420   110539855.43309  21035016.300    86134967.64548
  20481918.860   107633269.66609  20481918.480    83870099.93949
  23372448.020   122823075.68008  23372447.200    95706306.94945
 15 03 05 02 09  0.0000000  0 10G01G04G07G11G16G18G19G22G27G32
  24247136.600   127419565.94707  24247139.680    99287980.54146
  21835776.320   114747824.23309  21835775.000    89413909.49547
  24391817.000   128179852.30608  24391816.020    99880399.87145
  23332258.740   122611862.88008  23332256.300    95541711.37645
  21365180.420   112274798.40709  21365177.560    87486848.45548
  23162555.060   121720111.34108  23162552.460    94846867.11646
  21085585.460   110805537.47809  21085581.380    86341983.19548
  21037616.300   110553491.60709  21037611.160    86145593.25348
  20481454.600   107630830.28109  20481454.300    83868199.12249
  23350674.200   122708654.09008  23350673.300    95617147.33245
 15 03 05 02 09 30.0000000  0 10G01G04G07G11G16G18G19G22G27G32
  24231289.340   127336288.68307  24231292.540    99223089.24645
  21823340.780   114682475.21109  21823339.540    89362988.21447
  24396890.840   128206515.28608  24396889.720    99901176.18745
  23316613.900   122529649.34208  23316611.520    95477648.90145
  21378877.420   112346776.25409  21378874.540    87542935.07348
  23175673.660   121789049.61808  23175670.940    94900585.24045
  21077803.400   110764642.19509  21077799.180    86310116.74748
  21040312.160   110567658.38309  21040307.000    86156632.30648
  20481047.700   107628691.97009  20481047.420    83866532.89949
  23328927.540   122594375.37508  23328926.720    95528099.03345
 15 03 05 02 10  0.0000000  0 10G01G04G07G11G16G18G19G22G27G32
  24215473.260   127253174.99708  24215476.400    99158325.40145
  21810958.640   114617406.85709  21810957.360    89312285.62947
  24402047.100   128233611.10308  24402045.820    99922289.77645
  23300993.900   122447566.65008  23300991.660    95413688.39145
  21392655.880   112419182.31109  21392652.960    87599355.36748
  23188853.680   121858310.78108  23188850.880    94954554.97945
  21070062.140   110723961.26309  21070057.800    86278417.33248
  21043108.100   110582351.55209  21043102.960    86168081.54348
  20480697.680   107626852.10109  20480697.300    83865099.23749
  23307207.920   122480238.72408  23307207.260    95439161.44545
 15 03 05 02 10 30.0000000  0 10G01G04G07G11G16G18G19G22G27G32
  24199688.940   127170227.84608  24199691.840    99093691.30945
  21798630.520   114552622.16509  21798629.120    89261804.07647
  24407285.900   128261140.43708  24407284.520    99943741.18646
  23285399.320   122365617.67708  23285397.200    95349832.05246
  21406515.820   112492016.76409  21406512.940    87656109.47448
  23202095.180   121927895.06808  23202092.260    95008776.48546
  21062362.440   110683498.71209  21062358.000    86246888.07349
  21046004.560   110597572.97009  21045999.380    86179942.38848
  20480405.160   107625314.20209  20480404.620    83863900.86449
  23285516.440   122366249.71308  23285515.920    95350338.89046
 15 03 05 02 11  0.0000000  0 10G01G04G07G11G16G18G19G22G27G32
  24183936.120   127087445.80308  24183938.640    99029185.88445
  21786356.060   114488119.36109  21786354.680    89211542.16947
  24412606.420   128289099.37508  24412605.040    99965527.35145
  23269829.880   122283800.91308  23269827.960    95286078.76946
  21420456.500   112565275.93109  21420453.800    87713194.52548
  23215397.460   121997798.88408  23215394.360    95063246.98145
  21054704.020   110643253.18009  21054699.500    86215527.92548
  21049001.080   110613319.97509  21048995.900    86192212.79048
  20480169.940   107624077.40309  20480169.220    83862937.12449
  23263853.280   122252409.31808  23263852.900    95261632.14646
 15 03 05 02 11 30.0000000  0 10G01G04G07G11G16G18G19G22G27G32
  24168214.380   127004827.30508  24168216.580    98964807.90145
  21774134.980   114423896.83409  21774133.680    89161498.67247
  24418007.940   128317484.10708  24418006.540    99987645.29246
  23254285.480   122202115.13608  23254283.740    95222427.55346
  21434477.340   112638956.48709  21434474.880    87770607.92248
  23228759.880   122068018.53108  23228756.560    95117963.57046
  21047086.780   110603223.92709  21047082.200    86184336.30148
  21052097.180   110629589.85709  21052091.940    86204890.62648
  20479991.820   107623140.82109  20479990.980    83862207.31249
  23242218.640   122138718.56208  23242218.420    95173042.01846
 15 03 05 02 12  0.0000000  0 10G01G04G07G11G16G18G19G22G27G32
  24152524.260   126922375.47308  24152526.300    98900559.80245
  21761967.720   114359957.34909  21761966.340    89111675.72747
  24423490.540   128346295.15408  24423489.240   100010095.44446
  23238766.680   122120563.12408  23238764.900    95158880.57545
  21448578.540   112713058.79809  21448576.180    87828349.97048
  23242182.440   122138554.32108  23242178.980    95172926.51745
  21039511.420   110563414.86309  21039506.840    86153316.25648
  21055293.160   110646384.63509  21055287.920    86217977.46248
  20479871.480   107622508.07609  20479870.580    83861714.25149
  23220613.560   122025183.05008  23220613.420    95084572.84646
 15 03 05 02 12 30.0000000  0 10G01G04G07G11G16G18G19G22G27G32
  24136866.740   126840095.26708  24136868.620    98836445.42145
  21749855.260   114296305.87609  21749853.800    89062077.20447
  24429054.620   128375535.11208  24429053.360   100032879.79646
  23223274.440   122039149.96508  23223272.480    95095441.80145
  21462760.520   112787585.06509  21462758.100    87886422.36848
  23255665.680   122209408.80508  23255662.100    95228137.79746
  21031978.940   110523831.56109  21031974.400    86122472.12848
  21058589.700   110663708.21409  21058584.580    86231476.36148
  20479809.960   107622184.83609  20479809.100    83861462.36449
  23199039.500   121911810.33408  23199039.260    94996230.52146
 15 03 05 02 13  0.0000000  0 10G01G04G07G11G16G18G19G22G27G32
  24121240.560   126757980.12808  24121242.620    98772459.68046
  21737796.260   114232935.38509  21737794.720    89012697.61747
  24434698.520   128405194.90008  24434697.240   100055991.29146
  23207807.320   121957869.18308  23207805.120    95032106.17446
  21477021.440   112862526.49709  21477018.920    87944818.26948
  23269207.880   122280573.17608  23269204.340    95283590.54246
  21024488.300   110484468.17709  21024483.820    86091799.37348
  21061985.460   110681553.05309  21061980.360    86245381.42848
  20479806.120   107622165.11109  20479805.320    83861446.98849
  23177495.640   121798596.36808  23177495.280    94908011.90346
 15 03 05 02 13 30.0000000  0  9G01G04G11G16G18G19G22G27G32
  24105645.780   126676030.02508  24105648.140    98708602.54645
  21725790.720   114169846.01509  21725789.180    88963537.10347
  23192365.380   121876720.72808  23192362.920    94968873.66745
  21491360.680   112937880.37409  21491358.160    88003535.56348
  23282808.560   122352044.96908  23282805.120    95339282.85046
  21017039.600   110445325.38309  21017035.180    86061298.51748
  21065480.160   110699917.81809  21065475.060    86259691.64748
  20479860.140   107622449.49009  20479859.440    83861668.58249
  23155982.360   121685543.59208  23155981.940    94819918.88046
 15 03 05 02 14  0.0000000  0  9G01G04G11G16G18G19G22G27G32
  24090083.660   126594251.02408  24090086.260    98644878.70846
  21713839.720   114107043.57709  21713838.220    88914600.15947
  23176949.780   121795710.77308  23176947.300    94905749.07645
  21505779.120   113013650.52609  21505776.600    88062577.22048
  23296468.400   122423827.81508  23296465.080    95395217.50746
  21009634.160   110406409.99309  21009629.760    86030974.84548
  21069074.700   110718807.45509  21069069.620    86274410.85148
  20479973.340   107623044.69909  20479972.720    83862132.37149
  23134501.380   121572660.77108  23134501.000    94731958.28746
 15 03 05 02 14 30.0000000  0  9G01G04G11G16G18G19G22G27G32
  24074553.460   126512639.63708  24074556.240    98581285.49546
  21701942.680   114044524.52509  21701941.260    88865884.05047
  23161559.800   121714835.87408  23161557.280    94842729.72146
  21520275.680   113089830.76309  21520273.200    88121938.42648
  23310186.280   122495915.81608  23310183.140    95451389.96346
  21002271.460   110367719.15309  21002267.060    86000826.14748
  21072768.200   110738217.23109  21072763.160    86289535.35448
  20480145.200   107623947.87909  20480144.660    83862836.13749
  23113052.560   121459946.93208  23113052.220    94644129.37746
 15 03 05 02 15  0.0000000  0  9G01G04G11G16G18G19G22G27G32
  24059055.860   126431199.08708  24059058.760    98517825.37746
  21690100.100   113982291.53709  21690098.720    88817390.82447
  23146196.080   121634099.07008  23146193.560    94779817.95745
  21534850.540   113166421.71209  21534848.060    88181619.64748
  23323962.320   122568309.46108  23323959.360    95507800.57045
  20994952.300   110329257.03909  20994947.960    85970855.67648
  21076561.100   110758149.19709  21076556.080    86305066.75648
  20480376.400   107625162.81509  20480375.900    83863782.82649
  23091637.040   121347407.81708  23091636.680    94556436.60946
 15 03 05 02 15 30.0000000  0  9G01G04G11G16G18G19G22G27G32
  24043590.220   126349925.98808  24043593.040    98454495.77046
  21678311.300   113920341.38209  21678309.940    88769118.00347
  23130858.060   121553497.35108  23130855.520    94717011.46446
  21549502.520   113243417.41709  21549499.920    88241616.28848
  23337795.500   122641003.12908  23337792.620    95564444.98345
  20987676.260   110291021.12209  20987671.860    85941061.47448
  21080452.500   110778598.66009  21080447.500    86321001.40948
  20480666.460   107626686.82709  20480665.980    83864970.37049
  23070254.680   121235042.76708  23070254.300    94468879.48546
 15 03 05 02 16  0.0000000  0  9G01G04G11G16G18G19G22G27G32
  24028156.700   126268821.94808  24028159.500    98391297.89546
  21666576.620   113858675.27709  21666575.200    88721066.51547
  23115546.000   121473032.31708  23115543.500    94654311.47146
  21564231.460   113320817.62609  21564228.720    88301928.12048
  23351685.640   122713996.27308  23351682.760    95621322.75745
  20980443.620   110253013.32109  20980439.140    85911445.01648
  21084442.380   110799565.72409  21084437.400    86337339.38248
  20481015.780   107628522.12709  20481015.300    83866400.46849
  23048906.120   121122855.75308  23048905.800    94381461.08146
 15 03 05 02 16 30.0000000  0  9G01G04G11G16G18G19G22G27G32
  24012755.840   126187889.16608  24012758.400    98328233.46246
  21654896.440   113797295.44109  21654895.040    88673238.09047
  23100260.320   121392706.24908  23100258.020    94591719.76146
  21579037.160   113398621.52109  21579034.360    88362554.52048
  23365632.660   122787288.45208  23365629.640    95678433.53646
  20973255.000   110215236.54009  20973250.380    85882008.56748
  21088530.980   110821051.86109  21088526.040    86354081.83748
  20481424.840   107630671.58209  20481424.380    83868075.36149
  23027592.240   121010851.63708  23027591.980    94294185.20546
 15 03 05 02 17  0.0000000  0  9G01G04G11G16G18G19G22G27G32
  23997387.680   126107128.66408  23997390.000    98265303.28346
  21643270.920   113736202.61609  21643269.460    88625633.30248
  23085001.260   121312520.16708  23084999.180    94529237.11646
  21593919.380   113476827.79409  21593916.580    88423494.45548
  23379636.300   122860878.38408  23379633.260    95735776.32646
  20966110.740   110177692.85909  20966106.080    85852753.76348
  21092718.300   110843056.58909  21092713.360    86371228.37448
  20481893.940   107633136.82409  20481893.520    83869996.32149
  23006313.720   120899034.06508  23006313.660    94207054.68446
 15 03 05 02 17 30.0000000  0  9G01G04G11G16G18G19G22G27G32
  23982051.680   126026537.29808  23982053.660    98202504.89046
  21631699.400   113675393.56609  21631697.900    88578249.62847
  23069768.240   121232471.10508  23069766.440    94466861.24846
  21608877.060   113555430.75509  21608874.220    88484743.49848
  23393695.560   122934760.65208  23393692.460    95793346.92045
  20959010.380   110140379.84709  20959005.660    85823678.70148
  21097003.480   110865575.71409  21096998.600    86388775.73848
  20482422.640   107635915.36109  20482422.220    83872161.40749
  22985070.680   120787402.55008  22985070.700    94120069.14746
 15 03 05 02 18  0.0000000  0  9G01G04G11G16G18G19G22G27G32
  23966747.840   125946115.31008  23966749.660    98139838.48145
  21620181.720   113614868.35409  21620180.340    88531087.14147
  23054561.440   121152559.43908  23054559.800    94404592.45246
  21623909.740   113634427.89509  21623906.840    88546299.69348
  23407810.000   123008932.91308  23407806.980    95851143.47745
  20951954.100   110103298.62709  20951949.400    85794784.24448
  21101386.280   110888608.01109  21101381.500    86406722.98748
  20483011.140   107639008.06509  20483010.720    83874571.29849
  22963863.840   120675959.84808  22963863.640    94033230.71946
 15 03 05 02 18 30.0000000  0  9G01G04G11G16G18G19G22G27G32
  23951476.220   125865863.00408  23951477.960    98077304.27945
  21608718.020   113554626.99209  21608716.740    88484145.83347
  23039380.940   121072785.42008  23039379.220    94342430.91446
  21639017.040   113713817.20309  21639014.100    88608161.46147
  23421979.340   123083393.26308  23421976.280    95909164.52345
  20944942.080   110066450.28209  20944937.380    85766071.25848
  21105866.560   110912152.25509  21105861.840    86425069.15348
  20483659.620   107642415.89209  20483659.160    83877226.74649
  22942693.680   120564708.97109  22942693.180    93946541.75546
 15 03 05 02 19  0.0000000  0  9G01G04G11G16G18G19G22G27G32
  23936237.160   125785782.22808  23936238.820    98014903.74445
  21597308.720   113494671.32509  21597307.600    88437427.15447
  23024226.980   120993150.75408  23024225.100    94280377.96546
  21654198.740   113793597.53309  21654195.780    88670327.91748
  23436203.420   123158140.98708  23436200.300    95967409.48045
  20937974.860   110029837.60109  20937970.220    85737541.90748
  21110444.460   110936209.08409  21110439.740    86443814.73048
  20484368.560   107646141.38109  20484368.100    83880129.71449
  22921560.960   120453654.29908  22921560.220    93860005.69246
 15 03 05 02 19 30.0000000  0  9G01G04G11G16G18G19G22G27G32
  23921031.020   125705874.66308  23921032.840    97952638.18246
  21585954.060   113435002.73609  21585953.020    88390932.18047
  23009100.000   120913657.74908  23009097.920    94218435.41646
  21669454.820   113873768.76409  21669451.820    88732798.98348
  23450482.140   123233175.49708  23450478.900    96025877.91945
  20931052.960   109993462.85009  20931048.320    85709197.94548
  21115120.020   110960778.82909  21115115.260    86462959.99248
  20485138.400   107650186.81309  20485137.940    83883281.99449
  22900466.340   120342800.10608  22900465.500    93773625.87146
 15 03 05 02 20  0.0000000  0  9G01G04G11G16G18G19G22G27G32
  23905857.360   125626137.49608  23905859.380    97890505.39445
  21574653.580   113375618.32309  21574652.480    88344658.63047
  22993999.540   120834303.73108  22993997.260    94156601.16646
  21684784.140   113954325.15009  21684781.080    88795570.16648
  23464814.420   123308491.38008  23464811.100    96084565.60846
  20924175.960   109957324.01309  20924171.340    85681037.81648
  21119892.480   110985857.68209  21119887.600    86482501.94548
  20485968.740   107654550.11809  20485968.280    83886681.96449
  22879409.720   120232146.17508  22879408.820    93687402.08346
 15 03 05 02 20 30.0000000  0  9G01G04G11G16G18G19G22G27G32
  23890716.840   125546573.94608  23890718.920    97828507.89745
  21563407.840   113316521.08509  21563406.620    88298608.84947
  22978926.120   120755091.80909  22978923.700    94094877.64246
  21700186.760   114035266.93709  21700183.780    88858641.66247
  23479200.400   123384089.52208  23479197.000    96143473.23345
  20917344.640   109921425.33609  20917340.020    85653064.84048
  21124762.080   111011447.13809  21124757.080    86502441.78548
  20486860.280   107659235.02709  20486859.800    83890332.53949
  22858392.240   120121698.46408  22858391.300    93601338.97346
 15 03 05 02 21  0.0000000  0  9G01G04G11G16G18G19G22G27G32
  23875609.460   125467184.65408  23875611.560    97766646.16045
  21552216.840   113257711.41809  21552215.540    88252783.14247
  22963879.880   120676022.69609  22963877.300    94033265.38245
  21715662.580   114116593.07809  21715659.760    88922012.65248
  23493639.720   123459968.29508  23493636.160    96202599.54845
  20910559.340   109885768.43409  20910554.680    85625280.24448
  21129728.720   111037546.62109  21129723.640    86522779.04248
  20487813.280   107664242.97609  20487812.760    83894234.81849
  22837414.560   120011460.26408  22837413.520    93515439.11246
 15 03 05 02 21 30.0000000  0  9G01G04G11G16G18G19G22G27G32
  23860535.200   125387969.25908  23860537.420    97704919.94346
  21541080.460   113199188.92309  21541079.080    88207181.21547
  22948860.680   120597096.19108  22948858.000    93971764.25346
  21731210.880   114198299.78809  21731208.200    88985680.20348
  23508131.780   123536124.86108  23508128.300    96261942.31545
  20903820.080   109850353.58309  20903815.480    85597684.27748
  21134792.100   111064154.62109  21134787.000    86543512.55348
  20488827.760   107669574.20409  20488827.240    83898389.01449
  22816477.100   119901433.81508  22816476.000    93429704.26046
 15 03 05 02 22  0.0000000  0  9G01G04G11G16G18G19G22G27G32
  23845493.720   125308926.20008  23845496.000    97643328.00547
  21529998.360   113140951.75309  21529996.900    88161801.61448
  22933868.300   120518311.04708  22933865.680    93910373.26046
  21746830.880   114280383.39709  21746828.280    89049641.42848
  23522675.900   123612555.32608  23522672.540    96321498.51046
  20897126.740   109815180.07209  20897122.220    85570276.35149
  21139951.560   111091267.73709  21139946.440    86564639.65648
  20489903.580   107675227.86609  20489903.080    83902794.44849
  22795580.060   119791620.22508  22795579.020    93344135.28347
 15 03 05 02 22 30.0000000  0  9G01G04G11G16G18G19G22G27G32
  23830485.540   125230058.30408  23830487.980    97581872.56546
  21518971.040   113083002.68009  21518969.480    88116646.49448
  22918903.280   120439670.17608  22918900.800    93849094.68646
  21762522.560   114362844.09009  21762520.040    89113896.49448
  23537272.280   123689260.28308  23537269.060    96381268.59646
  20890480.100   109780251.80909  20890475.640    85543059.52349
  21145207.520   111118888.01709  21145202.380    86586161.95448
  20491041.380   107681207.30509  20491040.920    83907453.73549
  22774724.500   119682024.87808  22774723.600    93258736.38847
 15 03 05 02 23  0.0000000  0  9G01G04G11G16G18G19G22G27G32
  23815510.160   125151362.57408  23815512.840    97520551.28346
  21507997.900   113025338.50609  21507996.300    88071713.38947
  22903965.180   120361170.57508  22903962.700    93787926.19046
  21778284.960   114445676.19209  21778282.440    89178440.97348
  23551919.840   123766234.18008  23551916.740    96441248.24445
  20883879.660   109745566.45509  20883875.240    85516031.98248
  21150559.080   111147010.62009  21150553.960    86608075.67348
  20492240.740   107687510.39209  20492240.380    83912365.22349
  22753910.440   119572647.46608  22753909.700    93173507.29746
 15 03 05 02 23 30.0000000  0  9G01G04G11G16G18G19G22G27G32
  23800567.960   125072840.75708  23800570.680    97459365.50846
  21497079.140   112967960.64109  21497077.680    88027003.39448
  22889054.340   120282814.40408  22889051.900    93726869.47346
  21794117.920   114528878.93009  21794115.420    89243274.25948
  23566618.500   123843476.41708  23566615.380    96501436.99645
  20877325.980   109711126.64709  20877321.600    85489195.77649
  21156006.200   111175635.79709  21156001.240    86630381.01048
  20493502.140   107694139.42009  20493501.880    83917530.69149
  22733138.780   119463492.43608  22733138.120    93088451.49347
 15 03 05 02 24  0.0000000  0  9G01G04G11G16G18G19G22G27G32
  23785659.020   124994493.26508  23785661.580    97398315.58846
  21486215.000   112910869.56609  21486213.520    87982516.84647
  22874170.960   120204602.13708  22874168.580    93665924.88446
  21810020.940   114612449.62509  21810018.520    89308394.25248
  23581367.880   123920984.99208  23581364.760    96561833.26645
  20870819.400   109676933.90709  20870814.900    85462552.08549
  21161548.760   111204762.52209  21161543.940    86653077.15948
  20494825.820   107701095.52609  20494825.600    83922951.02749
  22712410.120   119354562.77108  22712409.440    93003571.27446
 15 03 05 02 24 30.0000000  0  9G01G04G11G16G18G19G22G27G32
  23770782.920   124916318.25408  23770785.280    97337400.05946
  21475405.000   112854063.06309  21475403.460    87938252.04947
  22859314.740   120126532.06409  22859312.360    93605091.09746
  21825993.280   114696384.32309  21825990.880    89373797.88148
  23596167.220   123998755.94408  23596164.100    96622433.99945
  20864359.620   109642987.24009  20864354.980    85436100.14348
  21167186.220   111234387.84009  21167181.520    86676161.82048
  20496211.560   107708377.53609  20496211.300    83928625.31049
  22691724.640   119245859.39909  22691723.940    92918867.38046
 15 03 05 02 25  0.0000000  0  9G01G04G11G16G18G19G22G27G32
  23755940.580   124838320.89508  23755942.640    97276622.96145
  21464650.180   112797546.17909  21464648.660    87894212.91647
  22844486.520   120048609.45708  22844484.080    93544372.21246
  21842035.460   114780685.96209  21842032.940    89439487.44548
  23611016.940   124076791.83108  23611013.980    96683241.17345
  20857947.820   109609292.67809  20857943.060    85409844.65248
  21172919.180   111264515.10009  21172914.560    86699637.60848
  20497660.480   107715991.21309  20497660.120    83934558.02949
  22671083.780   119137390.05109  22671083.000    92834345.83546
 15 03 05 02 25 30.0000000  0  9G01G04G11G16G18G19G22G27G32
  23741131.440   124760498.52008  23741133.360    97215982.21746
  21453950.020   112741316.13309  21453948.500    87850397.29647
  22829685.860   119970831.81409  22829683.400    93483766.29946
  21858146.320   114865348.97109  21858143.680    89505458.60548
  23625916.060   124155087.64508  23625913.240    96744250.89645
  20851583.660   109575848.58109  20851578.780    85383784.33148
  21178746.880   111295140.25409  21178742.280    86723501.37048
  20499172.080   107723934.60609  20499171.740    83940747.67649
  22650487.400   119029154.73408  22650486.640    92750006.67246
 15 03 05 02 26  0.0000000  0  9G01G04G11G16G18G19G22G27G32
  23726355.900   124682852.91908  23726357.800    97155479.21745
  21443304.700   112685374.34909  21443303.160    87806806.29747
  22814913.260   119893201.32909  22814910.880    93423275.04546
  21874325.720   114950372.31009  21874323.000    89571710.53548
  23640864.600   124233643.08608  23640861.860    96805462.90845
  20845267.600   109542657.46409  20845262.660    85357921.13448
  21184669.440   111326263.65309  21184664.800    86747753.37048
  20500746.880   107732210.18909  20500746.560    83947196.17049
  22629936.280   118921158.00408  22629935.600    92665853.41846
 15 03 05 02 26 30.0000000  0  9G01G04G11G16G18G19G22G27G32
  23711613.260   124605380.41708  23711615.300    97095111.08146
  21432713.440   112629717.22509  21432711.940    87763437.11647
  22800168.020   119815714.64608  22800165.640    93362895.85446
  21890572.480   115035749.46909  21890569.800    89638238.16048
  23655861.440   124312452.13108  23655858.720    96866872.53745
  20838999.220   109509716.89509  20838994.240    85332253.15949
  21190685.940   111357880.16409  21190681.200    86772389.61248
  20502384.320   107740814.97009  20502384.040    83953901.19249
  22609430.300   118813398.73309  22609429.660    92581885.19647
 15 03 05 02 27  0.0000000  0  9G01G04G11G16G18G19G22G27G32
  23696904.060   124528083.38808  23696906.240    97034879.67146
  21422176.700   112574346.92909  21422175.220    87720291.45147
  22785450.500   119738373.95608  22785448.060    93302630.41846
  21906886.640   115121480.33309  21906883.940    89705041.40448
  23670906.580   124391514.58108  23670903.760    96928479.62645
  20832779.100   109477029.86709  20832774.140    85306782.75648
  21196796.500   111389990.53609  21196791.640    86797410.67648
  20504084.960   107749751.94409  20504084.720    83960865.06249
  22588970.520   118705882.15209  22588969.800    92498106.07146
 15 03 05 02 27 30.0000000  0  9G01G04G11G16G18G19G22G27G32
  23682228.280   124450961.86508  23682230.680    96974785.03046
  21411694.600   112519263.28509  21411693.060    87677369.14547
  22770760.980   119661179.95208  22770758.360    93242479.26546
  21923267.720   115207562.48509  21923264.940    89772118.38148
  23685999.520   124470827.88808  23685996.580    96990282.18945
  20826607.460   109444597.69309  20826602.540    85281510.94148
  21203000.780   111422593.45409  21202995.760    86822815.54348
  20505848.980   107759021.86109  20505848.740    83968088.36749
  22568557.460   118598610.88509  22568556.580    92414518.10746
 15 03 05 02 28  0.0000000  0  9G01G04G11G16G18G19G22G27G32
  23667586.300   124374017.67708  23667588.860    96914828.57646
  21401267.440   112464467.86609  21401265.820    87634671.43147
  22756099.600   119584134.34808  22756097.120    93182443.77046
  21939715.480   115293995.00409  21939712.560    89839468.37048
  23701140.180   124550391.82808  23701137.040    97052280.05945
  20820484.780   109412422.90609  20820479.920    85256439.68049
  21209298.760   111455689.22609  21209293.640    86848604.45748
  20507676.860   107768627.15409  20507676.580    83975572.99949
  22548191.900   118491589.37608  22548190.880    92331124.75846
 15 03 05 02 28 30.0000000  0  9G01G04G11G16G18G19G22G27G32
  23652977.960   124297250.36708  23652980.580    96855009.95246
  21390895.000   112409960.03409  21390893.420    87592197.81647
  22741466.420   119507237.03808  22741464.080    93122523.82946
  21956229.200   115380774.80509  21956226.280    89907088.96947
  23716327.980   124630203.66208  23716324.680    97114471.08045
  20814411.160   109380506.03309  20814406.360    85231569.39548
  21215690.080   111489275.51809  21215684.860    86874775.59448
  20509568.600   107778568.09409  20509568.280    83983319.18049
  22527874.220   118384819.89008  22527873.240    92247927.80046
 15 03 05 02 29  0.0000000  0  9G01G04G11G16G18G19G22G27G32
  23638403.020   124220658.82408  23638405.640    96795328.27746
  21380577.100   112355738.57009  21380575.460    87549947.33548
  22726861.380   119430487.31908  22726859.140    93062718.88046
  21972808.260   115467898.42209  21972805.440    89974977.48548
  23731562.300   124710260.13908  23731558.980    97176852.75245
  20808386.560   109348847.00809  20808381.900    85206900.03448
  21222174.260   111523350.00609  21222168.980    86901327.13948
  20511524.100   107788844.25509  20511523.780    83991326.56849
  22507604.860   118278304.04209  22507603.880    92164928.48146
 15 03 05 02 29 30.0000000  0  9G01G04G11G16G18G19G22G27G32
  23623861.880   124144245.14808  23623864.300    96735785.19646
  21370314.080   112301805.41309  21370312.360    87507921.49648
  22712284.840   119353887.30208  22712282.660    93003030.57446
  21989452.500   115555365.21309  21989449.840    90043133.39848
  23746842.960   124790560.64708  23746839.740    97239424.56445
  20802411.600   109317449.00409  20802407.120    85182434.05548
  21228751.320   111557913.01809  21228746.080    86928259.34848
  20513543.860   107799458.36809  20513543.560    83999597.29749
  22487384.820   118172046.59909  22487383.760    92082130.49847
 15 03 05 02 30  0.0000000  0  9G01G04G11G16G18G19G22G27G32
  23609354.080   124068006.61508  23609356.260    96676378.59646
  21360105.280   112248157.58709  21360103.540    87466118.01447
  22697736.400   119277434.67108  22697734.120    92943457.13446
  22006160.980   115643169.53309  22006158.380    90111552.33247
  23762169.120   124871100.44508  23762165.940    97302182.83445
  20796485.980   109286310.17609  20796481.640    85158170.04148
  21235420.540   111592960.37709  21235415.380    86955568.97848
  20515627.520   107810408.48009  20515627.300    84008129.84649
  22467214.020   118066047.58409  22467212.840    91999533.89146
 15 03 05 02 30 30.0000000  0  9G01G04G11G16G18G19G22G27G32
  23594880.360   123991947.60108  23594882.400    96617111.88746
  21349951.600   112194799.36509  21349949.740    87424540.19147
  22683216.860   119201133.71808  22683214.400    92884001.88746
  22022934.060   115731312.78209  22022931.340    90180235.35847
  23777541.200   124951881.54408  23777538.080    97365129.12645
  20790610.740   109255435.95709  20790606.440    85134112.21048
  21242182.440   111628494.54009  21242177.320    86983257.93048
  20517776.140   107821699.50409  20517775.900    84016928.03849
  22447093.680   117960314.04509  22447092.380    91917144.16347
 15 03 05 02 31  0.0000000  0 10G01G04G11G14G16G18G19G22G27G32
  23580440.060   123916063.85108  23580441.960    96557981.75446
  21339852.140   112141726.16809  21339850.180    87383184.46147
  22668725.440   119124980.55609  22668722.900    92824661.80146
  24719307.180   129900830.39307  24719306.080   101221430.20945
  22039770.540   115819788.82109  22039767.740    90249177.70448
  23792957.960   125032897.21408  23792954.920    97428258.22245
  20784785.320   109224823.17909  20784780.940    85110258.11148
  21249036.040   111664510.30709  21249030.900    87011322.16848
  20519989.000   107833327.90409  20519988.740    84025989.12749
  22427023.420   117854844.37709  22427022.140    91834960.06446
 15 03 05 02 31 30.0000000  0 10G01G04G11G14G16G18G19G22G27G32
  23566036.040   123840370.39108  23566037.740    96498999.88446
  21329809.620   112088952.92409  21329807.840    87342062.45947
  22654265.160   119048990.76409  22654262.440    92765449.00146
  24706346.680   129832723.19707  24706346.300   101168359.66945
  22056672.520   115908609.24909  22056669.820    90318388.39548
  23808421.840   125114160.43608  23808418.960    97491580.18745
  20779012.800   109194487.96109  20779008.240    85086620.27548
  21255983.780   111701020.77209  21255978.580    87039771.87348
  20522269.060   107845309.40109  20522268.800    84035325.34849
  22407006.720   117749656.34709  22407005.320    91752995.39846
 15 03 05 02 32  0.0000000  0 10G01G04G11G14G16G18G19G22G27G32
  23551663.520   123764842.58108  23551665.180    96440147.10246
  21319819.480   112036454.84609  21319817.820    87301154.87447
  22639831.300   118973139.71109  22639828.400    92706344.30946
  24693400.660   129764692.76107  24693400.960   101115348.95245
  22073634.940   115997747.52309  22073632.480    90387846.76547
  23823927.660   125195643.94908  23823924.920    97555073.82345
  20773288.520   109164406.38109  20773283.820    85063180.08748
  21263020.660   111737999.65209  21263015.360    87068586.58548
  20524611.720   107857619.97309  20524611.460    84044917.99649
  22387039.460   117644727.92109  22387037.900    91671233.01546
 15 03 05 02 32 30.0000000  0 10G01G04G11G14G16G18G19G22G27G32
  23537325.400   123689495.50908  23537327.180    96381435.16246
  21309884.540   111984246.94109  21309882.980    87260473.39647
  22625426.720   118897443.07209  22625423.780    92647359.95046
  24680472.640   129696756.80807  24680473.300   101062411.83545
  22090660.000   116087215.66909  22090657.900    90457562.18547
  23839477.980   125277360.98608  23839475.220    97618749.41845
  20767615.580   109134594.72709  20767610.860    85039950.22548
  21270149.140   111775460.41709  21270143.860    87097776.78348
  20527019.980   107870275.43109  20527019.680    84054779.37949
  22367124.940   117540076.95109  22367123.420    91589686.83747
 15 03 05 02 33  0.0000000  0 10G01G04G11G14G16G18G19G22G27G32
  23523020.500   123614322.78908  23523022.540    96322859.06946
  21300003.560   111932322.50609  21300002.140    87220012.80747
  22611050.260   118821894.52009  22611047.440    92588490.97846
  24667562.080   129628911.79307  24667562.860   101009545.59044
  22107746.120   116177004.89909  22107744.320    90527527.79947
  23855071.060   125359302.58608  23855068.240    97682600.00945
  20761993.040   109105047.83309  20761988.340    85016926.66748
  21277367.740   111813395.06509  21277362.560    87127336.24348
  20529492.780   107883270.05609  20529492.440    84064905.04349
  22347262.500   117435699.82809  22347261.280    91508354.05947
 15 03 05 02 33 30.0000000  0 10G01G04G11G14G16G18G19G22G27G32
  23508749.520   123539327.90208  23508751.660    96264421.55647
  21290177.220   111880685.01909  21290175.800    87179775.83748
  22596702.620   118746497.67009  22596699.860    92529740.22747
  24654670.140   129561163.64007  24654670.840   100956754.83945
  22124893.460   116267115.58809  22124891.800    90597743.90248
  23870707.060   125441469.91608  23870704.220    97746626.49346
  20756421.720   109075770.04409  20756417.000    84994112.81149
  21284676.820   111851805.24409  21284671.760    87157266.25048
  20532030.940   107896607.94309  20532030.540    84075298.18949
  22327453.340   117331602.51009  22327452.420    91427239.33247
 15 03 05 02 34  0.0000000  0 10G01G04G11G14G16G18G19G22G27G32
  23494512.780   123464512.92108  23494514.920    96206124.22246
  21280405.800   111829336.10009  21280404.360    87139763.71747
  22582384.320   118671254.97909  22582381.480    92471109.57146
  24641797.760   129493517.28108  24641798.140   100904043.39545
  22142102.100   116357547.35809  22142100.340    90668210.18747
  23886385.880   125523862.69708  23886383.060    97810828.65745
  20750902.200   109046764.39009  20750897.420    84971510.99748
  21292076.540   111890691.66309  21292071.600    87187567.35248
  20534634.960   107910291.84509  20534634.500    84085960.95649
  22307698.500   117227790.03309  22307697.640    91346346.52547
 15 03 05 02 34 30.0000000  0 10G01G04G11G14G16G18G19G22G27G32
  23480309.860   123389875.73608  23480311.940    96147965.42247
  21270688.960   111778273.90809  21270687.480    87099975.02248
  22568095.120   118596165.08908  22568092.260    92412597.99546
  24628945.080   129425973.33008  24628944.860   100851411.76044
  22159371.000   116448295.20709  22159369.020    90738922.77847
  23902106.620   125606476.23508  23902103.940    97875202.83045
  20745434.280   109018029.90009  20745429.420    84949120.48349
  21299566.200   111930050.46209  21299561.360    87218236.55248
  20537304.520   107924320.35209  20537304.100    84096892.25349
  22287997.900   117124262.68709  22287997.020    91265675.89847
 15 03 05 02 35  0.0000000  0 10G01G04G11G14G16G18G19G22G27G32
  23466140.840   123315417.06008  23466142.860    96089945.70746
  21261026.740   111727498.61209  21261025.160    87060409.88647
  22553835.080   118521228.65608  22553832.380    92354206.00646
  24616112.600   129358535.41308  24616111.820   100798862.75244
  22176699.760   116539357.71409  22176697.600    90809880.54747
  23917869.120   125689309.74008  23917866.680    97939748.39645
  20740018.280   108989568.36609  20740013.420    84926942.66048
  21307145.600   111969880.52309  21307140.780    87249272.96548
  20540039.900   107938694.80009  20540039.540    84108093.12049
  22268352.260   117021024.12009  22268351.360    91185230.29147
 15 03 05 02 35 30.0000000  0 10G01G04G11G14G16G18G19G22G27G32
  23452005.960   123241138.29208  23452008.020    96032066.18446
  21251419.380   111677011.41309  21251417.740    87021069.23447
  22539604.520   118446447.08409  22539601.940    92295934.68646
  24603301.100   129291207.72208  24603299.840   100746399.62645
  22194088.000   116630733.09309  22194085.720    90881082.11147
  23933673.220   125772361.93708  23933670.960    98004464.38145
  20734654.640   108961382.25809  20734649.840    84904979.44948
  21314814.660   112010181.64709  21314809.820    87280676.43948
  20542841.520   107953417.26209  20542841.180    84119565.16449
  22248762.220   116918078.32009  22248761.420    91105012.82347
 15 03 05 02 36  0.0000000  0 10G01G04G11G14G16G18G19G22G27G32
  23437904.940   123167038.20908  23437907.040    95974325.89946
  21241866.640   111626811.17409  21241864.960    86981952.18448
  22525403.420   118371820.12308  22525400.800    92237783.82246
  24590510.760   129223991.75908  24590509.100   100694023.55945
  22211535.020   116722417.36909  22211532.640    90952524.37948
  23949518.300   125855629.33208  23949516.280    98069348.04746
  20729343.420   108933471.61109  20729338.640    84883230.88549
  21322572.820   112050950.98209  21322567.960    87312444.74848
  20545709.300   107968487.17509  20545708.920    84131307.93749
  22229228.120   116815426.86908  22229227.400    91025024.72747
 15 03 05 02 36 30.0000000  0 10G01G04G11G14G16G18G19G22G27G32
  23423838.020   123093117.03108  23423840.080    95916725.00346
  21232368.380   111576897.46709  21232366.680    86943058.40647
  22511231.840   118297348.15608  22511229.260    92179753.73746
  24577742.040   129156890.47907  24577740.120   100641736.87044
  22229040.460   116814408.49909  22229037.960    91024205.74847
  23965404.140   125939110.28508  23965402.200    98134398.11345
  20724084.800   108905837.53109  20724080.040    84861697.83848
  21330419.780   112092186.79109  21330414.940    87344576.54148
  20548643.380   107983905.40209  20548642.900    84143322.12749
  22209750.560   116713072.57609  22209749.800    90945268.18147
 15 03 05 02 37  0.0000000  0 10G01G04G11G14G16G18G19G22G27G32
  23409805.380   123019375.22508  23409807.220    95859263.91746
  21222924.760   111527271.04309  21222923.080    86904388.48947
  22497089.920   118223031.89709  22497087.460    92121844.98846
  24564995.540   129089907.15407  24564993.740   100589542.07944
  22246603.860   116906703.92709  22246601.260    91096124.23747
  23981330.260   126022802.35808  23981328.300    98199612.71045
  20718879.100   108878481.68709  20718874.340    84840381.60048
  21338355.360   112133888.24909  21338350.520    87377071.18148
  20551643.960   107999673.10109  20551643.340    84155608.63749
  22190330.320   116611018.69409  22190329.300    90865745.71546
 15 03 05 02 37 30.0000000  0 10G01G04G11G14G16G18G19G22G27G32
  23395806.840   122945812.18308  23395808.480    95801942.12246
  21213535.640   111477930.97709  21213533.940    86865941.70347
  22482977.560   118148871.03108  22482975.060    92064057.32146
  24552271.780   129023044.04807  24552270.280   100537440.94845
  22264224.620   116999300.41609  22264221.880    91168277.31247
  23997296.220   126106703.43208  23997294.180    98264990.14745
  20713726.380   108851404.27109  20713721.660    84819282.30648
  21346379.060   112176052.70109  21346374.200    87409926.60248
  20554710.940   108015790.26909  20554710.280    84168167.45249
  22170967.760   116509267.27909  22170966.480    90786458.91447
 15 03 05 02 38  0.0000000  0 10G01G04G11G14G16G18G19G22G27G32
  23381842.560   122872428.93708  23381844.160    95744760.42246
  21204201.180   111428878.18209  21204199.420    86827718.76647
  22468895.020   118074866.89208  22468892.480    92006391.77047
  24539571.580   128956304.79307  24539570.360   100485436.36044
  22281902.360   117092196.65509  22281899.480    91240663.96547
  24013301.600   126190811.72508  24013299.480    98330529.07945
  20708627.120   108824607.53709  20708622.400    84798401.73448
  21354490.740   112218679.70709  21354485.920    87443142.45948
  20557844.640   108032258.66709  20557844.080    84180999.96249
  22151663.400   116407822.06108  22151662.020    90707410.72247
 15 03 05 02 38 30.0000000  0 10G01G04G11G14G16G18G19G22G27G32
  23367912.420   122799224.98408  23367913.820    95687718.42446
  21194921.260   111380111.88109  21194919.540    86789719.06348
  22454842.300   118001019.37609  22454839.820    91948848.26147
  24526895.440   128889691.68207  24526894.180   100433530.03245
  22299636.320   117185389.02809  22299633.260    91313281.36947
  24029345.880   126275124.53608  24029343.700    98396227.36145
  20703581.420   108798092.17809  20703576.680    84777740.39949
  21362690.020   112261767.01409  21362685.220    87476716.96848
  20561045.100   108049078.31209  20561044.760    84194106.15849
  22132417.580   116306685.21709  22132416.440    90628602.82047
 15 03 05 02 39  0.0000000  0 10G01G04G11G14G16G18G19G22G27G32
  23354016.280   122726200.16808  23354017.700    95630816.02546
  21185695.760   111331631.64009  21185694.060    86751942.26947
  22440819.460   117927328.94608  22440817.060    91891427.16646
  24514243.880   128823207.42708  24514242.480   100381724.13345
  22317426.040   117278874.80309  22317422.800    91386127.41147
  24045428.600   126359639.76008  24045426.340    98462083.36445
  20698589.440   108771859.26209  20698584.740    84757299.16148
  21370976.500   112305312.59009  21370971.680    87510648.58848
  20564312.500   108066249.80809  20564312.420    84207486.54049
  22113230.980   116205859.28509  22113229.960    90550037.18747
 15 03 05 02 39 30.0000000  0 10G01G04G11G14G16G18G19G22G27G32
  23340154.500   122653356.31608  23340155.980    95574054.63046
  21176525.060   111283439.48409  21176523.360    86714389.95548
  22426826.880   117853797.51609  22426824.440    91834129.96347
  24501617.820   128756856.77408  24501616.160   100330022.32345
  22335271.360   117372652.96109  22335268.080    91459201.27547
  24061549.600   126444356.63708  24061547.420    98528096.48945
  20693651.700   108745911.43109  20693647.020    84737080.06649
  21379350.180   112349316.28409  21379345.300    87544937.18048
  20567647.460   108083775.56109  20567647.480    84221142.96849
  22094104.520   116105348.82309  22094103.500    90471717.36947
 15 03 05 02 40  0.0000000  0 10G01G04G11G14G16G18G19G22G27G32
  23326327.040   122580692.98908  23326328.660    95517433.88047
  21167409.040   111235534.50909  21167407.380    86677061.41848
  22412864.700   117780425.17109  22412862.060    91776956.71246
  24489017.560   128690641.82207  24489015.640   100278426.27545
  22353171.740   117466720.36309  22353168.520    91532500.51747
  24077708.480   126529272.86508  24077706.400    98594264.97145
  20688768.480   108720249.80009  20688763.800    84717083.99048
  21387810.700   112393776.08809  21387805.740    87579581.17348
  20571050.020   108101655.75409  20571049.960    84235075.57749
  22075038.460   116005156.02009  22075037.420    90393645.07947
 15 03 05 02 40 30.0000000  0 10G01G04G11G14G16G18G19G22G27G32
  23312533.760   122508209.49908  23312535.560    95460953.26146
  21158347.460   111187915.69009  21158345.860    86639955.85348
  22398932.680   117707211.43909  22398929.920    91719907.06447
  24476443.560   128624565.00807  24476441.540   100226937.84545
  22371126.540   117561073.73909  22371123.540    91606022.58147
  24093904.780   126614385.47908  24093902.840    98660586.46045
  20683939.760   108694874.45009  20683935.080    84697310.98448
  21396357.500   112438689.50509  21396352.500    87614578.63548
  20574520.100   108119890.35109  20574519.880    84249284.33249
  22056033.180   115905282.84609  22056032.140    90315821.86647
 15 03 05 02 41  0.0000000  0 10G01G04G11G14G16G18G19G22G27G32
  23298774.840   122435906.45408  23298776.760    95404613.23047
  21149340.460   111140583.83309  21149338.880    86603073.89248
  22385031.000   117634157.62509  22385028.240    91662982.04246
  24463896.460   128558629.78107  24463894.420   100175559.76945
  22389135.280   117655710.43609  22389132.480    91679765.42047
  24110138.200   126699692.74308  24110136.280    98727059.65045
  20679165.880   108669787.27609  20679161.200    84677762.52949
  21404990.300   112484055.29309  21404985.340    87649928.59648
  20578057.860   108138480.64109  20578057.520    84263770.25149
  22037089.380   115805732.74209  22037088.360    90238250.39547
 15 03 05 02 41 30.0000000  0 10G01G04G11G14G16G18G19G22G27G32
  23285050.180   122363783.24708  23285052.160    95348413.34847
  21140387.960   111093537.97309  21140386.300    86566414.78748
  22371159.680   117561263.37809  22371156.840    91606181.35246
  24451376.640   128492838.21907  24451374.740   100124293.63345
  22407197.560   117750628.51509  22407194.880    91753727.53247
  24126408.260   126785192.04408  24126406.180    98793682.46845
  20674446.940   108644988.80309  20674442.220    84658439.04649
  21413708.680   112529871.03409  21413703.780    87685629.16048
  20581663.280   108157426.62609  20581662.860    84278533.35049
  22018207.420   115706507.63009  22018206.400    90160932.15947
 15 03 05 02 42  0.0000000  0 10G01G04G11G14G16G18G19G22G27G32
  23271359.380   122291837.38408  23271361.240    95292351.67247
  21131489.400   111046775.52709  21131487.700    86529976.54448
  22357318.320   117488526.59809  22357315.360    91549503.36846
  24438884.160   128427190.70307  24438882.320   100073139.75245
  22425312.140   117845821.96209  22425309.660    91827904.22547
  24142713.960   126870878.47408  24142711.700    98860451.11745
  20669782.640   108620477.40809  20669777.860    84639339.25349
  21422511.940   112576132.76109  21422506.980    87721677.25748
  20585335.960   108176726.40809  20585335.580    84293572.14449
  21999387.360   115607607.81209  21999386.300    90083867.40747
 15 03 05 02 42 30.0000000  0 10G01G04G11G14G16G18G19G22G27G32
  23257703.240   122220073.37708  23257704.940    95236431.68747
  21122645.560   111000300.74009  21122643.780    86493762.43248
  22343507.860   117415952.05409  22343504.840    91492951.78047
  24426420.420   128361694.68907  24426418.620   100022103.91245
  22443479.440   117941292.75009  22443477.200    91902297.01847
  24159055.820   126956754.55108  24159053.320    98927367.52445
  20665174.040   108596258.96709  20665169.220    84620467.72049
  21431400.500   112622842.94509  21431395.480    87758074.79948
  20589076.860   108196385.12309  20589076.600    84308890.60849
  21980630.640   115509040.39409  21980629.580    90007061.64547
 15 03 05 02 43  0.0000000  0 10G01G04G11G14G16G18G19G22G27G32
  23244081.180   122148488.71308  23244082.720    95180651.49146
  21113855.980   110954110.93809  21113854.060    86457770.38148
  22329727.880   117343537.76809  22329724.960    91436525.08647
  24413985.520   128296350.19607  24413983.800    99971186.15045
  22461698.460   118037034.80109  22461696.300    91976901.18947
  24175432.820   127042815.41508  24175430.080    98994427.94045
  20660620.880   108572332.16309  20660616.060    84601823.45149
  21440373.560   112669997.24509  21440368.580    87794818.41648
  20592885.700   108216400.92209  20592885.520    84324487.32549
  21961937.340   115410805.66709  21961936.300    89930515.14747
 15 03 05 02 43 30.0000000  0 10G01G04G11G14G16G18G19G22G27G32
  23230493.280   122077083.55708  23230494.600    95125011.16546
  21105120.560   110908206.22009  21105118.680    86422000.48348
  22315978.520   117271284.28809  22315975.640    91380223.69247
  24401580.180   128231160.42007  24401578.680    99920388.94644
  22479969.000   118133046.64009  22479966.740    92051715.57447
  24191844.620   127129059.32308  24191841.640    99061630.95845
  20656123.440   108548698.30509  20656118.680    84583407.44449
  21449430.860   112717593.98609  21449425.940    87831906.77748
  20596762.640   108236774.54509  20596762.480    84340362.86349
  21943307.840   115312906.34309  21943306.820    89854230.00247
 15 03 05 02 44  0.0000000  0 10G01G04G11G14G16G18G19G22G27G32
  23216939.920   122005860.00108  23216941.040    95069512.33546
  21096439.780   110862588.51509  21096437.940    86386454.22448
  22302260.240   117199194.15909  22302257.260    91324049.57547
  24389205.340   128166130.14707  24389203.760    99869716.01044
  22498290.780   118229327.11109  22498288.240    92126739.27347
  24208291.180   127215486.10108  24208288.160    99128976.49744
  20651682.400   108525360.71909  20651677.700    84565222.29748
  21458572.520   112765633.54909  21458567.640    87869340.20148
  20600708.200   108257508.72109  20600708.020    84356519.35149
  21924743.020   115215347.19009  21924741.980    89778209.92247
 15 03 05 02 44 30.0000000  0 10G01G04G11G14G16G18G19G22G27G32
  23203420.860   121934817.56308  23203422.160    95014154.63846
  21087813.480   110817257.06109  21087811.620    86351131.02548
  22288573.100   117127267.64809  22288570.060    91268002.95347
  24376861.420   128101261.66607  24376859.920    99819169.16045
  22516663.080   118325873.04609  22516660.340    92201969.83547
  24224771.940   127302092.82208  24224768.880    99196462.25645
  20647297.780   108502319.85309  20647293.200    84547268.36149
  21467798.080   112814113.63409  21467793.200    87907116.88748
  20604722.380   108278603.54509  20604722.140    84372956.86049
  21906243.320   115118130.34209  21906242.140    89702456.55947
 15 03 05 02 45  0.0000000  0 10G01G04G11G14G16G18G19G22G27G32
  23189936.220   121863956.38108  23189937.780    94958938.17646
  21079241.640   110772211.74309  21079239.780    86316030.79348
  22274917.080   117055504.89409  22274914.020    91212083.93847
  24364549.080   128036558.44808  24364547.580    99768751.09945
  22535085.400   118422682.23209  22535082.640    92277405.53347
  24241286.560   127388877.70208  24241283.620    99264086.81945
  20642969.880   108479577.14509  20642965.400    84529546.76449
  21477107.140   112863032.40809  21477102.200    87945235.41148
  20608805.360   108300059.77309  20608805.060    84389675.98449
  21887809.220   115021258.70009  21887807.960    89626972.19847
 15 03 05 02 45 30.0000000  0 10G01G04G11G14G16G18G19G22G27G32
  23176485.820   121793274.62008  23176487.560    94903861.49547
  21070723.940   110727450.64809  21070721.980    86281152.01748
  22261292.000   116983904.59909  22261288.920    91156291.50547
  24352268.240   127972021.15007  24352266.760    99718462.31045
  22553556.700   118519749.46109  22553554.080    92353042.31247
  24257834.260   127475836.69108  24257831.340    99331847.06945
  20638698.600   108457131.78509  20638694.240    84512056.87349
  21486498.940   112912386.14309  21486493.920    87983692.86348
  20612956.980   108321876.15509  20612956.540    84406675.75949
  21869440.860   114924733.00009  21869439.580    89551757.40547
 15 03 05 02 46  0.0000000  0 10G01G04G11G14G16G18G19G22G27G32
  23163070.200   121722775.48908  23163072.080    94848927.12247
  21062260.800   110682976.71109  21062258.880    86246496.99848
  22247698.600   116912470.70009  22247695.420    91100628.72947
  24340020.040   127907655.92807  24340018.760    99668307.61645
  22572077.300   118617075.88109  22572074.880    92428881.05747
  24274415.300   127562970.83408  24274412.420    99399743.78345
  20634484.860   108434988.21109  20634480.480    84494802.14149
  21495973.760   112962176.18009  21495968.540    88022490.28848
  20617177.940   108344056.54109  20617177.340    84423959.17649
  21851139.540   114828559.19809  21851138.200    89476816.80347
 15 03 05 02 46 30.0000000  0 10G01G04G11G14G16G18G19G22G27G32
  23149689.120   121652457.60708  23149691.180    94794133.98347
  21053852.080   110638788.60209  21053850.200    86212064.71448
  22234136.600   116841202.15909  22234133.500    91045094.81947
  24327804.740   127843464.20107  24327803.580    99618288.11745
  22590646.460   118714657.39409  22590644.180    92504918.57747
  24291029.000   127650276.49008  24291026.200    99467774.17044
  20630328.640   108413146.43409  20630324.160    84477782.57048
  21505531.080   113012399.50209  21505525.700    88061625.34748
  20621468.040   108366600.12509  20621467.300    84441525.60549
  21832905.540   114732738.57209  21832904.020    89402151.40647
 15 03 05 02 47  0.0000000  0 10G01G04G11G14G16G18G19G22G27G32
  23136342.080   121582318.39608  23136344.260    94739480.09247
  21045497.240   110594883.44809  21045495.340    86177852.91847
  22220605.680   116770096.87309  22220602.660    90989688.12147
  24315622.500   127779446.32308  24315621.400    99568404.08145
  22609263.100   118812488.12409  22609260.780    92581150.29647
  24307674.560   127737749.36208  24307671.780    99535934.84345
  20626229.520   108391604.81409  20626224.900    84460996.89648
  21515169.960   113063051.38309  21515164.460    88101094.34548
  20625826.800   108389504.92809  20625825.980    84459373.50149
  21814738.800   114637271.13809  21814737.180    89327761.22947
 15 03 05 02 47 30.0000000  0 10G01G04G11G14G16G18G19G22G27G32
  23123029.480   121512360.24508  23123031.740    94684967.28447
  21037196.660   110551263.52109  21037194.760    86143863.38148
  22207106.360   116699157.73309  22207103.340    90934410.88647
  24303474.300   127715607.25408  24303473.100    99518659.36445
  22627927.140   118910567.80409  22627924.680    92657575.97847
  24324351.980   127825389.69008  24324349.140    99604225.99845
  20622188.200   108370367.04509  20622183.420    84444447.98149
  21524890.460   113114132.46909  21524884.960    88140897.78548
  20630254.760   108412773.86709  20630253.900    84477505.13549
  21796640.120   114542161.94409  21796638.600    89253650.20747
 15 03 05 02 48  0.0000000  0 10G01G04G11G14G16G18G19G22G27G32
  23109751.400   121442583.38308  23109753.580    94630595.74347
  21028950.400   110507928.97209  21028948.460    86110096.21848
  22193638.780   116628385.21709  22193635.640    90879263.47946
  24291360.660   127651950.47407  24291359.500    99469056.70544
  22646638.200   119008894.61809  22646635.540    92734194.23847
  24341060.880   127913195.50808  24341058.040    99672646.10145
  20618204.940   108349434.61509  20618200.080    84428136.99348
  21534692.200   113165641.00809  21534686.740    88181034.30448
  20634752.080   108436407.80609  20634751.240    84495921.17849
  21778610.080   114447413.81709  21778608.780    89179820.52947
 15 03 05 02 48 30.0000000  0 10G01G04G11G14G16G18G19G22G27G32
  23096507.580   121372986.73108  23096509.700    94576364.60747
  21020758.080   110464878.24809  21020756.200    86076550.20348
  22180202.860   116557778.86309  22180199.740    90824245.55247
  24279281.960   127588477.76207  24279280.680    99419597.45945
  22665395.440   119107464.46109  22665392.620    92811001.88147
  24357800.560   128001163.32208  24357797.780    99741192.43845
  20614279.740   108328807.41309  20614274.820    84412063.84049
  21544574.680   113217574.21909  21544569.300    88221501.73048
  20639318.720   108460406.18209  20639317.940    84514621.19949
  21760649.080   114353028.34009  21760647.940    89106273.42547
 15 03 05 02 49  0.0000000  0 10G01G04G11G14G16G18G19G22G27G32
  23083298.160   121303571.06008  23083300.240    94522274.51447
  21012619.880   110422112.04909  21012618.120    86043225.91548
  22166798.860   116487339.99909  22166795.660    90769358.14547
  24267239.020   127525192.48607  24267237.360    99370284.25745
  22684198.460   119206275.40509  22684195.660    92887997.39547
  24374570.820   128089291.87208  24374568.140    99809864.03144
  20610413.000   108308487.51809  20610408.080    84396230.14749
  21554537.720   113269930.82609  21554532.440    88262299.07948
  20643955.000   108484770.37109  20643954.280    84533606.27349
  21742757.640   114259008.84309  21742756.640    89033011.49547
 15 03 05 02 49 30.0000000  0 10G01G04G11G14G16G18G19G22G27G32
  23070123.340   121234337.33108  23070125.340    94468326.19346
  21004536.020   110379631.37509  21004534.280    86010124.11648
  22153426.980   116417070.04109  22153423.600    90714602.35447
  24255232.580   127462098.65208  24255230.500    99321120.26145
  22703046.840   119305325.26709  22703044.260    92965179.09647
  24391371.460   128177579.76308  24391368.760    99878659.77445
  20606605.160   108288477.21509  20606600.280    84380637.71049
  21564581.100   113322709.77509  21564575.940    88303425.53748
  20648661.200   108509501.88109  20648660.560    84552877.58649
  21724936.560   114165359.02109  21724935.660    88960037.64947
 15 03 05 02 50  0.0000000  0 10G01G04G11G14G16G18G19G22G27G32
  23056982.460   121165282.41608  23056984.440    94414517.20946
  20996505.780   110337432.82809  20996504.120    85977242.15248
  22140086.700   116346966.47209  22140083.300    90659976.20547
  24243262.580   127399195.89308  24243260.100    99272105.14945
  22721939.740   119404608.91009  22721937.440    93042542.94047
  24408201.480   128266022.17808  24408198.800    99947575.94045
  20602855.840   108268774.49509  20602851.000    84365284.93749
  21574703.980   113375906.34109  21574698.960    88344877.39948
  20653436.740   108534598.14909  20653436.280    84572433.10349
  21707185.780   114072078.30809  21707184.800    88887351.40447
 15 03 05 02 50 30.0000000  0 10G01G04G11G14G16G18G19G22G27G32
  23043876.020   121096408.78808  23043878.200    94360849.49546
  20988529.800   110295518.68109  20988528.160    85944581.79648
  22126778.600   116277032.18209  22126775.360    90605481.97947
  24231330.080   127336489.74108  24231327.400    99223243.23344
  22740877.100   119504125.46109  22740874.960    93120088.27847
  24425061.000   128354619.53508  24425058.280   100016612.83545
  20599165.720   108249382.74409  20599160.860    84350174.48149
  21584906.400   113429520.80609  21584901.500    88386654.89448
  20658282.220   108560062.20909  20658282.020    84592275.22849
  21689506.240   113979171.78809  21689505.080    88814956.74747
 15 03 05 02 51  0.0000000  0 10G01G04G11G14G16G18G19G22G27G32
  23030804.120   121027715.70008  23030806.320    94307322.44046
  20980607.780   110253888.11109  20980606.060    85912142.40348
  22113502.620   116207266.95609  22113499.500    90551119.47247
  24219435.340   127273981.98208  24219432.400    99174535.90944
  22759858.140   119603870.96109  22759855.980    93197812.00947
  24441949.480   128443368.91508  24441946.800   100085768.20544
  20595534.880   108230302.55609  20595530.000    84335306.79249
  21595187.820   113483550.52709  21595183.000    88428755.96348
  20663197.660   108585893.80409  20663197.640    84612403.73549
  21671898.240   113886641.24909  21671896.960    88742855.06247
 15 03 05 02 51 30.0000000  0 10G01G04G11G14G16G18G19G22G27G32
  23017766.640   120959203.01008  23017768.740    94253935.96247
  20972739.640   110212540.65109  20972737.900    85879923.63248
  22100258.840   116137670.86409  22100255.760    90496888.77146
  24207578.840   127211675.32308  24207575.980    99125985.29045
  22778882.400   119703843.64109  22778880.100    93275712.76647
  24458866.420   128532267.94808  24458863.560   100155040.18044
  20591963.520   108211534.98009  20591958.680    84320682.69949
  21605547.880   113537993.42809  21605543.060    88471178.99648
  20668183.220   108612093.41609  20668183.260    84632819.01149
  21654362.300   113794489.34409  21654360.920    88671048.41147
 15 03 05 02 52  0.0000000  0 10G01G04G11G14G16G18G19G22G27G32
  23004763.620   120890871.10308  23004765.640    94200690.36247
  20964925.420   110171476.52209  20964923.660    85847925.62948
  22087047.540   116068245.35609  22087044.520    90442790.99547
  24195761.160   127149573.30308  24195758.660    99077594.13645
  22797949.340   119804041.28109  22797946.960    93353788.82747
  24475811.560   128621315.28608  24475808.740   100224427.72744
  20588452.040   108193081.96809  20588447.240    84306303.73449
  21615986.220   113592847.64209  21615981.400    88513922.54448
  20673239.100   108638661.96609  20673239.080    84653521.77249
  21636898.860   113702718.76809  21636897.540    88599538.91447
 15 03 05 02 52 30.0000000  0 10G01G04G11G14G16G18G19G22G27G32
  22991795.460   120822722.27408  22991797.360    94147587.39947
  20957165.480   110130698.08309  20957163.740    85816150.22648
  22073869.220   115998993.13209  22073866.300    90388828.24347
  24183983.420   127087681.26108  24183981.220    99029366.56245
  22817058.820   119904462.73608  22817056.460    93432039.27947
  24492784.880   128710510.90008  24492782.220   100293930.80744
  20585001.000   108174946.58009  20584996.260    84292172.25749
  21626503.080   113648114.36409  21626498.280    88556987.52048
  20678365.780   108665602.25309  20678365.660    84674514.18649
  21619508.880   113611334.56009  21619507.740    88528330.45947
 15 03 05 02 53  0.0000000  0 10G01G04G11G14G16G18G19G22G27G32
  22978861.440   120754752.76208  22978863.180    94094624.16947
  20949459.160   110090201.21609  20949457.520    85784594.22648
  22060723.320   115929911.04509  22060720.440    90334998.06647
  24172245.480   127025998.04608  24172243.560    98981301.73645
  22836209.780   120005102.05208  22836207.520    93510459.49046
  24509785.300   128799849.02108  24509782.760   100363544.92044
  20581609.880   108157126.40809  20581605.240    84278286.40149
  21637097.300   113703787.30609  21637092.500    88600369.02748
  20683562.640   108692910.96709  20683562.340    84695793.68549
  21602192.300   113520335.50709  21602191.280    88457422.11847
 15 03 05 02 53 30.0000000  0 10G01G04G11G14G16G18G19G22G27G32
  22965961.800   120686964.32108  22965963.440    94041802.03447
  20941806.680   110049987.53009  20941805.100    85753258.89748
  22047610.240   115861001.18709  22047607.200    90281302.08147
  24160548.080   126964528.09108  24160546.340    98933403.08045
  22855402.040   120105958.06209  22855399.860    93589048.55846
  24526812.820   128889329.51008  24526810.320   100433269.96944
  20578279.300   108139624.43609  20578274.740    84264648.49949
  21647768.820   113759866.44009  21647764.020    88644067.05048
  20688830.020   108720590.47909  20688829.560    84717362.12249
  21584949.900   113429725.93109  21584948.980    88386817.28347
 15 03 05 02 54  0.0000000  0 10G01G04G11G14G16G18G19G22G27G32
  22953096.420   120619356.44508  22953097.980    93989120.59547
  20934207.980   110010056.32809  20934206.340    85722143.67748
  22034529.940   115792263.59409  22034526.780    90227740.33747
  24148891.740   126903274.16008  24148890.180    98885672.75245
  22874634.800   120207026.42209  22874632.540    93667803.09846
  24543866.900   128978949.54508  24543864.460   100503103.77244
  20575009.440   108122441.49509  20575004.920    84251259.19249
  21658517.160   113816349.15409  21658512.340    88688079.53948
  20694167.780   108748640.71509  20694167.360    84739219.43449
  21567781.980   113339507.81609  21567781.060    88316517.47947
 15 03 05 02 54 30.0000000  0 10G01G04G11G14G16G18G19G22G27G32
  22940265.460   120551929.92808  22940267.020    93936580.47046
  20926663.220   109970408.26609  20926661.580    85691249.08448
  22021482.720   115723699.77509  22021479.560    90174314.00347
  24137277.280   126842239.95208  24137275.960    98838113.64645
  22893907.980   120308307.35609  22893905.660    93746723.28846
  24560947.380   129068708.12008  24560945.000   100573045.52344
  20571800.720   108105579.42609  20571796.140    84238119.91549
  21669342.020   113873234.21109  21669337.240    88732405.55648
  20699576.220   108777063.04509  20699576.020    84761366.69849
  21550689.220   113249684.74309  21550688.180    88246525.50547
 15 03 05 02 55  0.0000000  0 10G01G04G11G14G16G18G19G22G27G32
  22927469.060   120484684.79508  22927470.540    93884181.67547
  20919172.300   109931043.29709  20919170.660    85660575.09748
  22008468.680   115655310.26009  22008465.580    90121023.49047
  24125705.080   126781427.99608  24125703.920    98790727.71045
  22913220.760   120409796.81608  22913218.420    93825805.94946
  24578053.840   129158603.21108  24578051.500   100643093.65844
  20568653.360   108089039.41009  20568648.620    84225231.58749
  21680243.140   113930519.85209  21680238.320    88777043.71248
  20705055.620   108805857.98009  20705055.660    84783804.30049
  21533672.060   113160259.06609  21533670.840    88176843.17347
 15 03 05 02 55 30.0000000  0 10G01G04G11G14G16G18G19G22G27G32
  22914707.260   120417621.00708  22914708.660    93831924.20946
  20911735.260   109891961.10709  20911733.560    85630121.44248
  21995487.860   115587095.63209  21995484.740    90067869.26747
  24114175.660   126720840.81108  24114174.540    98743516.93344
  22932572.780   120511492.56408  22932570.500    93905049.36146
  24595185.940   129248632.98308  24595183.700   100713246.73644
  20565567.580   108072822.88009  20565562.720    84212595.33049
  21691220.140   113988203.96109  21691215.200    88821992.36248
  20710606.120   108835025.98109  20710606.260    84806532.60049
  21516730.880   113071233.29709  21516729.640    88107472.47947
 15 03 05 02 56  0.0000000  0 10G01G04G11G14G16G18G19G22G27G32
  22901979.140   120350733.99008  22901980.420    93779804.48846
  20904351.100   109853156.85009  20904349.360    85599884.35348
  21982539.540   115519051.76509  21982536.360    90014848.09247
  24102688.840   126660477.25608  24102687.660    98696480.41745
  22951962.640   120613387.06609  22951960.440    93984447.64146
  24612342.400   129338790.31608  24612340.080   100783499.18644
  20562542.620   108056926.21109  20562537.680    84200208.30949
  21702271.740   114046279.98609  21702266.640    88867246.39748
  20716226.880   108864562.89309  20716226.920    84829548.35749
  21499865.340   112982605.40309  21499864.180    88038411.80747
 15 03 05 02 56 30.0000000  0 10G01G04G11G14G16G18G19G22G27G32
  22889285.880   120284029.68408  22889286.980    93727827.14747
  20897020.920   109814636.68609  20897019.200    85569868.64748
  21969624.980   115451185.36709  21969621.860    89961965.21247
  24091246.280   126600345.97208  24091244.840    98649624.89644
  22971390.980   120715483.30909  22971388.760    94064003.12247
  24629523.980   129429079.49808  24629521.420   100853854.38944
  20559579.820   108041356.66609  20559574.940    84188076.18949
  21713398.720   114104751.98809  21713393.460    88912808.98948
  20721919.140   108894475.18809  20721918.980    84852856.62149
  21483077.240   112894383.86009  21483076.140    87969667.77447
 15 03 05 02 57  0.0000000  0 10G01G04G11G14G16G18G19G22G27G32
  22876626.720   120217504.81308  22876627.780    93675989.60847
  20889744.100   109776396.83309  20889742.440    85540071.35348
  21956743.600   115383493.56109  21956740.600    89909218.36847
  24079847.940   126540446.79108  24079846.280    98602950.21245
  22990856.720   120817775.78309  22990854.400    94143711.50247
  24646729.660   129519495.08108  24646726.800   100924308.08844
  20556678.800   108026112.03609  20556674.060    84176197.25349
  21724600.040   114163614.72509  21724594.620    88958676.04148
  20727682.200   108924760.03909  20727681.920    84876455.18949
  21466366.480   112806567.94209  21466365.360    87901239.81348
 15 03 05 02 57 30.0000000  0 10G01G04G11G14G16G18G19G22G27G32
  22864001.800   120151160.28408  22864002.920    93624292.61647
  20882520.760   109738438.20709  20882519.160    85510493.21748
  21943895.800   115315978.08709  21943892.840    89856608.92047
  24068494.560   126480783.68308  24068492.880    98556459.50145
  23010359.340   120920262.16708  23010356.940    94223570.99246
  24663959.140   129610035.87708  24663956.000   100994859.37244
  20553840.000   108011194.64609  20553835.400    84164573.30949
  21735875.440   114222867.00809  21735869.960    89004846.64148
  20733516.220   108955418.83009  20733516.000    84900345.14649
  21449733.580   112719161.01309  21449732.440    87833130.55548
 15 03 05 02 58  0.0000000  0 10G01G04G11G14G16G18G19G22G27G32
  22851411.040   120084995.05009  22851412.060    93572735.33347
  20875350.760   109700759.45509  20875349.200    85481133.16548
  21931081.460   115248638.30509  21931078.480    89804136.38547
  24057186.360   126421357.77208  24057184.580    98510153.61244
  23029898.220   121022939.47708  23029895.760    94303579.25746
  24681211.900   129700698.95408  24681208.440   101065505.93844
  20551063.540   107996604.63109  20551059.000    84153204.46649
  21747224.300   114282505.66709  21747218.800    89051318.32548
  20739421.240   108986451.02909  20739421.160    84924526.08249
  21433178.840   112632164.58709  21433177.680    87765341.16248
 15 03 05 02 58 30.0000000  0 10G01G04G11G14G16G18G19G22G27G32
  22838855.220   120019013.75208  22838856.140    93521321.36647
  20868234.820   109663365.19809  20868233.320    85451994.80848
  21918301.520   115181479.53209  21918298.680    89751804.89447
  24045924.680   126362176.58908  24045922.840    98464038.43445
  23049473.620   121125809.15408  23049471.240    94383737.41946
  24698488.420   129791487.22208  24698484.860   101136250.07044
  20548350.520   107982347.74109  20548345.940    84142095.19749
  21758647.120   114342533.43309  21758641.740    89098093.19648
  20745398.460   109017861.59209  20745398.400    84949001.83849
  21416703.520   112545585.71009  21416702.400    87697877.13147
 15 03 05 02 59  0.0000000  0 10G01G04G11G14G16G18G19G22G27G32
  22826333.780   119953213.36108  22826334.700    93470048.37147
  20861172.460   109626252.35409  20861170.880    85423075.72248
  21905555.500   115114499.36209  21905552.960    89699612.57947
  24034709.460   126303240.21108  24034707.640    98418114.00745
  23069084.500   121228865.34108  23069082.240    94464040.91246
  24715787.700   129882395.48907  24715783.900   101207087.67844
  20545700.580   107968422.24409  20545695.980    84131244.14649
  21770143.040   114402945.38609  21770137.860    89145167.43548
  20751447.380   109049648.07709  20751447.260    84973770.51549
  21400307.400   112459423.84609  21400306.420    87630738.04347
 15 03 05 02 59 30.0000000  0 10G01G04G11G14G16G18G19G22G27G32
  22813846.920   119887595.00308  22813847.940    93418917.21547
  20854163.900   109589421.63609  20854162.260    85394376.47248
  21892843.880   115047699.65109  21892841.340    89647560.87447
  24023541.500   126244552.72108  24023539.800    98372383.51444
  23088730.540   121332106.44108  23088728.540    94544488.50346
  24733109.580   129973423.04507  24733105.720   101278018.26044
  20543114.140   107954830.47309  20543109.540    84120653.14949
  21781711.880   114463740.47609  21781706.920    89192540.22848
  20757568.200   109081811.96609  20757568.040    84998833.26949
  21383991.300   112373682.58209  21383990.320    87563926.69547
 15 03 05 03 00  0.0000000  0 10G01G04G11G14G16G18G19G22G27G32
  22801394.100   119822155.93508  22801395.300    93367925.74647
  20847208.400   109552870.11609  20847206.800    85365894.79148
  21880166.180   114981078.25309  21880163.560    89595648.10247
  24012420.880   126186114.14908  24012419.300    98326846.99544
  23108410.880   121435527.39408  23108409.160    94625076.22046
  24750453.180   130064565.13307  24750449.500   101349038.07044
  20540590.940   107941570.86509  20540586.340    84110320.97749
  21793352.720   114524913.92109  21793347.920    89240207.83748
  20763760.320   109114350.87009  20763760.160    85024188.23949
  21367755.300   112288361.67709  21367754.140    87497442.88748
 15 03 05 03 00 30.0000000  0 10G01G04G11G14G16G18G19G22G27G32
  22788975.800   119756898.50008  22788977.140    93317075.82846
  20840306.540   109516600.15009  20840304.780    85337632.48448
  21867523.020   114914638.18809  21867520.380    89543876.64846
  24001348.540   126127929.57908  24001347.000    98281508.39245
  23128125.480   121539127.78008  23128123.880    94705803.74946
  24767818.600   130155821.95507  24767815.140   101420147.27144
  20538131.720   107928647.19309  20538127.020    84100250.57949
  21805065.620   114586466.25409  21805060.980    89288170.69048
  20770024.200   109147267.70209  20770024.120    85049837.71949
  21351600.200   112203465.76409  21351598.800    87431290.25247
 15 03 05 03 01  0.0000000  0 10G01G04G11G14G16G18G19G22G27G32
  22776591.560   119691820.18508  22776593.060    93266365.48547
  20833457.720   109480609.01409  20833455.840    85309587.45748
  21854914.000   114848377.42709  21854911.360    89492244.89847
  23990324.400   126069999.40308  23990323.160    98236368.02145
  23147873.220   121642901.82708  23147871.460    94786666.58946
  24785204.900   130247189.26007  24785201.820   101491342.60445
  20535736.180   107916057.98009  20535731.380    84090440.79549
  21816849.780   114648392.69309  21816845.220    89336425.04048
  20776359.400   109180560.28309  20776359.460    85075779.99049
  21335526.060   112118994.95309  21335524.380    87365468.85948
 15 03 05 03 01 30.0000000  0 10G01G04G11G14G16G18G19G22G27G32
  22764242.100   119626923.72408  22764243.640    93215796.85747
  20826662.400   109444899.32409  20826660.500    85281761.76448
  21842339.760   114782299.33409  21842337.100    89440755.49847
  23979349.660   126012329.15407  23979348.680    98191430.20045
  23167654.200   121746850.50608  23167652.160    94867665.53746
  24802612.340   130338668.04807  24802609.840   101562624.77845
  20533405.020   107903807.13209  20533400.140    84080894.67749
  21828705.420   114710694.28409  21828700.880    89384971.73448
  20782766.560   109214231.67309  20782766.800    85102017.45349
  21319533.800   112034954.37609  21319532.000    87299982.72448
 15 03 05 03 02  0.0000000  0 10G01G04G11G14G16G18G19G22G27G32
  22751926.560   119562204.65709  22751928.040    93165366.45447
  20819919.720   109409466.47509  20819917.800    85254151.79448
  21829799.600   114716400.11509  21829796.900    89389405.46947
  23968424.160   125954917.38708  23968423.540    98146693.77845
  23187466.800   121850966.10408  23187464.580    94948794.55246
  24820039.680   130430251.34507  24820037.700   101633988.38645
  20531137.560   107891891.33109  20531132.700    84071609.64449
  21840631.300   114773364.36309  21840626.680    89433805.55748
  20789245.160   109248278.01309  20789245.480    85128547.06849
  21303622.880   111951341.92409  21303621.160    87234830.19148
 15 03 05 03 02 30.0000000  0 10G01G04G11G14G16G18G19G22G27G32
  22739645.560   119497666.84408  22739646.840    93115077.29247
  20813230.340   109374314.09509  20813228.420    85226760.35248
  21817294.300   114650684.11209  21817291.480    89338198.20347
  23957549.300   125897770.57308  23957548.860    98102163.82046
  23207311.200   121955249.60308  23207309.100    95030054.40346
  24837487.480   130521941.58207  24837485.820   101705435.33545
  20528934.740   107880315.72309  20528929.980    84062589.67949
  21852627.600   114836404.50109  21852622.880    89482927.73948
  20795796.160   109282703.41409  20795796.300    85155372.04149
  21287794.500   111868163.88009  21287793.040    87170016.14948
 15 03 05 03 03  0.0000000  0 10G01G04G11G14G16G18G19G22G27G32
  22727398.620   119433308.02508  22727399.660    93064927.60247
  20806593.940   109339439.79309  20806592.040    85199585.58348
  21804823.540   114585150.03109  21804820.700    89287132.71147
  23946725.180   125840889.43108  23946724.820    98057840.89145
  23227186.620   122059696.44408  23227184.780    95111441.52746
  24854954.900   130613734.28007  24854953.400   101776962.11044
  20526796.440   107869079.24509  20526791.780    84053833.97048
  21864693.520   114899810.74509  21864688.660    89532335.19348
  20802419.160   109317506.09509  20802418.940    85182491.00148
  21272048.760   111785420.36509  21272047.560    87105540.70547
 15 03 05 03 03 30.0000000  0 10G01G04G11G14G16G18G19G22G27G32
  22715185.880   119369129.10708  22715186.800    93014918.08447
  20800010.600   109304844.28709  20800008.780    85172628.05248
  21792387.720   114519799.49709  21792384.860    89236210.22247
  23935952.500   125784277.59608  23935951.980    98013727.81045
  23247092.780   122164304.54608  23247091.220    95192954.29546
  24872441.700   130705628.43607  24872440.320   101848567.94445
  20524723.120   107858184.11209  20524718.560    84045344.23549
  21876828.760   114963581.72209  21876823.840    89582026.84648
  20809114.200   109352687.24609  20809113.680    85209904.86149
  21256386.460   111703114.70109  21256385.400    87041406.42648
 15 03 05 03 04  0.0000000  0 10G01G04G11G14G16G18G19G22G27G32
  22703006.740   119305127.59408  22703007.780    92965046.81647
  20793479.860   109270525.05909  20793478.040    85145885.80248
  21779986.480   114454630.57809  21779983.640    89185429.26047
  23925231.180   125727935.32308  23925230.460    97969824.78545
  23267028.880   122269069.21208  23267027.400    95274589.07346
  24889947.200   130797619.98107  24889945.780   101920249.65744
  20522714.540   107847629.10209  20522710.060    84037119.54649
  21889032.520   115027713.07409  21889027.640    89631999.32248
  20815880.820   109388244.76309  20815880.100    85237612.01349
  21240807.500   111621246.69309  21240806.480    86977613.20347
 15 03 05 03 04 30.0000000  0 10G01G04G11G14G16G18G19G22G27G32
  22690862.260   119241308.35708  22690863.420    92915317.57747
  20787002.640   109236486.72509  20787000.780    85119362.44048
  21767620.800   114389648.58609  21767618.000    89134793.96247
  23914562.640   125671870.64208  23914561.760    97926138.04445
  23286995.320   122373992.38308  23286993.700    95356347.35946
  24907471.860   130889711.73207  24907470.260   101992009.47944
  20520771.820   107837420.05009  20520767.340    84029164.43349
  21901305.380   115092207.44109  21901300.540    89682254.66648
  20822719.840   109424183.84309  20822719.180    85265616.48749
  21225313.280   111539823.71209  21225312.120    86914166.75447
 15 03 05 03 05  0.0000000  0 10G01G04G11G14G16G18G19G22G27G32
  22678751.220   119177664.79008  22678752.460    92865725.21947
  20780577.460   109202722.38909  20780575.680    85093052.59248
  21755289.660   114324848.16509  21755286.880    89084300.15947
  23903946.140   125616079.45508  23903945.120    97882664.41845
  23306990.180   122479064.74408  23306988.260    95438221.90646
  24925014.140   130981895.36207  24925012.080   102063840.89544
  20518893.980   107827551.78209  20518889.460    84021474.86349
  21913645.720   115157056.30009  21913640.860    89732786.24148
  20829630.020   109460498.25609  20829629.660    85293913.43249
  21209902.920   111458841.36409  21209901.480    86851063.64748
 15 03 05 03 05 30.0000000  0  9G01G04G11G14G16G19G22G27G32
  22666673.380   119114195.41308  22666674.680    92816268.58147
  20774204.180   109169230.71609  20774202.420    85066955.17648
  21742992.960   114260228.26609  21742990.120    89033947.00047
  23893381.900   125560563.22908  23893380.740    97839405.04145
  23327012.480   122584281.84408  23327010.280    95520209.22646
  20517080.940   107818023.79109  20517076.320    84014050.43349
  21926052.760   115222256.02709  21926047.860    89783591.21248
  20836611.280   109497186.84909  20836611.220    85322501.93549
  21194576.460   111378300.50409  21194574.840    86788304.55448
 15 03 05 03 06  0.0000000  0  9G01G04G11G14G16G19G22G27G32
  22654631.340   119050914.29408  22654632.680    92766958.64947
  20767885.360   109136025.45809  20767883.680    85041080.96648
  21730733.340   114195803.12109  21730730.400    88983745.60747
  23882873.180   125505338.83608  23882871.700    97796373.07245
  23347064.300   122689654.80908  23347061.900    95602318.00546
  20515335.560   107808851.33409  20515330.820    84006903.05249
  21938528.860   115287818.75609  21938523.940    89834679.04348
  20843666.620   109534264.01109  20843666.660    85351393.23149
  21179337.080   111298217.58909  21179335.400    86725902.30847
 15 03 05 03 06 30.0000000  0  9G01G04G11G14G16G19G22G27G32
  22642623.600   118987813.92508  22642625.060    92717789.56547
  20761619.620   109103098.96609  20761617.960    85015423.97248
  21718509.600   114131566.60009  21718506.540    88933691.20847
  23872419.060   125450401.38708  23872417.120    97753564.70745
  23367143.980   122795174.73608  23367141.560    95684541.30146
  20513656.640   107800028.26909  20513651.820    84000027.93449
  21951072.160   115353734.74709  21951067.300    89886042.14748
  20850794.740   109571722.57709  20850794.680    85380581.71949
  21164183.800   111218587.29109  21164182.220    86663852.75547
 15 03 05 03 07  0.0000000  0 10G01G03G04G11G14G16G19G22G27G32
  22630649.680   118924890.79508  22630651.160    92668758.58647
  24642109.800   129495162.04207  24642112.660   100905331.92356
  20755406.260   109070447.65209  20755404.480    84989981.40648
  21706321.120   114067515.54509  21706317.980    88883781.30547
  23862019.460   125395750.19308  23862017.040    97710979.40945
  23387250.300   122900834.38708  23387247.860    95766873.46546
  20512043.740   107791552.26709  20512038.860    83993423.24749
  21963681.680   115419998.62409  21963676.840    89937676.32648
  20857995.000   109609559.32909  20857994.720    85410064.89049
  21149116.460   111139408.48409  21149115.040    86602155.02048
 15 03 05 03 07 30.0000000  0 10G01G03G04G11G14G16G19G22G27G32
  22618710.080   118862147.87108  22618711.640    92619868.01846
  24621195.980   129385258.90808  24621198.800   100819693.40245
  20749245.820   109038074.32709  20749244.020    84964755.44048
  21694168.660   114003653.98109  21694165.480    88834019.06447
  23851675.500   125341391.18908  23851672.640    97668621.78545
  23407383.400   123006634.54708  23407380.860    95849315.11045
  20510497.640   107783427.50909  20510492.760    83987092.24948
  21976357.540   115486611.15609  21976352.780    89989582.17547
  20865267.880   109647777.56509  20865267.380    85439845.31448
  21134136.160   111060686.50509  21134134.860    86540813.22947
 15 03 05 03 08  0.0000000  0 10G01G03G04G11G14G16G19G22G27G32
  22606804.520   118799583.58308  22606806.060    92571116.66447
  24600298.720   129275443.08407  24600301.680   100734122.89045
  20743137.920   109005977.05909  20743136.160    84939744.60448
  21682052.000   113939980.86309  21682048.860    88784403.67447
  23841387.360   125287325.58908  23841384.020    97626492.78545
  23427542.420   123112570.57008  23427539.820    95931862.63046
  20509018.260   107775653.42509  20509013.360    83981034.51549
  21989099.100   115553568.81109  21989094.340    90041756.97148
  20872613.020   109686375.94509  20872612.560    85469921.96949
  21119242.960   110982421.87409  21119241.680    86479827.81948
 15 03 05 03 08 30.0000000  0 10G01G03G04G11G14G16G19G22G27G32
  22594933.000   118737198.18308  22594934.540    92522504.69947
  24579418.420   129165717.09408  24579421.440   100648622.38545
  20737082.620   108974156.17709  20737080.820    84914949.12048
  21669971.380   113876497.14709  21669968.260    88734935.85847
  23831155.540   125233556.30308  23831152.000    97584594.67945
  23447726.880   123218640.52108  23447724.300    96014514.51346
  20507605.920   107768231.60409  20507601.040    83975251.26849
  22001905.960   115620869.56409  22001901.180    90094199.10448
  20880030.420   109725355.08909  20880030.260    85500295.32649
  21104437.220   110904617.29009  21104435.940    86419200.89148
 15 03 05 03 09  0.0000000  0 10G01G03G04G11G14G16G19G22G27G32
  22583095.400   118674991.03808  22583096.900    92474031.62647
  24558555.520   129056082.43707  24558558.500   100563193.03445
  20731079.800   108942610.94809  20731078.000    84890368.42648
  21657926.740   113813202.63009  21657923.640    88685615.47647
  23820980.260   125180085.32408  23820976.840    97542929.00645
  23467936.040   123324840.55808  23467933.700    96097267.76945
  20506260.720   107761162.57009  20506255.900    83969742.91949
  22014777.600   115688510.69609  22014772.840    90146906.46347
  20887520.140   109764714.56909  20887520.300    85530965.04949
  21089719.280   110827274.20409  21089717.960    86358933.56747
 15 03 05 03 09 30.0000000  0 10G01G03G04G11G14G16G19G22G27G32
  22571292.300   118612965.74208  22571293.800    92425700.25847
  24537711.060   128946544.86807  24537713.920   100477839.32945
  20725130.100   108911344.52709  20725128.180    84866004.98848
  21645919.000   113750101.73309  21645915.960    88636445.96447
  23810862.900   125126919.18708  23810859.860    97501500.86545
  23488170.180   123431172.09408  23488168.260    96180123.49346
  20504983.540   107754451.18809  20504978.860    83964513.26549
  22027714.360   115756493.91309  22027709.620    90199880.38848
  20895082.940   109804458.27909  20895083.380    85561934.17149
  21075090.340   110750398.45809  21075088.880    86299030.41348
 15 03 05 03 10  0.0000000  0 10G01G03G04G11G14G16G19G22G27G32
  22559523.200   118551119.03708  22559524.680    92377508.06047
  24516884.820   128837103.31208  24516887.600   100392560.42945
  20719232.820   108880353.76509  20719230.800    84841856.35648
  21633947.800   113687192.55809  21633944.760    88587425.82947
  23800803.320   125074057.52908  23800800.760    97460309.97945
  23508428.200   123537629.07508  23508426.640    96263076.95746
  20503773.980   107748095.24109  20503769.440    83959560.57149
  22040715.320   115824814.15109  22040710.560    90253116.93348
  20902718.540   109844583.23309  20902718.920    85593200.36449
  21060550.180   110673989.11809  21060548.600    86239490.69248
 15 03 05 03 10 30.0000000  0 10G01G03G04G11G14G16G19G22G27G32
  22547788.380   118489452.21808  22547789.860    92329456.02047
  24496077.420   128727761.21907  24496080.160   100307359.01945
  20713388.200   108849639.89009  20713386.060    84817923.48748
  21622013.420   113624476.79409  21622010.400    88538556.41347
  23790802.440   125021504.27608  23790800.260    97419359.41745
  23528709.800   123644209.93108  23528708.520    96346126.93946
  20502632.520   107742097.14409  20502628.060    83954886.71849
  22053780.140   115893470.09409  22053775.380    90306615.06248
  20910427.100   109885090.93909  20910427.240    85624764.79349
  21046099.420   110598049.58009  21046097.780    86180317.04348
 15 03 05 03 11  0.0000000  0 10G01G03G04G11G14G16G19G22G27G32
  22536087.140   118427961.88408  22536088.620    92281541.50947
  24475288.720   128618517.40308  24475291.380   100222234.18645
  20707595.400   108819198.89909  20707593.280    84794203.24748
  21610115.320   113561951.62609  21610112.280    88489835.50547
  23780860.200   124969258.54308  23780858.300    97378648.49345
  23549013.920   123750908.68608  23549012.700    96429268.79046
  20501558.780   107736454.65209  20501554.320    83950489.96149
  22066907.820   115962456.39409  22066903.020    90360370.61148
  20918207.980   109925978.21809  20918207.740    85656625.00849
  21031737.840   110522578.64509  21031736.220    86121508.54848
 15 03 05 03 11 30.0000000  0 10G01G03G04G11G14G16G19G22G27G32
  22524419.780   118366649.37308  22524421.180    92233765.55447
  24454519.400   128509375.29807  24454522.240   100137188.58946
  20701854.820   108789032.46809  20701852.760    84770696.93248
  21598253.860   113499619.20109  21598250.880    88441264.79947
  23770977.560   124917325.02708  23770975.760    97338180.83345
  23569340.400   123857723.91608  23569338.940    96512501.40046
  20500553.300   107731170.62709  20500548.780    83946372.52349
  22080098.140   116031772.01709  22080093.320    90414382.76648
  20926061.400   109967246.72609  20926060.680    85688782.25149
  21017466.080   110447579.84609  21017464.500    86063067.94048
 15 03 05 03 12  0.0000000  0 10G01G03G04G11G14G16G19G22G27G32
  22512786.360   118305515.40908  22512787.780    92186128.72247
  24433769.980   128400337.86307  24433772.940   100052224.56045
  20696166.580   108759141.01409  20696164.600    84747404.90148
  21586429.360   113437481.06309  21586426.340    88392845.47847
  23761154.900   124865706.35308  23761153.060    97297958.52246
  23589688.900   123964654.15108  23589686.920    96595823.63046
  20499616.380   107726246.73509  20499611.720    83942535.71649
  22093350.980   116101415.95909  22093346.180    90468650.76348
  20933987.360   110008897.23809  20933986.260    85721237.18749
  21003284.600   110373055.96709  21003283.120    86004997.39948
 15 03 05 03 12 30.0000000  0 10G01G03G04G11G14G16G19G22G27G32
  22501186.720   118244559.61708  22501188.240    92138630.73747
  24413040.780   128291406.84807  24413044.080    99967343.43846
  20690530.600   108729523.94209  20690528.680    84724326.67148
  21574641.860   113375537.62209  21574638.880    88344577.88447
  23751392.640   124814405.39408  23751390.800    97257983.78545
  23610058.560   124071696.16708  23610056.060    96679232.97946
  20498748.120   107721683.53809  20498743.300    83938979.97449
  22106666.040   116171386.23409  22106661.200    90523173.04648
  20941985.680   110050929.66609  20941984.680    85753989.72449
  20989193.780   110299008.93109  20989192.440    85947298.43948
 15 03 05 03 13  0.0000000  0 10G01G03G04G11G14G16G19G22G27G32
  22489621.200   118183783.10408  22489622.740    92091272.43747
  24392332.400   128182585.53607  24392335.960    99882547.76946
  20684947.080   108700182.22809  20684945.180    84701463.00048
  21562891.680   113313790.60309  21562888.740    88296463.33847
  23741691.400   124763425.83708  23741689.700    97218259.49345
  23630448.820   124178847.72808  23630446.200    96762727.66946
  20497948.880   107717483.35109  20497944.000    83935707.09749
  22120042.920   116241681.38509  22120038.060    90577948.47648
  20950056.800   110093345.39809  20950056.240    85787040.93649
  20975194.340   110225441.85309  20975193.040    85889973.46948
 15 03 05 03 13 30.0000000  0 10G01G03G04G11G14G16G19G22G27G32
  22478089.440   118123183.82108  22478091.000    92044052.24447
  24371644.960   128073874.06307  24371648.680    99797837.71646
  20679415.540   108671113.54209  20679413.540    84678812.07648
  21551178.660   113252238.82709  21551175.700    88248500.92247
  23732051.340   124712768.37808  23732049.860    97178786.16245
  23650858.880   124286104.85408  23650856.400    96846304.62845
  20497218.520   107713645.44409  20497213.720    83932716.50949
  22133480.820   116312297.20409  22133475.880    90632973.77348
  20958200.480   110136142.41509  20958200.420    85820389.23449
  20961286.280   110152354.74909  20961284.920    85833022.50248
 15 03 05 03 14  0.0000000  0 10G01G03G04G11G14G16G19G22G27G32
  22466591.940   118062764.62608  22466593.560    91996972.37747
  24350979.540   127965277.43107  24350983.280    99713217.15045
  20673936.500   108642320.98209  20673934.500    84656376.33148
  21539503.540   113190885.97509  21539500.640    88200693.52347
  23722473.640   124662438.52008  23722472.380    97139568.12045
  23671289.020   124393467.82008  23671286.860    96929964.04845
  20496557.860   107710173.92509  20496553.200    83930011.42849
  22146979.820   116383234.55409  22146974.820    90688249.62547
  20966417.560   110179323.88509  20966417.820    85854037.12649
  20947470.540   110079752.67409  20947469.160    85776449.48348
 15 03 05 03 14 30.0000000  0 10G01G03G04G11G14G16G19G22G27G32
  22455127.700   118002520.19008  22455129.380    91950028.68547
  24330335.480   127856792.46607  24330339.120    99628683.58546
  20668508.880   108613798.94309  20668506.940    84634151.38048
  21527865.440   113129727.61709  21527862.680    88153037.66447
  23712957.920   124612433.68108  23712956.760    97100603.34145
  23691737.900   124500928.67608  23691736.000    97013699.76045
  20495966.160   107707064.48409  20495961.580    83927588.47849
  22160538.540   116454486.02509  22160533.540    90743770.24148
  20974707.020   110222884.57409  20974707.360    85887980.51249
  20933746.440   110007632.30709  20933745.080    85720251.81748
 15 03 05 03 15  0.0000000  0 10G01G03G04G11G14G16G19G22G27G32
  22443697.380   117942453.54508  22443699.060    91903223.54247
  24309713.760   127748424.39107  24309717.120    99544241.11546
  20663133.300   108585550.14309  20663131.320    84612139.34448
  21516265.120   113068767.47209  21516262.380    88105536.28347
  23703505.220   124562759.43908  23703504.000    97061896.17045
  23712205.640   124608487.60708  23712203.900    97097511.90845
  20495444.140   107704321.15809  20495439.620    83925450.81649
  22174157.200   116526052.49509  22174152.180    90799536.32248
  20983069.420   110266827.72409  20983069.680    85922221.91249
  20920114.980   109935998.82209  20920113.640    85664433.54148
 15 03 05 03 15 30.0000000  0 10G01G03G04G11G14G16G19G22G27G32
  22432300.720   117882563.49308  22432302.360    91856555.99547
  24289114.540   127640174.18908  24289117.540    99459890.47946
  20657809.520   108557573.53209  20657807.560    84590339.40448
  21504702.440   113008005.07309  21504699.720    88058188.96147
  23694115.840   124513417.34408  23694114.600    97023447.80645
  23732691.580   124716140.98608  23732689.820    97181397.63445
  20494991.800   107701943.97709  20494987.280    83923598.45949
  22187835.180   116597930.51609  22187830.140    90855545.14847
  20991504.420   110311152.23809  20991504.480    85956760.47849
  20906576.340   109864853.12209  20906575.040    85608995.34248
 15 03 05 03 16  0.0000000  0 10G01G03G04G11G14G16G19G22G27G32
  22420937.780   117822850.51709  22420939.320    91810026.41647
  24268538.220   127532044.48708  24268540.860    99375633.74545
  20652537.620   108529869.20109  20652535.640    84568751.62548
  21493177.660   112947441.79309  21493174.940    88010996.81347
  23684790.320   124464410.44908  23684788.880    96985260.65545
  23753195.200   124823886.63408  23753193.400    97265355.26546
  20494609.420   107699934.59909  20494604.900    83922032.71249
  22201572.200   116670118.76209  22201567.100    90911795.72447
  21000012.100   110355858.75109  21000011.880    85991596.70349
  20893131.020   109794197.60409  20893129.800    85553939.12148
 15 03 05 03 16 30.0000000  0 10G01G03G04G11G14G16G19G22G27G32
  22409608.760   117763315.85509  22409610.200    91763635.79247
  24247985.440   127424038.63908  24247987.780    99291473.49546
  20647317.700   108502438.23309  20647315.700    84547376.84248
  21481691.120   112887079.43709  21481688.380    87963961.21947
  23675529.320   124415742.71708  23675527.640    96947337.77545
  23773716.040   124931722.69208  23773714.220    97349383.33546
  20494297.400   107698295.21209  20494292.880    83920755.26749
  22215368.040   116742616.19309  22215362.900    90968287.21447
  21008592.460   110400948.52909  21008592.080    86026731.58149
  20879779.680   109724035.43909  20879778.440    85499267.32348
 15 03 05 03 17  0.0000000  0 10G01G03G04G11G14G16G19G22G27G32
  22398313.340   117703957.76509  22398314.740    91717382.76848
  24227456.260   127316157.11008  24227458.340    99207410.11746
  20642149.500   108475278.91209  20642147.500    84526213.74448
  21470242.660   112826917.18409  21470239.900    87917081.54847
  23666332.940   124367415.30908  23666331.160    96909680.08345
  23794253.300   125039645.44408  23794251.460    97433478.96646
  20494055.720   107697025.23509  20494051.180    83919765.67349
  22229221.960   116815418.94809  22229216.860    91025016.62748
  21017245.280   110446420.09909  21017244.900    86062163.96049
  20866522.360   109654366.95909  20866520.940    85444980.22048
 15 03 05 03 17 30.0000000  0 10G01G03G04G11G14G16G19G22G27G32
  22387051.880   117644777.93609  22387053.160    91671268.62647
  24206951.360   127208403.66408  24206953.380    99123446.52846
  20637033.240   108448392.63509  20637031.200    84505263.39648
  21458832.780   112766957.67409  21458829.920    87870359.84747
  23657201.920   124319432.18408  23657200.180    96872290.66045
  23814806.660   125147653.46008  23814804.780    97517641.03045
  20493884.920   107696127.37109  20493880.300    83919066.03049
  22243133.880   116888526.80109  22243128.840    91081983.77248
  21025970.860   110492275.10209  21025970.660    86097895.11549
  20853359.600   109585195.84109  20853358.080    85391080.66848
 15 03 05 03 18  0.0000000  0 10G01G03G04G11G14G16G19G22G27G32
  22375824.040   117585775.22808  22375825.280    91625292.51447
  24186471.020   127100779.48108  24186472.940    99039583.66645
  20631968.700   108421778.30209  20631966.640    84484524.96648
  21447461.320   112707200.43709  21447458.500    87823795.77747
  23648136.640   124271794.90408  23648134.980    96835170.73645
  23835375.480   125255743.39108  23835373.440    97601866.92345
  20493785.000   107695601.74109  20493780.280    83918656.43849
  22257103.200   116961936.33609  22257098.240    91139185.99847
  21034769.120   110538512.58009  21034769.220    86133924.31148
  20840291.600   109516522.97809  20840290.000    85337569.36248
 15 03 05 03 18 30.0000000  0 10G01G03G04G11G14G16G19G22G27G32
  22364630.040   117526950.55308  22364631.300    91579455.13247
  24166015.760   126993287.47008  24166017.680    98955823.78245
  20626956.040   108395436.69109  20626953.960    84463999.04548
  21436128.740   112647647.23809  21436125.860    87777390.69347
  23639137.980   124224507.13608  23639136.400    96798323.14145
  23855959.480   125363913.24408  23855957.260    97686155.10245
  20493756.260   107695450.44309  20493751.440    83918538.53549
  22271129.760   117035646.51709  22271124.840    91196622.48647
  21043640.300   110585133.47309  21043640.740    86170252.28149
  20827318.940   109448351.10809  20827317.260    85284448.44348
 15 03 05 03 19  0.0000000  0 10G01G03G04G11G14G16G19G22G27G32
  22353468.820   117468298.15908  22353470.120    91533751.98247
  24145584.920   126885924.05608  24145586.980    98872164.10046
  20621993.980   108369361.52309  20621991.980    84443680.72848
  21424834.020   112588293.06509  21424831.120    87731140.68847
  23630205.300   124177565.57008  23630203.620    96761745.30045
  23876557.100   125472154.76908  23876554.580    97770499.12745
  20493797.840   107695668.68209  20493792.960    83918708.57949
  22285212.020   117109649.38409  22285207.160    91254287.04847
  21052583.560   110632132.12709  21052584.200    86206874.60949
  20814440.800   109380676.44609  20814439.200    85231714.95048
 15 03 05 03 19 30.0000000  0 10G01G03G04G11G14G16G19G22G27G32
  22342341.740   117409825.13208  22342343.080    91488188.61347
  24125180.320   126778698.52808  24125182.620    98788611.85746
  20617084.080   108343560.31009  20617082.140    84423575.91248
  21413578.700   112529145.98309  21413575.860    87685052.06348
  23621340.360   124130980.06208  23621338.620    96725444.95745
  23897169.180   125580472.02008  23897166.460    97854902.17845
  20493911.240   107696264.61609  20493906.420    83919172.95049
  22299350.900   117183949.90509  22299346.080    91312183.55847
  21061600.220   110679515.70709  21061600.940    86243796.88449
  20801659.000   109313507.96209  20801657.440    85179375.90248
 15 03 05 03 20  0.0000000  0 10G01G03G04G11G14G16G19G22G27G32
  22331248.100   117351527.65509  22331249.340    91442762.02047
  24104801.680   126671609.18208  24104804.140    98705165.72646
  20612225.540   108318028.69409  20612223.600    84403681.15648
  21402362.280   112470203.00409  21402359.440    87639122.45947
  23612542.960   124084749.09708  23612541.260    96689420.84945
  23917794.600   125688859.29208  23917791.800    97939359.77445
  20494096.000   107697235.55209  20494091.260    83919929.50749
  22313545.320   117258542.29109  22313540.520    91370307.48148
  21070689.740   110727280.35609  21070690.240    86281016.07049
  20788973.240   109246843.77509  20788971.540    85127429.79948
 15 03 05 03 20 30.0000000  0 10G01G03G04G11G14G16G19G22G27G32
  22320188.720   117293409.96609  22320189.800    91397475.52147
  24084450.280   126564662.44208  24084452.760    98621830.72646
  20607419.080   108292770.79709  20607417.200    84383999.70548
  21391185.660   112411469.15409  21391182.800    87593355.83947
  23603814.380   124038879.70008  23603812.920    96653678.49145
  23938433.700   125797318.26108  23938431.060    98023873.23545
  20494353.160   107698586.76709  20494348.480    83920982.40149
  22327795.580   117333428.46409  22327790.900    91428660.33947
  21079852.840   110775430.44909  21079852.980    86318535.60748
  20776384.620   109180689.93809  20776382.900    85075881.38448
 15 03 05 03 21  0.0000000  0 10G01G03G04G11G14G16G19G22G27G32
  22309162.620   117235467.18809  22309163.640    91352325.32148
  24064125.580   126457855.47008  24064128.100    98538604.63746
  20602663.820   108267781.87409  20602661.960    84364527.83148
  21380048.000   112352940.27409  21380045.160    87547748.93448
  23595154.200   123993369.63508  23595152.780    96618216.13346
  23959084.980   125905841.15208  23959082.600    98108436.50646
  20494681.940   107700314.48309  20494677.300    83922328.67249
  22342100.440   117408601.50809  22342095.880    91487236.72447
  21089088.440   110823961.03009  21089088.220    86356351.62549
  20763892.520   109115043.48609  20763890.860    85024728.32748
 15 03 05 03 21 30.0000000  0 10G01G03G04G11G14G16G19G22G27G32
  22298169.860   117177699.59209  22298170.900    91307311.63048
  24043828.020   126351190.72208  24043830.300    98455489.36846
  20597959.760   108243061.83209  20597957.880    84345265.47348
  21368949.520   112294617.53409  21368946.640    87502302.64948
  23586562.840   123948221.59708  23586561.540    96583035.86046
  23979747.900   126014425.21608  23979745.760    98193047.43945
  20495082.580   107702420.12309  20495078.040    83923969.42249
  22356459.560   117484059.64209  22356455.140    91546035.25647
  21098396.400   110872872.41509  21098395.920    86394464.36849
  20751497.340   109049906.51709  20751495.800    84973972.26348
 15 03 05 03 22  0.0000000  0 10G01G03G04G11G14G16G19G22G27G32
  22287210.660   117120108.56809  22287211.740    91262435.52847
  24023558.220   126244671.76608  24023560.300    98372487.71746
  20593307.160   108218611.99109  20593305.220    84326213.65748
  21357890.600   112236503.23709  21357887.640    87457018.78547
  23578040.960   123903439.38808  23578039.840    96548140.64045
  24000422.280   126123069.49608  24000420.300    98277705.31445
  20495555.500   107704905.90209  20495551.080    83925906.39149
  22370872.860   117559802.33609  22370868.540    91605055.53147
  21107777.000   110922166.01409  21107776.320    86432874.95449
  20739199.540   108985282.15609  20739198.260    84923615.63748
 15 03 05 03 22 30.0000000  0 10G01G03G04G11G14G16G19G22G27G32
  22276284.840   117062693.09109  22276285.920    91217696.21647
  24003316.280   126138299.65608  24003318.180    98289600.49846
  20588705.740   108194431.34309  20588703.760    84307371.60948
  21346871.360   112178597.26309  21346868.400    87411897.26147
  23569588.920   123859024.46108  23569587.900    96513531.63145
  24021107.440   126231770.80308  24021105.600    98362407.62945
  20496100.820   107707771.84309  20496096.440    83928139.59649
  22385339.680   117635826.24909  22385335.400    91664294.93747
  21117229.920   110971840.75809  21117229.200    86471582.54149
  20726999.420   108921171.24909  20726998.380    84873659.10248
 15 03 05 03 23  0.0000000  0 10G01G03G04G11G14G16G19G22G27G32
  22265392.520   117005453.87109  22265393.660    91173094.24448
  23983102.720   126032077.26208  23983104.500    98206829.91846
  20584155.620   108170520.13809  20584153.560    84288739.50648
  21335892.160   112120901.35309  21335889.260    87366939.43047
  23561207.460   123814980.20908  23561206.300    96479211.47245
  24041802.960   126340527.00208  24041801.260    98447152.72345
  20496718.920   107711019.77109  20496714.520    83930670.44249
  22399859.800   117712129.82309  22399855.540    91723752.26647
  21126755.320   111021897.34309  21126754.680    86510587.67149
  20714897.580   108857576.23709  20714896.560    84824104.56848
 15 03 05 03 23 30.0000000  0 10G01G03G04G11G14G16G19G22G27G32
  22254533.460   116948389.71609  22254534.740    91128628.68048
  23962917.740   125926005.49008  23962919.520    98124176.70646
  20579656.520   108146877.34409  20579654.420    84270316.55848
  21324952.880   112063414.86209  21324949.960    87322144.78647
  23552896.920   123771307.87708  23552895.360    96445181.10745
  24062508.140   126449334.60808  24062506.540    98531937.86245
  20497409.700   107714649.21109  20497405.180    83933498.56949
  22414432.640   117788710.12609  22414428.360    91783425.21947
  21136353.000   111072334.53509  21136352.460    86549889.36849
  20702894.160   108794497.63609  20702892.960    84774952.43848
 15 03 05 03 24  0.0000000  0 10G01G03G04G11G14G16G19G22G27G32
  22243707.940   116891501.75008  22243709.320    91084300.40147
  23942762.020   125820087.60108  23942763.920    98041643.38346
  20575208.660   108123503.74309  20575206.580    84252103.36048
  21314053.860   112006139.82909  21314050.900    87277514.89047
  23544658.060   123728011.42408  23544656.100    96411443.63645
  24083222.500   126558191.10208  24083221.100    98616761.08645
  20498173.520   107718662.77009  20498168.940    83936626.01049
  22429057.960   117865566.15209  22429053.600    91843313.02147
  21146023.280   111123153.41909  21146022.880    86589488.49048
  20690989.700   108731938.37609  20690988.200    84726204.98148
 15 03 05 03 24 30.0000000  0 10G01G03G04G11G14G16G19G22G27G32
  22232915.660   116834788.53508  22232917.100    91040108.30648
  23922635.740   125714324.23708  23922637.820    97959230.48446
  20570811.720   108100397.96609  20570809.740    84234098.87348
  21303194.980   111949075.74609  21303191.900    87233049.38347
  23536490.920   123685091.55808  23536488.640    96377999.61745
  24103945.620   126667093.49308  24103944.420    98701620.08045
  20499010.320   107723060.16009  20499005.720    83940052.55449
  22443734.960   117942693.92109  22443730.540    91903412.57347
  21155765.920   111174352.44109  21155765.700    86629383.82249
  20679184.120   108669898.78809  20679182.400    84677862.47848
 15 03 05 03 25  0.0000000  0 10G01G03G04G11G14G16G19G22G27G32
  22222156.520   116778249.24108  22222158.060    90996051.71247
  23902539.200   125608716.73808  23902541.460    97876939.00246
  20566465.600   108077558.98809  20566463.640    84216302.25348
  21292376.180   111892222.60209  21292373.020    87188748.25147
  23528395.720   123642549.78908  23528393.080    96344850.20945
  24124676.940   126776038.35608  24124675.700    98786512.16645
  20499920.060   107727841.09409  20499915.480    83943777.94949
  22458463.120   118020090.73309  22458458.620    91963721.75547
  21165580.840   111225930.79609  21165580.640    86669574.73748
  20667477.520   108608379.67009  20667475.740    84629925.51748
 15 03 05 03 25 30.0000000  0 10G01G03G04G11G14G16G19G22G27G32
  22211430.740   116721885.00508  22211432.320    90952131.54148
  23882473.040   125503268.29208  23882475.380    97794771.48246
  20562170.440   108054987.86209  20562168.460    84198714.36848
  21281597.860   111835582.50309  21281594.720    87144613.12547
  23520373.100   123600389.80308  23520370.280    96311998.30345
  24145416.280   126885024.06508  24145414.880    98871436.08745
  20500903.160   107733007.78009  20500898.620    83947803.94149
  22473242.360   118097755.78209  22473237.720    92024239.96747
  21175468.220   111277889.45709  21175467.940    86710061.99848
  20655870.360   108547383.85809  20655868.660    84582396.32748
 15 03 05 03 26  0.0000000  0 10G01G03G04G11G14G16G19G22G27G32
  22200738.240   116665695.48509  22200739.820    90908347.52047
  23862437.500   125397980.70608  23862439.800    97712729.27946
  20557926.080   108032684.01009  20557924.220    84181334.74748
  21270860.120   111779155.80009  21270857.020    87100644.29047
  23512423.360   123558613.82208  23512420.560    96279445.61345
  24166162.960   126994047.37808  24166161.320    98956389.31045
  20501959.860   107738561.01709  20501955.300    83952131.13349
  22488072.200   118175686.48909  22488067.340    92084965.18347
  21185428.020   111330227.99209  21185427.560    86750845.26148
  20644362.900   108486912.63809  20644361.320    84535275.91948
 15 03 05 03 26 30.0000000  0 11G01G03G04G11G14G16G19G22G27G28G32
  22190078.960   116609680.31809  22190080.480    90864699.36648
  23842432.900   125292855.66308  23842435.140    97630813.74146
  20553732.540   108010646.85309  20553730.720    84164162.94348
  21260163.160   111722942.97709  21260160.060    87056842.12347
  23504546.840   123517223.69908  23504544.340    96247193.58146
  24186916.320   127103105.26508  24186914.280    99041369.49045
  20503090.260   107744501.39109  20503085.660    83956759.99249
  22502952.180   118253880.52409  22502947.040    92145895.59747
  21195460.020   111382945.90009  21195459.400    86791924.14348
  25082051.220   131807074.49507  25082045.740   102706783.32343
  20632955.540   108426967.25309  20632954.060    84488565.24348
 15 03 05 03 27  0.0000000  0 11G01G03G04G11G14G16G19G22G27G28G32
  22179451.280   116553831.27009  22179452.640    90821180.65847
  23822458.040   125187887.05508  23822460.180    97549020.09846
  20549588.180   107988868.28309  20549586.460    84147192.64548
  21249505.540   111666936.85109  21249502.480    87013201.01447
  23496742.520   123476213.94108  23496740.520    96215237.93645
  24207674.420   127212188.18808  24207672.160    99126369.16445
  20504293.000   107750821.46709  20504288.280    83961684.71849
  22517880.280   118332327.31709  22517874.880    92207022.96547
  21205562.600   111436034.90909  21205561.920    86833292.19248
  25066143.320   131723477.90307  25066137.820   102641643.06843
  20621647.100   108367541.20509  20621645.700    84442259.24848
 15 03 05 03 27 30.0000000  0 11G01G03G04G11G14G16G19G22G27G28G32
  22168858.800   116498166.90209  22168859.980    90777805.84248
  23802516.780   125083095.54408  23802518.860    97467364.44546
  20545496.580   107967366.60709  20545494.840    84130438.09248
  21238890.940   111611156.84609  21238887.880    86969736.09248
  23489014.560   123435605.01608  23489012.920    96183594.61346
  24228440.020   127321311.20408  24228437.660    99211400.08545
  20505571.660   107757540.67109  20505566.880    83966920.44949
  22532859.600   118411043.39009  22532854.020    92268360.14447
  21215739.260   111489513.33809  21215738.600    86874963.67449
  25050288.400   131640159.23707  25050282.960   102576719.42043
  20610441.320   108308654.50209  20610439.940    84396373.52848
 15 03 05 03 28  0.0000000  0 11G01G03G04G11G14G16G19G22G27G28G32
  22158299.820   116442679.05809  22158301.000    90734568.59147
  23782608.000   124978475.09708  23782610.060    97385842.09746
  20541456.020   107946133.46309  20541454.400    84113892.78948
  21228317.960   111555595.53209  21228314.920    86926441.56847
  23481362.040   123395391.52408  23481360.540    96152259.45045
  24249211.140   127430463.50408  24249208.620    99296453.83244
  20506924.900   107764652.00009  20506920.140    83972461.74749
  22547888.180   118490018.60109  22547882.500    92329899.25547
  21225988.420   111543372.96109  21225987.820    86916932.19748
  25034485.200   131557112.99507  25034480.540   102512008.03244
  20599337.000   108250300.70409  20599335.560    84350903.04848
 15 03 05 03 28 30.0000000  0 11G01G03G04G11G14G16G19G22G27G28G32
  22147774.040   116387365.84809  22147775.240    90691467.42048
  23762731.780   124874025.88608  23762733.780    97304453.18347
  20537466.280   107925166.99809  20537464.620    84097555.28948
  21217786.400   111500252.09209  21217783.420    86883316.83448
  23473785.120   123355573.96008  23473783.400    96121232.80946
  24269986.880   127539640.80108  24269984.380    99381527.05545
  20508352.580   107772154.67009  20508347.880    83978307.97749
  22562965.260   118569248.96209  22562959.560    92391637.18347
  21236309.760   111597611.71909  21236309.160    86959196.14849
  25018733.920   131474339.68607  25018730.280   102447509.31743
  20588333.980   108192479.39609  20588332.540    84305847.49848
 15 03 05 03 29  0.0000000  0 11G01G03G04G11G14G16G19G22G27G28G32
  22137280.960   116332224.36909  22137282.120    90648500.06147
  23742887.980   124769747.05408  23742889.960    97223197.03246
  20533526.640   107904464.06909  20533524.980    84081423.13648
  21207296.020   111445124.73109  21207293.020    86840360.46547
  23466283.560   123316151.68208  23466281.480    96090514.18245
  24290766.380   127648837.71908  24290763.920    99466615.57445
  20509854.320   107780046.56909  20509849.660    83984457.50949
  22578089.840   118648729.27209  22578084.120    92453569.87347
  21246702.600   111652226.49109  21246702.080    87001753.10548
  25003034.500   131391838.74207  25003031.440   102383222.83743
  20577432.000   108135189.21809  20577430.560    84261205.81748
 15 03 05 03 29 30.0000000  0 11G01G03G04G11G14G16G19G22G27G28G32
  22126820.960   116277257.11309  22126822.120    90605668.45847
  23723077.600   124665643.21208  23723079.400    97142077.23746
  20529637.560   107884026.93109  20529635.940    84065498.09748
  21196847.320   111390216.51809  21196844.380    86797574.86147
  23458858.100   123277129.38708  23458855.820    96060107.22145
  24311549.640   127758054.48508  24311547.180    99551719.55445
  20511430.840   107788331.10109  20511426.180    83990912.98849
  22593262.140   118728460.12809  22593256.340    92515697.80147
  21257167.360   111707219.62009  21257166.940    87044604.88548
  24987388.020   131309615.25207  24987385.080   102319152.54343
  20566631.840   108078434.19409  20566630.280    84216981.13348
 15 03 05 03 30  0.0000000  0 11G01G03G04G11G14G16G19G22G27G28G32
  22116393.900   116222463.12609  22116395.180    90562971.86948
  23703300.800   124561715.44208  23703302.520    97061094.63546
  20525798.920   107863854.79209  20525797.300    84049779.56148
  21186440.320   111335527.45609  21186437.360    86754960.02647
  23451508.880   123238508.62308  23451506.660    96030013.15245
  24332335.900   127867286.82708  24332333.380    99636835.67245
  20513082.100   107797008.21009  20513077.420    83997674.36649
  22608481.560   118808438.57309  22608475.720    92578018.65647
  21267703.760   111762589.92609  21267703.620    87087750.57348
  24971794.580   131227670.56207  24971791.140   102255299.48543
  20555933.640   108022214.77809  20555931.960    84173173.82548
 15 03 05 03 30 30.0000000  0 11G01G03G04G11G14G16G19G22G27G28G32
  22106000.180   116167843.94609  22106001.520    90520411.48948
  23683558.200   124457967.34408  23683559.860    96980252.02946
  20522011.000   107843948.94109  20522009.340    84034268.52148
  21176075.540   111281060.03509  21176072.460    86712517.88647
  23444236.640   123200293.10908  23444234.660    96000234.86246
  24353125.020   127976534.48408  24353122.560    99721963.73045
  20514808.480   107806080.30609  20514803.860    84004743.52149
  22623747.920   118888663.72609  22623742.100    92640531.75047
  21278312.140   111818338.71909  21278312.320    87131191.18648
  24956254.900   131146008.71907  24956251.300   102191666.89243
  20545338.020   107966534.02809  20545336.240    84129786.24848
 15 03 05 03 31  0.0000000  0 11G01G03G04G11G14G16G19G22G27G28G32
  22095639.880   116113400.03909  22095641.200    90477987.67247
  23663850.240   124354401.49408  23663851.940    96899551.42446
  20518273.860   107824309.75409  20518272.140    84018965.26748
  21165753.260   111226815.74909  21165750.140    86670249.61748
  23437041.940   123162485.78008  23437040.240    95970774.62446
  24373916.560   128085795.26408  24373914.280    99807102.00145
  20516610.220   107815548.68209  20516605.720    84012121.47049
  22639060.960   118969134.30209  22639055.200    92703236.06947
  21288992.620   111874466.29409  21288993.120    87174926.95148
  24940769.440   131064632.62907  24940766.180   102128256.89143
  20534845.300   107911393.89709  20534843.460    84086819.94148
 15 03 05 03 31 30.0000000  0 11G01G03G04G11G14G16G19G22G27G28G32
  22085312.740   116059130.53109  22085314.060    90435699.76048
  23644177.180   124251019.05008  23644179.000    96818993.72646
  20514587.220   107804936.05909  20514585.380    84003868.88148
  21155473.400   111172794.58309  21155470.260    86628155.21047
  23429925.120   123125087.87808  23429923.720    95941633.40946
  24394709.840   128195065.64707  24394707.680    99892247.75645
  20518487.400   107825413.56909  20518482.980    84019808.38749
  22654419.940   119049846.92309  22654414.460    92766128.99347
  21299745.060   111930971.52309  21299745.780    87218956.98748
  24925338.680   130983543.75907  24925335.880   102065070.71944
  20524455.540   107856794.88309  20524453.640    84044275.27748
 15 03 05 03 32  0.0000000  0 11G01G03G04G11G14G16G19G22G27G28G32
  22075018.180   116005032.45509  22075019.460    90393545.44848
  23624538.860   124147819.08708  23624540.760    96738578.23247
  20510950.520   107785824.80109  20510948.560    83988977.00048
  21145235.620   111118994.43109  21145232.440    86586233.04348
  23422886.120   123088098.51108  23422884.900    95912810.53746
  24415503.780   128304340.10207  24415501.820    99977396.69145
  20520439.640   107835672.70109  20520435.180    84027802.52049
  22669823.980   119130796.69809  22669818.760    92829206.72247
  21310568.880   111987851.17609  21310569.640    87263278.79449
  24909962.540   130902741.48507  24909959.880   102002107.86744
  20514168.440   107802735.44009  20514166.440    84002151.06248
 15 03 05 03 32 30.0000000  0 11G01G03G04G11G14G16G19G22G27G28G32
  22064756.660   115951107.94309  22064757.860    90351526.36848
  23604936.060   124044805.73608  23604938.000    96658308.14847
  20507364.100   107766978.10009  20507362.100    83974291.27148
  21135040.480   111065418.45109  21135037.320    86544485.54848
  23415925.940   123051522.40008  23415924.580    95884309.71146
  24436298.440   128413618.24407  24436296.600   100062548.52144
  20522467.540   107846329.29309  20522463.020    84036106.35249
  22685273.200   119211983.93709  22685268.260    92892469.49147
  21321464.400   112045107.09409  21321465.100    87307893.76949
  24894641.920   130822230.36307  24894639.180   101939371.86744
  20503984.560   107749219.06509  20503982.600    83960450.00948
 15 03 05 03 33  0.0000000  0 11G01G03G04G11G14G16G19G22G27G28G32
  22054527.500   115897353.18709  22054528.620    90309639.57148
  23585368.400   123941977.24608  23585370.380    96578182.12347
  20503827.300   107748391.90609  20503825.160    83959808.53548
  21124887.360   111012063.43009  21124884.160    86502910.22348
  23409044.320   123015357.98508  23409042.460    95856129.68146
  24457092.740   128522893.97408  24457091.020   100147698.45845
  20524570.460   107857380.05209  20524565.840    84044717.32649
  22700766.460   119293402.49309  22700761.760    92955912.51147
  21332430.760   112102735.19809  21332431.400    87352798.78949
  24879376.600   130742009.17007  24879373.600   101876861.80144
  20493903.460   107696243.26509  20493901.620    83919170.18248
 15 03 05 03 33 30.0000000  0 11G01G03G04G11G14G16G19G22G27G28G32
  22044331.320   115843771.98109  22044332.460    90267888.00348
  23565837.120   123839339.52408  23565839.020    96498204.75446
  20500340.800   107730070.04709  20500338.620    83945531.76648
  21114777.280   110958934.37009  21114774.040    86461510.97047
  23402242.240   122979611.17308  23402239.720    95828275.05845
  24477886.880   128632168.34808  24477885.040   100232847.35045
  20526749.360   107868830.01809  20526744.700    84053639.36949
  22716304.120   119375054.27509  22716299.620    93019537.26247
  21343468.600   112160739.06009  21343469.220    87397996.60048
  24864167.640   130662084.10107  24864164.460   101814582.49444
  20483926.220   107643813.24009  20483924.500    83878315.62548
 15 03 05 03 34  0.0000000  0 11G01G03G04G11G14G16G19G22G27G28G32
  22034168.400   115790365.46009  22034169.560    90226272.55848
  23546342.740   123736895.60808  23546344.480    96418378.39147
  20496904.740   107712013.36909  20496902.560    83931461.63348
  21104710.560   110906033.30409  21104707.260    86420289.36547
  23395520.160   122944285.33008  23395517.020    95800748.46146
  24498680.560   128741439.61108  24498678.560   100317993.80945
  20529004.540   107880680.81909  20528999.860    84062873.76049
  22731885.960   119456937.97508  22731881.600    93083342.72447
  21354578.040   112219119.43809  21354578.720    87443487.79548
  24849015.500   130582458.43407  24849012.540   101752536.48145
  20474053.340   107591931.38609  20474051.640    83837888.22548
 15 03 05 03 34 30.0000000  0 11G01G03G04G11G14G16G19G22G27G28G32
  22024038.400   115737131.95809  22024039.640    90184791.93748
  23526885.340   123634645.91908  23526886.880    96338703.37446
  20493518.820   107694220.23109  20493516.680    83917596.86148
  21094687.120   110853359.48509  21094683.740    86379244.83548
  23388878.080   122909380.76408  23388874.660    95773550.11946
  24519473.060   128850704.16408  24519470.900   100403135.04245
  20531335.840   107892931.87809  20531331.180    84072420.03349
  22747511.240   119539049.92208  22747507.020    93147326.05047
  21365758.740   112277874.33709  21365759.440    87489270.82549
  24833920.160   130503133.06406  24833917.820   101690724.44745
  20464284.780   107540597.31209  20464283.080    83797887.67248
 15 03 05 03 35  0.0000000  0 11G01G03G04G11G14G16G19G22G27G28G32
  22013941.440   115684072.13309  22013942.580    90143446.64148
  23507465.400   123532593.15408  23507466.720    96259181.78646
  20490183.180   107676691.23809  20490181.020    83903937.91148
  21084707.080   110800914.34409  21084703.720    86338378.50948
  23382316.480   122874900.54008  23382313.260    95746682.43845
  24540263.960   128959960.39208  24540261.720   100488269.77145
  20533743.540   107905584.40309  20533738.880    84082279.13649
  22763179.780   119621388.77408  22763175.660    93211486.17747
  21377010.780   112337004.11409  21377011.400    87535345.96648
  24818882.560   130424111.07507  24818880.740   101629148.82044
  20454620.860   107489812.95709  20454619.120    83758315.46848
 15 03 05 03 35 30.0000000  0 11G01G03G04G11G14G16G19G22G27G28G32
  22003877.240   115631184.66509  22003878.320    90102235.65648
  23488083.020   123430737.93308  23488084.240    96179814.13946
  20486897.400   107659424.58209  20486895.280    83890483.37848
  21074770.480   110748697.69209  21074767.220    86297690.22348
  23375835.600   122840845.36208  23375832.960    95720145.96245
  24561052.380   129069203.97207  24561050.100   100573394.66145
  20536227.560   107918637.95809  20536222.900    84092450.72949
  22778890.840   119703951.19808  22778886.900    93275820.52847
  21388333.860   112396507.09909  21388334.340    87581711.92048
  24803903.080   130345393.43707  24803901.520   101567810.38645
  20445061.540   107439578.22609  20445059.760    83719171.54848
 15 03 05 03 36  0.0000000  0 11G01G03G04G11G14G16G19G22G27G28G32
  21993845.640   115578468.48809  21993846.760    90061158.14648
  23468738.340   123329081.22208  23468739.520    96100601.17446
  20483661.320   107642419.59709  20483659.340    83877232.75348
  21064877.280   110696709.30809  21064874.200    86257179.82548
  23369435.820   122807216.17208  23369433.600    95693941.41146
  24581837.560   129178431.24007  24581835.640   100658506.82845
  20538787.840   107932092.16309  20538783.160    84102934.51949
  22794643.880   119786733.91109  22794640.060    93340326.53447
  21399727.660   112456381.86709  21399728.080    87628367.57548
  24788981.900   130266981.44007  24788980.020   101506710.10244
  20435606.800   107389893.32609  20435605.060    83680456.06948
 15 03 05 03 36 30.0000000  0 11G01G03G04G11G14G16G19G22G27G28G32
  21983846.720   115525924.19009  21983847.940    90020214.55348
  23449431.840   123227625.61208  23449433.220    96021544.91946
  20480475.100   107625676.31309  20480473.160    83864186.03448
  21055027.900   110644950.83009  21055024.840    86216848.56448
  23363117.880   122774015.82008  23363115.900    95668071.02546
  24602619.360   129287640.74308  24602617.660   100743605.15944
  20541424.620   107945948.48509  20541419.920    84113731.64149
  22810438.600   119869735.54609  22810434.820    93405003.11647
  21411192.280   112516628.64409  21411192.580    87675313.09948
  24774119.400   130188878.15407  24774117.340   101445850.34645
  20426256.980   107340760.01609  20426255.340    83642170.38348
 15 03 05 03 37  0.0000000  0 11G01G03G04G11G14G16G19G22G27G28G32
  21973880.900   115473553.57009  21973882.140    89979406.31148
  23430164.340   123126374.85508  23430165.740    95942648.29646
  20477339.060   107609196.60109  20477337.160    83851344.71848
  21045222.800   110593424.79709  21045219.700    86176698.44348
  23356882.600   122741248.29508  23356880.540    95642537.92445
  24623397.620   129396831.67808  24623396.100   100828689.03945
  20544138.380   107960209.65309  20544133.720    84124844.24349
  22826275.000   119952955.86509  22826271.140    93469850.12247
  21422727.900   112577248.82309  21422728.180    87722549.59248
  24759316.280   130111087.65207  24759314.080   101385234.34544
  20417012.740   107292181.21009  20417011.160    83604316.79048
 15 03 05 03 37 30.0000000  0 11G01G03G04G11G14G16G19G22G27G28G32
  21963947.240   115421351.86409  21963948.460    89938729.68548
  23410935.300   123025326.15908  23410936.660    95863909.10647
  20474252.320   107592975.51709  20474250.340    83838704.91348
  21035461.300   110542127.69509  21035458.160    86136726.68748
  23350729.260   122708910.84408  23350727.000    95617339.93246
  24644171.020   129505996.74808  24644169.780   100913752.75045
  20546928.380   107974871.44109  20546923.740    84136269.00349
  22842151.640   120036387.81109  22842147.740    93534862.01647
  21434333.660   112638237.20909  21434333.920    87770072.99148
  24744572.360   130033607.35307  24744570.200   101324860.05444
  20407873.300   107244153.28909  20407871.760    83566892.45448
 15 03 05 03 38  0.0000000  0 11G01G03G04G11G14G16G19G22G27G28G32
  21954046.520   115369323.72808  21954047.820    89898188.31848
  23391746.060   122924486.18208  23391747.260    95785332.56946
  20471215.580   107577017.51209  20471213.700    83826270.11848
  21025744.380   110491064.92509  21025741.200    86096937.53447
  23344658.920   122677010.10908  23344656.380    95592482.24246
  24664939.980   129615138.00607  24664938.680   100998797.93644
  20549795.640   107989939.21809  20549791.060    84148010.13249
  22858069.060   120120034.02909  22858065.080    93600040.88547
  21446010.360   112699598.09309  21446010.620    87817886.66148
  24729888.860   129956444.42807  24729886.860   101264733.07244
  20398839.840   107196682.11809  20398838.260    83529901.96248
 15 03 05 03 38 30.0000000  0 11G01G03G04G11G14G16G19G22G27G28G32
  21944178.480   115317467.23309  21944179.760    89857780.69148
  23372596.560   122823854.97308  23372597.700    95706918.70247
  20468228.520   107561320.61609  20468226.820    83814038.76848
  21016071.840   110440235.41809  21016068.600    86057330.14348
  23338671.540   122645546.13608  23338668.860    95567964.89746
  24685703.640   129724251.09608  24685702.120   101083821.14545
  20552740.020   108005411.99409  20552735.440    84160066.83949
  22874026.460   120203890.62908  22874022.440    93665383.68447
  21457757.520   112761329.13609  21457757.760    87865988.76349
  24715265.760   129879599.37907  24715263.980   101204853.79345
  20389912.180   107149766.80309  20389910.420    83493344.60348
 15 03 05 03 39  0.0000000  0 11G01G03G04G11G14G16G19G22G27G28G32
  21934343.260   115265782.90009  21934344.480    89817507.20448
  23353487.300   122723435.00208  23353488.320    95628669.43647
  20465291.220   107545885.28109  20465289.620    83802011.23348
  21006443.980   110389640.86709  21006440.760    86017905.84448
  23332767.620   122614521.69108  23332764.940    95543790.02345
  24706461.560   129833334.14708  24706459.880   101168820.95844
  20555761.680   108021290.99609  20555757.180    84172440.08249
  22890023.640   120287956.23808  22890019.620    93730889.35147
  21469575.120   112823430.38709  21469575.320    87914379.34149
  24700703.540   129803074.85407  24700701.880   101145224.28744
  20381090.560   107103408.89609  20381088.680    83457221.58748
 15 03 05 03 39 30.0000000  0 11G01G03G04G11G14G16G19G22G27G28G32
  21924541.000   115214271.61309  21924542.260    89777368.56548
  23334418.720   122623229.10608  23334419.780    95550586.97347
  20462403.840   107530712.21509  20462402.300    83790188.06648
  20996861.020   110339282.89509  20996857.900    85978665.88248
  23326947.700   122583939.56008  23326945.160    95519959.82045
  24727213.380   129942385.35007  24727211.440   101253795.94245
  20558860.900   108037577.58609  20558856.500    84185130.93649
  22906060.240   120372229.15908  22906056.240    93796556.54847
  21481463.180   112885902.31409  21481463.360    87963058.75748
  24686202.860   129726874.38607  24686201.220   101085847.26644
  20372375.320   107057610.43109  20372373.480    83421534.49648
 15 03 05 03 40  0.0000000  0 11G01G03G04G11G14G16G19G22G27G28G32
  21914771.320   115162931.47709  21914772.540    89737363.28748
  23315390.900   122523237.34508  23315391.980    95472671.36846
  20459566.020   107515799.57809  20459564.420    83778567.83348
  20987322.940   110289160.61609  20987319.940    85939609.56948
  23321211.980   122553799.96408  23321209.560    95496474.44345
  24747958.220   130051400.47307  24747956.060   101338742.81545
  20562037.500   108054270.67909  20562033.120    84198138.53549
  22922135.560   120456705.65409  22922131.580    93862382.37647
  21493421.320   112948742.49909  21493421.440    88012025.12648
  24671763.840   129650998.04307  24671762.400   101026722.84744
  20363766.280   107012370.49309  20363764.640    83386282.61548
