     2.11           OBSERVATION DATA    G                   RINEX VERSION / TYPE
SPIDER V4,0,0,3554                      2015 03 17 00:01    PGM / RUN BY / DATE 
ABZH                                                        MARKER NAME         
ABZH                                                        MARKER NUMBER       
                                                            OBSERVER / AGENCY   
462405              LEICA GRX1200PRO    8.20/2.127          REC # / TYPE / VERS 
103261              LEIAT504                                ANT # / TYPE        
  5106694.6829   270584.9059  3799508.1083                  APPROX POSITION XYZ 
        0.0770        0.0000        0.0000                  ANTENNA: DELTA H/E/N
     1     1                                                WAVELENGTH FACT L1/2
     4    C1    L1    P2    L2                              # / TYPES OF OBSERV 
    30.000                                                  INTERVAL            
  2015    02    28    00    00    0.0000000     GPS         TIME OF FIRST OBS   
  2015    02    28    23    59   30.0000000     GPS         TIME OF LAST OBS    
    16                                                      LEAP SECONDS        
    30                                                      # OF SATELLITES     
   G 1   819   819   819   819                              PRN / # OF OBS      
   G 2   920   920   917   917                              PRN / # OF OBS      
   G 3   834   834   834   834                              PRN / # OF OBS      
   G 4   833   833   833   833                              PRN / # OF OBS      
   G 5   662   662   662   662                              PRN / # OF OBS      
   G 6   785   785   785   785                              PRN / # OF OBS      
   G 7   651   651   651   651                              PRN / # OF OBS      
   G 9   785   785   785   785                              PRN / # OF OBS      
   G10   770   770   770   770                              PRN / # OF OBS      
   G11   784   784   784   784                              PRN / # OF OBS      
   G12   810   810   808   808                              PRN / # OF OBS      
   G13   807   807   807   807                              PRN / # OF OBS      
   G14   902   902   898   898                              PRN / # OF OBS      
   G15   720   720   720   720                              PRN / # OF OBS      
   G16   678   678   678   678                              PRN / # OF OBS      
   G17   927   927   922   922                              PRN / # OF OBS      
   G18   913   913   913   913                              PRN / # OF OBS      
   G19   768   768   768   768                              PRN / # OF OBS      
   G20   786   786   786   786                              PRN / # OF OBS      
   G21   705   705   705   705                              PRN / # OF OBS      
   G22   759   759   758   758                              PRN / # OF OBS      
   G23   732   732   732   732                              PRN / # OF OBS      
   G24   826   826   826   826                              PRN / # OF OBS      
   G25   831   831   831   831                              PRN / # OF OBS      
   G27   817   817   817   817                              PRN / # OF OBS      
   G28   886   886   882   882                              PRN / # OF OBS      
   G29   746   746   746   746                              PRN / # OF OBS      
   G30   696   696   696   696                              PRN / # OF OBS      
   G31   821   821   821   821                              PRN / # OF OBS      
   G32   746   746   746   746                              PRN / # OF OBS      
BIT 2 OF LLI FLAGS DATA COLLECTED UNDER A/S CONDITION       COMMENT             
SNR is mapped to RINEX snr flag value [2-9]                 COMMENT             
Lx:     = 25dBHz -> 1; 26-27dBHz -> 2; 28-31dBHz -> 3       COMMENT             
       32-35dBHz -> 4; 36-38dBHz -> 5; 39-41dBHz -> 6       COMMENT             
       42-44dBHz -> 7; 45-48dBHz -> 8; >=49dBHz -> 9        COMMENT             
                                                            END OF HEADER       
 15 02 28 00 00  0.0000000  0  7G16G18G21G22G27G29G31
  21543425.560   113211481.90208  21543424.780    88216750.42347
  22737623.420   119487071.07907  22737623.720    93106784.24245
  21318225.280   112028028.28708  21318224.240    87294563.47347
  24064629.120   126460547.79006  24064629.880    98540701.33544
  22721947.940   119404678.83107  22721950.960    93042628.52046
  24074048.500   126509962.04206  24074049.120    98579187.86244
  23019142.900   120966394.19507  23019142.840    94259519.65646
 15 02 28 00 00 30.0000000  0  7G16G18G21G22G27G29G31
  21530617.600   113144175.72508  21530616.840    88164304.06247
  22725829.840   119425095.17207  22725830.200    93058491.36045
  21325404.860   112065757.18708  21325403.740    87323962.62647
  24046799.520   126366853.55306  24046800.120    98467693.15644
  22709618.200   119339885.64907  22709621.240    92992140.35346
  24088659.060   126586740.66906  24088659.760    98639015.35445
  23036881.640   121059612.08707  23036881.580    94332156.92146
 15 02 28 00 01  0.0000000  0  7G16G18G21G22G27G29G31
  21517864.480   113077157.63008  21517863.620    88112082.17247
  22714091.340   119363408.45407  22714091.640    93010423.80445
  21332650.040   112103830.78608  21332648.860    87353630.36647
  24028969.920   126273159.49406  24028970.220    98394685.07944
  22697312.240   119275216.67307  22697315.100    92941748.99546
  24103273.920   126663542.24505  24103274.520    98698860.69145
  23054653.860   121153006.51107  23054654.020    94404931.73245
 15 02 28 00 01 30.0000000  0  7G16G18G21G22G27G29G31
  21505165.520   113010424.30808  21505164.620    88060082.19147
  22702407.300   119302007.74508  22702407.420    92962579.11245
  21339959.460   112142242.13908  21339958.260    87383561.29048
  24011139.940   126179462.82706  24011140.000    98321674.96945
  22685028.860   119210666.70207  22685031.500    92891450.34146
  24117892.120   126740361.33606  24117892.820    98758719.70044
  23072458.260   121246569.24307  23072458.620    94477837.71446
 15 02 28 00 02  0.0000000  0  7G16G18G21G22G27G29G31
  21492521.280   112943978.19909  21492520.360    88008306.00947
  22690778.180   119240895.73708  22690778.040    92914959.38845
  21347332.820   112180989.70408  21347331.580    87413754.20448
  23993309.860   126085766.31706  23993309.800    98248664.97443
  22672768.140   119146235.73707  22672770.660    92841244.42746
  24132513.620   126817197.37506  24132514.260    98818591.94444
  23090294.220   121340297.12607  23090294.620    94550872.37045
 15 02 28 00 02 30.0000000  0  7G16G18G21G22G27G29G31
  21479932.360   112877822.79409  21479931.420    87956756.34247
  22679204.680   119180076.36608  22679204.440    92867567.69745
  21354770.000   112220072.70408  21354768.860    87444208.49448
  23975480.560   125992074.29706  23975480.640    98175658.45745
  22660530.360   119081925.38508  22660532.740    92791132.48546
  24147138.720   126894052.76006  24147139.380    98878479.25744
  23108161.460   121434189.03907  23108161.760    94624034.84745
 15 02 28 00 03  0.0000000  0  7G16G18G21G22G27G29G31
  21467398.760   112811957.90309  21467397.700    87905433.05347
  22667686.780   119119549.24008  22667686.460    92820403.70945
  21362270.320   112259487.25108  21362269.220    87474921.12648
  23957652.040   125898386.56306  23957652.300    98102655.25845
  22648315.120   119017733.13808  22648317.340    92741112.59146
  24161766.960   126970924.15206  24161767.540    98938378.99044
  23126058.940   121528239.28608  23126058.980    94697320.67645
 15 02 28 00 03 30.0000000  0  7G16G18G21G22G27G29G31
  21454920.980   112746386.68708  21454919.840    87854338.60147
  22656225.100   119059317.71108  22656224.680    92773470.08945
  21369833.660   112299232.97108  21369832.620    87505891.81948
  23939825.160   125804706.92206  23939825.520    98029658.36045
  22636122.420   118953660.00907  22636124.720    92691185.51446
  24176398.500   127047812.45206  24176399.220    98998291.94944
  23143986.100   121622445.83207  23143985.900    94770728.31445
 15 02 28 00 04  0.0000000  0  7G16G18G21G22G27G29G31
  21442499.560   112681112.18108  21442498.540    87803475.35847
  22644820.360   118999385.75707  22644820.000    92726769.86945
  21377459.800   112339308.53608  21377458.840    87537119.53248
  23922000.620   125711038.97806  23922000.800    97956670.58344
  22623952.640   118889707.26008  22623954.940    92641352.23646
  24191033.380   127124718.51706  24191034.040    99058218.72044
  23161942.600   121716807.11907  23161942.280    94844256.51745
 15 02 28 00 04 30.0000000  0  7G16G18G21G22G27G29G31
  21430135.100   112616137.28308  21430134.340    87752845.58947
  22633473.020   118939755.85308  22633472.940    92680305.01745
  21385148.680   112379713.64208  21385147.740    87568604.03047
  23904178.860   125617385.86206  23904178.800    97883694.32545
  22611805.940   118825875.47408  22611808.040    92591613.21146
  24205671.620   127201643.05506  24205672.460    99118159.88244
  23179927.780   121811320.39007  23179927.500    94917903.17045
 15 02 28 00 05  0.0000000  0  7G16G18G21G22G27G29G31
  21417828.020   112551463.55908  21417827.380    87702450.48647
  22622183.600   118880429.82108  22622183.700    92634076.96945
  21392899.820   112420445.95808  21392898.900    87600343.49948
  23886360.360   125523749.63306  23886360.180    97810731.21844
  22599682.040   118762164.13908  22599684.180    92541968.04146
  24220313.280   127278585.28006  24220314.220    99178114.86444
  23197941.160   121905982.48907  23197941.120    94991665.77145
 15 02 28 00 05 30.0000000  0  7G16G18G21G22G27G29G31
  21405578.580   112487092.45408  21405578.000    87652291.18347
  22610952.320   118821409.42707  22610952.460    92588087.07045
  21400712.720   112461502.69608  21400711.760    87632335.76548
  23868545.600   125430132.46106  23868545.240    97737782.96344
  22587580.960   118698572.76308  22587583.140    92492416.34046
  24234958.160   127355544.81506  24234959.040    99238083.28344
  23215982.280   122000790.02907  23215982.380    95065541.71345
 15 02 28 00 06  0.0000000  0  7G16G18G21G22G27G29G31
  21393387.240   112423026.66908  21393386.740    87602369.80747
  22599779.860   118762697.79608  22599779.800    92542337.77645
  21408587.160   112502883.04708  21408586.200    87664580.19848
  23850734.920   125336537.54906  23850734.300    97664852.02744
  22575502.860   118635101.93508  22575504.960    92442958.58246
  24249606.420   127432522.05306  24249607.220    99298065.53144
  23234050.700   122095740.44907  23234050.900    95139528.97345
 15 02 28 00 06 30.0000000  0  7G16G18G21G22G27G29G31
  21381254.440   112359267.88409  21381253.860    87552687.63647
  22588666.440   118704296.62608  22588666.300    92496830.38345
  21416522.680   112544584.65508  21416521.780    87697074.96148
  23832928.720   125242966.71306  23832928.080    97591939.87144
  22563447.540   118571751.00808  22563449.740    92393594.25146
  24264257.880   127509516.02206  24264258.460    99358060.81144
  23252145.640   122190829.96307  23252145.840    95213624.63346
 15 02 28 00 07  0.0000000  0  7G16G18G21G22G27G29G31
  21369181.020   112295821.44909  21369180.380    87503248.86847
  22577613.200   118646211.38508  22577612.980    92451569.17645
  21424519.600   112586608.84708  21424518.660    87729821.08347
  23815128.280   125149425.82306  23815127.580    97519051.02444
  22551415.640   118508523.29407  22551417.800    92344325.90246
  24278912.860   127586529.62306  24278913.460    99418071.41343
  23270267.200   122286058.80207  23270267.260    95287828.78845
 15 02 28 00 07 30.0000000  0  7G16G18G21G22G27G29G31
  21357166.320   112232683.54609  21357165.640    87454050.51047
  22566619.320   118588438.10808  22566619.060    92406551.06345
  21432576.440   112628948.16108  21432575.460    87762812.75647
  23797332.820   125055911.36106  23797332.120    97446182.78045
  22539405.980   118445412.83807  22539408.080    92295148.94946
  24293570.640   127663556.89206  24293571.160    99478092.60044
  23288413.660   122381417.69807  23288413.560    95362134.23245
 15 02 28 00 08  0.0000000  0  7G16G18G21G22G27G29G31
  21345211.600   112169860.53209  21345210.840    87405097.51947
  22555686.120   118530983.92508  22555685.840    92361781.60545
  21440693.780   112671605.17108  21440692.760    87796051.99147
  23779544.040   124962430.86406  23779543.040    97373340.97644
  22527419.560   118382424.18507  22527421.620    92246066.90946
  24308231.880   127740602.48605  24308232.560    99538128.11644
  23306585.320   122476908.81007  23306585.000    95436542.78745
 15 02 28 00 08 30.0000000  0  7G16G18G21G22G27G29G31
  21333316.680   112107352.18009  21333315.940    87356389.71847
  22544813.480   118473848.52008  22544813.320    92317260.51645
  21448870.780   112714575.55108  21448869.720    87829535.40247
  23761761.700   124868984.36506  23761760.540    97300525.66744
  22515455.900   118319555.05907  22515458.040    92197078.00446
  24322896.080   127817663.44006  24322896.920    99598175.58644
  23324780.800   122572526.47707  23324780.400    95511049.95545
 15 02 28 00 09  0.0000000  0  7G16G18G21G22G27G29G31
  21321482.480   112045162.77909  21321481.680    87307930.44247
  22534002.460   118417036.25608  22534002.300    92272991.23845
  21457107.480   112757860.00908  21457106.540    87863263.55748
  23743986.580   124775576.25206  23743985.360    97227740.26545
  22503515.280   118256807.34207  22503517.640    92148183.70246
  24337563.660   127894741.83305  24337564.320    99658236.64743
  23343000.160   122668269.90507  23342999.880    95585655.14445
 15 02 28 00 09 30.0000000  0  7G16G18G21G22G27G29G31
  21309709.620   111983295.70609  21309708.740    87259722.33647
  22523253.600   118360550.59208  22523253.500    92228976.45945
  21465403.660   112801457.26008  21465402.880    87897235.43947
  23726219.500   124682210.63806  23726218.440    97154987.97245
  22491598.040   118194182.49307  22491600.560    92099385.13746
  24352234.660   127971839.02605  24352235.280    99718312.36144
  23361243.020   122764137.36407  23361243.020    95660356.96245
 15 02 28 00 10  0.0000000  0  7G16G18G21G22G27G29G31
  21297997.840   111921750.07909  21297996.960    87211764.70847
  22512566.640   118304390.83208  22512566.600    92185215.62845
  21473758.740   112845363.63808  21473758.000    87931448.20847
  23708460.520   124588887.58006  23708459.620    97082268.85044
  22479703.620   118131677.69807  22479706.340    92050680.13446
  24366908.680   128048952.21805  24366909.560    99778400.52144
  23379508.440   122860122.64207  23379508.660    95735150.53345
 15 02 28 00 10 30.0000000  0  7G16G18G21G22G27G29G31
  21286347.860   111860529.28309  21286346.980    87164060.19247
  22501942.360   118248560.41508  22501942.340    92141711.42945
  21482172.420   112889578.00108  21482171.740    87965900.96247
  23690710.400   124495610.38806  23690709.460    97009585.40544
  22467832.300   118069294.06307  22467835.180    92002069.54546
  24381585.720   128126081.97105  24381586.840    99838501.61144
  23397796.040   122956224.18507  23397796.340    95810034.74845
 15 02 28 00 11  0.0000000  0  7G16G18G21G22G27G29G31
  21274759.600   111799633.05209  21274758.760    87116608.59247
  22491380.820   118193059.46308  22491380.860    92098463.96745
  21490643.980   112934096.36308  21490643.320    88000590.59647
  23672969.040   124402379.53206  23672968.160    96936938.13445
  22455983.760   118007029.55508  22455986.600    91953551.76046
  24396265.680   128203226.07305  24396267.060    99898613.83744
  23416104.860   123052436.81107  23416105.180    95885005.50545
 15 02 28 00 11 30.0000000  0  7G16G18G21G22G27G29G31
  21263234.160   111739066.69509  21263233.360    87069414.03247
  22480883.080   118137892.97608  22480883.000    92055477.11045
  21499173.620   112978919.72108  21499172.920    88035517.89147
  23655237.600   124309200.65406  23655236.800    96864331.35345
  22444158.500   117944887.01008  22444161.260    91905129.02946
  24410949.000   128280387.42705  24410950.640    99958739.56845
  23434434.920   123148760.51007  23434435.120    95960062.80645
 15 02 28 00 12  0.0000000  0  7G16G18G21G22G27G29G31
  21251771.380   111678829.45909  21251770.600    87022475.92547
  22470448.840   118083060.31208  22470448.660    92012750.38645
  21507760.540   113024044.18208  21507759.820    88070679.80047
  23637516.200   124216073.61607  23637515.280    96791764.93945
  22432356.060   117882863.95008  22432358.620    91856799.39046
  24425635.240   128357563.32706  24425636.920   100018876.58445
  23452784.960   123245189.49607  23452785.000    96035202.06345
 15 02 28 00 12 30.0000000  0  7G16G18G21G22G27G29G31
  21240372.480   111618927.69609  21240371.700    86975799.23547
  22460079.440   118028568.37108  22460079.260    91970289.14845
  21516405.260   113069472.09608  21516404.440    88106078.17547
  23619806.180   124123005.55907  23619804.780    96719244.46144
  22420577.160   117820964.63508  22420579.480    91808566.16446
  24440324.940   128434757.80905  24440326.800   100079028.09544
  23471155.320   123341725.07307  23471155.180    96110424.45545
 15 02 28 00 13  0.0000000  0  7G16G18G21G22G27G29G31
  21229037.680   111559363.01909  21229036.880    86929385.20847
  22449775.060   117974418.26008  22449774.920    91928094.26845
  21525107.180   113115200.49508  21525106.200    88141710.69947
  23602107.680   124029998.25207  23602105.820    96646771.32544
  22408821.640   117759188.44508  22408823.900    91760428.89346
  24455017.880   128511969.99805  24455019.840   100139193.42544
  23489545.160   123438363.62807  23489544.900    96185727.10445
 15 02 28 00 13 30.0000000  0  7G16G18G21G22G27G29G31
  21217766.840   111500134.64709  21217766.060    86883233.23647
  22439535.600   117920609.64508  22439535.540    91886165.50045
  21533865.540   113161225.76708  21533864.480    88177574.54547
  23584420.740   123937051.84807  23584418.760    96574345.69345
  22397089.060   117697532.86408  22397091.180    91712385.60046
  24469713.840   128589197.47105  24469715.740   100199370.63844
  23507953.200   123535099.61406  23507953.240    96261105.69445
 15 02 28 00 14  0.0000000  0  7G16G18G21G22G27G29G31
  21206560.740   111441246.05709  21206559.900    86837346.02147
  22429361.760   117867146.09108  22429361.700    91844505.61045
  21542680.080   113207546.20308  21542678.920    88213668.39047
  23566746.020   123844170.18107  23566743.940    96501970.46245
  22385379.700   117635999.34108  22385381.660    91664437.42546
  24484412.980   128666441.47905  24484414.640   100259560.77843
  23526379.500   123631931.57707  23526379.920    96336559.04545
 15 02 28 00 14 30.0000000  0  7G16G18G21G22G27G29G31
  21195420.300   111382702.55309  21195419.440    86791727.72048
  22419254.580   117814032.69908  22419254.460    91803118.56845
  21551551.200   113254163.98808  21551549.960    88249993.93947
  23549084.580   123751358.77507  23549082.500    96429649.99845
  22373694.020   117574590.71008  22373695.940    91616586.56246
  24499115.500   128743704.47105  24499117.320   100319765.66444
  23544824.120   123728858.88007  23544824.740    96412086.67345
 15 02 28 00 15  0.0000000  0  7G16G18G21G22G27G29G31
  21184344.960   111324501.24809  21184344.140    86746376.05247
  22409213.540   117761266.61508  22409213.320    91762002.14345
  21560477.620   113301072.20308  21560476.260    88286545.79247
  23531435.980   123658615.75407  23531433.940    96357382.78944
  22362031.240   117513302.31708  22362033.200    91568829.38047
  24513820.900   128820981.87206  24513822.780   100379981.78643
  23563285.620   123825874.05307  23563286.200    96487682.74545
 15 02 28 00 15 30.0000000  0  7G16G18G21G22G27G29G31
  21173334.980   111266643.52609  21173334.240    86701292.11947
  22399238.760   117708849.14108  22399238.560    91721157.38545
  21569458.800   113348268.26508  21569457.320    88323321.94747
  23513800.660   123565942.63607  23513798.680    96285170.05845
  22350391.240   117452133.65708  22350393.220    91521165.51247
  24528529.040   128898272.69206  24528530.860   100440208.37843
  23581763.460   123922973.74207  23581763.960    96563344.69144
 15 02 28 00 16  0.0000000  0  7G16G18G21G22G27G29G31
  21162391.900   111209137.36009  21162391.180    86656482.13047
  22389332.000   117656788.30108  22389331.680    91680590.50745
  21578495.480   113395755.99008  21578493.880    88360325.36047
  23496180.380   123473348.28807  23496178.600    96213018.72145
  22338775.120   117391090.52108  22338777.020    91473599.44447
  24543240.720   128975582.63306  24543242.080   100500449.87043
  23600257.860   124020160.41807  23600258.300    96639074.33744
 15 02 28 00 16 30.0000000  0  7G16G18G21G22G27G29G31
  21151515.560   111151981.80009  21151514.800    86611945.33147
  22379492.980   117605083.40608  22379492.620    91640300.99645
  21587586.880   113443531.31708  21587585.220    88397552.89447
  23478575.160   123380832.47507  23478573.500    96140928.55444
  22327182.320   117330169.99308  22327184.100    91426128.92647
  24557955.500   129052908.98205  24557956.740   100560704.13545
  23618767.620   124117428.21107  23618768.120    96714867.17445
 15 02 28 00 17  0.0000000  0  6G16G18G21G22G27G31
  21140705.440   111095174.52509  21140704.620    86567679.92447
  22369721.100   117553731.63808  22369720.800    91600286.64645
  21596731.540   113491587.06308  21596729.980    88434998.92447
  23460984.280   123288392.84607  23460982.800    96068897.76845
  22315611.920   117269367.69008  22315613.860    91378750.53047
  23637291.280   124214769.48707  23637291.840    96790717.30145
 15 02 28 00 17 30.0000000  0  7G16G18G19G21G22G27G31
  21129965.260   111038734.29009  21129964.360    86523700.52148
  22360020.040   117502752.42308  22360019.860    91560562.60745
  24542321.460   128970779.83806  24542321.520   100496702.07644
  21605932.600   113539939.32308  21605931.160    88472676.00347
  23443411.600   123196049.27607  23443410.400    95996941.83444
  22304067.320   117208700.60208  22304069.340    91331477.48547
  23655831.460   124312198.51706  23655832.140    96866635.81045
 15 02 28 00 18  0.0000000  0  7G16G18G19G21G22G27G31
  21119288.520   110982627.42209  21119287.620    86479980.89048
  22350383.320   117452111.56708  22350383.220    91521102.21645
  24526864.620   128889553.02506  24526865.260   100433408.55444
  21615182.780   113588549.53108  21615181.440    88510554.08347
  23425850.900   123103768.40707  23425849.800    95925034.74245
  22292541.720   117148132.91308  22292543.780    91284281.91647
  23674380.800   124409676.40906  23674381.740    96942592.38445
 15 02 28 00 18 30.0000000  0  7G16G18G19G21G22G27G31
  21108683.020   110926895.08309  21108682.180    86436553.09948
  22340818.840   117401850.49808  22340818.800    91481937.75945
  24511425.440   128808418.50705  24511426.260   100370186.91145
  21624489.240   113637455.55008  21624488.040    88548662.67447
  23408310.340   123011592.34707  23408309.280    95853209.30445
  22281042.520   117087703.91808  22281044.540    91237194.40747
  23692946.180   124507239.00406  23692947.740    97018614.81244
 15 02 28 00 19  0.0000000  0  7G16G18G19G21G22G27G31
  21098146.200   110871523.58109  21098145.340    86393406.48048
  22331324.000   117351955.37608  22331324.080    91443058.46546
  24496000.940   128727360.97505  24496001.460   100307025.28444
  21633848.600   113686639.69208  21633847.480    88586987.97147
  23390787.320   122919507.89807  23390786.260    95781455.26545
  22269566.760   117027398.24208  22269568.660    91190202.98647
  23711524.400   124604868.57106  23711526.540    97094689.63045
 15 02 28 00 19 30.0000000  0  7G16G18G19G21G22G27G31
  21087679.180   110816519.09609  21087678.220    86350545.84248
  22321900.020   117302432.13208  22321900.100    91404468.93945
  24480591.620   128646384.31706  24480592.060   100243926.65744
  21643261.180   113736103.70908  21643260.200    88625531.36747
  23373283.040   122827521.71307  23373281.920    95709777.80145
  22258115.100   116967219.54408  22258117.020    91143310.52547
  23730115.480   124702565.46707  23730117.840    97170816.94644
 15 02 28 00 20  0.0000000  0  7G16G18G19G21G22G27G31
  21077280.940   110761876.14409  21077280.020    86307966.92548
  22312545.760   117253275.05808  22312545.760    91366164.75545
  24465196.380   128565481.03106  24465196.540   100180885.22444
  21652725.400   113785838.78608  21652724.440    88664285.97347
  23355796.420   122735628.61607  23355795.060    95638172.84345
  22246686.120   116907160.51608  22246688.160    91096511.29747
  23748717.560   124800318.93207  23748719.900    97246988.21345
 15 02 28 00 20 30.0000000  0  7G16G18G19G21G22G27G31
  21066953.660   110707605.88509  21066952.720    86265678.41348
  22303263.420   117204495.82508  22303263.300    91328154.97245
  24449816.620   128484659.57106  24449816.700   100117907.51645
  21662242.480   113835851.58408  21662241.500    88703256.99047
  23338329.660   122643840.57407  23338328.320    95566649.78645
  22235281.700   116847230.32308  22235283.840    91049812.46446
  23767331.800   124898135.29306  23767333.900    97323208.48245
 15 02 28 00 21  0.0000000  0  7G16G18G19G21G22G27G31
  21056696.820   110653705.38509  21056695.820    86223678.01448
  22294052.380   117156091.62208  22294052.220    91290437.43245
  24434451.720   128403916.15606  24434451.720   100054990.66545
  21671811.220   113886136.15908  21671810.320    88742439.77247
  23320882.480   122552155.61307  23320881.060    95495207.01844
  22223900.980   116787424.43608  22223903.200    91003210.50246
  23785956.520   124996006.94906  23785958.220    97399471.92044
 15 02 28 00 21 30.0000000  0  7G16G18G19G21G22G27G31
  21046509.860   110600172.35209  21046508.920    86181963.97248
  22284912.140   117108059.43708  22284911.940    91253009.75345
  24419100.840   128323245.87306  24419100.700    99992130.77244
  21681430.500   113936685.85908  21681429.620    88781829.15247
  23303454.580   122460571.73507  23303453.140    95423843.02145
  22212543.140   116727738.31308  22212545.300    90956701.84946
  23804590.220   125093926.56107  23804591.740    97475772.71545
 15 02 28 00 22  0.0000000  0  7G16G18G19G21G22G27G31
  21036395.140   110547019.02709  21036394.160    86140545.79348
  22275844.980   117060411.27908  22275844.740    91215881.34746
  24403765.600   128242658.87605  24403765.140    99929335.78744
  21691101.800   113987508.94108  21691100.880    88821431.55647
  23286048.340   122369101.80807  23286047.000    95352567.81645
  22201209.980   116668182.33408  22201212.120    90910294.62146
  23823234.400   125191900.96607  23823235.620    97552116.08444
 15 02 28 00 22 30.0000000  0  7G16G18G19G21G22G27G31
  21026351.920   110494241.63309  21026351.000    86099420.55948
  22266850.260   117013143.50908  22266849.940    91179049.32545
  24388445.080   128162149.35505  24388444.660    99866601.16744
  21700823.620   114038597.30808  21700822.700    88861240.67547
  23268663.040   122277742.16707  23268661.940    95281378.54845
  22189900.460   116608750.65208  22189902.520    90863984.24146
  23841887.620   125289921.94207  23841888.480    97628495.83644
 15 02 28 00 23  0.0000000  0  7G16G18G19G21G22G27G31
  21016381.760   110441848.38109  21016380.980    86058594.65648
  22257929.400   116966264.13908  22257929.080    91142519.95445
  24373140.380   128081724.02205  24373140.280    99803932.11144
  21710596.960   114089956.65908  21710596.080    88901260.94147
  23251300.540   122186502.61207  23251299.600    95210282.83645
  22178615.800   116549449.95508  22178617.860    90817775.93047
  23860550.440   125387992.72007  23860550.860    97704914.41145
 15 02 28 00 23 30.0000000  0  7G16G18G19G21G22G27G31
  21006482.500   110389827.83609  21006481.820    86018059.16748
  22249080.320   116919762.13808  22249080.060    91106284.64745
  24357849.280   128001369.03306  24357849.220    99741317.89544
  21720418.840   114141571.14208  21720417.980    88941480.01847
  23233958.820   122095371.81307  23233957.800    95139271.89145
  22167353.520   116490266.75208  22167355.580    90771659.16146
  23879219.420   125486096.23407  23879219.540    97781358.24944
 15 02 28 00 24  0.0000000  0  7G16G18G19G21G22G27G31
  20996656.360   110338191.27209  20996655.740    85977822.88948
  22240305.140   116873648.56608  22240304.940    91070351.99845
  24342573.420   127921093.77905  24342573.200    99678765.84145
  21730290.600   114193447.92408  21730289.820    88981903.48547
  23216640.200   122004362.31107  23216639.140    95068355.44844
  22156115.400   116431210.46908  22156117.420    90725641.29646
  23897895.800   125584239.49206  23897895.840    97857833.18643
 15 02 28 00 24 30.0000000  0  7G16G18G19G21G22G27G31
  20986903.040   110286937.50209  20986902.460    85937884.89348
  22231603.560   116827921.61008  22231603.400    91034720.61745
  24327312.140   127840895.43905  24327311.920    99616273.66044
  21740211.200   114245581.36008  21740210.520    89022526.93547
  23199344.600   121913473.03507  23199343.340    94997532.70645
  22144900.900   116372278.00008  22144902.960    90679719.91246
  23916578.280   125682416.27206  23916578.500    97934334.18145
 15 02 28 00 25  0.0000000  0  7G16G18G19G21G22G27G31
  20977223.840   110236073.22809  20977223.280    85898250.40048
  22222976.800   116782587.93708  22222976.660    90999395.69445
  24312066.220   127760778.39605  24312066.160    99553844.81944
  21750181.500   114297975.70908  21750180.820    89063353.70347
  23182073.340   121822711.43107  23182071.900    94926809.42745
  22133710.860   116313474.02708  22133712.860    90633898.65946
  23935267.200   125780628.38906  23935268.200    98010862.92445
 15 02 28 00 25 30.0000000  0  7G16G18G19G21G22G27G31
  20967618.240   110185595.77809  20967617.700    85858917.33248
  22214424.380   116737644.92708  22214424.180    90964375.18145
  24296835.020   127680738.04405  24296834.800    99491475.80844
  21760200.180   114350623.96508  21760199.480    89104378.32247
  23164825.920   121732075.40707  23164824.340    94856184.01745
  22122544.580   116254794.20108  22122546.500    90588174.14246
  23953961.580   125878868.12106  23953963.100    98087413.06644
 15 02 28 00 26  0.0000000  0  7G16G18G19G21G22G27G31
  20958089.780   110135523.77409  20958089.200    85819900.18448
  22205949.820   116693110.83508  22205949.640    90929673.31146
  24281621.340   127600777.10104  24281623.460    99429172.52944
  21770269.880   114403540.40608  21770269.180    89145611.90847
  23147605.880   121641584.26607  23147604.400    94785671.51245
  22111405.040   116196255.20008  22111406.880    90542559.35747
  23972664.140   125977149.51306  23972665.880    98163995.89245
 15 02 28 00 26 30.0000000  0  7G16G18G19G21G22G27G31
  20948631.500   110085820.26909  20948630.940    85781170.19248
  22197545.960   116648948.27608  22197545.800    90895260.93646
  24266418.520   127520884.68405  24266419.180    99366918.77844
  21780382.980   114456684.58508  21780382.220    89187022.95347
  23130406.620   121551201.74707  23130405.120    94715243.61245
  22100284.880   116137818.29208  22100286.620    90497024.11747
  23991366.560   126075430.32706  23991368.280    98240578.14844
 15 02 28 00 27  0.0000000  0  7G16G18G19G21G22G27G31
  20939251.560   110036528.01009  20939250.880    85742760.63448
  22189221.000   116605200.56308  22189220.920    90861171.83645
  24251233.620   127441087.49805  24251233.700    99304739.19545
  21790546.720   114510094.84208  21790545.840    89228641.33347
  23113236.360   121460971.59007  23113234.880    94644934.44645
  22089191.940   116079524.51908  22089193.700    90451600.41747
  24010076.120   126173748.71907  24010077.840    98317189.67444
 15 02 28 00 27 30.0000000  0  7G16G18G19G21G22G27G31
  20929946.080   109987627.21709  20929945.400    85704656.13048
  22180971.080   116561847.03308  22180971.040    90827389.86645
  24236062.900   127361363.75505  24236062.260    99242616.87844
  21800756.800   114563748.80208  21800755.860    89270449.61547
  23096091.340   121370874.25107  23096089.980    94574728.79545
  22078122.140   116021351.86808  22078123.840    90406271.10147
  24028787.980   126272079.23506  24028789.720    98393810.58945
 15 02 28 00 28  0.0000000  0  7G16G18G19G21G22G27G31
  20920717.820   109939132.15509  20920717.140    85666867.77648
  22172798.920   116518902.16808  22172798.920    90793926.35246
  24220908.340   127281726.54805  24220907.520    99180561.95044
  21811015.120   114617656.49008  21811014.160    89312455.60047
  23078974.520   121280925.08307  23078973.300    94504638.57145
  22067077.800   115963313.27008  22067079.580    90361046.23647
  24047504.180   126370432.15607  24047506.040    98470448.98045
 15 02 28 00 28 30.0000000  0  7G16G18G19G21G22G27G31
  20911564.920   109891033.15109  20911564.160    85629388.03948
  22164702.700   116476356.22908  22164702.720    90760773.67646
  24205768.040   127202163.64806  24205767.140    99118564.93544
  21821319.160   114671804.31808  21821318.160    89354648.71447
  23061884.180   121191114.93007  23061883.020    94434656.68445
  22056056.660   115905397.09608  22056058.540    90315916.76847
  24066221.960   126468792.95906  24066223.840    98547093.64945
 15 02 28 00 29  0.0000000  0  7G16G18G19G21G22G27G31
  20902489.040   109843338.80409  20902488.160    85592223.61348
  22156683.960   116434217.29508  22156683.900    90727938.16846
  24190643.060   127122681.25206  24190642.140    99056630.66644
  21831669.680   114726196.43608  21831668.620    89397032.17547
  23044822.040   121101452.93607  23044820.860    94364790.25745
  22045060.080   115847610.01408  22045062.000    90270887.88547
  24084941.640   126567164.73706  24084943.540    98623746.88744
 15 02 28 00 29 30.0000000  0  7G16G18G19G21G22G27G31
  20893490.760   109796052.04609  20893489.740    85555376.78648
  22148743.240   116392488.19408  22148742.980    90695421.99546
  24175533.720   127043281.06906  24175532.600    98994760.42844
  21842066.620   114780832.49908  21842065.480    89439605.72847
  23027788.980   121011943.37907  23027787.700    94295042.57945
  22034088.300   115789953.43108  22034090.280    90225960.70047
  24103663.040   126665546.41107  24103665.420    98700407.85144
 15 02 28 00 30  0.0000000  0  7G16G18G19G21G22G27G31
  20884570.020   109749173.05909  20884569.040    85518847.71448
  22140880.480   116351168.89508  22140880.220    90663225.15646
  24160439.580   126963961.41406  24160438.480    98932952.98044
  21852509.300   114835709.15208  21852508.100    89482366.75947
  23010784.960   120922586.59507  23010783.640    94225413.95745
  22023141.120   115732425.68808  22023143.120    90181133.91247
  24122385.320   126763932.75606  24122387.920    98777072.53244
 15 02 28 00 30 30.0000000  0  7G16G18G19G21G22G27G31
  20875727.380   109702704.54109  20875726.420    85482638.48348
  22133096.040   116310261.68408  22133095.780    90631349.42145
  24145360.840   126884722.83406  24145359.880    98871208.70144
  21862997.560   114890825.24708  21862996.380    89525314.36347
  22993810.500   120833385.99907  22993809.380    94155907.06145
  22012218.600   115675027.52108  22012220.600    90136408.09447
  24141108.060   126862321.56106  24141110.740    98853739.07044
 15 02 28 00 31  0.0000000  0  7G16G18G19G21G22G27G31
  20866962.880   109656646.86909  20866962.000    85446749.39248
  22125390.140   116269766.62208  22125389.740    90599794.83346
  24130297.240   126805563.78806  24130296.400    98809526.39044
  21873530.720   114946177.59708  21873529.680    89568446.06047
  22976866.100   120744343.01807  22976865.140    94086522.96645
  22001320.440   115617757.69808  22001322.520    90091782.27847
  24159830.440   126960708.74406  24159833.140    98930404.29944
 15 02 28 00 31 30.0000000  0  7G16G18G19G21G22G27G31
  20858276.680   109611000.85309  20858275.800    85411181.07448
  22117762.680   116229683.86308  22117762.220    90568561.53346
  24115248.700   126726483.15606  24115247.920    98747905.19144
  21884108.220   115001763.11008  21884107.360    89611759.44947
  22959951.940   120655458.95907  22959951.020    94017262.70845
  21990446.520   115560615.20408  21990448.680    90047255.68047
  24178551.680   127059090.23406  24178554.240    99007065.14044
 15 02 28 00 32  0.0000000  0  7G16G18G19G21G22G27G31
  20849670.780   109565776.56709  20849669.840    85375941.36948
  22110215.600   116190023.69308  22110215.220    90537657.52646
  24100216.460   126647489.48306  24100215.820    98686351.71544
  21894731.240   115057587.66208  21894730.420    89655259.09647
  22943070.140   120566744.83007  22943069.220    93948134.84645
  21979598.440   115503608.51108  21979600.640    90002834.89947
  24197272.980   127157471.22406  24197275.100    99083725.54445
 15 02 28 00 32 30.0000000  0  7G16G18G19G21G22G27G31
  20841142.980   109520963.12309  20841142.160    85341021.81448
  22102746.940   116150775.66908  22102746.600    90507074.66646
  24085198.600   126568569.76807  24085197.720    98624855.91145
  21905397.080   115113637.21108  21905396.220    89698934.06947
  22926218.740   120478190.41907  22926217.800    93879131.44445
  21968773.900   115446725.21708  21968776.020    89958510.26847
  24215991.320   127255836.13906  24215993.360    99160373.45244
 15 02 28 00 33  0.0000000  0  7G16G18G19G21G22G27G31
  20832695.200   109476569.76809  20832694.420    85306429.58548
  22095358.260   116111947.98808  22095357.960    90476819.34246
  24070196.300   126489731.52707  24070195.420    98563423.56244
  21916106.640   115169916.51008  21916105.780    89742788.06447
  22909399.560   120389805.42307  22909398.660    93810260.06846
  21957974.080   115389972.40708  21957976.220    89914287.31747
  24234707.460   127354189.21206  24234709.520    99237012.14344
 15 02 28 00 33 30.0000000  0  7G16G18G19G21G22G27G31
  20824328.600   109432603.18809  20824327.840    85272169.90648
  22088050.740   116073547.15308  22088050.600    90446896.63646
  24055210.280   126410979.35007  24055209.380    98502058.25244
  21926860.580   115226428.96108  21926859.740    89786823.74147
  22892614.160   120301597.56407  22892613.200    93741526.70346
  21947200.060   115333355.21208  21947202.240    89870170.04647
  24253421.800   127452532.71106  24253423.820    99313643.47943
 15 02 28 00 34  0.0000000  0  7G16G18G19G21G22G27G31
  20816042.100   109389057.37609  20816041.320    85238238.10548
  22080823.360   116035567.15708  22080823.340    90417301.83746
  24040239.260   126332305.96907  24040238.200    98440754.37744
  21937657.100   115283164.96208  21937656.340    89831033.60847
  22875861.600   120213561.98907  22875860.560    93672927.59146
  21936450.540   115276866.38208  21936452.760    89826152.80547
  24272132.280   127550856.17407  24272134.460    99390259.10444
 15 02 28 00 34 30.0000000  0  7G16G18G19G21G22G27G31
  20807837.280   109345940.63209  20807836.460    85204640.64248
  22073677.440   115998015.61908  22073677.440    90388040.92246
  24025284.280   126253717.68907  24025283.180    98379516.78244
  21948497.040   115340129.35008  21948496.360    89875421.43247
  22859143.400   120125707.63607  22859142.280    93604469.68645
  21925726.740   115220512.43008  21925729.000    89782240.65747
  24290839.460   127649162.67706  24290841.800    99466861.49444
 15 02 28 00 35  0.0000000  0  7G16G18G19G21G22G27G31
  20799713.300   109303248.68709  20799712.400    85171374.17948
  22066612.280   115960888.27908  22066612.240    90359110.54346
  24010344.480   126175208.33707  24010343.160    98318340.71144
  21959378.860   115397313.80808  21959378.260    89919980.74347
  22842458.900   120038030.82907  22842457.800    93536150.13146
  21915027.540   115164287.38908  21915029.740    89738428.95347
  24309541.480   127747443.52506  24309544.280    99543443.88644
 15 02 28 00 35 30.0000000  0  7G16G18G19G21G22G27G31
  20791670.900   109260985.48809  20791670.060    85138441.81648
  22059628.520   115924188.22208  22059628.400    90330513.10946
  23995420.120   126096780.26406  23995418.740    98257227.94944
  21970302.600   115454718.55908  21970302.040    89964711.72147
  22825809.100   119950536.24407  22825808.020    93467972.56346
  21904353.240   115108193.39308  21904355.500    89694719.37047
  24328238.460   127845697.67206  24328241.580    99620005.47544
 15 02 28 00 36  0.0000000  0  7G16G18G19G21G22G27G31
  20783710.880   109219155.39709  20783710.080    85105846.93848
  22052726.760   115887919.73308  22052726.740    90302251.97746
  23980511.540   126018435.40506  23980510.340    98196180.06244
  21981268.500   115512344.62908  21981267.980    90009615.15247
  22809195.080   119863228.94807  22809193.880    93399940.94745
  21893704.320   115052233.21208  21893706.600    89651114.04847
  24346930.500   127943925.37106  24346933.980    99696546.43744
 15 02 28 00 36 30.0000000  0  7G16G18G19G21G22G27G31
  20775833.940   109177761.91709  20775833.160    85073592.27248
  22045907.780   115852086.47908  22045907.880    90274329.97346
  23965618.980   125940175.73006  23965617.920    98135198.56344
  21992276.360   115570191.40508  21992275.820    90054690.55647
  22792617.620   119776113.52408  22792616.200    93332058.82145
  21883081.240   114996408.83308  21883083.560    89607614.54947
  24365617.340   128042124.78106  24365620.680    99773065.37444
 15 02 28 00 37  0.0000000  0  7G16G18G19G21G22G27G31
  20768039.340   109136801.30909  20768038.600    85041674.91548
  22039170.860   115816683.96008  22039171.000    90246743.60646
  23950741.660   125861996.06305  23950740.760    98074279.40144
  22003324.780   115628251.67508  22003324.220    90099932.31047
  22776076.220   119689187.11608  22776074.540    93264323.99245
  21872483.020   114940714.97908  21872485.340    89564216.76147
  24384297.400   128140288.10506  24384300.400    99849556.21044
 15 02 28 00 37 30.0000000  0  7G16G18G19G21G22G27G31
  20760328.580   109096280.72309  20760327.820    85010100.42548
  22032517.180   115781718.97908  22032517.320    90219498.19646
  23935880.480   125783901.63205  23935879.760    98013426.66644
  22014414.640   115686529.42708  22014414.060    90145343.55447
  22759572.260   119602457.60808  22759570.400    93196742.59346
  21861910.760   114885157.11808  21861912.920    89520924.93647
  24402971.060   128238417.54206  24402973.660    99926020.59844
 15 02 28 00 38  0.0000000  0  7G16G18G19G21G22G27G31
  20752700.420   109056194.60309  20752699.740    84978864.48748
  22025945.900   115747186.02608  22025945.800    90192589.40146
  23921034.240   125705885.16806  23921033.640    97952634.63843
  22025544.160   115745015.21308  22025543.460    90190916.89347
  22743104.860   119515920.53208  22743102.880    93129311.15045
  21851363.100   114829728.34908  21851365.160    89477733.70247
  24421636.320   128336503.24206  24421638.780   100002450.90144
 15 02 28 00 38 30.0000000  0  7G16G18G19G21G22G27G31
  20745156.460   109016551.05709  20745155.880    84947973.40448
  22019458.180   115713092.21808  22019457.880    90166022.81246
  23906204.060   125627952.92105  23906203.600    97891908.27843
  22036714.100   115803713.52808  22036713.320    90236655.83247
  22726675.640   119429584.50408  22726673.560    93062036.35945
  21840841.180   114774435.07608  21840843.240    89434648.04247
  24440293.780   128434548.48006  24440296.000   100078849.71043
 15 02 28 00 39  0.0000000  0  7G16G18G19G21G22G27G31
  20737697.340   108977353.25909  20737696.720    84917429.66548
  22013054.540   115679440.61808  22013054.140    90139800.81345
  23891390.160   125550106.54105  23891390.160    97831248.80044
  22047924.300   115862623.61608  22047923.520    90282559.79546
  22710285.420   119343453.51308  22710283.340    92994921.32646
  21830345.360   114719278.92808  21830347.500    89391669.23447
  24458943.220   128532551.70206  24458945.160   100155215.73044
 15 02 28 00 39 30.0000000  0  7G16G18G19G21G22G27G31
  20730322.540   108938598.28209  20730321.860    84887230.98148
  22006734.460   115646228.10008  22006733.920    90113920.94946
  23876591.780   125472341.39206  23876592.080    97770652.58945
  22059173.660   115921738.98708  22059172.840    90328623.71846
  22693933.820   119257525.70408  22693931.820    92927964.62445
  21819874.860   114664255.62508  21819876.900    89348793.94747
  24477583.140   128630505.58906  24477585.320   100231543.31244
 15 02 28 00 40  0.0000000  0  7G16G18G19G21G22G27G31
  20723033.300   108900293.19009  20723032.580    84857382.85848
  22000499.140   115613461.16008  22000498.480    90088388.27446
  23861809.940   125394662.56106  23861810.480    97710123.65944
  22070462.340   115981062.58608  22070461.980    90374852.66347
  22677622.340   119171808.68108  22677620.420    92861172.17845
  21809430.560   114609370.50808  21809432.520    89306026.33647
  24496214.000   128728412.50506  24496216.560   100307834.21043
 15 02 28 00 40 30.0000000  0  7G16G18G19G21G22G27G31
  20715827.840   108862428.50009  20715827.180    84827877.90548
  21994346.700   115581129.76708  21994346.040    90063195.00346
  23847042.660   125317059.21306  23847042.920    97649653.58044
  22081789.020   116040583.37708  22081788.160    90421232.48846
  22661349.400   119086294.19308  22661347.540    92794537.53745
  21799010.480   114554612.75408  21799012.340    89263357.97747
  24514833.400   128826258.66406  24514836.120   100384077.82144
 15 02 28 00 41  0.0000000  0  7G16G18G19G21G22G27G31
  20708708.260   108825014.87609  20708707.640    84798724.42948
  21988279.220   115549244.46308  21988278.620    90038349.33346
  23832291.420   125239540.37206  23832291.660    97589249.29245
  22093154.480   116100307.23408  22093153.080    90467770.56247
  22645117.220   119000993.85308  22645115.520    92728069.77846
  21788616.480   114499991.65308  21788618.160    89220796.09447
  24533442.680   128924050.12106  24533445.320   100460278.74145
 15 02 28 00 41 30.0000000  0  6G16G18G19G22G27G31
  20701675.600   108788057.80909  20701674.960    84769926.71548
  21982297.560   115517810.32608  21982296.940    90013855.21046
  23817556.920   125162109.68207  23817557.100    97528913.72845
  22628927.040   118915913.65208  22628925.340    92661773.55646
  21778249.200   114445510.99208  21778250.780    89178343.64147
  24552041.840   129021787.81606  24552044.440   100536437.69744
 15 02 28 00 42  0.0000000  0  7G16G18G19G21G22G27G31
  20694729.860   108751557.54609  20694729.220    84741484.95448
  21976401.600   115486827.23308  21976401.020    89989712.56746
  23802838.840   125084765.49207  23802838.840    97468645.56745
  22116000.980   116220370.57908  22115999.940    90561319.28047
  22612779.060   118831055.10808  22612777.180    92595650.02046
  21767908.400   114391169.75608  21767909.980    89135999.81747
  24570630.160   129119467.79506  24570632.420   100612551.75043
 15 02 28 00 42 30.0000000  0  7G16G18G19G21G22G27G31
  20687869.940   108715508.36509  20687869.240    84713394.68548
  21970590.240   115456288.59508  21970589.740    89965916.23446
  23788135.980   125007500.86507  23788135.780    97408439.42045
  22127480.100   116280693.37608  22127478.800    90608324.04746
  22596672.200   118746412.99808  22596670.200    92529695.16646
  21757592.740   114336960.73008  21757594.360    89093759.03247
  24589205.480   129217079.56406  24589207.480   100688612.66843
 15 02 28 00 43  0.0000000  0  7G16G18G19G21G22G27G31
  20681097.760   108679920.20609  20681096.980    84685663.65248
  21964865.280   115426204.48208  21964864.960    89942474.07646
  23773449.900   124930324.23707  23773449.560    97348301.83445
  22138997.160   116341215.46408  22138995.560    90655484.11046
  22580608.680   118661998.54108  22580606.620    92463917.70446
  21747303.940   114282892.45108  21747305.340    89051627.90947
  24607768.620   129314628.55606  24607770.960   100764624.61345
 15 02 28 00 43 30.0000000  0  7G16G18G19G21G22G27G31
  20674413.080   108644791.59509  20674412.280    84658290.70448
  21959226.480   115396573.16308  21959226.240    89919384.75146
  23758779.840   124853232.29407  23758779.360    97288230.23845
  22150551.140   116401931.83708  22150549.440    90702795.56247
  22564588.480   118577811.64608  22564586.260    92398317.54446
  21737041.400   114228962.30508  21737042.720    89009604.43747
  24626318.680   129412109.49605  24626321.520   100840583.50943
 15 02 28 00 44  0.0000000  0  7G16G18G19G21G22G27G31
  20667816.020   108610123.75009  20667815.280    84631276.80548
  21953674.020   115367395.11708  21953673.740    89896648.63246
  23744125.800   124776224.61807  23744125.220    97228224.31645
  22162141.640   116462839.90508  22162140.000    90750256.38247
  22548611.920   118493853.92808  22548609.580    92332895.97445
  21726805.060   114175170.04408  21726806.400    88967688.40047
  24644855.000   129509518.59105  24644858.800   100916486.47544
 15 02 28 00 44 30.0000000  0  7G16G18G19G21G22G27G31
  20661307.240   108575919.77509  20661306.500    84604624.35948
  21948208.220   115338672.50708  21948208.020    89874267.39346
  23729487.980   124699302.57007  23729487.460    97168285.09245
  22173768.620   116523939.51908  22173766.980    90797866.46946
  22532679.680   118410129.06908  22532677.200    92267655.85146
  21716595.200   114121517.21708  21716596.760    88925881.01047
  24663377.340   129606854.42806  24663381.780   100992332.32244
 15 02 28 00 45  0.0000000  0  7G16G18G19G21G22G27G31
  20654887.020   108542181.23109  20654886.260    84578334.58948
  21942829.320   115310406.76908  21942829.280    89852242.14746
  23714866.460   124622466.29007  23714865.980    97108412.69545
  22185431.480   116585228.34108  22185429.900    90845623.97746
  22516792.200   118326639.85008  22516789.740    92202599.34446
  21706411.900   114068004.07908  21706413.640    88884182.46647
  24681885.560   129704114.40906  24681890.120   101068119.02944
 15 02 28 00 45 30.0000000  0  7G16G18G19G21G22G27G31
  20648555.560   108508908.74509  20648554.660    84552407.96248
  21937537.560   115282598.18008  21937537.520    89830573.12746
  23700261.140   124545714.86306  23700260.600    97048606.46145
  22197129.860   116646704.26308  22197128.360    90893527.29046
  22500949.820   118243388.03308  22500947.440    92137727.82746
  21696255.020   114014630.10308  21696256.960    88842592.38147
  24700378.900   129801295.16806  24700383.300   101143843.98843
 15 02 28 00 46  0.0000000  0  6G16G18G19G21G22G27
  20642313.060   108476104.14709  20642312.140    84526845.94648
  21932333.160   115255248.31908  21932333.060    89809261.55846
  23685671.760   124469048.53806  23685671.420    96988866.52345
  22208863.540   116708365.46208  22208862.180    90941574.96646
  22485153.200   118160376.32708  22485150.840    92073043.39946
  21686124.740   113961395.70808  21686126.840    88801111.04247
 15 02 28 00 46 30.0000000  0  6G16G18G19G21G22G27
  20636160.360   108443771.50109  20636159.400    84501651.67448
  21927216.720   115228360.85708  21927216.580    89788310.31546
  23671099.380   124392470.45806  23671099.080    96929195.35445
  22220632.660   116770212.80408  22220631.420    90989767.69646
  22469403.320   118077610.14908  22469400.980    92008550.30846
  21676021.620   113908303.85908  21676023.740    88759740.78247
 15 02 28 00 47  0.0000000  0  6G16G18G19G21G22G27
  20630097.240   108411909.75809  20630096.260    84476824.34448
  21922187.860   115201933.80608  21922187.640    89767717.82246
  23656543.180   124315977.75506  23656542.940    96869590.70544
  22232436.280   116832241.64608  22232435.120    91038101.85246
  22453700.020   117995088.85308  22453697.680    91944248.01946
  21665945.220   113855352.06708  21665947.320    88718479.65647
 15 02 28 00 47 30.0000000  0  6G16G18G19G21G22G27
  20624124.300   108380522.08609  20624123.380    84452366.41548
  21917247.160   115175970.25008  21917246.860    89747486.48646
  23642003.500   124239572.20906  23642003.260    96810053.97545
  22244274.380   116894451.96908  22244273.300    91086577.40846
  22438044.180   117912816.76108  22438041.900    91880139.92546
  21655895.900   113802542.29708  21655897.940    88677329.20148
 15 02 28 00 48  0.0000000  0  6G16G18G19G21G22G27
  20618241.000   108349605.19109  20618240.080    84428275.33048
  21912393.980   115150466.37508  21912393.580    89727613.34946
  23627479.700   124163248.66706  23627479.320    96750581.14645
  22256145.860   116956837.26208  22256144.820    91135189.32346
  22422435.260   117830791.76708  22422433.120    91816224.39246
  21645872.760   113749870.04408  21645874.820    88636285.91348
 15 02 28 00 48 30.0000000  0  6G16G18G19G21G22G27
  20612449.080   108319168.42509  20612448.140    84404558.36848
  21907629.980   115125430.90308  21907629.520    89708105.19946
  23612972.980   124087015.02706  23612972.520    96691178.36845
  22268051.740   117019403.15508  22268050.700    91183941.96246
  22406875.340   117749024.24808  22406873.280    91752509.46246
  21635877.320   113697343.41608  21635879.420    88595356.08747
 15 02 28 00 49  0.0000000  0  6G16G18G19G21G22G27
  20606748.100   108289209.55909  20606747.200    84381213.79548
  21902954.560   115100861.04508  21902953.980    89688959.87146
  23598482.700   124010867.63406  23598482.000    96631842.78244
  22279990.840   117082144.10608  22279989.880    91232831.01146
  22391364.200   117667512.68608  22391362.120    91688993.98046
  21625908.920   113644958.98108  21625911.020    88554537.05948
 15 02 28 00 49 30.0000000  0  6G16G18G19G21G22G27
  20601139.160   108259734.26309  20601138.220    84358246.02848
  21898368.700   115076761.95708  21898367.980    89670181.37946
  23584009.440   123934810.80206  23584008.760    96572577.78644
  22291963.720   117145062.60108  22291962.820    91281858.39946
  22375903.060   117586263.84908  22375901.060    91625683.22146
  21615968.360   113592721.22508  21615970.460    88513832.31447
 15 02 28 00 50  0.0000000  0  6G16G18G19G21G22G27
  20595621.360   108230738.02809  20595620.400    84335651.55548
  21893871.380   115053128.72008  21893870.660    89651765.87046
  23569552.440   123858838.66406  23569551.660    96513378.77945
  22303968.960   117208150.79708  22303968.120    91331018.03546
  22360491.160   117505274.10408  22360489.200    91562574.36346
  21606054.620   113540624.48508  21606056.700    88473237.46247
 15 02 28 00 50 30.0000000  0  6G16G18G19G21G22G27
  20590195.540   108202225.18309  20590194.560    84313433.75348
  21889463.520   115029965.66408  21889462.800    89633716.75646
  23555112.160   123782954.50506  23555111.380    96454248.29245
  22316006.780   117271410.18308  22316006.000    91380311.04746
  22345129.720   117424549.47308  22345127.680    91499672.07246
  21596168.480   113488672.42908  21596170.400    88432755.34747
 15 02 28 00 51  0.0000000  0  6G16G18G19G21G22G27
  20584862.280   108174198.88609  20584861.380    84291595.07648
  21885145.460   115007274.51208  21885144.780    89616035.34646
  23540688.800   123707159.45907  23540687.980    96395187.24644
  22328077.120   117334840.35608  22328076.420    91429737.14946
  22329819.360   117344093.60108  22329817.360    91436979.19946
  21586310.140   113436866.52908  21586312.020    88392387.11947
 15 02 28 00 51 30.0000000  0  6G16G18G19G21G22G27
  20579621.420   108146658.09409  20579620.580    84270134.71948
  21880916.920   114985054.00208  21880916.440    89598720.67046
  23526282.000   123631451.06707  23526281.020    96336193.73345
  22340179.280   117398437.38108  22340178.620    91479293.26246
  22314560.200   117263906.72008  22314558.280    91374495.95246
  21576479.320   113385204.83208  21576481.060    88352131.25647
 15 02 28 00 52  0.0000000  0  6G16G18G19G21G22G27
  20574473.820   108119607.34909  20574473.060    84249056.20648
  21876778.780   114963308.45508  21876778.460    89581776.09246
  23511892.240   123555832.94107  23511891.240    96277270.56545
  22352313.380   117462202.21508  22352312.760    91528980.15046
  22299353.320   117183994.29708  22299351.380    91312226.54046
  21566676.540   113333690.62608  21566678.240    88311990.32648
 15 02 28 00 52 30.0000000  0  6G16G18G19G21G22G27
  20569419.000   108093044.19309  20569418.260    84228357.64148
  21872730.480   114942034.49808  21872730.120    89565198.99546
  23497519.060   123480301.68607  23497518.040    96218415.09045
  22364478.400   117526129.61608  22364477.840    91578793.70646
  22284198.520   117104355.25408  22284196.540    91250170.16546
  21556901.160   113282320.69908  21556902.820    88271961.82248
 15 02 28 00 53  0.0000000  0  6G16G18G19G21G22G27
  20564457.800   108066972.83309  20564457.080    84208042.29348
  21868772.700   114921236.11308  21868772.280    89548992.48246
  23483163.000   123404859.85307  23483162.100    96159629.27345
  22376674.500   117590220.38608  22376674.000    91628734.55946
  22269096.680   117024994.76208  22269094.700    91188330.84546
  21547153.840   113231098.11908  21547155.520    88232048.13348
 15 02 28 00 53 30.0000000  0  6G16G18G19G21G22G27
  20559590.480   108041394.86209  20559589.760    84188111.40748
  21864905.620   114900914.28408  21864905.240    89533157.29946
  23468823.980   123329507.54207  23468823.000    96100913.20545
  22388901.380   117654472.79108  22388900.920    91678801.35946
  22254048.340   116945915.35408  22254046.300    91126710.55846
  21537434.600   113180023.28609  21537436.400    88192249.57748
 15 02 28 00 54  0.0000000  0  6G16G18G19G21G22G27
  20554816.740   108016308.67609  20554816.040    84168563.72348
  21861128.860   114881067.16608  21861128.500    89517692.02846
  23454501.560   123254242.08607  23454500.340    96042264.84545
  22401158.200   117718882.31308  22401157.760    91728990.58546
  22239053.520   116867116.59608  22239051.380    91065308.95546
  21527743.040   113129093.94208  21527744.920    88152564.37948
 15 02 28 00 54 30.0000000  0  6G16G18G19G21G22G27
  20550137.860   107991721.14809  20550137.180    84149404.60648
  21857443.520   114861700.73408  21857443.220    89502601.30046
  23440196.600   123179068.99007  23440195.380    95983688.44945
  22413445.680   117783452.92008  22413445.200    91779305.33646
  22224113.580   116788606.49008  22224111.400    91004132.26946
  21518080.260   113078315.84208  21518082.160    88112997.03348
 15 02 28 00 55  0.0000000  0  6G16G18G19G21G22G27
  20545553.320   107967629.27209  20545552.660    84130631.71448
  21853848.980   114842811.31208  21853848.700    89487882.28846
  23425908.620   123103984.31807  23425907.180    95925180.95845
  22425762.640   117848178.46408  22425762.100    91829740.80646
  22209228.200   116710383.21708  22209226.000    90943179.09046
  21508445.560   113027685.17609  21508447.400    88073544.57048
 15 02 28 00 55 30.0000000  0  6G16G18G19G21G22G27
  20541063.980   107944037.56509  20541063.320    84112248.55648
  21850345.980   114824403.05408  21850345.680    89473538.20346
  23411637.960   123028990.83107  23411636.340    95866744.50145
  22438109.280   117913060.21408  22438108.580    91880298.01246
  22194398.420   116632452.30208  22194396.260    90882453.72446
  21498839.560   112977205.17109  21498841.320    88034209.49347
 15 02 28 00 56  0.0000000  0  6G16G18G19G21G22G27
  20536670.240   107920948.42109  20536669.640    84094257.01548
  21846934.860   114806477.69708  21846934.540    89459570.39546
  23397384.780   122954090.00706  23397383.280    95808380.28245
  22450485.540   117978097.65708  22450484.600    91930976.53546
  22179624.920   116554817.59008  22179622.800    90821959.17246
  21489262.540   112926877.42609  21489264.260    87994993.07048
 15 02 28 00 56 30.0000000  0  6G16G18G19G21G22G27
  20532372.520   107898363.58809  20532371.940    84076658.44348
  21843615.900   114789036.73308  21843615.580    89445980.04246
  23383149.140   122879282.53507  23383147.880    95750088.78545
  22462891.100   118043289.43908  22462890.040    91981775.31446
  22164908.320   116477481.59508  22164906.200    90761697.37446
  21479714.700   112876702.97509  21479716.400    87955896.10648
 15 02 28 00 57  0.0000000  0  6G16G18G19G21G22G27
  20528169.900   107876278.37109  20528169.260    84059449.18448
  21840388.140   114772074.64008  21840387.780    89432762.84546
  23368930.240   122804562.48407  23368929.040    95691865.40344
  22475324.620   118108627.91708  22475323.520    92032688.40546
  22150247.980   116400440.96208  22150245.800    90701665.72846
  21470194.940   112826676.19909  21470196.680    87916914.20948
 15 02 28 00 57 30.0000000  0  6G16G18G19G21G22G27
  20524063.220   107854697.36409  20524062.480    84042632.80948
  21837252.320   114755595.59008  21837251.920    89419922.03346
  23354728.780   122729933.35306  23354727.420    95633712.87445
  22487786.300   118174114.73408  22487785.200    92083717.08446
  22135644.900   116323701.39508  22135642.760    90641868.69646
  21460703.860   112776800.76009  21460705.740    87878050.23448
 15 02 28 00 58  0.0000000  0  6G16G18G19G21G22G27
  20520052.980   107833623.14809  20520052.160    84026211.34448
  21834208.680   114739601.04408  21834208.120    89407458.75046
  23340544.880   122655396.44507  23340543.560    95575632.20145
  22500276.180   118239749.52808  22500275.100    92134861.06346
  22121099.820   116247266.57308  22121097.680    90582309.11346
  21451241.900   112727078.32109  21451243.820    87839305.48548
 15 02 28 00 58 30.0000000  0  6G16G18G19G21G22G27
  20516139.040   107813055.54909  20516138.240    84010184.63948
  21831257.140   114724090.47508  21831256.400    89395372.60746
  23326378.260   122580950.44107  23326376.780    95517622.35545
  22512793.640   118305528.95708  22512792.540    92186117.74846
  22106612.980   116171137.40808  22106610.780    90522987.71246
  21441808.940   112677507.96509  21441810.800    87800679.23648
 15 02 28 00 59  0.0000000  0  6G16G18G19G21G22G27
  20512322.180   107792998.23709  20512321.440    83994555.56548
  21828398.340   114709067.39008  21828397.600    89383666.32346
  23312229.360   122506598.07607  23312227.880    95459685.49245
  22525338.820   118371454.01508  22525337.620    92237487.91346
  22092185.240   116095319.10408  22092183.040    90463908.53146
  21432405.520   112628092.63109  21432407.300    87762173.79148
 15 02 28 00 59 30.0000000  0  6G16G18G19G21G22G27
  20508602.140   107773449.68909  20508601.480    83979322.92648
  21825632.000   114694530.37808  21825631.340    89372338.78946
  23298097.960   122432337.49706  23298096.540    95401820.13845
  22537911.000   118437521.15908  22537909.740    92288968.79246
  22077816.700   116019811.99308  22077814.540    90405071.84546
  21423031.380   112578830.88009  21423033.060    87723788.01747
 15 02 28 01 00  0.0000000  0  6G16G18G19G21G22G27
  20504979.700   107754413.78609  20504979.100    83964489.76148
  21822958.480   114680481.15408  21822957.960    89361391.35446
  23283984.340   122358170.13307  23283982.920    95344027.44345
  22550510.120   118503729.72108  22550508.820    92340559.86146
  22063508.020   115944619.54808  22063505.920    90346480.35246
  21413686.760   112529724.45709  21413688.360    87685523.26848
 15 02 28 01 00 30.0000000  0  6G16G18G19G21G22G27
  20501455.140   107735892.14009  20501454.560    83950057.30948
  21820378.160   114666921.19408  21820377.600    89350825.16246
  23269888.600   122284097.23406  23269887.280    95286308.32946
  22563136.080   118570078.97708  22563134.700    92392260.57446
  22049259.840   115869745.35308  22049257.800    90288136.83046
  21404371.940   112480774.78009  21404373.520    87647380.67048
 15 02 28 01 01  0.0000000  0  6G16G18G19G21G22G27
  20498028.200   107717883.37509  20498027.600    83936024.50648
  21817890.620   114653848.71308  21817889.960    89340638.82546
  23255810.520   122210116.49507  23255809.200    95228661.02944
  22575787.980   118636564.75008  22575786.580    92444067.64746
  22035072.180   115795189.35908  22035070.360    90230041.28547
  21395086.560   112431979.80509  21395088.120    87609358.61848
 15 02 28 01 01 30.0000000  0  6G16G18G19G21G22G27
  20494698.960   107700387.94009  20494698.260    83922391.69548
  21815495.820   114641263.62808  21815495.160    89330832.28046
  23241750.060   122136227.70407  23241748.540    95171085.39445
  22588465.560   118703185.17108  22588464.000    92495979.66146
  22020945.480   115720953.31708  22020943.720    90172195.03546
  21385830.640   112383339.41409  21385832.240    87571457.01548
 15 02 28 01 02  0.0000000  0  6G16G18G19G21G22G27
  20491468.580   107683411.99209  20491467.840    83909163.68048
  21813194.720   114629171.41608  21813194.080    89321409.78546
  23227707.960   122062435.43407  23227706.240    95113584.94945
  22601169.240   118769943.53108  22601167.620    92547999.16346
  22006881.040   115647044.48908  22006879.420    90114603.76547
  21376605.140   112334859.01609  21376606.840    87533680.09048
 15 02 28 01 02 30.0000000  0  6G16G18G19G21G22G27
  20488337.320   107666957.11009  20488336.600    83896341.69648
  21810987.600   114617573.34508  21810987.000    89312372.33346
  23213684.120   121988740.55407  23213682.400    95056160.39545
  22613898.820   118836838.65308  22613897.300    92600125.21546
  21992879.540   115573465.90708  21992877.940    90057269.83246
  21367410.300   112286539.87709  21367412.200    87496028.83348
 15 02 28 01 03  0.0000000  0  6G16G18G19G21G22G27
  20485304.140   107651017.53409  20485303.400    83883921.24248
  21808873.240   114606462.63908  21808872.700    89303714.65346
  23199677.640   121915136.45407  23199675.900    94998806.57045
  22626652.740   118903861.70108  22626651.300    92652350.96146
  21978940.080   115500212.77808  21978938.240    90000189.48546
  21358244.800   112238375.24609  21358246.900    87458497.96848
 15 02 28 01 03 30.0000000  0  6G16G18G19G21G22G27
  20482369.820   107635597.38909  20482369.000    83871905.54148
  21806852.360   114595843.03209  21806851.880    89295439.64146
  23185689.280   121841626.58508  23185687.440    94941526.17945
  22639431.380   118971014.51408  22639430.040    92704677.82545
  21965063.520   115427290.78408  21965061.560    89943367.17746
  21349109.540   112190368.98909  21349111.620    87421090.50948
 15 02 28 01 04  0.0000000  0  6G16G18G19G21G22G27
  20479534.820   107620699.02509  20479533.900    83860296.42448
  21804925.360   114585716.55508  21804924.920    89287548.88846
  23171719.140   121768212.44107  23171717.200    94884320.40445
  22652234.800   119038296.87208  22652233.480    92757105.62646
  21951250.660   115354703.70208  21951248.680    89886805.83146
  21340004.760   112142522.96009  21340006.720    87383807.89848
 15 02 28 01 04 30.0000000  0  6G16G18G19G21G22G27
  20476799.940   107606326.70009  20476798.920    83849097.20148
  21803092.640   114576085.55708  21803092.280    89280044.21846
  23157767.620   121694896.88507  23157765.760    94827191.42645
  22665063.100   119105709.71808  22665061.820    92809635.11245
  21937502.480   115282456.33708  21937500.420    89830509.20346
  21330931.040   112094840.27909  21330932.880    87346652.56048
 15 02 28 01 05  0.0000000  0  6G16G18G19G21G22G27
  20474164.580   107592477.55509  20474163.540    83838305.66348
  21801353.800   114566947.80408  21801353.500    89272923.90846
  23143834.220   121621676.35507  23143832.500    94770136.49646
  22677915.140   119173247.54708  22677913.940    92862261.97346
  21923818.580   115210547.44508  21923816.520    89774476.31946
  21321887.800   112047317.87709  21321889.640    87309622.12248
 15 02 28 01 05 30.0000000  0  6G16G18G19G21G22G27
  20471628.960   107579152.79609  20471627.900    83827922.72748
  21799708.960   114558303.86008  21799708.600    89266188.38346
  23129919.040   121548551.77207  23129917.480    94713156.33846
  22690790.780   119240909.37308  22690789.600    92914985.46446
  21910199.600   115138979.99208  21910197.640    89718709.50547
  21312875.280   111999956.81209  21312877.160    87272717.41148
 15 02 28 01 06  0.0000000  0  6G16G18G19G21G22G27
  20469193.480   107566354.44309  20469192.500    83817949.98248
  21798158.320   114550154.75308  21798157.900    89259838.42946
  23116022.240   121475523.75008  23116020.820    94656251.42946
  22703689.860   119308694.37308  22703688.620    92967804.93246
  21896646.220   115067757.10708  21896644.360    89663211.16547
  21303893.640   111952758.27509  21303895.560    87235939.34448
 15 02 28 01 06 30.0000000  0  6G16G18G19G21G22G27
  20466858.240   107554082.89509  20466857.340    83808387.73148
  21796701.720   114542500.18708  21796701.260    89253873.84446
  23102143.860   121402592.19008  23102142.380    94599421.67346
  22716611.920   119376600.28508  22716610.620    93020718.62845
  21883158.680   114996880.19408  21883156.900    89607982.42147
  21294942.940   111905722.24209  21294944.820    87199287.89848
 15 02 28 01 07  0.0000000  0  6G16G18G19G21G22G27
  20464623.780   107542340.92509  20464622.940    83799238.13448
  21795339.700   114535342.83108  21795339.200    89248296.69246
  23088284.240   121329759.35607  23088282.620    94542668.85446
  22729557.140   119444627.90708  22729555.860    93073727.16245
  21869737.880   114926353.82408  21869736.140    89553026.82847
  21286023.700   111858851.33509  21286025.560    87162765.12448
 15 02 28 01 07 30.0000000  0  6G16G18G19G21G22G27
  20462490.120   107531128.34309  20462489.260    83790501.05148
  21794072.040   114528681.42708  21794071.520    89243105.99646
  23074443.160   121257024.04207  23074441.400    94485992.02546
  22742524.980   119512774.15408  22742523.840    93126828.11946
  21856384.060   114856178.85308  21856382.240    89498345.04747
  21277135.820   111812144.82709  21277137.620    87126370.44848
 15 02 28 01 08  0.0000000  0  6G16G18G19G21G22G27
  20460457.660   107520447.60109  20460456.760    83782178.38348
  21792899.060   114522517.41808  21792898.600    89238302.87446
  23060620.940   121184388.14007  23060619.280    94429392.65846
  22755515.320   119581039.01908  22755514.480    93180021.50946
  21843097.720   114786358.92808  21843095.920    89443939.92547
  21268279.560   111765604.82709  21268281.340    87090105.51348
 15 02 28 01 08 30.0000000  0  6G16G18G19G21G22G27
  20458526.220   107510297.54209  20458525.240    83774269.23848
  21791820.440   114516849.29208  21791820.040    89233886.16346
  23046817.320   121111849.85307  23046815.840    94372869.35646
  22768527.620   119649418.95208  22768526.960    93233304.56746
  21829879.120   114716894.86308  21829877.400    89389812.10647
  21259454.660   111719229.90609  21259456.440    87053969.22348
 15 02 28 01 09  0.0000000  0  6G16G18G19G21G22G27
  20456695.980   107500679.26209  20456694.940    83766774.46548
  21790836.400   114511678.49408  21790836.000    89229856.98246
  23033032.400   121039409.81707  23033030.960    94316422.63445
  22781561.580   119717912.62408  22781561.040    93286676.24545
  21816728.720   114647788.75308  21816727.000    89335963.21046
  21250661.380   111673020.95809  21250663.140    87017962.24948
 15 02 28 01 09 30.0000000  0  6G16G18G19G21G22G27
  20454967.660   107491596.75809  20454966.600    83759697.18148
  21789947.460   114507007.61108  21789947.080    89226217.34146
  23019266.660   120967071.13007  23019265.280    94260054.86146
  22794617.320   119786521.00408  22794616.900    93340137.30845
  21803647.460   114579045.98108  21803645.540    89282397.42846
  21241900.400   111626981.47109  21241902.200    86982087.32848
 15 02 28 01 10  0.0000000  0  6G16G18G19G21G22G27
  20453341.180   107483049.50809  20453340.160    83753036.98148
  21789153.380   114502834.88208  21789152.940    89222965.86646
  23005519.880   120894832.44607  23005518.680    94203765.02646
  22807694.460   119855241.93808  22807693.980    93393686.07846
  21790635.420   114510667.13908  21790633.400    89229115.22447
  21233171.400   111581110.47909  21233173.300    86946343.70848
 15 02 28 01 10 30.0000000  0  6G16G18G19G21G22G27
  20451816.540   107475037.40509  20451815.540    83746793.77548
  21788454.040   114499159.82308  21788453.580    89220102.19446
  22991792.080   120822693.24207  22991791.000    94147552.70745
  22820792.420   119924072.47108  22820791.840    93447320.25145
  21777692.900   114442653.61908  21777690.960    89176117.70047
  21224474.400   111535407.70909  21224476.300    86910731.17248
 15 02 28 01 11  0.0000000  0  6G16G18G19G21G22G27
  20450393.800   107467560.80609  20450392.760    83740967.84248
  21787849.540   114495983.18808  21787849.140    89217626.90446
  22978083.300   120750653.62407  22978082.100    94091417.98745
  22833910.860   119993010.87508  22833910.220    93501038.48045
  21764820.280   114375007.53708  21764818.360    89123406.48247
  21215809.580   111489873.63609  21215811.380    86875250.07748
 15 02 28 01 11 30.0000000  0  6G16G18G19G21G22G27
  20449072.900   107460619.66109  20449071.980    83735559.15348
  21787339.660   114493303.60908  21787339.240    89215538.94146
  22964393.500   120678712.97207  22964392.100    94035360.35845
  22847049.400   120062054.88908  22847048.760    93554839.01045
  21752017.900   114307730.13408  21752015.900    89070982.54447
  21207176.880   111444508.00209  21207178.520    86839900.23448
 15 02 28 01 12  0.0000000  0  6G16G18G19G21G22G27
  20447854.580   107454217.58809  20447853.740    83730570.52148
  21786924.940   114491123.97509  21786924.480    89213840.53946
  22950723.160   120606874.37208  22950721.540    93979382.26745
  22860208.260   120131205.71408  22860207.680    93608722.73745
  21739286.520   114240826.44608  21739284.560    89018849.82747
  21198576.780   111399314.18209  21198578.340    86804684.27748
 15 02 28 01 12 30.0000000  0  6G16G18G19G21G22G27
  20446739.160   107448355.86909  20446738.320    83726002.93948
  21786605.340   114489444.53908  21786604.940    89212531.90046
  22937072.300   120535138.51908  22937070.620    93923484.21645
  22873387.300   120200462.21008  22873386.820    93662688.83245
  21726626.800   114174299.16308  21726624.820    88967010.39647
  21190009.500   111354293.17709  21190011.080    86769602.97848
 15 02 28 01 13  0.0000000  0  6G16G18G19G21G22G27
  20445726.440   107443034.01109  20445725.620    83721856.03048
  21786380.860   114488264.96508  21786380.480    89211612.74746
  22923440.780   120463504.40007  22923439.040    93867665.43945
  22886586.060   120269821.75708  22886585.640    93716735.22245
  21714038.880   114108149.03708  21714036.840    88915464.86747
  21181475.020   111309444.49209  21181476.600    86734655.95148
 15 02 28 01 13 30.0000000  0  6G16G18G19G21G22G27
  20444816.700   107438253.40809  20444815.900    83718130.87748
  21786251.620   114487585.61208  21786251.160    89211083.38846
  22909828.740   120391972.77108  22909827.040    93811926.54245
  22899804.260   120339283.48408  22899803.900    93770861.23046
  21701523.320   114042378.98108  21701521.160    88864215.49047
  21172973.620   111264769.31209  21172975.200    86699844.13348
 15 02 28 01 14  0.0000000  0  6G16G18G19G21G22G27
  20444009.940   107434013.94209  20444009.140    83714827.39548
  21786217.400   114487405.93208  21786216.920    89210943.39646
  22896236.220   120320543.50208  22896234.480    93756267.41045
  22913041.440   120408845.07908  22913041.160    93825065.06145
  21689080.380   113976990.59909  21689078.080    88813263.52347
  21164505.240   111220267.69109  21164506.860    86665167.55548
 15 02 28 01 14 30.0000000  0  6G16G18G19G21G22G27
  20443306.380   107430316.85109  20443305.580    83711946.54148
  21786278.360   114487726.52109  21786277.840    89211193.21746
  22882663.420   120249217.82708  22882661.600    93700688.98745
  22926297.460   120478505.96608  22926297.240    93879346.25145
  21676710.600   113911986.57708  21676708.180    88762611.04747
  21156070.160   111175940.96509  21156071.860    86630627.25548
 15 02 28 01 15  0.0000000  0  6G16G18G19G21G22G27
  20442706.600   107427164.78409  20442705.740    83709490.37448
  21786434.780   114488548.88908  21786434.340    89211834.02846
  22869110.660   120177997.31208  22869108.760    93645192.49845
  22939572.440   120548266.34108  22939572.140    93933704.96645
  21664414.540   113847370.66408  21664412.160    88712260.99947
  21147668.740   111131791.33309  21147670.460    86596224.95748
 15 02 28 01 15 30.0000000  0  6G16G18G19G21G22G27
  20442210.500   107424557.72909  20442209.640    83707458.89748
  21786686.660   114489872.71908  21786686.260    89212865.59646
  22855577.760   120106881.68708  22855575.880    93589777.73945
  22952866.000   120618123.98408  22952865.560    93988139.48945
  21652192.620   113783144.45008  21652190.280    88662214.61647
  21139301.060   111087818.91209  21139302.760    86561960.73748
 15 02 28 01 16  0.0000000  0  6G16G18G19G21G22G27
  20441818.040   107422495.37209  20441817.240    83705851.85748
  21787033.800   114491696.88408  21787033.400    89214287.03646
  22842064.680   120035870.54708  22842062.820    93534444.40445
  22966177.640   120688076.47608  22966177.020    94042647.91645
  21640045.100   113719309.11508  21640042.800    88612472.80447
  21130967.120   111044023.57309  21130968.740    86527834.50748
 15 02 28 01 16 30.0000000  0  6G16G18G19G21G22G27
  20441531.920   107420991.95909  20441531.200    83704680.36348
  21787478.780   114494035.19608  21787478.400    89216109.10346
  22828574.260   119964977.83308  22828572.300    93479203.33645
  22979509.680   120758136.16408  22979508.920    94097239.85245
  21627974.920   113655880.34808  21627972.680    88563047.81947
  21122669.560   111000419.49809  21122671.120    86493857.31448
 15 02 28 01 17  0.0000000  0  7G04G16G18G19G21G22G27
  24570398.720   129118325.71606  24570400.800   100611691.50343
  20441343.220   107420000.39909  20441342.500    83703907.70948
  21788012.540   114496840.30808  21788012.120    89218294.91346
  22815097.480   119894156.60308  22815095.420    93424017.98345
  22992852.960   120828254.36808  22992851.960    94151877.39745
  21615973.540   113592813.05408  21615971.360    88513904.48447
  21114399.420   110956960.12909  21114401.080    86459992.88248
 15 02 28 01 17 30.0000000  0  7G04G16G18G19G21G22G27
  24551276.680   129017839.39006  24551279.320   100533390.74243
  20441262.300   107419575.13009  20441261.540    83703576.32648
  21788645.240   114500165.13508  21788644.700    89220885.70146
  22801644.340   119823460.08508  22801642.340    93368929.80345
  23006217.160   120898482.22808  23006215.900    94206600.38545
  21604051.520   113530162.66008  21604049.420    88465086.01647
  21106167.100   110913699.28209  21106168.800    86426283.13748
 15 02 28 01 18  0.0000000  0  7G04G16G18G19G21G22G27
  24532181.880   128917497.09706  24532185.020   100455202.19844
  20441286.060   107419699.88509  20441285.240    83703673.52548
  21789373.700   114503993.38608  21789373.140    89223868.76846
  22788211.880   119752872.45208  22788209.960    93313926.46546
  23019598.880   120968802.35208  23019597.400    94261395.25745
  21592206.100   113467914.62408  21592204.000    88416581.06447
  21097969.580   110870621.21309  21097971.280    86392715.82148
 15 02 28 01 18 30.0000000  0  7G04G16G18G19G21G22G27
  24513114.480   128817298.43206  24513117.960   100377125.54843
  20441414.300   107420373.84109  20441413.520    83704198.68548
  21790197.700   114508323.63808  21790197.140    89227242.98646
  22774800.020   119682392.89307  22774798.160    93259007.34146
  23032997.340   121039211.91007  23032995.840    94316259.84645
  21580437.440   113406069.73008  21580435.200    88368390.25247
  21089806.740   110827725.40109  21089808.340    86359290.51448
 15 02 28 01 19  0.0000000  0  7G04G16G18G19G21G22G27
  24494074.640   128717243.95106  24494078.220   100299161.27641
  20441647.080   107421597.04709  20441646.300    83705151.82148
  21791117.040   114513155.02808  21791116.540    89231007.71246
  22761408.620   119612021.03507  22761406.760    93204172.12445
  23046412.440   121109709.70107  23046411.140    94371193.17145
  21568745.740   113344629.52909  21568743.420    88320514.78147
  21081678.600   110785012.01109  21081680.120    86326007.36648
 15 02 28 01 19 30.0000000  0  7G04G16G18G19G21G22G27
  24475062.400   128617334.01906  24475065.980   100221309.65343
  20441984.240   107423368.94009  20441983.440    83706532.50948
  21792131.520   114518486.32208  21792131.080    89235161.97146
  22748037.540   119541756.22907  22748035.740    93149420.36046
  23059843.680   121180292.40508  23059842.520    94426192.65845
  21557131.160   113283594.87209  21557128.840    88272955.33147
  21073585.180   110742480.90409  21073586.720    86292866.24848
 15 02 28 01 20  0.0000000  0  7G04G16G18G19G21G22G27
  24456077.780   128517569.23106  24456081.140   100143571.08043
  20442425.980   107425690.33109  20442425.160    83708341.37548
  21793241.220   114524317.74808  21793240.800    89239705.95446
  22734687.080   119471599.32408  22734685.360    93094752.65345
  23073291.060   121250959.37908  23073289.960    94481257.83345
  21545594.240   113222968.18509  21545591.900    88225713.76347
  21065526.640   110700132.77009  21065528.200    86259867.71048
 15 02 28 01 20 30.0000000  0  7G04G16G18G19G21G22G27
  24437121.140   128417951.85406  24437124.520   100065947.38943
  20442972.540   107428562.49709  20442971.760    83710579.42048
  21794446.240   114530650.11308  21794445.860    89244640.26946
  22721357.420   119401551.40708  22721355.700    93040169.88246
  23086754.340   121321710.08107  23086753.460    94536388.24245
  21534135.380   113162752.11308  21534133.120    88178792.16447
  21057503.300   110657969.39709  21057504.880    86227013.13648
 15 02 28 01 21  0.0000000  0  7G04G16G18G19G21G22G27
  24418192.840   128318485.18105  24418196.380    99988441.12044
  20443624.500   107431988.37009  20443623.740    83713248.92148
  21795747.060   114537485.69508  21795746.640    89249966.69246
  22708049.080   119331615.10608  22708047.280    92985674.07446
  23100233.800   121392545.30508  23100233.100    94591584.48445
  21522755.580   113102951.45408  21522753.440    88132194.25747
  21049515.660   110615993.86109  21049517.340    86194304.94048
 15 02 28 01 21 30.0000000  0  7G04G16G18G19G21G22G27
  24399292.640   128219166.31605  24399296.600    99911050.03943
  20444381.160   107435964.48009  20444380.320    83716347.17848
  21797142.820   114544820.17209  21797142.360    89255681.87746
  22694761.320   119261787.18808  22694759.560    92931262.71746
  23113728.320   121463459.36007  23113727.640    94646842.17345
  21511454.540   113043564.26708  21511452.380    88085918.54347
  21041563.180   110574203.12509  21041564.860    86161740.73548
 15 02 28 01 22  0.0000000  0  7G04G16G18G19G21G22G27
  24380421.400   128119998.88105  24380425.860    99833776.93643
  20445243.080   107440493.80009  20445242.220    83719876.50448
  21798633.940   114552655.86308  21798633.440    89261787.62546
  22681494.740   119192070.73208  22681493.020    92876938.22446
  23127238.120   121534454.48507  23127237.460    94702163.03545
  21500233.060   112984595.21408  21500230.900    88039968.64847
  21033646.540   110532600.67309  21033648.200    86129323.23848
 15 02 28 01 22 30.0000000  0  7G04G16G18G19G21G22G27
  24361579.040   128020983.86506  24361583.780    99756622.56943
  20446210.360   107445576.82009  20446209.560    83723837.28948
  21800220.380   114560992.83508  21800219.960    89268283.96446
  22668249.320   119122465.79508  22668247.660    92822700.63846
  23140763.040   121605528.91607  23140762.420    94757545.69445
  21489091.540   112926045.71409  21489089.260    87994345.67547
  21025765.780   110491187.01809  21025767.440    86097052.86548
 15 02 28 01 23  0.0000000  0  7G04G16G18G19G21G22G27
  24342765.440   127922118.95205  24342770.000    99679585.15843
  20447282.340   107451210.34909  20447281.640    83728227.04448
  21801901.460   114569827.09608  21801901.120    89275167.81046
  22655024.660   119052969.81708  22655022.980    92768547.94446
  23154302.160   121676677.87607  23154301.540    94812986.42845
  21478029.700   112867914.62709  21478027.300    87949048.73347
  21017920.480   110449959.60909  21017922.120    86064927.61448
 15 02 28 01 23 30.0000000  0  7G04G16G18G19G21G22G27
  24323981.540   127823409.07506  24323985.720    99602668.57844
  20448459.980   107457398.83109  20448459.260    83733049.22548
  21803677.880   114579162.85308  21803677.620    89282442.42646
  22641821.500   118983587.38408  22641819.820    92714483.72346
  23167856.020   121747904.50407  23167855.460    94868487.67845
  21467048.620   112810208.71009  21467046.280    87904083.09947
  21010111.540   110408923.52609  21010113.200    86032951.44948
 15 02 28 01 24  0.0000000  0  7G04G16G18G19G21G22G27
  24305226.600   127724851.11906  24305230.280    99525870.35643
  20449742.460   107464138.06809  20449741.680    83738300.56848
  21805548.820   114588995.07408  21805548.560    89290103.90046
  22628639.280   118914314.39008  22628637.520    92660504.76446
  23181423.600   121819202.73107  23181422.960    94924044.74044
  21456147.980   112752924.91609  21456145.600    87859446.37947
  21002338.240   110368075.07409  21002339.960    86001121.49548
 15 02 28 01 24 30.0000000  0  7G04G16G18G19G21G22G27
  24286501.600   127626450.39305  24286504.920    99449194.65344
  20451130.800   107471433.63109  20451129.920    83743985.41648
  21807515.100   114599328.32708  21807514.880    89298155.78446
  22615478.940   118845155.95508  22615477.100    92606615.07546
  23195005.540   121890575.89507  23195004.760    94979660.18645
  21445328.780   112696069.55208  21445326.420    87815143.51047
  20994601.800   110327419.78609  20994603.460    85969442.04848
 15 02 28 01 25  0.0000000  0  7G04G16G18G19G21G22G27
  24267806.480   127528207.48906  24267809.560    99372641.90243
  20452624.900   107479284.92409  20452623.980    83750103.29348
  21809576.640   114610161.86908  21809576.400    89306597.50946
  22602340.380   118776111.88908  22602338.440    92552814.50646
  23208601.440   121962022.07207  23208600.540    95035332.50545
  21434591.420   112639644.41309  21434589.140    87771175.88747
  20986902.200   110286957.79509  20986903.780    85937913.22348
 15 02 28 01 25 30.0000000  0  7G04G16G18G19G21G22G27
  24249141.220   127430121.75306  24249144.160    99296211.67343
  20454224.440   107487690.50309  20454223.580    83756653.08748
  21811732.900   114621493.24108  21811732.660    89315427.15046
  22589223.360   118707181.03408  22589221.380    92499102.16046
  23222210.660   122033538.41207  23222209.720    95091059.48744
  21423936.040   112583649.66909  21423933.760    87727543.63047
  20979239.140   110246688.32609  20979240.740    85906534.41948
 15 02 28 01 26  0.0000000  0  7G04G16G18G19G21G22G27
  24230506.160   127332193.62606  24230508.800    99219904.21842
  20455929.380   107496650.00809  20455928.560    83763634.50448
  21813983.880   114633321.98208  21813983.640    89324644.35546
  22576127.860   118638363.38108  22576125.800    92445478.02746
  23235832.960   122105123.68007  23235831.880    95146840.20244
  21413362.740   112528086.83109  21413360.420    87684247.93047
  20971612.820   110206611.78909  20971614.360    85875305.94648
 15 02 28 01 26 30.0000000  0  7G04G16G18G19G21G22G27
  24211901.880   127234427.20406  24211904.620    99143722.77743
  20457740.380   107506166.94309  20457739.620    83771050.28548
  21816330.000   114645650.95708  21816329.800    89334251.35546
  22563054.600   118569662.87508  22563052.500    92391945.18046
  23249468.500   122176778.99207  23249467.280    95202675.50244
  21402872.580   112472960.90409  21402870.280    87641292.67147
  20964023.960   110166732.20809  20964025.600    85844230.95248
 15 02 28 01 27  0.0000000  0  7G04G16G18G19G21G22G27
  24193328.400   127136823.25706  24193331.260    99067667.88643
  20459657.460   107516241.37609  20459656.720    83778900.48548
  21818771.140   114658479.10308  21818770.940    89344247.32546
  22550003.520   118501079.37608  22550001.500    92338503.50846
  23263117.120   122248503.33607  23263115.940    95258564.59645
  21392465.840   112418273.05909  21392463.560    87598678.76947
  20956472.660   110127050.06109  20956474.500    85813309.80448
 15 02 28 01 27 30.0000000  0  7G04G16G18G19G21G22G27
  24174785.580   127039380.53006  24174788.480    98991738.66044
  20461680.240   107526871.48309  20461679.600    83787183.67748
  21821306.760   114671803.85508  21821306.500    89354630.23846
  22536974.420   118432611.51608  22536972.420    92285151.92946
  23276778.360   122320293.28007  23276777.280    95314504.80345
  21382142.380   112364023.33109  21382140.180    87556406.27747
  20948958.800   110087564.05309  20948960.600    85782541.48848
 15 02 28 01 28  0.0000000  0  7G04G16G18G19G21G22G27
  24156273.640   126942101.30506  24156276.740    98915936.82943
  20463809.080   107538058.58409  20463808.460    83795900.88648
  21823937.200   114685626.43008  21823936.800    89365401.09046
  22523967.720   118364261.00408  22523965.660    92231891.80246
  23290452.200   122392149.00307  23290451.200    95370496.25845
  21371903.040   112310215.18909  21371900.780    87514477.86247
  20941482.640   110048276.55609  20941484.380    85751927.85548
 15 02 28 01 28 30.0000000  0  7G04G16G18G19G21G22G27
  24137793.160   126844986.90706  24137796.240    98840263.40743
  20466044.020   107549802.85009  20466043.300    83805052.24848
  21826662.240   114699946.54608  21826661.800    89376559.63046
  22510983.440   118296028.75408  22510981.400    92178723.83546
  23304138.240   122464069.29807  23304137.360    95426538.01545
  21361748.180   112256850.51109  21361745.840    87472894.99947
  20934044.440   110009188.59309  20934046.120    85721469.70448
 15 02 28 01 29  0.0000000  0  7G04G16G18G19G21G22G27
  24119344.200   126748038.36506  24119347.280    98764719.22443
  20468385.060   107562104.67709  20468384.240    83814638.07548
  21829481.820   114714763.84608  21829481.440    89388105.57946
  22498021.660   118227915.32508  22498019.760    92125648.48145
  23317836.380   122536053.19407  23317835.580    95482629.35444
  21351677.860   112203931.15609  21351675.660    87431659.16447
  20926644.400   109970301.12109  20926646.020    85691167.77948
 15 02 28 01 29 30.0000000  0  7G04G16G18G19G21G22G27
  24100926.520   126651253.38707  24100929.480    98689302.45842
  20470831.620   107574961.29309  20470830.760    83824656.20548
  21832395.320   114730074.68608  21832395.020    89400036.10846
  22485082.080   118159918.02708  22485080.180    92072663.59346
  23331545.720   122608095.89407  23331545.000    95538766.50145
  21341692.120   112151455.70909  21341689.940    87390769.20747
  20919282.040   109931611.81009  20919283.640    85661020.26348
 15 02 28 01 30  0.0000000  0  7G04G16G18G19G21G22G27
  24082540.820   126554635.41606  24082543.240    98614015.88943
  20473384.220   107588374.91209  20473383.360    83835108.36848
  21835403.100   114745880.94208  21835402.880    89412352.67946
  22472165.160   118092039.50208  22472163.260    92019771.26146
  23345266.520   122680199.07707  23345265.760    95594950.77145
  21331791.700   112099428.46909  21331789.500    87350228.51047
  20911958.060   109893123.84609  20911959.600    85631029.63948
 15 02 28 01 30 30.0000000  0  7G04G16G18G19G21G22G27
  24064187.120   126458185.82506  24064189.080    98538860.48844
  20476042.800   107602345.77909  20476042.000    83845994.74748
  21838505.100   114762182.16008  21838504.820    89425054.93246
  22459271.280   118024281.21108  22459269.360    91966972.61246
  23358998.640   122752362.06507  23358997.940    95651181.65245
  21321976.900   112047851.58909  21321974.760    87310038.75547
  20904672.680   109854838.77709  20904674.240    85601197.12448
 15 02 28 01 31  0.0000000  0  7G04G16G18G19G21G22G27
  24045865.740   126361906.69906  24045867.520    98463837.93643
  20478807.760   107616875.87809  20478807.020    83857316.89048
  21841701.480   114778979.30008  21841701.140    89438143.61546
  22446400.560   117956644.64508  22446398.660    91914268.79846
  23372742.060   122824584.66107  23372741.420    95707458.99744
  21312248.420   111996727.98209  21312246.260    87270202.18647
  20897426.240   109816758.62209  20897427.820    85571524.27648
 15 02 28 01 31 30.0000000  0  7G04G16G18G19G21G22G27
  24027576.800   126265799.28106  24027578.980    98388949.17043
  20481679.100   107631965.12209  20481678.380    83869074.73248
  21844992.300   114796272.47908  21844991.940    89451618.82946
  22433553.140   117889130.92908  22433551.320    91861660.73246
  23386496.740   122896866.34407  23386496.180    95763782.38745
  21302606.600   111946059.80709  21302604.340    87230720.49847
  20890218.980   109778884.78809  20890220.580    85542012.20848
 15 02 28 01 32  0.0000000  0  7G04G16G18G19G21G22G27
  24009320.040   126169861.34306  24009322.900    98314192.47143
  20484656.320   107647610.41309  20484655.600    83881265.85648
  21848376.680   114814057.44508  21848376.340    89465477.24446
  22420728.560   117821737.45608  22420726.780    91809146.37546
  23400261.760   122969202.17507  23400261.200    95820147.93145
  21293051.120   111895845.66809  21293048.860    87191592.61447
  20883050.520   109741214.82309  20883052.240    85512658.99448
 15 02 28 01 32 30.0000000  0  7G04G16G18G19G21G22G27
  23991096.300   126074096.39606  23991099.640    98239570.48543
  20487739.880   107663814.44409  20487739.120    83893892.35948
  21851855.100   114832336.38608  21851854.760    89479720.58646
  22407927.480   117754466.99008  22407925.600    91756727.85346
  23414037.520   123041593.89107  23414036.820    95876557.04145
  21283582.940   111846089.77809  21283580.640    87152821.80147
  20875921.660   109703752.32409  20875923.400    85483467.44548
 15 02 28 01 33  0.0000000  0  7G04G16G18G19G21G22G27
  23972905.360   125978502.88406  23972908.800    98165082.17243
  20490929.160   107680574.14509  20490928.340    83906951.85048
  21855426.920   114851106.20708  21855426.460    89494346.43046
  22395149.520   117687317.94508  22395147.540    91704403.93546
  23427823.280   123114037.84707  23427822.380    95933006.86544
  21274201.680   111796790.90809  21274199.340    87114407.10947
  20868832.000   109666495.59109  20868833.700    85454436.22148
 15 02 28 01 33 30.0000000  0  7G04G16G18G19G21G22G27
  23954747.400   125883081.85006  23954750.620    98090728.21844
  20494224.180   107697889.77509  20494223.380    83920444.54348
  21859092.040   114870366.30808  21859091.480    89509354.31646
  22382394.800   117620291.15808  22382392.780    91652175.29246
  23441618.740   123186533.21907  23441617.760    95989496.74544
  21264907.800   111747951.67309  21264905.520    87076350.58347
  20861781.680   109629445.81509  20861783.340    85425566.26948
 15 02 28 01 34  0.0000000  0  7G04G16G18G19G21G22G27
  23936623.420   125787838.74407  23936626.280    98016512.91343
  20497626.060   107715766.63109  20497625.240    83934374.54448
  21862851.240   114890120.82208  21862850.620    89524747.44646
  22369664.220   117553391.37708  22369662.280    91600045.61646
  23455424.380   123259083.12707  23455423.600    96046029.11244
  21255702.620   111699577.93109  21255700.220    87038656.75447
  20854771.720   109592608.40809  20854773.400    85396861.80048
 15 02 28 01 34 30.0000000  0  7G04G16G18G19G21G22G27
  23918532.860   125692771.45807  23918535.580    97942434.61644
  20501134.020   107734201.02209  20501133.220    83948738.99648
  21866703.760   114910366.07008  21866703.160    89540522.97646
  22356957.380   117486616.43508  22356955.500    91548013.22246
  23469239.620   123331683.74607  23469239.100    96102601.01344
  21246585.760   111651668.45609  21246583.320    87001324.70747
  20847801.840   109555981.42309  20847803.500    85368321.30348
 15 02 28 01 35  0.0000000  0  7G04G16G18G19G21G22G27
  23900475.700   125597880.25507  23900478.260    97868493.48943
  20504747.840   107753191.81409  20504747.060    83963537.00648
  21870649.300   114931100.43008  21870648.760    89556679.62046
  22344274.260   117419966.20008  22344272.360    91496077.99846
  23483064.220   123404332.94607  23483063.880    96159210.74644
  21237557.360   111604223.93609  21237554.860    86964354.95747
  20840872.020   109519564.88609  20840873.680    85339944.77948
 15 02 28 01 35 30.0000000  0  7G04G16G18G19G21G22G27
  23882452.520   125503168.18607  23882454.740    97794691.95542
  20508467.980   107772741.25309  20508467.160    83978770.32248
  21874688.120   114952325.07408  21874687.780    89573218.31246
  22331615.420   117353443.53308  22331613.460    91444242.17946
  23496898.320   123477031.81907  23496898.060    96215859.21044
  21228618.180   111557248.32009  21228615.740    86927750.59647
  20833982.920   109483362.08809  20833984.520    85311734.80648
 15 02 28 01 36  0.0000000  0  7G04G16G18G19G21G22G27
  23864463.200   125408634.94906  23864465.340    97721029.79643
  20512294.240   107792848.26109  20512293.380    83994438.10548
  21878820.040   114974038.40508  21878819.780    89590137.79046
  22318980.720   117287047.90008  22318978.740    91392505.34247
  23510741.580   123549778.28607  23510741.300    96272544.74044
  21219768.180   111510741.90509  21219765.960    86891511.84547
  20827134.440   109447372.80409  20827136.060    85283691.21648
 15 02 28 01 36 30.0000000  0  7G04G16G18G19G21G22G27
  23846507.860   125314279.11807  23846509.800    97647505.85044
  20516226.100   107813510.18609  20516225.220    84010538.29748
  21883044.520   114996237.78208  21883044.180    89607436.00846
  22306369.880   117220777.22508  22306367.820    91340865.87246
  23524593.340   123622568.92007  23524592.920    96329264.69444
  21211007.400   111464704.02909  21211005.340    86855638.19647
  20820326.320   109411595.67109  20820327.940    85255812.93548
 15 02 28 01 37  0.0000000  0  7G04G16G18G19G21G22G27
  23828586.780   125220103.33306  23828588.760    97574122.21844
  20520263.760   107834728.31409  20520262.940    84027071.89148
  21887361.620   115018924.18008  21887361.180    89625113.72946
  22293783.280   117154634.36208  22293781.280    91289325.99946
  23538453.760   123695404.48907  23538453.040    96386019.64844
  21202336.440   111419137.92409  21202334.380    86820132.13647
  20813559.080   109376033.47209  20813560.660    85228102.13248
 15 02 28 01 37 30.0000000  0  7G04G16G18G19G21G22G27
  23810700.540   125126111.11506  23810702.680    97500881.60844
  20524407.740   107856505.13109  20524406.960    84044040.82348
  21891771.640   115042099.00508  21891771.100    89643172.03846
  22281221.500   117088622.45008  22281219.660    91237888.16046
  23552322.880   123768286.25807  23552321.820    96442810.59644
  21193756.060   111374048.07409  21193754.020    86784997.20747
  20806833.340   109340689.65409  20806834.960    85200561.50148
 15 02 28 01 38  0.0000000  0  7G04G16G18G19G21G22G27
  23792849.240   125032302.89106  23792851.440    97427784.36044
  20528657.940   107878840.10909  20528657.200    84061444.68648
  21896274.360   115065761.23408  21896273.780    89661610.14146
  22268684.620   117022741.58408  22268682.940    91186552.44346
  23566200.420   123841212.76107  23566199.020    96499636.41844
  21185266.580   111329435.29309  21185264.380    86750234.00947
  20800149.320   109305564.87809  20800151.020    85173191.55048
 15 02 28 01 38 30.0000000  0  7G04G16G18G19G21G22G27
  23775032.800   124938678.35107  23775035.280    97354830.29243
  20533014.120   107901732.05509  20533013.360    84079282.55448
  21900869.520   115089908.75208  21900868.860    89680426.39746
  22256172.740   116956991.76308  22256171.060    91135318.83446
  23580086.020   123914182.13607  23580084.340    96556495.66144
  21176868.000   111285300.06609  21176865.700    86715842.92747
  20793506.940   109270659.03809  20793508.680    85145992.19648
 15 02 28 01 39  0.0000000  0  7G04G16G18G19G21G22G27
  23757251.040   124845235.70906  23757253.460    97282017.94044
  20537475.720   107925177.95009  20537475.020    84097552.07448
  21905556.380   115114538.31008  21905555.720    89699618.26546
  22243685.420   116891370.74008  22243683.660    91084185.58846
  23593979.060   123987190.50407  23593977.200    96613385.28944
  21168560.040   111241641.42809  21168557.720    86681823.22847
  20786905.880   109235970.41509  20786907.620    85118962.10948
 15 02 28 01 39 30.0000000  0  7G04G16G18G19G21G22G27
  23739504.740   124751979.63706  23739507.240    97209350.91644
  20542043.380   107949181.01809  20542042.740    84116255.75148
  21910335.580   115139652.80008  21910334.880    89719188.00346
  22231223.380   116825882.40908  22231221.620    91033155.73647
  23607880.040   124060240.47407  23607878.060    96670307.32844
  21160343.720   111198464.13309  21160341.360    86648178.58347
  20780347.040   109201503.71009  20780348.800    85092104.93748
 15 02 28 01 40  0.0000000  0  7G04G16G18G19G21G22G27
  23721794.020   124658910.30806  23721796.660    97136829.46143
  20546716.860   107973739.98509  20546716.140    84135392.59248
  21915206.780   115165250.70008  21915206.020    89739134.42146
  22218786.620   116760527.11208  22218785.000    90982229.53546
  23621788.560   124133330.26607  23621786.700    96727260.35444
  21152219.200   111155769.12809  21152216.840    86614909.76147
  20773830.520   109167259.16309  20773832.240    85065420.87148
 15 02 28 01 40 30.0000000  0  7G04G16G18G19G21G22G27
  23704118.640   124566026.72306  23704121.640    97064452.72344
  20551495.720   107998852.93009  20551494.880    84154961.10848
  21920169.340   115191328.93508  21920168.440    89759455.13546
  22206375.080   116695303.88708  22206373.440    90931406.26146
  23635704.140   124206457.02507  23635702.500    96784242.22144
  21144186.300   111113555.96909  21144184.000    86582016.39948
  20767356.180   109133236.04309  20767357.800    85038909.35548
 15 02 28 01 41  0.0000000  0  7G04G16G18G19G21G22G27
  23686478.840   124473328.63607  23686481.760    96992220.50143
  20556379.820   108024518.61809  20556378.820    84174960.33148
  21925222.940   115217885.75608  21925221.980    89780148.76646
  22193988.580   116630212.11208  22193986.840    90880685.42446
  23649626.480   124279618.72207  23649624.820    96841251.34844
  21136245.180   111071825.48809  21136242.960    86549499.15147
  20760923.940   109099434.40409  20760925.560    85012570.41648
 15 02 28 01 41 30.0000000  0  7G04G16G18G19G21G22G27
  23668875.160   124380819.78506  23668877.880    96920135.73344
  20561369.540   108050739.48409  20561368.520    84195392.16348
  21930368.020   115244923.45208  21930367.060    89801217.10546
  22181627.880   116565255.72508  22181625.960    90830070.06546
  23663555.860   124352817.47407  23663554.140    96898289.33544
  21128396.660   111030581.70709  21128394.540    86517361.15147
  20754534.580   109065858.12009  20754536.200    84986407.07348
 15 02 28 01 42  0.0000000  0  7G04G16G18G19G21G22G27
  23651307.900   124288502.36907  23651310.460    96848200.18344
  20566464.960   108077516.14209  20566464.040    84216257.08348
  21935604.600   115272442.11808  21935603.760    89822660.22346
  22169293.100   116500436.37008  22169291.160    90779561.49046
  23677492.140   124426053.39606  23677490.560    96955356.23244
  21120641.320   110989827.18309  21120639.200    86485604.38347
  20748188.540   109032509.36809  20748190.060    84960421.03748
 15 02 28 01 42 30.0000000  0  7G04G16G18G19G21G22G27
  23633776.700   124196374.56106  23633779.080    96776412.30944
  20571665.480   108104845.56609  20571664.720    84237552.72648
  21940932.160   115300438.56108  21940931.340    89844475.63646
  22156983.900   116435752.27008  22156982.120    90729158.30746
  23691434.840   124499323.12307  23691433.420    97012449.49544
  21112979.000   110949561.15509  21112976.840    86454228.26947
  20741885.480   108999386.85009  20741887.040    84934611.28748
 15 02 28 01 43  0.0000000  0  7G04G16G18G19G21G22G27
  23616281.920   124104438.53607  23616284.080    96704773.93044
  20576971.380   108132728.61809  20576970.740    84259279.76748
  21946350.600   115328912.55008  21946349.720    89866663.17046
  22144700.920   116371205.46308  22144699.220    90678862.10646
  23705383.940   124572626.54307  23705382.640    97069569.03144
  21105409.980   110909785.60709  21105407.820    86423234.34848
  20735625.860   108966492.62709  20735627.520    84908979.42948
 15 02 28 01 43 30.0000000  0  7G04G16G18G19G21G22G27
  23598823.880   124012695.89206  23598825.820    96633286.21943
  20582382.840   108161166.02209  20582382.220    84281438.77148
  21951859.980   115357864.49808  21951859.120    89889223.13346
  22132444.500   116306797.65708  22132442.820    90628674.21746
  23719339.420   124645963.74507  23719338.340    97126714.90644
  21097934.740   110870503.17109  21097932.620    86392624.67648
  20729410.080   108933828.72209  20729411.880    84883527.03148
 15 02 28 01 44  0.0000000  0  7G04G16G18G19G21G22G27
  23581402.560   123921146.48007  23581404.200    96561949.07244
  20587899.480   108190156.10109  20587898.860    84304028.42848
  21957459.860   115387292.20508  21957459.000    89912153.81246
  22120214.620   116242528.58908  22120212.740    90578594.42046
  23733300.860   124719332.98706  23733299.920    97183885.71344
  21090553.320   110831713.99909  21090551.260    86362399.35048
  20723238.180   108901395.15009  20723240.040    84858254.12648
 15 02 28 01 44 30.0000000  0  7G04G16G18G19G21G22G27
  23564018.080   123829791.14106  23564019.600    96490763.17144
  20593521.200   108219698.29109  20593520.540    84327048.30548
  21963150.060   115417194.69708  21963149.200    89935454.45746
  22108011.240   116178398.73708  22108009.060    90528623.10746
  23747268.280   124792733.16807  23747267.580    97241080.65344
  21083266.100   110793419.60209  21083263.980    86332559.57247
  20717110.340   108869192.97609  20717112.140    84833161.52148
 15 02 28 01 45  0.0000000  0  7G04G16G18G19G21G22G27
  23546670.260   123738628.64307  23546671.620    96419727.52644
  20599247.380   108249789.50209  20599246.680    84350495.99148
  21968930.020   115447568.89708  21968929.200    89959122.67346
  22095834.140   116114406.84808  22095831.700    90478759.30446
  23761241.100   124866160.88007  23761240.640    97298297.03244
  21076072.880   110755618.94209  21076070.600    86303104.51647
  20711026.300   108837220.99309  20711028.080    84808248.28848
 15 02 28 01 45 30.0000000  0  7G04G16G18G19G21G22G27
  23529359.480   123647660.27707  23529360.840    96348843.13843
  20605078.140   108280430.35309  20605077.440    84374371.96048
  21974799.660   115478414.08408  21974798.940    89983157.88646
  22083683.520   116050554.33708  22083681.080    90429004.11846
  23775219.360   124939616.22007  23775218.980    97355534.92144
  21068974.040   110718314.04709  21068971.640    86274035.77947
  20704986.360   108805481.00509  20704988.160    84783515.83748
 15 02 28 01 46  0.0000000  0  7G04G16G18G19G21G22G27
  23512086.140   123556888.26007  23512087.540    96278111.74843
  20611013.560   108311621.20809  20611012.880    84398676.51148
  21980758.960   115509730.62708  21980758.360    90007560.39546
  22071559.800   115986843.37408  22071557.460    90379359.22946
  23789203.000   125013099.88206  23789202.640    97412794.88644
  21061969.980   110681507.22409  21061967.480    86245355.14447
  20698991.080   108773975.42009  20698992.820    84758966.03148
 15 02 28 01 46 30.0000000  0  7G04G16G18G19G21G22G27
  23494850.900   123466315.77407  23494852.320    96207535.85044
  20617053.980   108343363.88209  20617053.360    84423411.05648
  21986808.280   115541520.21808  21986807.720    90032331.49346
  22059463.540   115923277.09108  22059461.360    90329827.06847
  23803191.940   125086612.71306  23803191.720    97470077.59344
  21055061.360   110645202.43309  21055058.860    86217065.70647
  20693041.100   108742707.74109  20693042.800    84734601.60548
 15 02 28 01 47  0.0000000  0  7G04G16G18G19G21G22G27
  23477653.140   123375940.20707  23477654.460    96137113.39444
  20623198.840   108375655.02409  20623198.160    84448572.96648
  21992946.800   115573778.44008  21992946.260    90057467.78646
  22047394.260   115859852.95708  22047392.200    90280405.67547
  23817185.660   125160150.77506  23817185.260    97527379.96344
  21048247.840   110609397.37809  21048245.340    86189165.67347
  20687135.940   108711675.68709  20687137.560    84710420.78448
 15 02 28 01 47 30.0000000  0  7G04G16G18G19G21G22G27
  23460493.140   123285763.43307  23460494.620    96066845.83744
  20629448.040   108408494.51309  20629447.260    84474162.17048
  21999174.520   115606505.30008  21999173.920    90082969.24846
  22035352.340   115796572.96308  22035350.360    90231096.60947
  23831184.280   125233714.25607  23831183.720    97584702.15244
  21041529.960   110574094.61209  21041527.440    86161657.03347
  20681275.940   108680881.43909  20681277.620    84686425.27148
 15 02 28 01 48  0.0000000  0  7G04G16G18G19G21G22G27
  23443370.940   123195786.05407  23443372.500    95996733.65344
  20635801.360   108441881.17809  20635800.480    84500177.73948
  22005491.080   115639698.86608  22005490.360    90108834.35646
  22023337.920   115733437.03808  22023335.980    90181899.81247
  23845187.540   125307301.30107  23845186.820    97642042.70445
  21034907.760   110539294.64009  21034905.220    86134540.18447
  20675461.260   108650325.50709  20675463.000    84662615.47048
 15 02 28 01 48 30.0000000  0  7G04G16G18G19G21G22G27
  23426286.840   123106009.13107  23426288.440    95926777.66644
  20642258.800   108475815.07509  20642257.940    84526619.72548
  22011896.400   115673358.78708  22011895.580    90135062.87246
  22011351.320   115670447.01108  22011349.380    90132816.68447
  23859195.420   125380912.28807  23859194.680    97699401.88045
  21028381.600   110504999.42209  21028379.040    86107816.64747
  20669692.280   108620009.73309  20669694.060    84638992.78348
 15 02 28 01 49  0.0000000  0  7G04G16G18G19G21G22G27
  23409241.000   123016433.18307  23409242.640    95856978.31344
  20648820.120   108510294.80609  20648819.300    84553487.03748
  22018390.100   115707483.39208  22018389.220    90161653.47846
  21999392.520   115607603.01708  21999390.600    90083847.35847
  23873207.460   125454545.16406  23873206.620    97756778.09644
  21021951.540   110471209.28109  21021949.020    86081486.68248
  20663969.160   108589934.62909  20663970.940    84615557.64148
 15 02 28 01 49 30.0000000  0  7G04G16G18G19G21G22G27
  23392236.160   122927073.75107  23392237.900    95787347.62143
  20655488.060   108545335.10109  20655487.280    84580791.14648
  22024974.820   115742086.61308  22024974.040    90188617.02646
  21987464.540   115544920.80108  21987462.600    90035004.08047
  23887226.460   125528214.79706  23887225.540    97814182.94744
  21015620.640   110437940.07709  21015618.080    86055562.63548
  20658294.940   108560116.33909  20658296.680    84592322.60948
 15 02 28 01 50  0.0000000  0  7G04G16G18G19G21G22G27
  23375267.040   122837901.59307  23375268.920    95717862.86844
  20662256.760   108580904.86209  20662256.000    84608507.82948
  22031644.720   115777137.43708  22031644.040    90215929.35346
  21975561.700   115482371.22608  21975559.800    89986264.17547
  23901246.480   125601890.15007  23901245.500    97871592.33044
  21009383.540   110405163.69509  21009381.000    86030022.60848
  20652664.080   108530525.83309  20652665.800    84569265.07248
 15 02 28 01 50 30.0000000  0  7G04G16G18G19G21G22G27
  23358336.860   122748934.02707  23358338.960    95648537.53844
  20669129.140   108617019.67309  20669128.480    84636649.22648
  22038402.680   115812650.74108  22038402.000    90243602.07546
  21963687.420   115419971.56808  21963685.500    89937641.08047
  23915270.560   125675586.57807  23915269.500    97929018.12844
  21003243.440   110372897.30709  21003240.960    86004879.98448
  20647079.880   108501180.61909  20647081.580    84546398.67848
 15 02 28 01 51  0.0000000  0  7G04G16G18G19G21G22G27
  23341445.540   122660169.77707  23341447.720    95579370.63643
  20676104.600   108653676.28309  20676104.040    84665212.80248
  22045248.100   115848623.49508  22045247.400    90271632.78746
  21951841.360   115357720.77008  21951839.620    89889133.98947
  23929298.140   125749301.48007  23929296.980    97986458.31444
  20997200.240   110341140.14809  20997197.800    85980134.15448
  20641542.220   108472080.03809  20641543.920    84523722.90148
 15 02 28 01 51 30.0000000  0  7G04G16G18G19G21G22G27
  23324593.560   122571611.85107  23324595.800    95510364.52744
  20683183.580   108690876.95509  20683183.180    84694200.32448
  22052181.160   115885056.77208  22052180.420    90300022.35746
  21940024.220   115295621.78208  21940022.700    89840745.19447
  23943329.340   125823035.94406  23943328.220    98043913.70544
  20991254.520   110309895.25509  20991252.140    85955787.49848
  20636051.740   108443227.23909  20636053.460    84501240.20948
 15 02 28 01 52  0.0000000  0  7G04G16G18G19G21G22G27
  23307781.120   122483262.31606  23307783.460    95441520.79144
  20690366.280   108728622.32209  20690365.920    84723612.28648
  22059201.760   115921950.27108  22059201.040    90328770.53846
  21928236.380   115233676.68508  21928234.940    89792476.29747
  23957364.180   125896790.46706  23957363.420    98101384.68444
  20985406.660   110279164.84209  20985404.320    85931841.73948
  20630608.880   108414624.74109  20630610.600    84478952.54748
 15 02 28 01 52 30.0000000  0  7G04G16G18G19G21G22G27
  23291007.800   122395118.60507  23291010.120    95372837.40744
  20697651.760   108766907.52609  20697651.340    84753444.89448
  22066309.180   115959300.15408  22066308.500    90357874.34546
  21916477.460   115171883.39108  21916475.960    89744325.69947
  23971402.160   125970561.22807  23971401.740    98158868.35344
  20979656.300   110248946.70709  20979653.940    85908295.15448
  20625213.260   108386270.39009  20625214.900    84456858.24848
 15 02 28 01 53  0.0000000  0  7G04G16G18G19G21G22G27
  23274273.420   122307179.04707  23274275.720    95304313.15144
  20705039.400   108805729.66309  20705038.900    84783695.88948
  22073502.740   115997102.63008  22073502.140    90387330.81846
  21904747.160   115110240.20108  21904745.500    89696292.04847
  23985442.820   126044345.18607  23985442.400    98216362.33544
  20974003.280   110219239.81509  20974000.860    85885146.92948
  20619864.600   108358162.90309  20619866.160    84434956.30848
 15 02 28 01 53 30.0000000  0  7G04G16G18G19G21G22G27
  23257578.620   122219447.31807  23257580.860    95235950.78744
  20712529.500   108845090.41409  20712528.980    84814366.59248
  22080782.760   116035359.41208  22080782.280    90417141.30646
  21893046.120   115048750.86808  21893044.360    89648378.30147
  23999486.340   126118144.25607  23999485.900    98273868.12143
  20968448.220   110190047.79609  20968445.780    85862399.91348
  20614563.580   108330306.37009  20614565.180    84413249.92548
 15 02 28 01 54  0.0000000  0  7G04G16G18G19G21G22G27
  23240923.800   122131925.60607  23240925.900    95167752.09844
  20720122.280   108884990.47409  20720121.760    84845457.53248
  22088149.220   116074070.52308  22088148.880    90447305.81246
  21881374.840   114987417.78008  21881372.980    89600586.30147
  24013532.820   126191959.09106  24013532.300    98331386.18343
  20962991.580   110161373.02009  20962989.120    85840055.95048
  20609310.880   108302703.42409  20609312.520    84391741.13248
 15 02 28 01 54 30.0000000  0  7G04G16G18G19G21G22G27
  23224308.820   122044613.44707  23224310.800    95099716.68443
  20727817.320   108925427.72009  20727816.700    84876967.06048
  22095601.640   116113233.17008  22095601.380    90477822.16046
  21869733.220   114926240.36308  21869731.300    89552915.60447
  24027581.960   126265787.22106  24027581.180    98388914.55543
  20957633.260   110133215.19709  20957630.820    85818114.80848
  20604106.480   108275353.82009  20604108.020    84370429.75648
 15 02 28 01 55  0.0000000  0  7G04G16G18G19G21G22G27
  23207733.860   121957511.67807  23207735.640    95031845.21344
  20735614.480   108966401.66309  20735613.760    84908894.78948
  22103139.740   116152846.07208  22103139.440    90508689.36546
  21858121.520   114865220.08408  21858119.520    89505367.35947
  24041633.580   126339628.38806  24041632.720    98446453.08844
  20952373.500   110105575.34009  20952371.120    85796577.27348
  20598950.600   108248258.88609  20598952.080    84349316.82348
 15 02 28 01 55 30.0000000  0  7G04G16G18G19G21G22G27
  23191198.840   121870619.20407  23191200.560    94964136.84744
  20743513.160   109007909.27209  20743512.420    84941238.36448
  22110763.080   116192906.60808  22110762.680    90539905.36046
  21846539.460   114804355.80808  21846537.460    89457940.65347
  24055687.160   126413480.13407  24055686.380    98503999.85844
  20947212.240   110078452.80609  20947209.900    85775442.83048
  20593842.960   108221418.00409  20593844.480    84328401.86048
 15 02 28 01 56  0.0000000  0  7G04G16G18G19G21G22G27
  23174704.260   121783939.14107  23174705.820    94896593.98444
  20751513.480   109049951.37209  20751512.820    84973998.42948
  22118471.760   116233415.95508  22118471.340    90571471.09246
  21834987.720   114743650.85208  21834985.640    89410638.10147
  24069743.020   126487344.24607  24069742.440    98561556.30244
  20942150.040   110051850.69209  20942147.700    85754713.92648
  20588784.240   108194834.68209  20588785.860    84307687.58348
 15 02 28 01 56 30.0000000  0  7G04G16G18G19G21G22G27
  23158250.120   121697471.21907  23158251.540    94829216.41144
  20759615.320   109092526.91209  20759614.760    85007174.15148
  22126265.320   116274371.68408  22126264.920    90603384.64046
  21823466.300   114683105.14808  21823464.160    89363459.63647
  24083800.780   126561218.59606  24083800.320    98619120.71744
  20937186.840   110025768.78209  20937184.420    85734390.37248
  20583774.600   108168509.11409  20583776.300    84287174.15648
 15 02 28 01 57  0.0000000  0  7G04G16G18G19G21G22G27
  23141836.420   121611215.95507  23141837.760    94762004.55945
  20767818.380   109135634.27009  20767817.880    85040764.30048
  22134143.600   116315772.06408  22134143.140    90635644.69246
  21811975.260   114622719.16008  21811973.060    89316405.62147
  24097860.460   126635102.63406  24097859.940    98676692.66844
  20932322.640   110000207.42509  20932320.220    85714472.44648
  20578814.320   108142442.39909  20578816.000    84266862.42948
 15 02 28 01 57 30.0000000  0  7G04G16G18G19G21G22G27
  23125463.560   121525175.27507  23125464.740    94694959.91144
  20776122.640   109179273.50609  20776122.200    85074768.88148
  22142106.480   116357617.07608  22142106.020    90668251.19246
  21800515.140   114562495.69908  21800512.900    89269478.24747
  24111921.940   126708996.90906  24111921.620    98734272.62143
  20927558.000   109975169.57209  20927555.680    85694962.44348
  20573903.700   108116636.78509  20573905.360    84246754.16748
 15 02 28 01 58  0.0000000  0  7G04G16G18G19G21G22G27
  23109131.540   121439349.72807  23109132.600    94628082.90044
  20784527.760   109223442.88409  20784527.340    85109186.56548
  22150153.700   116399905.32908  22150153.180    90701203.07446
  21789086.020   114502435.32808  21789083.820    89222677.97947
  24125985.120   126782900.18906  24125985.120    98791859.55542
  20922893.040   109950655.55909  20922890.840    85675860.62348
  20569042.880   108091093.30609  20569044.580    84226850.15948
 15 02 28 01 58 30.0000000  0  7G04G16G18G19G21G22G27
  23092840.160   121353738.70207  23092841.160    94561373.05345
  20793033.500   109268140.81509  20793033.060    85144016.10848
  22158284.660   116442634.02508  22158284.220    90734498.16446
  21777687.840   114442537.67008  21777685.620    89176004.48247
  24140049.800   126856810.53706  24140049.980    98849452.01144
  20918327.720   109926664.58309  20918325.560    85657166.36648
  20564231.920   108065811.77209  20564233.700    84207150.25648
 15 02 28 01 59  0.0000000  0  7G04G16G18G19G21G22G27
  23076589.800   121268343.48807  23076590.920    94494831.38944
  20801639.740   109313366.89009  20801639.320    85179257.19148
  22166499.240   116485802.10508  22166498.820    90768135.61646
  21766320.920   114382804.29908  21766318.740    89129459.00747
  24154115.960   126930727.90207  24154115.960    98907049.94644
  20913862.220   109903197.95409  20913860.040    85638880.68948
  20559471.220   108040794.07209  20559472.940    84187655.94948
 15 02 28 01 59 30.0000000  0  7G04G16G18G19G21G22G27
  23060380.680   121183165.39607  23060382.100    94428458.87244
  20810346.300   109359120.14809  20810345.840    85214909.06448
  22174797.400   116529408.89408  22174796.900    90802114.94246
  21754985.600   114323236.66108  21754983.420    89083042.67247
  24168183.400   127004651.96806  24168183.180    98964653.09445
  20909496.720   109880256.87109  20909494.500    85621004.53548
  20554761.040   108016041.87709  20554762.720    84168368.51648
 15 02 28 02 00  0.0000000  0  7G04G16G18G19G21G22G27
  23044212.920   121098204.71207  23044214.600    94362255.77144
  20819152.900   109405399.22209  20819152.380    85250970.66648
  22183178.720   116573452.79408  22183178.180    90836434.85446
  21743681.880   114263835.35608  21743679.740    89036755.95747
  24182251.940   127078582.06206  24182251.580    99022260.94643
  20905231.440   109857842.33409  20905229.120    85603538.67248
  20550101.620   107991556.14209  20550103.300    84149288.71548
 15 02 28 02 00 30.0000000  0  8G04G11G16G18G19G21G22G27
  23028090.120   121013479.20207  23028091.800    94296235.94245
  24682841.880   129709207.16406  24682841.000   101072114.30243
  20828062.540   109452219.53909  20828061.940    85287454.01548
  22191646.200   116617949.17408  22191645.480    90871107.36046
  21732413.200   114204618.27708  21732411.040    88990612.77747
  24196324.580   127152534.61205  24196324.080    99079886.27844
  20901069.640   109835971.64409  20901067.200    85586496.58248
  20545496.240   107967354.92209  20545497.980    84130430.62548
 15 02 28 02 01  0.0000000  0  8G04G11G16G18G19G21G22G27
  23012000.020   120928924.84307  23012001.660    94230349.47844
  24665312.100   129617088.49906  24665311.560   101000333.59643
  20837062.660   109499515.57309  20837062.100    85324308.05948
  22200187.180   116662832.18708  22200186.420    90906081.12946
  21721167.500   114145522.12708  21721165.420    88944563.84547
  24210388.900   127226444.29505  24210388.340    99137478.17944
  20896999.180   109814581.00109  20896996.680    85569828.55948
  20540933.020   107943374.98209  20540934.720    84111744.95348
 15 02 28 02 01 30.0000000  0  8G04G11G16G18G19G21G22G27
  22995957.260   120844619.25007  22995958.880    94164656.85044
  24647802.500   129525075.98406  24647802.160   100928635.61443
  20846167.820   109547363.33009  20846167.260    85361592.01648
  22208816.060   116708177.09008  22208815.320    90941414.81746
  21709959.620   114086624.73508  21709957.620    88898669.77747
  24224459.540   127300386.52506  24224458.980    99195095.49343
  20893034.760   109793747.72309  20893032.220    85553594.84848
  20536426.640   107919694.12109  20536428.380    84093292.33448
 15 02 28 02 02  0.0000000  0  8G04G11G16G18G19G21G22G27
  22979955.460   120760528.93407  22979956.920    94099131.94144
  24630306.920   129433135.88306  24630307.000   100856994.04142
  20855371.200   109595727.24309  20855370.680    85399278.17148
  22217526.060   116753948.45408  22217525.380    90977080.80746
  21698783.280   114027892.81608  21698781.300    88852904.65847
  24238530.220   127374327.58307  24238529.460    99252711.91243
  20889169.960   109773438.46709  20889167.500    85537769.46748
  20531971.000   107896279.62709  20531972.820    84075047.26848
 15 02 28 02 02 30.0000000  0  8G04G11G16G18G19G21G22G27
  22963996.120   120676661.50308  22963997.460    94033780.74444
  24612826.480   129341275.59306  24612826.600   100785414.66944
  20864673.880   109644612.73009  20864673.300    85437370.74548
  22226318.260   116800151.63008  22226317.620    91013083.27546
  21687640.020   113969334.18508  21687638.000    88807274.55847
  24252601.840   127448273.01307  24252601.020    99310331.70744
  20885406.180   109753660.14509  20885403.780    85522357.79248
  20527567.580   107873139.50709  20527569.400    84057016.00548
 15 02 28 02 03  0.0000000  0  8G04G11G16G18G19G21G22G27
  22948078.800   120593015.22807  22948080.280    93968601.87944
  24595360.880   129249493.20907  24595361.200   100713896.03143
  20874075.180   109694016.59809  20874074.500    85475867.25148
  22235191.980   116846782.91208  22235191.360    91049419.34346
  21676529.440   113910947.49908  21676527.360    88761778.43547
  24266673.700   127522220.27206  24266673.020    99367952.94644
  20881743.360   109734412.18509  20881740.980    85507359.39848
  20523216.200   107850272.71409  20523217.960    84039197.72948
 15 02 28 02 03 30.0000000  0  8G04G11G16G18G19G21G22G27
  22932203.940   120509592.40408  22932205.600    93903597.11044
  24577910.520   129157791.05807  24577910.800   100642439.89843
  20883575.080   109743939.12509  20883574.380    85514767.90948
  22244147.040   116893842.32708  22244146.480    91086089.01145
  21665452.200   113852736.17608  21665450.140    88716418.98147
  24280745.840   127596170.24006  24280745.380    99425576.26944
  20878181.820   109715696.39209  20878179.400    85492775.67248
  20518917.420   107827682.08309  20518919.080    84021594.62948
 15 02 28 02 04  0.0000000  0  8G04G11G16G18G19G21G22G27
  22916371.280   120426391.13507  22916373.000    93838765.00844
  24560474.960   129066167.16307  24560475.100   100571044.69843
  20893172.820   109794376.06509  20893172.220    85554069.41648
  22253182.740   116941325.57708  22253182.140    91123088.94846
  21654407.800   113794697.75608  21654405.780    88671194.25447
  24294817.800   127670120.03505  24294817.700    99483199.44944
  20874721.140   109697510.58709  20874718.680    85478604.92548
  20514670.860   107805366.00009  20514672.480    84004205.47548
 15 02 28 02 04 30.0000000  0  8G04G11G16G18G19G21G22G27
  22900581.240   120343414.36207  22900583.100    93774107.80444
  24543054.680   128974624.05406  24543054.940   100499712.47943
  20902868.720   109845328.66009  20902868.220    85593772.72348
  22262299.240   116989233.58908  22262298.580    91160419.85646
  21643397.000   113736836.27608  21643395.080    88626107.40847
  24308889.900   127744071.53405  24308890.380    99540823.96343
  20871361.900   109679857.86409  20871359.460    85464849.56548
  20510477.220   107783328.38109  20510478.860    83987033.30048
 15 02 28 02 05  0.0000000  0  8G04G11G16G18G19G21G22G27
  22884833.560   120260660.24707  22884835.400    93709624.11944
  24525649.300   128883160.04606  24525649.880   100428441.89343
  20912662.100   109896793.00909  20912661.580    85633874.80148
  22271495.920   117037562.28508  22271495.040    91198078.57845
  21632419.640   113679150.38808  21632417.780    88581157.37747
  24322961.640   127818020.49606  24322962.380    99598446.48443
  20868103.700   109662736.07609  20868101.300    85451507.91848
  20506336.300   107761567.73309  20506337.900    83970076.94948
 15 02 28 02 05 30.0000000  0  8G04G11G16G18G19G21G22G27
  22869128.140   120178128.37007  22869129.900    93645313.61444
  24508258.840   128791774.58206  24508259.680   100357232.54742
  20922552.420   109948766.80509  20922551.880    85674373.85048
  22280772.260   117086309.57008  22280771.200    91236063.47846
  21621475.620   113621639.47208  21621473.840    88536343.70347
  24337033.080   127891966.40406  24337033.540    99656066.70343
  20864946.480   109646144.62809  20864944.100    85438579.52948
  20502248.100   107740084.32309  20502249.640    83953336.62548
 15 02 28 02 06  0.0000000  0  8G04G11G16G18G19G21G22G27
  22853465.340   120095820.38307  22853467.140    93581177.54845
  24490883.700   128700469.12106  24490884.500   100286085.49843
  20932539.620   110001249.70909  20932539.100    85715269.59548
  22290128.040   117135474.47908  22290126.840    91274373.78845
  21610565.460   113564306.04208  21610563.700    88491668.31147
  24351103.980   127965909.20406  24351104.040    99713684.46944
  20861890.560   109630085.47909  20861888.140    85426065.91948
  20498213.080   107718880.24709  20498214.640    83936813.96748
 15 02 28 02 06 30.0000000  0  8G04G11G16G18G19G21G22G27
  22837845.360   120013737.25007  22837847.220    93517216.68944
  24473523.960   128609244.16206  24473524.840   100215001.18444
  20942623.460   110054240.47209  20942622.960    85756561.08948
  22299563.080   117185055.87008  22299561.920    91313008.64246
  21599689.420   113507151.35109  21599687.560    88447132.19747
  24365174.360   128039849.01706  24365174.220    99771299.91843
  20858935.960   109614558.74609  20858933.520    85413967.17248
  20494231.480   107697956.99309  20494233.160    83920510.13048
 15 02 28 02 07  0.0000000  0  8G04G11G16G18G19G21G22G27
  22822268.420   119931879.75707  22822270.120    93453431.67345
  24456179.880   128518100.60406  24456180.880   100143980.31743
  20952803.720   110107738.02109  20952803.240    85798247.47648
  22309077.000   117235052.28208  22309075.960    91351966.87245
  21588847.580   113450176.30109  21588845.600    88402736.06847
  24379244.080   128113785.20105  24379243.660    99828912.50644
  20856082.780   109599565.07409  20856080.360    85402283.80148
  20490303.620   107677315.99909  20490305.320    83904426.23048
 15 02 28 02 07 30.0000000  0  8G04G11G16G18G19G21G22G27
  22806734.600   119850248.85307  22806736.200    93389823.21744
  24438851.400   128427039.42106  24438852.480   100073023.61144
  20963080.180   110161741.19809  20963079.680    85840327.86248
  22318669.780   117285462.50508  22318668.660    91391247.57345
  21578040.180   113393382.56608  21578038.120    88358481.22647
  24393313.000   128187717.47505  24393312.680    99886521.99443
  20853331.240   109585105.38109  20853328.760    85391016.51248
  20486429.760   107656958.88209  20486431.580    83888563.54448
 15 02 28 02 08  0.0000000  0  8G04G11G16G18G19G21G22G27
  22791243.720   119768843.85807  22791245.300    93326390.79844
  24421538.520   128336059.97406  24421539.760   100002130.61343
  20973452.300   110216247.14909  20973451.760    85882800.01847
  22328340.840   117336284.01908  22328339.660    91430848.75945
  21567267.200   113336770.35808  21567265.120    88314367.82747
  24407380.820   128261643.89305  24407380.740    99944126.96443
  20850681.180   109571179.03309  20850678.580    85380164.82048
  20482610.000   107636885.76309  20482611.820    83872922.14548
 15 02 28 02 08 30.0000000  0  8G04G11G16G18G19G21G22G27
  22775796.680   119687669.51408  22775798.340    93263138.09045
  24404241.740   128245165.85406  24404243.380    99931304.06344
  20983920.640   110271259.00709  20983920.120    85925666.38547
  22338090.420   117387518.72808  22338089.240    91470771.90745
  21556529.620   113280344.35109  21556527.500    88270399.52747
  24421448.140   128335568.08506  24421448.300   100001730.22343
  20848133.380   109557790.31709  20848130.780    85369732.06548
  20478845.240   107617101.68209  20478847.060    83857505.97948
 15 02 28 02 09  0.0000000  0  8G04G11G16G18G19G21G22G27
  22760392.800   119606721.76508  22760394.540    93200061.95244
  24386960.520   128154353.74906  24386962.500    99860541.45743
  20994483.980   110326769.91709  20994483.480    85968921.62548
  22347917.440   117439160.55008  22347916.340    91511012.29045
  21545826.840   113224101.23609  21545824.760    88226573.73747
  24435514.120   128409485.10106  24435514.100   100059327.87943
  20845686.980   109544934.57909  20845684.440    85359714.61548
  20475134.820   107597603.24609  20475136.620    83842312.38948
 15 02 28 02 09 30.0000000  0  8G04G11G16G18G19G21G22G27
  22745032.260   119526001.21708  22745034.000    93137162.86945
  24369695.200   128063624.73706  24369697.220    99789843.60144
  21005142.140   110382778.70009  21005141.680    86012564.82348
  22357821.680   117491207.97508  22357820.680    91551568.72245
  21535159.160   113168042.23109  21535157.120    88182891.39747
  24449578.640   128483394.80206  24449578.660   100116919.80343
  20843342.140   109532612.53209  20843339.660    85350113.03148
  20471479.040   107578391.88509  20471480.840    83827342.49749
 15 02 28 02 10  0.0000000  0  9G04G11G16G18G19G21G22G27G32
  22729716.460   119445516.22407  22729718.260    93074447.31444
  24352447.280   127972986.56806  24352449.280    99719216.50843
  21015896.360   110439292.17109  21015895.940    86056601.28348
  22367804.280   117543667.16508  22367803.400    91592446.01345
  21524528.220   113112176.00709  21524526.180    88139359.28947
  24463642.960   128557303.72605  24463642.720   100174511.16241
  20841100.460   109520832.49509  20841097.980    85340933.78748
  20467879.560   107559476.47909  20467881.340    83812603.20848
  24495506.980   128724758.77606  24495510.760   100305015.03844
 15 02 28 02 10 30.0000000  0  9G04G11G16G18G19G21G22G27G32
  22714440.320   119365239.72408  22714442.160    93011894.23845
  24335211.460   127882411.78006  24335213.460    99648638.79144
  21026740.860   110496280.40109  21026740.440    86101007.68248
  22377859.660   117596508.61708  22377858.900    91633621.16345
  21513928.920   113056476.12809  21513926.760    88095956.78647
  24477701.560   128631183.71705  24477701.260   100232079.95243
  20838956.760   109509566.96309  20838954.160    85332155.46148
  20464331.360   107540830.44709  20464333.080    83798073.83248
  24472833.540   128605610.87006  24472836.860   100212172.85043
 15 02 28 02 11  0.0000000  0  9G04G11G16G18G19G21G22G27G32
  22699210.760   119285207.70108  22699212.520    92949531.64645
  24317994.520   127791936.10506  24317996.620    99578138.34843
  21037682.120   110553777.16509  21037681.660    86145810.34348
  22387994.160   117649766.06308  22387993.540    91675120.46745
  21503368.180   113000979.13809  21503365.980    88052712.38847
  24491761.500   128705069.79205  24491760.900   100289653.53343
  20836917.640   109498851.36509  20836914.980    85323805.65248
  20460841.380   107522490.54409  20460843.060    83783782.99849
  24450167.640   128486500.55706  24450170.640   100119360.02243
 15 02 28 02 11 30.0000000  0  9G04G11G16G18G19G21G22G27G32
  22684025.300   119205407.76708  22684027.100    92887349.94145
  24300794.160   127701547.81605  24300796.220    99507705.98342
  21048717.620   110611768.58909  21048717.100    86190998.44948
  22398205.000   117703425.23008  22398204.500    91716932.80145
  21492843.800   112945673.31909  21492841.640    88009616.95547
  24505820.200   128778948.70705  24505819.480   100347221.48943
  20834980.800   109488673.22909  20834978.100    85315874.63948
  20457407.440   107504445.07809  20457409.080    83769721.58848
  24427506.880   128367417.63506  24427509.980   100026568.55941
 15 02 28 02 12  0.0000000  0  9G04G11G16G18G19G21G22G27G32
  22668883.540   119125837.77608  22668885.320    92825347.37444
  24283610.000   127611244.42806  24283612.020    99437339.74543
  21059846.360   110670249.78209  21059845.760    86236568.18948
  22408491.520   117757481.73108  22408491.000    91759054.76445
  21482355.440   112890556.70709  21482353.240    87966668.95047
  24519877.100   128852817.22705  24519876.420   100404781.35143
  20833145.760   109479030.05509  20833143.060    85308360.49148
  20454029.280   107486692.54309  20454030.900    83755888.44249
  24404851.200   128248362.06906  24404854.480    99933798.42243
 15 02 28 02 12 30.0000000  0  9G04G11G16G18G19G21G22G27G32
  22653785.840   119046499.22908  22653787.560    92763525.17345
  24266442.460   127521027.40505  24266444.360    99367040.83844
  21071068.100   110729220.03709  21071067.500    86282519.02748
  22418853.460   117811934.57108  22418852.900    91801485.53845
  21471903.600   112835631.82809  21471901.340    87923870.35547
  24533932.060   128926675.87305  24533931.260   100462333.51644
  20831412.720   109469922.85709  20831410.020    85301263.97848
  20450707.240   107469235.17909  20450708.880    83742285.29949
  24382201.520   128129337.63106  24382204.460    99841052.48344
 15 02 28 02 13  0.0000000  0  9G04G11G16G18G19G21G22G27G32
  22638732.300   118967392.59708  22638734.020    92701883.67245
  24249291.580   127430897.20206  24249293.240    99296809.57644
  21082382.620   110788678.21209  21082382.080    86328850.05248
  22429290.600   117866781.88608  22429289.880    91844223.71245
  21461488.360   112780899.51909  21461486.080    87881221.80947
  24547985.000   129000523.80406  24547984.260   100519877.34644
  20829781.640   109461351.49309  20829778.960    85294584.99948
  20447441.580   107452073.93309  20447443.200    83728912.88949
  24359557.980   128010346.67506  24359560.880    99748332.59043
 15 02 28 02 13 30.0000000  0  9G04G11G16G18G19G21G22G27G32
  22623723.200   118888519.16008  22623724.740    92640423.89445
  24232157.280   127340854.64405  24232158.760    99226646.59644
  21093789.700   110848623.20909  21093789.260    86375560.43147
  22439802.600   117922022.79508  22439801.840    91887268.57045
  21451110.160   112726361.76509  21451107.900    87838724.86447
  24562036.100   129074361.64206  24562035.440   100577413.28942
  20828252.780   109453317.38409  20828250.120    85288324.66748
  20444232.620   107435210.81809  20444234.320    83715772.80249
  24336921.400   127891392.84106  24336924.680    99655641.66543
 15 02 28 02 14  0.0000000  0  9G04G11G16G18G19G21G22G27G32
  22608758.680   118809879.56208  22608760.040    92579146.31245
  24215039.780   127250901.13806  24215041.360    99156553.05544
  21105289.020   110909053.05309  21105288.600    86422648.61148
  22450389.200   117977655.82208  22450388.500    91930618.97945
  21440769.240   112672019.86909  21440767.000    87796380.54247
  24576085.080   129148188.73706  24576084.440   100634940.86343
  20826826.180   109445820.59309  20826823.500    85282483.01948
  20441080.680   107418647.25109  20441082.420    83702866.12249
  24314292.500   127772479.04706  24314295.880    99562981.87543
 15 02 28 02 14 30.0000000  0  9G04G11G16G18G19G21G22G27G32
  22593838.460   118731472.81408  22593839.740    92518050.17145
  24197939.060   127161035.20506  24197940.020    99086527.68943
  21116880.000   110969964.51309  21116879.580    86470112.07247
  22461049.860   118033677.75808  22461049.140    91974272.44145
  21430465.520   112617873.46309  21430463.240    87754188.54147
  24590131.700   129222015.92905  24590130.980   100692477.36144
  20825501.560   109438859.68309  20825498.900    85277058.94248
  20437985.580   107402382.82209  20437987.380    83690192.55149
  24291671.520   127653606.47206  24291674.800    99470354.14443
 15 02 28 02 15  0.0000000  0  9G04G11G16G18G19G21G22G27G32
  22578963.060   118653301.73308  22578964.260    92457137.67645
  24180855.340   127071259.26906  24180856.120    99016572.51543
  21128562.880   111031358.59109  21128562.480    86517951.59747
  22471784.640   118090088.83808  22471783.760    92018229.12945
  21420199.620   112563925.83109  21420197.320    87712151.42947
  24604175.980   129295819.15205  24604175.220   100749986.34443
  20824279.340   109432436.79009  20824276.700    85272054.09648
  20434948.100   107386420.99309  20434949.940    83677754.75949
  24269059.300   127534780.04606  24269062.500    99377762.40943
 15 02 28 02 15 30.0000000  0  9G04G11G16G18G19G21G22G27G32
  22564132.180   118575364.64408  22564133.360    92396407.50345
  24163788.220   126981571.98606  24163789.380    98946686.34344
  21140336.920   111093231.41209  21140336.540    86566164.17547
  22482592.700   118146885.17708  22482591.740    92062486.01245
  21409971.280   112510175.89409  21409968.980    87670268.36547
  24618218.000   129369608.83906  24618216.960   100807484.77843
  20823159.100   109426549.80209  20823156.420    85267466.84348
  20431968.060   107370760.72509  20431969.860    83665551.94649
  24246455.900   127416000.27706  24246458.920    99285207.01344
 15 02 28 02 16  0.0000000  0  9G04G11G16G18G19G21G22G27G32
  22549345.820   118497661.60108  22549346.880    92335859.72245
  24146738.140   126891973.46106  24146739.660    98876869.41142
  21152201.520   111155580.10709  21152201.120    86614747.56147
  22493473.680   118204064.57908  22493472.540    92107041.39545
  21399780.780   112456624.58609  21399778.500    87628540.07247
  24632257.440   129443384.51905  24632256.360   100864972.27242
  20822140.780   109421198.46309  20822138.060    85263296.97948
  20429045.640   107355402.92309  20429047.400    83653584.83049
  24223861.920   127297269.74006  24223864.000    99192689.92643
 15 02 28 02 16 30.0000000  0  9G04G11G16G18G19G21G22G27G32
  22534604.540   118420195.92208  22534605.600    92275496.87845
  24129705.500   126802467.16106  24129707.140    98807124.28344
  21164156.920   111218406.31309  21164156.520    86663703.03447
  22504427.740   118261628.34308  22504426.540    92151896.28245
  21389628.820   112403275.93409  21389626.700    87586969.70647
  24646294.420   129517147.98505  24646293.520   100922450.26544
  20821224.960   109416385.61509  20821222.160    85259546.71648
  20426181.540   107340351.67109  20426183.240    83641856.57749
  24201278.360   127178593.92606  24201280.720    99100215.51844
 15 02 28 02 17  0.0000000  0  9G04G11G16G18G19G21G22G27G32
  22519908.500   118342968.06308  22519909.640    92215319.34445
  24112690.560   126713053.25606  24112691.960    98737451.17144
  21176202.840   111281708.09909  21176202.360    86713029.09347
  22515454.460   118319574.43108  22515453.360    92197049.08645
  21379515.620   112350130.92709  21379513.600    87545558.01647
  24660328.760   129590899.04505  24660328.140   100979918.62542
  20820411.640   109412111.51309  20820408.840    85256216.24948
  20423375.960   107325607.92609  20423377.580    83630367.94449
  24178705.680   127059975.37406  24178708.380    99007785.75943
 15 02 28 02 17 30.0000000  0  9G04G11G16G18G19G21G22G27G32
  22505257.520   118265976.99508  22505258.740    92155326.34545
  24095693.080   126623730.87206  24095694.320    98667849.42044
  21188338.720   111345482.21909  21188338.140    86762723.19847
  22526553.260   118377899.42608  22526552.300    92242497.12045
  21369441.120   112297189.11209  21369439.060    87504304.65847
  24674360.060   129664635.81905  24674359.880   101037375.86643
  20819700.420   109408374.26609  20819697.740    85253304.12148
  20420628.860   107311171.46609  20420630.360    83619118.75149
  24156144.180   126941415.45906  24156147.160    98915401.59744
 15 02 28 02 18  0.0000000  0  9G04G11G16G18G19G21G22G27G32
  22490651.360   118189221.02208  22490652.520    92095516.52145
  24078712.720   126534498.10707  24078713.860    98598317.44143
  21200563.660   111409724.40009  21200563.000    86812782.02447
  22537723.480   118436599.54708  22537722.540    92288237.48645
  21359405.120   112244449.62009  21359402.980    87463208.95447
  24688388.240   129738355.59806  24688388.440   101094819.79843
  20819090.920   109405171.64009  20819088.320    85250808.57848
  20417939.980   107297041.23509  20417941.440    83608108.18348
  24133594.040   126822914.72206  24133597.180    98823063.59844
 15 02 28 02 18 30.0000000  0  9G04G11G16G18G19G21G22G27G32
  22476090.100   118112701.56508  22476091.280    92035891.01345
  24061749.760   126445356.74107  24061750.680    98528856.70944
  21212877.500   111474433.74309  21212876.840    86863204.87847
  22548965.000   118495673.94408  22548964.000    92334269.48645
  21349408.000   112191914.58909  21349405.900    87422272.58147
  24702413.400   129812058.78606  24702413.720   101152250.81142
  20818583.320   109402504.67809  20818580.720    85248730.43648
  20415309.740   107283219.47209  20415311.280    83597337.98549
  24111055.860   126704476.85906  24111059.040    98730774.60843
 15 02 28 02 19  0.0000000  0  9G04G11G16G18G19G21G22G27G32
  22461574.200   118036420.70508  22461575.500    91976451.41145
  24044804.400   126356308.56206  24044805.240    98459468.56344
  21225280.100   111539609.93009  21225279.520    86913991.50147
  22560277.640   118555122.07408  22560276.700    92380592.69445
  21339450.320   112139586.84309  21339448.380    87381497.72448
  24716435.760   129885746.28406  24716435.860   101209669.59144
  20818177.880   109400374.37109  20818175.220    85247070.46748
  20412738.720   107269708.87309  20412740.360    83586810.24549
  24088530.540   126586106.16806  24088533.460    98638537.88244
 15 02 28 02 19 30.0000000  0  9G04G11G16G18G19G21G22G27G32
  22447103.640   117960377.85908  22447105.040    91917197.26945
  24027876.740   126267352.85607  24027877.380    98390152.48643
  21237771.060   111605250.74309  21237770.600    86965140.18947
  22571661.020   118614941.32208  22571660.080    92427205.09745
  21329532.180   112087466.57909  21329530.280    87340884.53348
  24730455.080   129959416.95206  24730454.500   101267075.27043
  20817874.440   109398779.95609  20817871.780    85245828.07648
  20410226.920   107256509.60909  20410228.660    83576525.11549
  24066018.200   126467804.45506  24066021.240    98546354.92543
 15 02 28 02 20  0.0000000  0  9G04G11G16G18G19G21G22G27G32
  22432678.560   117884573.46808  22432679.940    91858128.93944
  24010966.880   126178490.42207  24010967.120    98320909.08643
  21250350.040   111671353.84209  21250349.580    87016649.07747
  22583114.580   118675129.58508  22583113.500    92474105.04445
  21319653.760   112035554.82909  21319651.760    87300433.82347
  24744471.200   130033070.44606  24744470.080   101324467.59943
  20817672.980   109397721.32409  20817670.360    85245003.17448
  20407774.640   107243622.87709  20407776.400    83566483.49948
  24043519.480   126349574.43106  24043522.760    98454227.84144
 15 02 28 02 20 30.0000000  0  9G04G11G16G18G19G21G22G27G32
  22418299.180   117809008.69608  22418300.400    91799247.32544
  23994074.920   126089722.43907  23994075.000    98251739.27043
  21263016.720   111737917.60309  21263016.160    87068516.92847
  22594638.160   118735686.04608  22594636.920    92521291.90545
  21309815.340   111983853.56009  21309813.280    87260147.12847
  24758484.140   130106707.13006  24758482.420   101381846.78844
  20817573.580   109397198.83909  20817570.940    85244596.04948
  20405382.140   107231050.49109  20405384.040    83556686.84549
  24021035.060   126231419.57006  24021038.280    98362159.27944
 15 02 28 02 21  0.0000000  0  9G04G11G16G18G19G21G22G27G32
  22403965.440   117733684.51808  22403966.660    91740553.18145
  23977201.040   126001049.98407  23977201.280    98182643.89444
  21275770.840   111804940.93009  21275770.280    87120742.88047
  22606231.520   118796609.18908  22606230.180    92568764.48245
  21300017.300   111932364.39409  21300015.180    87220025.70648
  24772493.660   130180327.18205  24772491.760   101439213.03343
  20817576.280   109397213.01209  20817573.680    85244607.09948
  20403049.880   107218794.22209  20403051.800    83547136.49749
  23998565.640   126113343.27706  23998568.800    98270151.92844
 15 02 28 02 21 30.0000000  0  9G04G11G16G18G19G21G22G27G32
  22389677.480   117658600.82608  22389678.700    91682046.44745
  23960345.360   125912473.14307  23960345.640    98113623.06144
  21288611.980   111872421.70709  21288611.440    87173325.30047
  22617894.180   118857896.91708  22617892.800    92616521.14545
  21290259.860   111881088.29309  21290257.720    87180070.30547
  24786499.700   130253929.59705  24786498.040   101496565.51043
  20817680.980   109397763.09409  20817678.400    85245035.74048
  20400777.940   107206854.82909  20400779.840    83537833.08049
  23976111.680   125995347.75906  23976114.960    98178207.54244
 15 02 28 02 22  0.0000000  0  9G04G11G16G18G19G21G22G27G32
  22375435.500   117583759.17108  22375436.600    91623728.29045
  23943508.060   125823992.92606  23943508.320    98044677.50244
  21301539.760   111940357.86809  21301539.320    87226262.55247
  22629625.800   118919547.84008  22629624.580    92664560.82145
  21280543.220   111830026.99209  21280541.100    87140282.27447
  24800502.360   130327514.59805  24800501.160   101553904.44942
  20817887.780   109398849.71409  20817885.140    85245882.46848
  20398566.580   107195234.26609  20398568.460    83528778.09649
  23953673.720   125877436.69406  23953677.180    98086328.98744
 15 02 28 02 22 30.0000000  0  9G04G11G16G18G19G21G22G27G32
  22361239.240   117509157.44908  22361240.280    91565597.13645
  23926688.680   125735607.51206  23926689.100    97975805.78243
  21314553.700   112008746.36809  21314553.300    87279552.27447
  22641425.860   118981558.23308  22641424.720    92712880.60845
  21270867.420   111779180.13409  21270865.240    87100661.34347
  24814501.240   130401079.80305  24814500.380   101611227.98744
  20818196.180   109400470.30709  20818193.500    85247145.27148
  20396415.700   107183931.51009  20396417.600    83519970.75449
  23931252.000   125759610.66406  23931255.300    97994516.62743
 15 02 28 02 23  0.0000000  0  9G04G11G16G18G19G21G22G27G32
  22347088.940   117434796.99808  22347089.880    91507653.94545
  23909887.720   125647318.74407  23909888.220    97907009.39744
  21327653.580   112077585.97509  21327653.080    87333193.51247
  22653294.120   119043926.76008  22653293.120    92761479.45445
  21261232.800   111728549.43509  21261230.480    87061208.85548
  24828496.480   130474625.97105  24828496.260   101668536.64443
  20818606.220   109402625.31309  20818603.560    85248824.50348
  20394325.720   107172948.56709  20394327.560    83511412.61349
  23908847.120   125641873.24206  23908850.300    97902773.35344
 15 02 28 02 23 30.0000000  0  9G04G11G16G18G19G21G22G27G32
  22332984.840   117360679.23108  22332985.700    91449899.87445
  23893105.260   125559127.41706  23893105.940    97838288.90544
  21340838.900   112146875.04709  21340838.340    87387184.97847
  22665230.340   119106652.49808  22665229.680    92810356.63445
  21251639.580   111678136.69509  21251637.140    87021926.19647
  24842488.080   130548153.11905  24842488.240   101725830.51441
  20819118.140   109405315.61509  20819115.480    85250920.85448
  20392296.960   107162287.34809  20392298.740    83503105.17548
  23886459.860   125524227.91706  23886462.740    97811101.80344
 15 02 28 02 24  0.0000000  0  9G04G11G16G18G19G21G22G27G32
  22318926.380   117286801.81208  22318927.260    91392333.09545
  23876341.120   125471032.16507  23876342.020    97769643.32643
  21354108.760   112216609.02309  21354108.240    87441523.12747
  22677233.760   119169730.73308  22677233.300    92859508.51545
  21242087.560   111627941.00609  21242085.180    86982812.67447
  24856475.520   130621658.59505  24856475.460   101783107.51041
  20819731.400   109408538.44909  20819728.720    85253432.15648
  20390329.220   107151946.65809  20390330.900    83495047.48648
  23864090.240   125406675.16706  23864092.800    97719502.37444
 15 02 28 02 24 30.0000000  0  9G04G11G16G18G19G21G22G27G32
  22304914.220   117213167.84708  22304915.180    91334956.02145
  23859595.680   125383035.44307  23859596.580    97701074.47244
  21367463.240   112286788.08509  21367462.880    87496208.10247
  22689304.420   119233162.17708  22689304.120    92908935.60645
  21232577.480   111577965.58509  21232575.240    86943870.79848
  24870459.460   130695144.16205  24870459.080   101840368.92941
  20820446.300   109412295.52109  20820443.660    85256359.74948
  20388423.040   107141929.87209  20388424.740    83487242.20048
  23841738.940   125289219.96105  23841741.720    97627979.01544
 15 02 28 02 25  0.0000000  0  9G04G11G16G18G19G21G22G27G32
  22290947.900   117139774.61408  22290948.940    91277766.50045
  23842868.600   125295134.79807  23842869.660    97632580.53643
  21380901.800   112357408.14509  21380901.480    87551236.70847
  22701441.380   119296942.13808  22701441.180    92958634.26745
  21223109.160   111528209.42209  21223107.000    86905099.76248
  24884439.160   130768607.16205  24884438.880   101897612.80544
  20821262.320   109416583.81909  20821259.700    85259701.28848
  20386578.280   107132235.49509  20386579.940    83479688.13348
  23819406.340   125171862.48406  23819409.020    97536531.73241
 15 02 28 02 25 30.0000000  0  9G04G11G16G18G19G21G22G27G32
  22277028.420   117066627.90408  22277029.580    91220769.11045
  23826161.040   125207336.51406  23826162.020    97564166.31643
  21394424.920   112428472.00309  21394424.500    87606611.11847
  22713645.340   119361074.13108  22713645.080    93008607.24045
  21213683.720   111478678.50509  21213681.620    86866504.24248
  24898415.200   130842052.33905  24898415.220   101954842.77043
  20822180.380   109421408.31009  20822177.800    85263460.63548
  20384796.160   107122869.95509  20384797.740    83472390.30749
  23797093.960   125054610.81306  23797096.380    97445166.94444
 15 02 28 02 26  0.0000000  0  9G04G11G16G18G19G21G22G27G32
  22263154.980   116993723.67508  22263156.440    91163960.64645
  23809472.180   125119636.12007  23809473.180    97495828.41843
  21408031.060   112499972.21509  21408030.560    87662325.55747
  22725915.000   119425551.34508  22725914.600    93058849.23645
  21204300.600   111429369.85909  21204298.560    86828081.92648
  24912386.880   130915474.77505  24912386.700   102012055.01543
  20823199.500   109426763.96309  20823197.000    85267633.87648
  20383075.940   107113829.76509  20383077.520    83465345.99949
  23774801.500   124937463.01406  23774803.800    97353883.07344
 15 02 28 02 26 30.0000000  0  9G04G11G16G18G19G21G22G27G32
  22249328.120   116921063.18508  22249329.600    91107342.12345
  23792802.300   125032035.37307  23792803.280    97427568.11643
  21421720.120   112571908.66109  21421719.640    87718379.91847
  22738250.160   119490372.90708  22738249.640    93109359.54045
  21194960.100   111380285.59109  21194958.180    86789834.45848
  24926354.200   130988874.87905  24926354.220   102069249.91643
  20824319.800   109432651.32709  20824317.320    85272221.44048
  20381417.980   107105117.02109  20381419.580    83458556.84049
  23752529.560   124820422.84506  23752531.640    97262683.04843
 15 02 28 02 27  0.0000000  0  9G04G11G16G18G19G21G22G27G32
  22235548.140   116848648.51508  22235549.500    91050915.14345
  23776151.800   124944536.08107  23776152.620    97359386.89143
  21435492.080   112644281.17209  21435491.720    87774774.07647
  22750650.740   119555538.59408  22750650.180    93160137.98345
  21185662.820   111331428.60709  21185660.980    86751764.09347
  24940317.560   131062254.73405  24940318.220   102126429.03744
  20825541.540   109439071.58209  20825539.020    85277224.24448
  20379822.900   107096734.68309  20379824.500    83452025.14649
  23730278.940   124703494.91406  23730280.940    97171570.48743
 15 02 28 02 27 30.0000000  0  9G04G11G16G18G19G21G22G27G32
  22221814.520   116776477.40308  22221815.760    90994677.93545
  23759520.240   124857136.24907  23759520.720    97291283.15442
  21449346.040   112717084.55209  21449345.740    87831503.96447
  22763115.840   119621043.79608  22763115.240    93211180.99445
  21176408.620   111282797.56309  21176406.740    86713869.77448
  24954276.360   131135610.59604  24954277.760   102183589.46243
  20826864.100   109446021.52709  20826861.500    85282639.79248
  20378290.320   107088681.08909  20378291.980    83445749.60949
  23708049.520   124586679.22006  23708051.500    97080545.37943
 15 02 28 02 28  0.0000000  0  9G04G11G16G18G19G21G22G27G32
  22208127.920   116704553.51908  22208128.980    90938633.39945
  23742908.280   124769839.88107  23742908.680    97223260.07243
  21463282.280   112790319.66409  21463281.880    87888570.27947
  22775645.900   119686889.87708  22775645.340    93262489.62845
  21167198.440   111234397.24109  21167196.360    86676155.24048
  24968231.180   131208945.95104  24968233.300   102240733.88644
  20828288.000   109453504.07209  20828285.380    85288470.34748
  20376821.200   107080960.82709  20376822.880    83439733.80949
  23685842.720   124469982.07106  23685844.620    96989612.63744
 15 02 28 02 28 30.0000000  0  9G04G11G16G18G19G21G22G27G32
  22194487.320   116632871.47008  22194488.280    90882777.27545
  23726314.940   124682641.57507  23726315.340    97155313.37244
  21477299.240   112863978.95209  21477298.720    87945967.11147
  22788239.420   119753069.21908  22788239.080    93314057.94445
  21158031.260   111186222.99309  21158029.000    86638616.86548
  24982181.100   131282254.32905  24982183.680   102297857.22042
  20829812.120   109461512.99809  20829809.420    85294711.07748
  20375414.580   107073569.33809  20375416.320    83433974.20549
  23663658.100   124353400.54706  23663659.700    96898770.00743
 15 02 28 02 29  0.0000000  0  9G04G11G16G18G19G21G22G27G32
  22180893.740   116561436.29108  22180894.520    90827113.52645
  23709741.180   124595546.47506  23709741.440    97087447.08343
  21491397.300   112938064.45609  21491396.680    88003696.05847
  22800896.880   119819584.51208  22800896.740    93365888.03045
  21148908.180   111138280.62709  21148905.980    86601259.17948
  24996126.800   131355539.92904  24996129.260   102354962.85343
  20831437.260   109470052.66709  20831434.460    85301365.37448
  20374071.560   107066512.22009  20374073.400    83428475.14649
  23641497.000   124236941.80607  23641498.080    96808023.02643
 15 02 28 02 29 30.0000000  0  9G04G11G16G18G19G21G22G27G32
  22167347.000   116490247.58408  22167347.680    90771641.84145
  23693187.020   124508554.11606  23693187.220    97019660.88944
  21505575.940   113012573.47509  21505575.260    88061755.02047
  22813617.700   119886432.73308  22813617.560    93417977.52945
  21139829.300   111090570.64309  21139827.180    86564082.59148
  25010068.180   131428801.97905  25010070.260   102412050.20643
  20833163.080   109479121.67909  20833160.260    85308432.13948
  20372792.300   107059789.90509  20372794.220    83423236.97449
  23619359.640   124120608.10407  23619360.540    96717373.48244
 15 02 28 02 30  0.0000000  0  9G04G11G16G18G19G21G22G27G32
  22153846.860   116419303.95608  22153847.440    90716361.09945
  23676652.280   124421663.74407  23676652.420    96951954.15044
  21519834.440   113087502.55609  21519833.780    88120141.29647
  22826401.260   119953610.40308  22826400.980    93470323.77545
  21130794.540   111043092.96709  21130792.420    86527087.01548
  25024004.900   131502039.05605  25024006.500   102469118.02843
  20834989.180   109488717.56309  20834986.320    85315909.46548
  20371576.720   107053401.89409  20371578.600    83418259.30149
  23597246.260   124004400.56907  23597247.080    96626822.26344
 15 02 28 02 30 30.0000000  0  9G04G11G16G18G19G21G22G27G32
  22140393.140   116348604.35708  22140393.680    90661270.52445
  23660136.820   124334874.34506  23660136.920    96884326.09443
  21534172.200   113162847.72809  21534171.480    88178851.80247
  22839246.840   120021114.10308  22839246.420    93522924.06144
  21121803.880   110995847.10009  21121801.780    86490272.05848
  25037937.360   131575244.05705  25037937.600   102526182.80341
  20836915.120   109498838.48509  20836912.260    85323795.89848
  20370424.680   107047347.79109  20370426.440    83413541.81048
  23575157.060   123888320.41207  23575157.720    96536370.25644
 15 02 28 02 31  0.0000000  0  9G04G11G16G18G19G21G22G27G32
  22126987.700   116278158.67208  22126988.340    90606377.79345
  23643642.400   124248195.85307  23643642.440    96816784.43144
  21548590.460   113238616.39309  21548589.840    88237892.31147
  22852155.840   120088951.58408  22852155.280    93575784.42244
  21112859.540   110948844.04209  21112857.440    86453646.30148
  25051864.760   131648430.78904  25051865.520   102583197.02643
  20838942.680   109509493.32409  20838939.800    85332098.38148
  20369338.240   107041638.31309  20369339.880    83409092.85649
  23553094.400   123772380.12807  23553094.900    96446027.24743
 15 02 28 02 31 30.0000000  0  8G04G11G16G18G19G22G27G32
  22113626.800   116207946.89808  22113627.460    90551667.35445
  23627165.360   124161608.17407  23627165.140    96749313.54343
  21563084.800   113314785.51209  21563084.500    88297244.85847
  22865124.000   120157100.06408  22865123.420    93628887.12745
  21103957.720   110902064.75709  21103955.620    86417194.92448
  20841067.720   109520660.79209  20841064.900    85340800.30248
  20368313.720   107036254.09909  20368315.300    83404897.35049
  23531054.740   123656561.95006  23531055.580    96355779.40644
 15 02 28 02 32  0.0000000  0  9G01G04G11G16G18G19G22G27G32
  24598301.560   129264945.25405  24598310.840   100725943.14443
  22100319.200   116138015.55008  22100319.960    90497175.40745
  23610714.620   124075158.39007  23610714.180    96681950.10143
  21577663.800   113391399.28709  21577663.740    88356943.90347
  22878159.820   120225603.85508  22878159.300    93682266.70945
  21095107.480   110855556.70509  21095105.340    86380954.89448
  20843299.060   109532386.89409  20843296.340    85349937.53048
  20367360.120   107031242.65209  20367361.600    83400992.31949
  23509047.620   123540915.26707  23509048.820    96265665.18844
 15 02 28 02 32 30.0000000  0  9G01G04G11G16G18G19G22G27G32
  24582225.420   129180467.69205  24582233.060   100660116.49944
  22087055.780   116068315.92808  22087056.620    90442864.02645
  23594280.800   123988797.67007  23594280.220    96614656.06743
  21592317.920   113468406.92609  21592317.880    88416949.83947
  22891253.580   120294411.92308  22891253.140    93735883.37944
  21086299.800   110809271.96909  21086297.580    86344888.87448
  20845627.080   109544621.22709  20845624.520    85359470.77848
  20366468.300   107026555.79909  20366469.760    83397340.21949
  23487064.420   123425393.39607  23487065.820    96175648.21844
 15 02 28 02 33  0.0000000  0  9G01G04G11G16G18G19G22G27G32
  24566172.660   129096109.65405  24566178.920   100594383.09544
  22073837.300   115998852.51008  22073838.140    90388736.70745
  23577864.820   123902531.03207  23577864.060    96547435.33244
  21607047.460   113545810.08809  21607047.240    88477263.96947
  22904405.720   120363526.80908  22904405.400    93789739.11045
  21077535.740   110763216.32509  21077533.480    86309001.36648
  20848052.660   109557368.27909  20848050.240    85369403.55348
  20365639.220   107022199.02809  20365640.780    83393945.33349
  23465106.420   123310003.70907  23465107.940    96085734.24144
 15 02 28 02 33 30.0000000  0  9G01G04G11G16G18G19G22G27G32
  24550146.280   129011888.75105  24550151.720   100528756.50743
  22060667.160   115929643.12508  22060668.100    90334807.33745
  23561470.100   123816376.16507  23561469.420    96480301.71144
  21621855.180   113623623.81009  21621854.700    88537898.01347
  22917619.120   120432963.54308  22917618.900    93843845.63944
  21068818.800   110717408.36209  21068816.480    86273306.85748
  20850578.900   109570644.29409  20850576.620    85379748.50348
  20364876.420   107018190.79709  20364878.140    83390822.02649
  23443177.400   123194766.21207  23443179.020    95995938.86044
 15 02 28 02 34  0.0000000  0  9G01G04G11G16G18G19G22G27G32
  24534145.460   128927802.98305  24534150.040   100463235.16744
  22047544.920   115860685.44608  22047545.920    90281074.09945
  23545096.300   123730331.35707  23545095.700    96413253.84144
  21636739.880   113701843.09809  21636739.300    88598848.09147
  22930892.860   120502717.84508  22930892.660    93898199.63544
  21060148.760   110671846.82109  21060146.400    86237804.36248
  20853205.260   109584446.11109  20853203.020    85390503.17448
  20364179.680   107014529.72409  20364181.480    83387969.24149
  23421277.360   123079681.34207  23421279.240    95906262.40044
 15 02 28 02 34 30.0000000  0  9G01G04G11G16G18G19G22G27G32
  24518169.520   128843849.51705  24518174.420   100397816.98643
  22034470.160   115791977.04808  22034471.160    90227535.10045
  23528742.760   123644393.85707  23528742.300    96346289.61943
  21651700.600   113780462.72408  21651700.080    88660110.13247
  22944226.000   120572784.57108  22944225.680    93952797.08744
  21051525.260   110626530.26209  21051522.960    86202492.77448
  20855931.000   109598769.96609  20855928.740    85401664.61948
  20363548.680   107011213.83409  20363550.540    83385385.42749
  23399406.340   122964748.80107  23399408.340    95816704.63344
 15 02 28 02 35  0.0000000  0  9G01G04G11G16G18G19G22G27G32
  24502218.900   128760028.79205  24502223.840   100332502.22243
  22021442.800   115723517.83008  22021443.820    90174190.26545
  23512409.760   123558564.34007  23512409.580    96279409.48843
  21666736.900   113859480.29109  21666736.620    88721682.24947
  22957618.200   120643161.46908  22957617.760    94007636.21744
  21042948.580   110581459.70409  21042946.300    86167372.86748
  20858755.980   109613614.86309  20858753.540    85413232.07448
  20362983.560   107008244.15809  20362985.520    83383071.38949
  23377564.880   122849971.37707  23377566.880    95727267.71644
 15 02 28 02 35 30.0000000  0  9G01G04G11G16G18G19G22G27G32
  24486293.680   128676342.07905  24486298.580   100267291.86844
  22008463.120   115655309.23808  22008464.120    90121040.71945
  23496097.600   123472844.26507  23496097.660    96212614.64944
  21681848.780   113938894.65809  21681848.740    88783563.56447
  22971069.300   120713847.74808  22971068.800    94062716.41544
  21034419.220   110536637.46009  21034416.940    86132446.44048
  20861680.180   109628981.20209  20861677.600    85425205.84248
  20362484.720   107005622.75709  20362486.700    83381028.73549
  23355753.620   122735352.90507  23355755.780    95637954.70144
 15 02 28 02 36  0.0000000  0  9G01G04G11G16G18G19G22G27G32
  24470393.840   128592789.14105  24470398.960   100202185.73543
  21995531.140   115587351.05108  21995532.080    90068086.31045
  23479806.300   123387233.34707  23479806.340    96145904.87744
  21697035.880   114018703.07109  21697035.840    88845751.92547
  22984578.800   120784840.56008  22984578.200    94118035.46944
  21025937.200   110492064.14609  21025934.960    86097713.99148
  20864703.280   109644867.27909  20864700.580    85437584.61448
  20362052.260   107003350.11709  20362054.240    83379257.84149
  23333973.060   122620895.42907  23333975.220    95548767.10443
 15 02 28 02 36 30.0000000  0  9G01G04G11G16G18G19G22G27G32
  24454519.560   128509371.21005  24454524.940   100137184.85244
  21982646.920   115519644.35708  21982647.980    90015327.85945
  23463536.200   123301732.98407  23463536.160    96079281.24543
  21712297.820   114098903.90309  21712297.560    88908246.06246
  22998146.360   120856138.75007  22998145.720    94173592.49244
  21017503.020   110447742.31009  21017500.820    86063177.49948
  20867825.380   109661273.48409  20867822.580    85450368.67448
  20361686.560   107001428.21109  20361688.500    83377760.24649
  23312223.980   122506602.83007  23312225.960    95459707.99544
 15 02 28 02 37  0.0000000  0  9G01G04G11G16G18G19G22G27G32
  24438670.900   128426086.47505  24438676.180   100072287.72044
  21969810.260   115452187.30608  21969811.340    89962763.93445
  23447286.780   123216341.61907  23447286.720    96012742.53744
  21727633.380   114179492.06909  21727633.000    88971042.01347
  23011771.260   120927738.49008  23011770.620    94229384.49544
  21009116.580   110403671.26809  21009114.420    86028836.42948
  20871045.840   109678196.83209  20871043.000    85463555.70248
  20361387.420   106999856.01209  20361389.340    83376535.15449
  23290506.360   122392475.78807  23290508.220    95370777.87644
 15 02 28 02 37 30.0000000  0  9G01G04G11G16G18G19G22G27G32
  24422847.780   128342934.86405  24422852.720   100007494.33544
  21957021.000   115384979.66408  21957022.200    89910394.36146
  23431058.200   123131059.59307  23431057.940    95946289.03544
  21743042.160   114260465.48909  21743041.720    89034138.17046
  23025453.060   120999637.06808  23025452.580    94285409.34944
  21000777.900   110359851.15609  21000775.780    85994690.89848
  20874364.380   109695635.93009  20874361.540    85477144.61248
  20361154.960   106998634.03309  20361156.760    83375582.95649
  23268820.660   122278516.51007  23268822.340    95281978.49844
 15 02 28 02 38  0.0000000  0  9G01G04G11G16G18G19G22G27G32
  24407050.060   128259915.50105  24407054.480    99942804.00442
  21944279.020   115318020.74308  21944280.260    89858218.59345
  23414850.380   123045886.05708  23414849.860    95879920.08544
  21758523.440   114341820.70008  21758523.120    89097531.82947
  23039191.200   121071831.41008  23039190.820    94341664.66444
  20992487.160   110316282.83709  20992485.020    85960741.55248
  20877780.660   109713588.64209  20877777.800    85491133.74448
  20360989.080   106997762.27009  20360990.780    83374903.65249
  23247167.340   122164726.86507  23247168.940    95193311.29544
 15 02 28 02 38 30.0000000  0  9G01G04G11G16G18G19G22G27G32
  24391278.200   128177032.74005  24391282.600    99878220.16144
  21931585.140   115251314.74908  21931586.420    89806239.92145
  23398664.020   122960825.83807  23398663.380    95813639.43744
  21774077.520   114423558.82508  21774077.340    89161223.86646
  23052986.080   121144323.42108  23052985.740    94398151.93745
  20984245.260   110272971.60709  20984243.140    85926992.54848
  20881295.260   109732058.17109  20881292.380    85505525.59148
  20360890.780   106997245.80209  20360892.500    83374501.20149
  23225547.560   122051113.67307  23225549.080    95104781.58545
 15 02 28 02 39  0.0000000  0  9G01G04G11G16G18G19G22G27G32
  24375532.400   128094287.71105  24375536.900    99813743.55443
  21918939.660   115184862.71608  21918940.900    89754459.13445
  23382499.400   122875879.97407  23382498.820    95747447.87344
  21789704.280   114505678.57609  21789704.120    89225213.26646
  23066837.320   121217111.62208  23066837.000    94454870.00744
  20976052.740   110229919.59509  20976050.580    85893445.52348
  20884908.280   109751044.89709  20884905.420    85520320.44348
  20360860.440   106997086.41709  20360862.100    83374376.99349
  23203961.960   121937680.40907  23203963.280    95016392.06144
 15 02 28 02 39 30.0000000  0  9G01G04G11G16G18G19G22G27G32
  24359812.300   128011678.81105  24359816.960    99749373.06044
  21906342.160   115118662.96608  21906343.340    89702874.93845
  23366356.280   122791047.27107  23366355.600    95681344.50244
  21805402.900   114588175.33908  21805402.680    89289496.44546
  23080744.180   121290192.28108  23080743.760    94511815.97344
  20967909.320   110187125.96209  20967907.160    85860099.84048
  20888619.040   109770545.30709  20888616.260    85535515.57348
  20360897.920   106997283.29909  20360899.540    83374530.39949
  23182410.760   121824428.07307  23182411.860    94928143.52044
 15 02 28 02 40  0.0000000  0  9G01G04G11G16G18G19G22G27G32
  24344118.360   127929207.90805  24344123.200    99685110.02944
  21893793.060   115052717.28508  21893794.380    89651488.71946
  23350234.740   122706329.46207  23350234.140    95615330.65344
  21821173.120   114671048.39409  21821172.900    89354072.83546
  23094706.520   121363564.81207  23094706.060    94568989.35045
  20959815.760   110144593.83409  20959813.500    85826957.91948
  20892427.640   109790560.34709  20892425.040    85551111.71248
  20361003.600   106997838.90609  20361005.260    83374963.34049
  23160894.720   121711360.83707  23160895.740    94840039.23644
 15 02 28 02 40 30.0000000  0  9G01G04G11G16G18G19G22G27G32
  24328450.160   127846872.12006  24328455.060    99620952.35643
  21881291.820   114987022.85408  21881293.140    89600298.29145
  23334134.760   122621724.13007  23334134.160    95549404.46344
  21837013.960   114754292.24909  21837013.720    89418938.15746
  23108723.380   121437223.98707  23108722.820    94626386.07944
  20951771.520   110102321.05709  20951769.300    85794018.09948
  20896333.360   109811085.60109  20896330.860    85567105.41748
  20361177.180   106998751.19609  20361178.880    83375674.21149
  23139413.880   121598478.49507  23139414.880    94752079.02244
 15 02 28 02 41  0.0000000  0  9G01G04G11G16G18G19G22G27G32
  24312807.940   127764671.83306  24312812.760    99556900.27344
  21868838.600   114921580.22308  21868839.800    89549304.06445
  23318056.400   122537232.36907  23318056.020    95483566.74444
  21852924.920   114837904.22009  21852924.620    89484090.32346
  23122794.440   121511167.93307  23122793.720    94684004.74844
  20943776.920   110060309.41009  20943774.720    85761281.75748
  20900336.080   109832120.32609  20900333.640    85583496.11448
  20361418.860   107000021.23609  20361420.600    83376663.85049
  23117968.720   121485783.93407  23117969.720    94664265.13644
 15 02 28 02 41 30.0000000  0  9G01G04G11G16G18G19G22G27G32
  24297191.800   127682608.11906  24297196.460    99492954.59144
  21856433.440   114856390.09008  21856434.560    89498506.59046
  23301999.740   122452855.04707  23301999.520    95417818.24744
  21868905.720   114921882.88709  21868905.340    89549528.22746
  23136919.560   121585395.39808  23136918.580    94741844.32644
  20935832.360   110018561.12809  20935830.280    85728750.63248
  20904435.840   109853664.34509  20904433.320    85600283.66148
  20361729.000   107001650.88809  20361730.740    83377933.70349
  23096559.980   121373280.70007  23096560.960    94576600.31144
 15 02 28 02 42  0.0000000  0 10G01G04G11G14G16G18G19G22G27G32
  24281604.840   127600697.38206  24281609.180    99429128.11744
  21844079.420   114791468.76108  21844080.440    89447918.56946
  23285968.020   122368608.54407  23285967.840    95352171.67844
  24711603.140   129860350.84705  24711609.320   101189905.57842
  21884958.920   115006241.99809  21884958.500    89615262.58346
  23151101.120   121659920.09107  23151100.100    94799915.50344
  20927941.220   109977093.30709  20927939.260    85696438.04248
  20908635.380   109875732.74509  20908632.780    85617479.81348
  20362110.820   107003657.12409  20362112.600    83379496.99849
  23075191.080   121260987.67107  23075192.260    94489099.31144
 15 02 28 02 42 30.0000000  0 10G01G04G11G14G16G18G19G22G27G32
  24266040.300   127518904.47906  24266044.400    99365393.46944
  21831769.840   114726781.26408  21831770.820    89397512.75545
  23269954.740   122284458.29707  23269954.540    95286600.09644
  24697467.980   129786070.72905  24697472.040   101132024.95043
  21901077.180   115090943.42708  21901076.760    89681263.68046
  23165332.180   121734704.65307  23165331.160    94858189.18744
  20920097.160   109935872.04909  20920095.140    85664317.57848
  20912927.740   109898288.65009  20912925.040    85635055.85148
  20362557.760   107006005.68109  20362559.600    83381327.04049
  23053856.080   121148872.30307  23053857.300    94401736.72844
 15 02 28 02 43  0.0000000  0 10G01G04G11G14G16G18G19G22G27G32
  24250501.780   127437247.54207  24250505.760    99301764.80144
  21819508.100   114662345.76908  21819509.080    89347303.30945
  23253963.300   122200422.66807  23253963.100    95221117.85144
  24683342.400   129711841.24805  24683345.280   101074183.79642
  21917263.380   115176002.70308  21917263.020    89747543.61546
  23179615.800   121809765.12807  23179614.720    94916677.85944
  20912303.700   109894916.62509  20912301.620    85632404.25848
  20917316.120   109921349.37009  20917313.380    85653025.24348
  20363073.420   107008715.35609  20363075.340    83383438.47149
  23032558.860   121036955.17507  23032560.000    94314528.61544
 15 02 28 02 43 30.0000000  0 10G01G04G11G14G16G18G19G22G27G32
  24234990.260   127355733.02406  24234994.140    99238247.06044
  21807295.560   114598168.44008  21807296.400    89297295.02645
  23237994.980   122116508.55607  23237994.860    95155730.24444
  24669228.440   129637671.40405  24669230.320   101016389.10241
  21933518.140   115261422.91508  21933517.880    89814104.81747
  23193952.620   121885105.32407  23193951.600    94975384.48245
  20904562.260   109854234.64709  20904560.100    85600704.01248
  20921801.480   109944919.88509  20921798.740    85671391.88248
  20363659.180   107011793.24109  20363661.040    83385836.81449
  23011301.080   120925245.24707  23011302.100    94227481.96744
 15 02 28 02 44  0.0000000  0 10G01G04G11G14G16G18G19G22G27G32
  24219504.900   127274357.07806  24219508.900    99174837.30344
  21795131.400   114534245.57708  21795132.120    89247485.02146
  23222049.100   122032712.18107  23222048.840    95090434.41244
  24655125.860   129563560.16205  24655127.140   100958640.09443
  21949840.500   115347198.31608  21949840.260    89880942.77846
  23208341.440   121960719.04407  23208340.480    95034304.27044
  20896872.240   109813823.31209  20896870.080    85569214.65948
  20926382.800   109968994.89209  20926380.020    85690151.63048
  20364314.420   107015236.29309  20364316.100    83388519.70049
  22990082.540   120813741.30507  22990083.480    94140595.82044
 15 02 28 02 44 30.0000000  0 10G01G04G11G14G16G18G19G22G27G32
  24204046.140   127193121.28806  24204050.220    99111536.78744
  21783015.960   114470578.59408  21783016.640    89197874.40545
  23206125.960   121949035.58407  23206125.420    95025231.89644
  24641035.060   129489511.18905  24641036.500   100900939.66041
  21966230.240   115433327.27508  21966229.940    89948056.22446
  23222782.220   122036605.60507  23222781.460    95093436.64644
  20889234.220   109773685.11409  20889232.060    85537938.15048
  20931060.140   109993574.54309  20931057.360    85709304.60948
  20365039.520   107019046.81609  20365041.200    83391488.93749
  22968903.980   120702447.36807  22968904.980    94053873.32344
 15 02 28 02 45  0.0000000  0 10G01G04G11G14G16G18G19G22G27G32
  24188614.240   127112026.63406  24188618.540    99048346.20744
  21770949.420   114407168.63808  21770950.160    89148464.06846
  23190225.820   121865479.95507  23190225.220    94960123.65544
  24626956.620   129415528.92405  24626957.720   100843291.09041
  21982687.120   115519808.20608  21982686.660    90015443.95046
  23237274.680   122112763.88907  23237274.060    95152780.74844
  20881648.560   109733822.23909  20881646.300    85506876.16148
  20935833.480   110018658.94209  20935830.740    85728850.90048
  20365834.820   107023226.43209  20365836.600    83394745.76849
  22947766.060   120591367.00907  22947767.280    93967317.25244
 15 02 28 02 45 30.0000000  0 10G01G04G11G14G16G18G19G22G27G32
  24173208.560   127031070.00606  24173212.720    98985263.17844
  21758931.140   114344012.10008  21758931.820    89099251.19846
  23174348.100   121782042.43307  23174347.600    94895107.44144
  24612890.680   129341612.51704  24612891.760   100785693.95143
  21999209.840   115606634.93708  21999209.320    90083101.12246
  23251817.680   122189188.06207  23251817.320    95212332.04444
  20874114.860   109694232.79309  20874112.640    85476027.24448
  20940701.880   110044243.04609  20940699.140    85748786.56748
  20366699.920   107027772.71309  20366701.740    83398288.32949
  22926668.600   120480499.52407  22926670.060    93880927.03644
 15 02 28 02 46  0.0000000  0 10G01G04G11G14G16G18G19G22G27G32
  24157829.380   126950253.26006  24157833.380    98922289.12444
  21746961.560   114281111.24908  21746962.240    89050237.56646
  23158493.340   121698725.20407  23158492.920    94830184.95344
  24598838.180   129267766.72204  24598839.100   100728151.77241
  22015798.120   115693806.72408  22015797.760    90151027.16546
  23266411.140   122265877.90007  23266410.800    95272090.34544
  20866633.780   109654919.74409  20866631.640    85445393.70848
  20945665.500   110070327.32609  20945662.820    85769111.98948
  20367635.280   107032688.25209  20367637.060    83402118.60949
  22905612.620   120369849.48907  22905614.220    93794706.27144
 15 02 28 02 46 30.0000000  0 10G01G04G11G14G16G18G19G22G27G32
  24142476.540   126869574.63706  24142480.520    98859422.76744
  21735040.140   114218464.02708  21735040.900    89001421.56746
  23142661.200   121615526.72107  23142660.860    94765354.99144
  24584799.240   129193992.49004  24584800.180   100670665.36842
  22032451.120   115781319.19208  22032450.980    90219218.68146
  23281054.520   122342829.15807  23281054.080    95332052.35244
  20859205.180   109615882.43709  20859203.120    85414975.02948
  20950723.720   110096908.81409  20950721.080    85789824.83748
  20368640.700   107037972.08509  20368642.480    83406235.87149
  22884598.080   120259417.59607  22884599.700    93708655.48844
 15 02 28 02 47  0.0000000  0 10G01G04G11G14G16G18G19G22G27G32
  24127150.220   126789035.00706  24127154.160    98796664.68644
  21723167.160   114156071.33508  21723167.880    88952803.90645
  23126852.000   121532448.34908  23126851.440    94700618.62844
  24570774.480   129120292.95704  24570775.580   100613237.16142
  22049168.460   115869169.84008  22049168.480    90287673.71746
  23295747.520   122420040.36108  23295746.880    95392216.93644
  20851829.480   109577122.86409  20851827.460    85384772.76648
  20955876.300   110123986.23109  20955873.780    85810924.12448
  20369716.520   107043625.59709  20369718.300    83410641.19749
  22863625.600   120149207.12707  22863627.240    93622777.24144
 15 02 28 02 47 30.0000000  0 10G01G04G11G14G16G18G19G22G27G32
  24111850.520   126708634.40906  24111854.420    98734014.94944
  21711342.580   114093933.22008  21711343.400    88904384.61846
  23111065.680   121449490.37808  23111064.780    94635976.08644
  24556764.600   129046671.16605  24556765.640   100555869.51244
  22065949.620   115957355.96508  22065949.720    90356390.16346
  23310489.620   122497509.19808  23310488.740    95452582.25344
  20844506.900   109538642.16509  20844504.840    85354787.80648
  20961123.200   110151559.08409  20961120.820    85832409.46448
  20370862.860   107049649.60209  20370864.580    83415335.21848
  22842695.780   120039220.79307  22842697.440    93537073.65344
 15 02 28 02 48  0.0000000  0 10G01G04G11G14G16G18G19G22G27G32
  24096577.700   126628374.50206  24096581.580    98671474.86044
  21699566.760   114032051.16508  21699567.600    88856164.86445
  23095302.660   121366654.75208  23095301.660    94571428.85544
  24542770.580   128973131.43205  24542771.440   100498565.83942
  22082794.500   116045876.66708  22082794.560    90425367.32546
  23325280.620   122575235.36907  23325279.520    95513148.08644
  20837237.900   109500443.11309  20837235.800    85325022.32548
  20966464.340   110179627.14809  20966462.000    85854280.69148
  20372080.120   107056046.45709  20372081.880    83420319.77249
  22821809.480   119929462.80307  22821811.120    93451547.96544
 15 02 28 02 48 30.0000000  0 10G01G04G11G14G16G18G19G22G27G32
  24081331.580   126548254.65006  24081335.080    98609043.87844
  21687839.600   113970424.60308  21687840.480    88808144.18046
  23079562.860   121283941.25007  23079561.920    94506976.79444
  24528792.620   128899675.91305  24528792.300   100441327.78941
  22099702.460   116134728.57808  22099702.460    90494602.55846
  23340119.760   122653215.46007  23340118.600    95573911.77744
  20830022.600   109462526.29309  20830020.400    85295476.75948
  20971899.400   110208188.46009  20971897.000    85876536.25748
  20373368.400   107062816.20109  20373370.140    83425594.88749
  22800967.020   119819934.94907  22800968.580    93366201.63544
 15 02 28 02 49  0.0000000  0 10G01G04G11G14G16G18G19G22G27G32
  24066112.740   126468278.48606  24066116.060    98546724.87143
  21676161.720   113909057.16808  21676162.620    88760325.41846
  23063846.840   121201353.52307  23063846.080    94442622.74944
  24514831.660   128826310.67005  24514831.100   100384160.10844
  22116673.640   116223912.21008  22116673.500    90564096.29046
  23355007.360   122731450.79407  23355006.240    95634874.38544
  20822861.840   109424896.34709  20822859.620    85266154.72848
  20977428.700   110237244.91209  20977426.200    85899177.65048
  20374728.460   107069963.16709  20374730.240    83431163.94249
  22780169.560   119710643.56207  22780171.080    93281039.55045
 15 02 28 02 49 30.0000000  0 10G01G04G11G14G16G18G19G22G27G32
  24050920.380   126388441.37806  24050923.460    98484514.18644
  21664532.240   113847944.20108  21664533.180    88712704.93646
  23048153.920   121118887.73307  23048153.440    94378363.72344
  24500887.620   128753033.99105  24500887.220   100327061.29541
  22133706.620   116313420.63608  22133706.360    90633843.10246
  23369942.000   122809934.56507  23369941.320    95696030.56844
  20815754.960   109387549.75109  20815752.800    85237053.48248
  20983051.080   110266790.47109  20983048.460    85922200.16848
  20376159.560   107077483.44109  20376161.300    83437023.88349
  22759416.700   119601586.43108  22759418.220    93196060.02344
 15 02 28 02 50  0.0000000  0 10G01G04G11G14G16G18G19G22G27G32
  24035755.160   126308747.13307  24035758.140    98422414.86544
  21652951.920   113787089.53908  21652952.920    88665285.73246
  23032485.060   121036547.88607  23032484.760    94314202.81344
  24486961.760   128679852.91605  24486961.600   100270037.13043
  22150801.400   116403254.24808  22150801.160    90703843.29746
  23384924.120   122888668.44107  23384924.140    95757381.62544
  20808703.020   109350491.50309  20808700.920    85208176.93648
  20988767.000   110296827.40309  20988764.280    85945605.57848
  20377662.520   107085381.44409  20377664.300    83443178.17149
  22738709.640   119492769.97608  22738711.100    93111268.01644
 15 02 28 02 50 30.0000000  0 10G01G04G11G14G16G18G19G22G27G32
  24020616.680   126229194.65406  24020619.740    98360425.97144
  21641420.460   113726491.61008  21641421.540    88618066.57946
  23016840.200   120954333.29507  23016839.860    94250139.53944
  24473054.200   128606768.32305  24473054.140   100213088.09943
  22167957.340   116493409.27908  22167957.120    90774093.95646
  23399953.260   122967648.80507  23399953.920    95818924.77145
  20801706.040   109313721.98909  20801703.920    85179525.36848
  20994575.900   110327353.30509  20994573.140    85969391.99548
  20379237.260   107093656.72709  20379239.060    83449626.43549
  22718048.680   119384195.58008  22718049.940    93026664.61244
 15 02 28 02 51  0.0000000  0 10G01G04G11G14G16G18G19G22G27G32
  24005504.780   126149782.63106  24005508.260    98298546.56743
  21629937.680   113666149.50208  21629938.860    88571046.78046
  23001218.840   120872242.99307  23001218.580    94186173.10944
  24459165.240   128533781.84504  24459165.620   100156215.50643
  22185173.700   116583881.83808  22185173.520    90844592.03846
  23415028.760   123046872.15407  23415029.760    95880657.23044
  20794763.920   109277240.73109  20794761.700    85151098.42048
  21000477.280   110358365.12209  21000474.500    85993557.05548
  20380883.660   107102308.64909  20380885.460    83456368.18949
  22697433.860   119275864.40907  22697435.060    92942250.74945
 15 02 28 02 51 30.0000000  0 10G01G04G11G14G16G18G19G22G27G32
  23990420.160   126070513.96506  23990423.780    98236778.83744
  21618504.140   113606066.00408  21618505.320    88524228.48746
  22985621.740   120790280.48807  22985621.840    94122306.23644
  24445295.660   128460899.09904  24445296.600   100099423.77643
  22202450.520   116674671.77708  22202450.320    90915337.42246
  23430150.660   123126338.82107  23430151.800    95942579.29044
  20787877.400   109241052.04809  20787875.220    85122899.45848
  21006471.280   110389864.21109  21006468.600    86018101.79648
  20382602.400   107111340.83109  20382604.240    83463406.24849
  22676866.440   119167782.11808  22676867.580    92858030.81945
 15 02 28 02 52  0.0000000  0 10G01G04G11G14G16G18G19G22G27G32
  23975362.380   125991386.12906  23975366.060    98175120.84944
  21607119.280   113546238.30208  21607120.520    88477609.51346
  22970048.400   120708443.00907  22970048.800    94058536.81544
  24431445.940   128388120.31504  24431447.660   100042713.08541
  22219786.740   116765773.92108  22219786.440    90986326.09146
  23445318.080   123206044.10107  23445319.200    96004687.29944
  20781046.340   109205154.60909  20781044.140    85094927.43248
  21012557.260   110421846.51009  21012554.620    86043023.07448
  20384393.200   107120751.41109  20384395.080    83470739.16049
  22656346.320   119059948.62208  22656347.460    92774004.75344
 15 02 28 02 52 30.0000000  0 10G01G04G11G14G16G18G19G22G27G32
  23960331.040   125912396.89207  23960334.780    98113570.83944
  21595782.780   113486664.37708  21595783.880    88431188.28546
  22954498.720   120626729.13107  22954499.000    93994863.67844
  24417616.540   128315446.06305  24417618.460    99986083.75444
  22237181.280   116857183.08708  22237180.940    91057553.99946
  23460530.220   123285983.52507  23460531.260    96066977.73844
  20774270.440   109169547.03009  20774268.220    85067181.27748
  21018734.500   110454308.20109  21018731.860    86068317.89848
  20386255.680   107130538.72809  20386257.580    83478365.64149
  22635873.640   118952364.15408  22635874.800    92690172.73544
 15 02 28 02 53  0.0000000  0 10G01G04G11G14G16G18G19G22G27G32
  23945327.060   125833551.01006  23945330.600    98052132.56945
  21584495.440   113427348.72908  21584496.420    88384968.31246
  22938973.620   120545143.89307  22938973.700    93931290.79844
  24403808.660   128242884.14905  24403810.480    99929542.03243
  22254634.560   116948900.94708  22254634.320    91129022.44946
  23475787.340   123366159.48307  23475788.180    96129452.49044
  20767550.900   109134235.59309  20767548.700    85039665.87148
  21025003.580   110487252.13109  21025000.880    86093988.49548
  20388190.840   107140708.26009  20388192.800    83486289.95349
  22615449.700   118845036.07508  22615450.980    92606540.50445
 15 02 28 02 53 30.0000000  0 10G01G04G11G14G16G18G19G22G27G32
  23930349.980   125754845.87407  23930353.200    97990803.98444
  21573256.820   113368288.93308  21573257.720    88338947.70246
  22923472.440   120463685.02107  22923472.680    93867816.37445
  24390022.220   128170434.26305  24390023.560    99873087.60844
  22272145.560   117040922.34108  22272145.520    91200727.41146
  23491088.600   123446567.10407  23491089.100    96192107.77744
  20760887.400   109099218.52509  20760885.200    85012379.84648
  21031363.780   110520674.75909  21031360.960    86120032.10348
  20390198.360   107151258.02209  20390200.340    83494510.54549
  22595074.520   118737964.25408  22595075.800    92523107.95145
 15 02 28 02 54  0.0000000  0 10G01G04G11G14G16G18G19G22G27G32
  23915400.420   125676285.61806  23915403.300    97929588.25843
  21562067.620   113309489.07508  21562068.460    88293129.64746
  22907996.440   120382357.50407  22907996.620    93804444.30345
  24376258.320   128098103.49705  24376259.500    99816725.98041
  22289714.640   117133248.40608  22289714.720    91272669.78746
  23506434.360   123527208.48707  23506434.380    96254945.21944
  20754280.900   109064501.39009  20754278.740    84985327.55048
  21037815.500   110554578.29309  21037812.540    86146450.44548
  20392279.120   107162192.79209  20392281.140    83503031.14149
  22574749.440   118631155.55608  22574750.700    92439880.43544
 15 02 28 02 54 30.0000000  0 10G01G04G11G14G16G18G19G22G27G32
  23900477.780   125597866.92906  23900480.640    97868482.84044
  21550927.240   113250945.67808  21550928.080    88247511.43846
  22892544.760   120301158.18007  22892544.780    93741172.13444
  24362517.120   128025891.54805  24362517.740    99760456.93941
  22307340.620   117225873.25108  22307340.780    91344844.97546
  23521823.320   123608077.54707  23521822.920    96317960.07944
  20747731.060   109030082.18009  20747728.920    84958507.38048
  21044357.680   110588957.44709  21044354.700    86173239.40348
  20394432.720   107173509.90009  20394434.680    83511849.66049
  22554474.320   118524609.14708  22554475.500    92356857.27445
 15 02 28 02 55  0.0000000  0 10G01G04G11G14G16G18G19G22G27G32
  23885582.640   125519592.73706  23885585.600    97807490.03344
  21539836.240   113192661.68308  21539837.140    88202095.34446
  22877118.180   120220090.35607  22877118.100    93678002.43244
  24348799.360   127953803.72305  24348799.540    99704284.58242
  22325023.280   117318796.08108  22325023.420    91417252.35646
  23537255.720   123689175.33007  23537255.080    96381153.12843
  20741238.700   108995964.85509  20741236.620    84931922.45648
  21050990.700   110623814.02909  21050987.780    86200400.37448
  20396659.780   107185212.85309  20396661.680    83520968.83749
  22534250.100   118418330.29508  22534251.280    92274042.62145
 15 02 28 02 55 30.0000000  0 10G01G04G11G14G16G18G19G22G27G32
  23870714.800   125441462.19906  23870717.760    97746609.18543
  21528794.380   113134636.16708  21528795.260    88156880.67346
  22861716.500   120139153.46107  22861716.400    93614934.76644
  24335105.520   127881842.25305  24335105.520    99648210.73943
  22342762.100   117412013.92808  22342762.160    91489889.62546
  23552731.080   123770498.61207  23552730.100    96444521.90744
  20734803.940   108962149.96109  20734801.880    84905573.18948
  21057714.060   110659145.52909  21057711.220    86227931.42348
  20398960.220   107197301.53709  20398962.060    83530388.58649
  22514077.220   118312320.94308  22514078.340    92191437.97445
 15 02 28 02 56  0.0000000  0 10G01G04G11G14G16G18G19G22G27G32
  23855874.000   125363474.22706  23855877.360    97685839.39044
  21517801.540   113076868.15608  21517802.320    88111866.64546
  22846339.480   120058346.90907  22846339.380    93551968.65944
  24321436.020   127810008.72905  24321436.020    99592236.57143
  22360556.360   117505523.09308  22360556.260    91562753.88746
  23568248.660   123852043.89007  23568247.520    96508063.67243
  20728426.660   108928637.23809  20728424.640    84879459.38448
  21064527.180   110694948.94309  21064524.440    86255830.18348
  20401333.940   107209775.41409  20401335.700    83540108.48949
  22493955.880   118206582.44008  22493956.800    92109044.35245
 15 02 28 02 56 30.0000000  0 10G01G04G11G14G16G18G19G22G27G32
  23841060.640   125285630.05806  23841063.980    97625181.67743
  21506857.840   113019358.60608  21506858.660    88067054.02546
  22830987.660   119977672.33008  22830987.380    93489105.36544
  24307791.560   127738306.99705  24307791.920    99536365.07343
  22378405.680   117599321.63208  22378405.360    91635843.64846
  23583808.300   123933810.28207  23583807.080    96571777.74144
  20722107.440   108895429.34209  20722105.440    84853583.10348
  21071430.040   110731223.93509  21071427.300    86284096.41648
  20403781.240   107222636.27609  20403783.000    83550129.92049
  22473886.780   118101118.48708  22473887.680    92026864.66745
 15 02 28 02 57  0.0000000  0 10G01G04G11G14G16G18G19G22G27G32
  23826274.660   125207929.82606  23826278.100    97564636.11844
  21495963.380   112962107.78308  21495964.160    88022443.01446
  22815661.080   119897130.50108  22815660.620    93426345.51245
  24294172.740   127666740.04306  24294173.480    99480598.64043
  22396309.420   117693406.36108  22396308.980    91709156.40046
  23599409.500   124015795.58607  23599408.440    96635662.37544
  20715846.460   108862527.69709  20715844.500    84827945.46148
  21078422.260   110767968.78209  21078419.480    86312728.76348
  20406302.400   107235884.92409  20406304.180    83560453.52849
  22453870.460   117995931.76108  22453871.300    91944901.02245
 15 02 28 02 57 30.0000000  0 10G01G04G11G14G16G18G19G22G27G32
  23811516.040   125130373.66806  23811519.680    97504202.80044
  21485118.100   112905115.90908  21485118.880    87978033.78046
  22800359.900   119816722.05208  22800359.340    93363689.59044
  24280580.180   127595311.05806  24280581.320    99424939.73344
  22414267.280   117787775.39408  22414266.760    91782690.69645
  23615052.000   124097997.96107  23615051.000    96699716.16643
  20709644.040   108829933.72309  20709642.080    84802547.56248
  21085503.660   110805182.15309  21085500.900    86341726.19548
  20408897.520   107249522.18809  20408899.300    83571079.96149
  22433907.380   117891025.08808  22433908.180    91863155.58644
 15 02 28 02 58  0.0000000  0 10G01G04G11G14G16G18G19G22G27G32
  23796784.400   125052959.31106  23796788.420    97443879.99544
  21474321.640   112848380.41508  21474322.360    87933824.33346
  22785083.700   119736444.86408  22785083.160    93301135.96845
  24267014.080   127524020.19306  24267015.160    99369388.42242
  22432278.080   117882422.61908  22432277.460    91856441.76245
  23630734.940   124180412.50707  23630734.000    96763935.28444
  20703499.900   108797646.12009  20703497.980    84777388.40148
  21092673.480   110842859.98509  21092670.720    86371085.54848
  20411566.200   107263546.26209  20411568.020    83582007.80349
  22413997.580   117786398.66408  22413998.400    91781628.53745
 15 02 28 02 58 30.0000000  0 10G01G04G11G14G16G18G19G22G27G32
  23782080.640   124975691.87006  23782084.980    97383671.62044
  21463574.900   112791906.29108  21463575.660    87889818.53846
  22769833.480   119656304.54808  22769832.920    93238688.99145
  24253475.840   127452875.59906  24253476.800    99313951.11243
  22450342.400   117977351.02508  22450341.840    91930411.92145
  23646458.760   124263042.11207  23646458.100    96828321.99344
  20697415.340   108765671.46009  20697413.440    84752473.08248
  21099932.480   110881005.74909  21099929.620    86400809.51848
  20414309.580   107277962.87609  20414311.400    83593241.51849
  22394142.580   117682060.10308  22394143.440    91700325.79145
 15 02 28 02 59  0.0000000  0 10G01G04G11G14G16G18G19G22G27G32
  23767404.460   124898568.72806  23767409.020    97323575.76644
  21452877.500   112735691.21108  21452878.300    87846014.60046
  22754608.900   119576299.23508  22754608.460    93176347.20745
  24239965.280   127381877.60506  24239966.300    99258627.98943
  22468459.060   118072554.75008  22468458.660    92004596.62646
  23662222.620   124345882.05207  23662222.260    96892872.54544
  20691390.120   108734008.20509  20691388.060    84727800.41648
  21107279.720   110919615.08509  21107276.760    86430894.72448
  20417127.280   107292770.00509  20417129.140    83604779.53749
  22374342.340   117578009.30308  22374343.260    91619247.28245
 15 02 28 02 59 30.0000000  0 10G01G04G11G14G16G18G19G22G27G32
  23752755.240   124821587.45606  23752759.920    97263590.41044
  21442228.900   112679732.49008  21442229.720    87802410.42346
  22739409.620   119496427.12608  22739409.320    93114109.23045
  24226482.700   127311026.32706  24226483.760    99203419.22543
  22486627.140   118168029.00708  22486626.940    92078992.13446
  23678025.760   124428928.06807  23678025.440    96957583.73544
  20685423.860   108702655.26309  20685421.700    84703369.55448
  21114714.340   110958683.92509  21114711.320    86461337.97648
  20420018.980   107307965.82609  20420020.820    83616620.43049
  22354596.860   117474246.39108  22354597.840    91538393.08645
 15 02 28 03 00  0.0000000  0 10G01G04G11G14G16G18G19G22G27G32
  23738133.740   124744751.45106  23738138.320    97203718.27545
  21431629.700   112624033.59908  21431630.580    87759008.71046
  22724236.400   119416691.62408  22724236.180    93051977.69144
  24213029.280   127240328.13305  24213030.260    99148329.69143
  22504846.640   118263773.64308  22504846.740    92153598.33846
  23693868.240   124512180.62907  23693867.900    97022455.85644
  20679517.480   108671617.08509  20679515.280    84679183.96448
  21122236.660   110998213.92809  21122233.620    86492140.57648
  20422985.400   107323554.35509  20422987.200    83628767.32849
  22334907.260   117370777.34108  22334908.360    91457767.89345
 15 02 28 03 00 30.0000000  0 10G01G04G11G14G16G18G19G22G27G32
  23723539.640   124668059.69506  23723544.260    97143958.49144
  21421079.700   112568593.44008  21421080.600    87715808.61946
  22709089.020   119337091.88608  22709088.880    92989951.96644
  24199605.340   127169784.88606  24199606.240    99093360.94843
  22523116.940   118359785.15408  22523117.240    92228412.50045
  23709749.540   124595636.48307  23709749.080    97087486.38143
  20673671.020   108640894.01709  20673668.880    84655243.91348
  21129846.180   111038202.10209  21129843.120    86523300.19848
  20426026.460   107339535.05209  20426028.200    83641219.81749
  22315273.820   117267603.48508  22315275.080    91377372.71145
 15 02 28 03 01  0.0000000  0 10G01G04G11G14G16G18G19G22G27G32
  23708973.360   124591512.85906  23708977.580    97084311.67644
  21410579.040   112513412.60908  21410579.960    87672810.59346
  22693967.800   119257629.88207  22693967.700    92928033.55345
  24186211.540   127099400.12405  24186212.440    99038515.71343
  22541437.660   118456061.35808  22541438.020    92303432.90545
  23725669.220   124679294.21207  23725668.680    97152674.21844
  20667884.980   108610487.99009  20667882.860    84631550.90548
  21137542.700   111078647.62509  21137539.680    86554816.19148
  20429142.440   107355909.28509  20429144.120    83653978.95549
  22295697.300   117164728.31208  22295698.700    91297210.26145
 15 02 28 03 01 30.0000000  0 10G01G04G11G14G16G18G19G22G27G32
  23694434.500   124515110.47406  23694438.600    97024777.39343
  21400127.680   112458490.80908  21400128.620    87630014.40846
  22678872.680   119178305.26907  22678872.580    92866222.18045
  24172848.320   127029175.80206  24172849.080    98983795.44644
  22559808.240   118552598.72408  22559808.480    92378656.79645
  23741626.880   124763151.33507  23741626.160    97218017.40643
  20662159.380   108580399.71409  20662157.240    84608105.50648
  21145325.780   111119548.03609  21145322.820    86586686.64647
  20432333.200   107372676.90809  20432334.880    83667044.63148
  22276177.920   117062153.53608  22276179.440    91217281.90945
 15 02 28 03 02  0.0000000  0 10G01G04G11G14G16G18G19G22G27G32
  23679923.440   124438855.43506  23679927.660    96965357.92843
  21389726.200   112403830.76008  21389727.060    87587422.18746
  22663804.360   119099121.44107  22663804.300    92804520.52844
  24159516.600   126959117.77205  24159517.300    98929204.79943
  22578228.580   118649396.89008  22578228.420    92454083.91845
  23757622.460   124847208.61807  23757621.580    97283516.56944
  20656495.060   108550633.37809  20656492.860    84584910.96248
  21153195.620   111160904.46909  21153192.800    86618912.43647
  20435599.500   107389841.56709  20435601.180    83680419.67649
  22256716.760   116959884.73308  22256718.380    91137591.95445
 15 02 28 03 02 30.0000000  0 10G01G04G11G14G16G18G19G22G27G32
  23665439.960   124362744.87706  23665444.320    96906051.06644
  21379373.920   112349429.43208  21379374.780    87545031.56646
  22648762.480   119020076.30607  22648762.400    92742926.94144
  24146216.380   126889226.03105  24146217.400    98874743.70343
  22596697.660   118746450.86808  22596697.000    92529710.37645
  23773655.080   124931460.51007  23773653.740    97349167.37443
  20650891.740   108521187.49009  20650889.420    84561966.11348
  21161151.340   111202712.49109  21161148.620    86651490.12148
  20438940.840   107407400.86909  20438942.620    83694102.24248
  22237313.760   116857921.49308  22237315.520    91058140.10945
 15 02 28 03 03  0.0000000  0 10G01G04G11G14G16G18G19G22G27G32
  23650983.880   124286777.63806  23650988.080    96846855.83344
  21369070.680   112295285.53608  21369071.540    87502841.52546
  22633746.820   118941168.93208  22633746.820    92681440.72544
  24132948.260   126819502.37305  24132949.480    98820413.62743
  22615214.560   118843756.47108  22615213.700    92605532.89145
  23789724.160   125015903.99007  23789722.580    97414967.49043
  20645349.360   108492061.87709  20645347.040    84539270.83648
  21169192.420   111244969.01909  21169189.800    86684417.28448
  20442357.160   107425354.14509  20442359.080    83708091.81149
  22217969.160   116756265.15208  22217970.940    90978927.41645
 15 02 28 03 03 30.0000000  0 10G01G04G11G14G16G18G19G22G27G32
  23636555.800   124210957.06706  23636559.900    96787774.93444
  21358817.100   112241402.71708  21358817.940    87460854.93546
  22618758.000   118862403.05507  22618758.200    92620064.76044
  24119713.320   126749952.76406  24119714.620    98766219.12244
  22633779.120   118941313.58708  22633778.140    92681551.40945
  23805829.940   125100540.24407  23805828.240    97480917.80743
  20639868.760   108463261.21309  20639866.460    84516828.76648
  21177319.200   111287675.67309  21177316.620    86717695.20047
  20445849.300   107443705.26509  20445851.220    83722391.38149
  22198684.080   116654921.55108  22198685.740    90899958.39745
 15 02 28 03 04  0.0000000  0 10G01G04G11G14G16G18G19G22G27G32
  23622155.080   124135280.29406  23622158.980    96728806.06944
  21348612.740   112187777.99109  21348613.500    87419069.45546
  22603795.920   118783776.86007  22603796.120    92558797.62445
  24106511.740   126680577.38606  24106512.540    98712160.37243
  22652390.300   119039116.95208  22652389.540    92757761.80245
  23821971.420   125185364.28307  23821969.660    97547014.42444
  20634449.680   108434783.86909  20634447.360    84494638.63048
  21185530.760   111330827.72809  21185528.180    86751320.17447
  20449416.720   107462451.99209  20449418.600    83736999.21049
  22179458.480   116553890.43608  22179460.140    90821232.89845
 15 02 28 03 04 30.0000000  0 10G01G04G11G14G16G18G19G22G27G32
  23607782.220   124059750.89606  23607786.060    96669952.05744
  21338458.240   112134414.94809  21338458.820    87377487.88346
  22588861.240   118705293.96707  22588861.300    92497642.17644
  24093344.540   126611382.62906  24093344.840    98658242.40042
  22671048.400   119137167.22008  22671048.000    92834164.60645
  23838148.760   125270376.98906  23838146.900    97613258.09543
  20629093.100   108406634.80109  20629090.780    84472704.29348
  21193827.420   111374426.67309  21193824.760    86785293.38248
  20453060.180   107481598.27809  20453062.020    83751918.38549
  22160293.440   116453177.72608  22160295.020    90742755.47845
 15 02 28 03 05  0.0000000  0 10G01G04G11G14G16G18G19G22G27G32
  23593437.020   123984366.36906  23593440.740    96611210.92244
  21328352.980   112081311.09109  21328353.460    87336108.26746
  22573953.380   118626952.63908  22573953.420    92436597.01644
  24080211.720   126542368.74706  24080211.880    98604465.38044
  22689752.360   119235458.90108  22689752.500    92910755.51246
  23854361.160   125355574.21206  23854359.340    97679645.52143
  20623798.680   108378812.55209  20623796.400    84451024.61848
  21202208.380   111418468.57109  21202205.680    86819611.74647
  20456779.320   107501142.22809  20456781.120    83767147.43148
  22141189.080   116352783.52908  22141190.520    90664526.26045
 15 02 28 03 05 30.0000000  0 10G01G04G11G14G16G18G19G22G27G32
  23579119.640   123909128.56006  23579123.200    96552584.11144
  21318297.280   112028468.01209  21318297.760    87294931.85446
  22559072.920   118548755.20208  22559072.820    92375663.97744
  24067114.080   126473540.28905  24067114.180    98550832.84043
  22708502.160   119333990.46408  22708502.640    92987533.33745
  23870608.520   125440955.33706  23870606.860    97746176.21744
  20618566.980   108351320.19809  20618564.760    84429602.01548
  21210673.540   111462953.12709  21210670.800    86854275.03447
  20460574.560   107521086.09109  20460576.360    83782688.10149
  22122146.240   116252712.08308  22122147.460    90586548.52645
 15 02 28 03 06  0.0000000  0 10G01G04G11G14G16G18G19G22G27G32
  23564829.880   123834035.80406  23564833.580    96494070.33644
  21308290.920   111975884.05409  21308291.400    87253957.36046
  22544219.600   118470700.56807  22544219.460    92314842.19245
  24054052.020   126404898.45406  24054052.180    98497345.71443
  22727297.100   119432758.30308  22727297.600    93064495.27145
  23886890.260   125526516.61407  23886888.780    97812847.31943
  20613398.020   108324157.44809  20613395.820    84408436.23648
  21219222.300   111507877.04809  21219219.520    86889280.69647
  20464445.640   107541428.78009  20464447.480    83798539.54148
  22103165.040   116152964.22608  22103166.020    90508822.96745
 15 02 28 03 06 30.0000000  0  9G01G04G11G16G18G19G22G27G32
  23550567.660   123759088.31706  23550571.640    96435669.72043
  21298333.880   111923559.29509  21298334.340    87213184.83546
  22529393.660   118392789.28008  22529393.380    92254132.11945
  22746136.480   119531759.34108  22746136.820    93141638.90245
  23903206.020   125612255.89107  23903204.480    97879657.12943
  20608292.100   108297325.68809  20608289.920    84387528.38248
  21227854.280   111553238.39409  21227851.480    86924627.19447
  20468392.700   107562170.86209  20468394.580    83814702.19448
  22084245.880   116053542.71808  22084246.720    90431351.67845
 15 02 28 03 07  0.0000000  0  9G01G04G11G16G18G19G22G27G32
  23536333.460   123684287.12806  23536337.440    96377383.14444
  21288426.340   111871494.94009  21288426.740    87172615.22846
  22514595.420   118315023.31608  22514595.040    92193535.28644
  22765019.980   119630991.39708  22765019.900    93218962.55245
  23919555.500   125698172.28207  23919553.900    97946604.94044
  20603249.740   108270827.44309  20603247.460    84366880.39648
  21236569.360   111599036.64509  21236566.560    86960314.14647
  20472416.060   107583314.02409  20472418.040    83831177.38448
  22065389.460   115954450.97108  22065390.200    90354137.35245
 15 02 28 03 07 30.0000000  0  9G01G04G11G16G18G19G22G27G32
  23522127.360   123609634.29406  23522131.520    96319212.15644
  21278568.760   111819693.03109  21278569.080    87132250.11446
  22499825.200   118237405.02108  22499824.860    92133053.53845
  22783947.320   119730453.79508  22783946.880    93296465.69445
  23935938.640   125784265.44907  23935937.040    98013690.52043
  20598271.360   108244665.76409  20598269.000    84346494.67248
  21245367.520   111645271.82909  21245364.780    86996341.56447
  20476516.220   107604860.71809  20476518.240    83847967.01148
  22046596.580   115855693.65908  22046597.300    90277183.62946
 15 02 28 03 08  0.0000000  0 10G01G04G11G14G16G18G19G22G27G32
  23507948.460   123535123.64506  23507952.680    96261151.96344
  21268759.920   111768147.43409  21268760.260    87092084.73646
  22485082.080   118159929.10508  22485081.660    92072682.71345
  24002171.600   126132260.33005  24002172.000    98284879.84444
  22802916.720   119830137.79808  22802916.100    93374141.53345
  23952353.880   125870527.26107  23952352.220    98080907.49042
  20593356.060   108218835.89509  20593353.740    84326367.50248
  21254247.300   111691935.98209  21254244.640    87032703.24147
  20480692.100   107626805.23609  20480694.100    83865066.63048
  22027866.520   115757266.97108  22027867.300    90200487.52945
 15 02 28 03 08 30.0000000  0 10G01G04G11G14G16G18G19G22G27G32
  23493797.940   123460761.41206  23493801.920    96203207.43244
  21259000.980   111716864.15709  21259001.400    87052123.74446
  22470367.320   118082602.11708  22470366.680    92012427.94244
  23989296.060   126064599.60905  23989296.420    98232157.20044
  22821928.620   119930046.47708  22821928.060    93451992.43945
  23968802.040   125956961.84007  23968800.380    98148259.09043
  20588505.360   108193345.12709  20588503.100    84306504.56348
  21263209.520   111739033.36009  21263206.940    87069402.50147
  20484944.940   107649154.10409  20484946.880    83882481.32948
  22009200.860   115659179.36708  22009201.760    90124055.65445
 15 02 28 03 09  0.0000000  0 10G01G04G11G14G16G18G19G22G27G32
  23479675.400   123386546.67407  23479679.280    96145377.80345
  21249291.760   111665842.12209  21249292.280    87012366.33046
  22455680.780   118005423.84508  22455680.220    91952289.05344
  23976459.180   125997143.00005  23976461.280    98179607.18944
  22840982.400   120030175.84408  22840982.060    93530015.30845
  23985282.540   126043565.92507  23985280.820    98215742.76843
  20583719.160   108168193.87309  20583717.000    84286906.19248
  21272253.680   111786561.02509  21272251.080    87106437.04547
  20489274.720   107671907.05409  20489276.600    83900210.88748
  21990600.120   115561432.66408  21990601.040    90047889.41545
 15 02 28 03 09 30.0000000  0 10G01G04G11G14G16G18G19G22G27G32
  23465580.480   123312476.88907  23465584.420    96087661.15044
  21239631.840   111615079.18109  21239632.520    86972810.79347
  22441022.040   117928391.87708  22441021.640    91892264.15145
  23963662.520   125929894.99106  23963663.820    98127206.16444
  22860077.060   120130520.64908  22860077.220    93608206.04945
  24001794.380   126130334.80607  24001792.680    98283354.86443
  20578997.340   108143380.75709  20578995.200    84267571.29848
  21281378.960   111834514.55309  21281376.320    87143803.44347
  20493680.980   107695061.86509  20493682.780    83918253.58848
  21972064.300   115464026.75308  21972065.120    89971988.72445
 15 02 28 03 10  0.0000000  0 10G01G04G11G14G16G18G19G22G27G32
  23451513.880   123238556.18107  23451517.860    96030060.66244
  21230022.060   111564579.19609  21230022.700    86933460.16946
  22426392.200   117851511.90408  22426391.800    91832357.68345
  23950906.840   125862864.28106  23950907.800    98074959.34243
  22879213.120   120231082.49508  22879213.680    93686565.90445
  24018337.880   126217270.66807  24018336.240    98351097.07644
  20574341.020   108118911.36209  20574338.800    84248504.23548
  21290585.780   111882896.57209  21290583.140    87181503.71747
  20498164.580   107718623.14209  20498166.400    83936613.01748
  21953594.540   115366968.07408  21953595.440    89896358.62145
 15 02 28 03 10 30.0000000  0 10G01G04G11G14G16G18G19G22G27G32
  23437475.020   123164781.30307  23437478.860    95972573.76944
  21220461.700   111514338.84209  21220462.260    86894311.85746
  22411790.640   117774780.60308  22411790.300    91772567.07944
  23938190.920   125796042.63506  23938191.760    98022890.56844
  22898389.380   120331854.87308  22898390.140    93765089.83145
  24034912.000   126304367.98607  24034910.360    98418965.07743
  20569749.740   108094783.57309  20569747.380    84229703.35348
  21299873.100   111931701.61309  21299870.420    87219533.62447
  20502724.940   107742587.99009  20502726.820    83955286.92148
  21935190.760   115270255.87608  21935191.680    89820998.48345
 15 02 28 03 11  0.0000000  0 10G01G04G11G14G16G18G19G22G27G32
  23423464.140   123091153.07707  23423467.900    95915201.15844
  21210950.800   111464358.97009  21210951.420    86855366.51847
  22397217.680   117698199.52308  22397217.320    91712893.54545
  23925516.140   125729437.58506  23925516.980    97970990.58244
  22917605.460   120432835.52208  22917606.220    93843776.02445
  24051516.560   126391625.60307  24051515.020    98486958.00943
  20565223.740   108070999.35909  20565221.400    84211170.20748
  21309240.700   111980928.81509  21309238.100    87257892.48647
  20507362.360   107766957.68909  20507364.300    83974276.28648
  21916853.540   115173893.30208  21916854.440    89745910.78446
 15 02 28 03 11 30.0000000  0 10G01G04G11G14G16G18G19G22G27G32
  23409481.040   123017671.24907  23409484.900    95857942.64244
  21201489.360   111414639.27409  21201490.140    86816623.90247
  22382673.400   117621769.05808  22382673.000    91653337.34945
  23912883.140   125663051.76006  23912884.020    97919261.36843
  22936860.660   120534021.56908  22936861.260    93922622.26645
  24068151.180   126479041.23407  24068149.920    98555074.08844
  20560763.380   108047559.93809  20560761.060    84192905.72148
  21318688.080   112030575.54409  21318685.640    87296578.23747
  20512076.820   107791732.33909  20512078.760    83993581.19948
  21898583.280   115077882.63308  21898584.260    89671097.30645
 15 02 28 03 12  0.0000000  0 10G01G04G11G14G16G18G19G22G27G32
  23395526.080   122944337.58107  23395529.920    95800799.54745
  21192077.800   111365181.62609  21192078.620    86778085.48646
  22368158.160   117545491.64508  22368157.840    91593900.42045
  23900292.840   125596889.70006  23900294.080    97867706.57743
  22956154.760   120635411.60308  22956155.060    94001627.46545
  24084815.760   126566614.27707  24084814.740    98623312.80243
  20556369.200   108024468.26609  20556366.920    84174912.21548
  21328215.320   112080641.64109  21328212.960    87335590.79047
  20516868.740   107816914.08809  20516870.700    84013203.33348
  21880380.780   114982228.00208  21880381.780    89596561.24246
 15 02 28 03 12 30.0000000  0 10G01G04G11G14G16G18G19G22G27G32
  23381599.040   122871150.72007  23381602.840    95743770.85344
  21182715.900   111315984.48109  21182716.680    86739750.06246
  22353671.820   117469366.45808  22353671.640    91534582.10745
  23887745.500   125530952.93606  23887746.800    97816327.27643
  22975486.980   120737001.91508  22975486.900    94080788.73944
  24101509.600   126654341.03506  24101508.640    98691671.31944
  20552041.100   108001724.03109  20552038.840    84157189.43448
  21337821.900   112131124.22109  21337819.500    87374927.86847
  20521737.920   107842501.96909  20521739.940    84033141.93448
  21862246.200   114886930.40608  21862247.280    89522303.41045
 15 02 28 03 13  0.0000000  0 10G01G04G11G14G16G18G19G22G27G32
  23367700.000   122798111.10607  23367703.780    95686856.89244
  21173403.620   111267048.17909  21173404.440    86701617.88947
  22339214.800   117393394.52808  22339214.620    91475383.23545
  23875241.480   125465244.50006  23875242.780    97765125.93943
  22994856.740   120838789.71608  22994856.360    94160103.87745
  24118232.340   126742220.24506  24118231.560    98760148.59243
  20547779.480   107979329.06209  20547777.240    84139738.80748
  21347507.380   112182021.38909  21347504.900    87414588.01147
  20526684.560   107868496.84609  20526686.620    84053397.66248
  21844180.180   114791992.75708  21844181.300    89448326.04146
 15 02 28 03 13 30.0000000  0 10G01G04G11G14G16G18G19G22G27G32
  23353828.900   122725218.72407  23353832.700    95630057.67745
  21164141.040   111218372.91209  21164141.860    86663689.12646
  22324787.200   117317576.58708  22324786.880    91416304.35345
  23862781.520   125399767.29406  23862782.500    97714104.75443
  23014263.440   120940771.90308  23014262.860    94239570.49745
  24134983.720   126830249.89506  24134983.140    98828743.09043
  20543584.540   107957284.67409  20543582.300    84122561.36248
  21357271.280   112233331.31309  21357268.880    87454569.77047
  20531708.740   107894899.00809  20531710.680    84073970.77148
  21826183.100   114697417.34508  21826184.240    89374630.94646
 15 02 28 03 14  0.0000000  0 10G01G04G11G14G16G18G19G22G27G32
  23339985.600   122652472.37707  23339989.460    95573372.24244
  21154927.820   111169957.39709  21154928.660    86625962.77146
  22310388.780   117241912.28708  22310388.420    91357345.19545
  23850365.980   125334523.25406  23850366.820    97663265.24644
  23033706.420   121042944.87508  23033705.720    94319185.79145
  24151763.060   126918426.54006  24151762.680    98897452.15743
  20539456.240   107935590.73409  20539454.060    84105656.99948
  21367113.080   112285050.81809  21367110.780    87494870.69347
  20536810.280   107921707.61909  20536812.120    84094860.58348
  21808255.240   114603205.43908  21808256.320    89301219.09046
 15 02 28 03 14 30.0000000  0 10G01G04G11G14G16G18G19G22G27G32
  23326170.500   122579873.74707  23326174.300    95516801.94044
  21145764.280   111121803.14509  21145765.100    86588439.99446
  22296020.020   117166403.51808  22296019.540    91298507.22245
  23837995.720   125269516.61806  23837996.460    97612610.75744
  23053185.220   121145307.17207  23053184.720    94398948.57945
  24168570.300   127006749.63106  24168569.980    98966275.31343
  20535395.300   107914250.37409  20535393.120    84089028.15148
  21377032.700   112337179.70609  21377030.580    87535490.60347
  20541989.580   107948924.71409  20541991.400    84116068.69948
  21790397.320   114509361.14208  21790398.340    89228093.68846
 15 02 28 03 15  0.0000000  0 10G01G04G11G14G16G18G19G22G27G32
  23312383.400   122507423.18506  23312387.440    95460347.00044
  21136650.560   111073910.50209  21136651.340    86551121.07146
  22281681.100   117091051.67208  22281680.580    91239791.52745
  23825671.340   125204750.58706  23825671.940    97562143.73644
  23072699.500   121247856.21708  23072699.300    94478856.92445
  24185405.160   127095217.62806  24185404.680    99035211.41044
  20531401.940   107893265.05509  20531399.820    84072675.96348
  21387029.980   112389716.25509  21387027.920    87576428.17947
  20547246.680   107976550.96409  20547248.520    84137595.63748
  21772609.780   114415887.08308  21772610.720    89155256.77346
 15 02 28 03 15 30.0000000  0 10G01G04G11G14G16G18G19G22G27G32
  23298624.540   122435120.15907  23298628.720    95404007.03145
  21127586.640   111026279.20709  21127587.340    86514005.78946
  22267372.100   117015856.85708  22267371.580    91181198.18145
  23813393.020   125140227.37206  23813393.560    97511865.92144
  23092248.620   121350588.56907  23092248.820    94558908.07845
  24202267.080   127183827.93106  24202266.420    99104258.39743
  20527476.260   107872635.30409  20527474.100    84056600.83648
  21397104.340   112442657.91109  21397102.400    87617681.41047
  20552581.600   108004586.21009  20552583.440    84159441.27348
  21754893.040   114322785.11708  21754893.920    89082709.81646
 15 02 28 03 16  0.0000000  0 10G01G04G11G14G16G18G19G22G27G32
  23284893.660   122362964.17306  23284898.000    95347781.63644
  21118572.340   110978908.51809  21118572.900    86477093.58246
  22253093.000   116940819.27608  22253092.400    91122727.35845
  23801161.220   125075949.20007  23801161.840    97461779.08544
  23111832.000   121453500.71908  23111832.580    94639099.35245
  24219155.580   127272515.85806  24219154.760    99173377.15543
  20523618.500   107852362.21009  20523616.220    84040803.61848
  21407255.380   112496002.01509  21407253.520    87659248.24947
  20557994.340   108033030.16709  20557996.160    84181605.38748
  21737247.440   114230056.99508  21737248.300    89010454.15246
 15 02 28 03 16 30.0000000  0 10G01G04G11G14G16G18G19G22G27G32
  23271190.760   122290954.82407  23271195.060    95291670.48845
  21109607.460   110931797.91609  21109608.060    86440384.04747
  22238843.780   116865938.93808  22238843.120    91064379.06645
  23788976.760   125011918.80307  23788977.360    97411885.26644
  23131449.060   121556589.79507  23131449.860    94719428.47445
  24236070.280   127361402.81306  24236069.200    99242639.72144
  20519828.660   107832446.36709  20519826.400    84025284.78348
  21417482.640   112549746.54509  21417480.800    87701127.09747
  20563484.860   108061882.73909  20563486.640    84204087.90148
  21719673.380   114137704.66808  21719674.200    88938491.31446
 15 02 28 03 17  0.0000000  0 10G01G04G11G14G16G18G19G22G27G32
  23257516.280   122219094.99707  23257520.480    95235675.87545
  21100692.620   110884950.39409  21100693.340    86403879.51146
  22224625.020   116791219.31208  22224624.400    91006156.00145
  23776840.420   124948141.66106  23776841.020    97362188.80543
  23151099.800   121659855.41707  23151100.660    94799895.19445
  24253010.940   127450427.88506  24253010.040    99312009.89343
  20516107.480   107812891.80709  20516105.340    84010047.47048
  21427786.320   112603892.22609  21427784.380    87743318.53547
  20569053.660   108091147.17509  20569055.520    84226891.35148
  21702171.820   114045733.40708  21702172.660    88866825.42146
 15 02 28 03 17 30.0000000  0 10G01G04G11G14G16G18G19G22G27G32
  23243869.920   122147382.86507  23243874.120    95179796.32445
  21091827.460   110838363.87109  21091828.240    86367578.34347
  22210436.640   116716659.36608  22210436.040    90948057.37745
  23764752.200   124884618.64206  23764752.940    97312690.37543
  23170783.320   121763293.07407  23170784.140    94880495.94345
  24269977.160   127539587.20306  24269976.780    99381484.64341
  20512455.020   107793697.90609  20512452.840    83995091.18548
  21438165.560   112658435.08509  21438163.560    87785819.47047
  20574700.520   108120821.89609  20574702.440    84250014.50048
  21684742.800   113954143.76708  21684743.780    88795456.89946
 15 02 28 03 18  0.0000000  0 10G01G04G11G14G16G18G19G22G27G32
  23230251.460   122075817.31107  23230255.740    95124031.00745
  21083011.840   110792037.53109  21083012.640    86331479.91047
  22196278.560   116642258.60008  22196278.000    90890082.77645
  23752712.780   124821351.71806  23752713.640    97263391.49544
  23190498.900   121866898.57608  23190499.440    94961227.47844
  24286968.360   127628877.33406  24286968.580    99451061.31943
  20508871.280   107774865.00909  20508869.040    83980416.20148
  21448619.760   112713372.18209  21448617.740    87828627.59647
  20580425.300   108150906.01509  20580427.260    84273456.66848
  21667386.680   113862936.84808  21667387.700    88724386.58546
 15 02 28 03 18 30.0000000  0 10G01G04G11G14G16G18G19G22G27G32
  23216661.180   122004399.35107  23216665.480    95068380.68145
  21074245.940   110745972.05009  21074246.640    86295584.74246
  22182151.240   116568018.99808  22182150.760    90832233.76945
  23740722.800   124758344.48106  23740723.660    97214294.97444
  23210246.200   121970669.89808  23210246.280    95042088.24045
  24303984.200   127718297.45606  24303984.780    99520739.32843
  20505356.640   107756395.39409  20505354.340    83966024.29548
  21459148.780   112768702.36909  21459146.740    87871742.02947
  20586228.220   108181400.84909  20586230.220    84297218.87148
  21650104.020   113772116.04408  21650105.100    88653617.15646
 15 02 28 03 19  0.0000000  0 10G01G04G11G14G16G18G19G22G27G32
  23203098.940   121933129.72907  23203103.320    95012845.92745
  21065529.900   110700168.43609  21065530.460    86259893.63347
  22168054.860   116493941.93508  22168054.480    90774511.40245
  23728783.000   124695600.57406  23728783.760    97165403.62044
  23230024.700   122074605.80008  23230024.460    95123077.22644
  24321024.720   127807846.37906  24321025.440    99590517.68743
  20501911.460   107738290.77709  20501909.080    83951916.79748
  21469752.340   112824424.41309  21469750.320    87915161.80447
  20592109.500   108212307.42009  20592111.580    84321301.90748
  21632895.500   113681684.34808  21632896.500    88583150.91046
 15 02 28 03 19 30.0000000  0 10G01G04G11G14G16G18G19G22G27G32
  23189564.660   121862006.80007  23189569.100    94957425.51245
  21056863.380   110654625.11109  21056863.840    86224405.35247
  22153989.260   116420026.56608  22153988.940    90716915.02945
  23716893.580   124633120.97706  23716894.080    97116718.21843
  23249833.500   122178701.20707  23249832.980    95204190.50044
  24338089.100   127897520.23606  24338089.680    99660393.42241
  20498535.720   107720551.11009  20498533.300    83938093.67848
  21480429.720   112880534.41109  21480427.740    87958883.87447
  20598068.920   108243624.31509  20598071.040    84345704.67248
  21615761.100   113591642.43408  21615762.080    88512988.39246
 15 02 28 03 20  0.0000000  0 10G01G04G11G14G16G18G19G22G27G32
  23176058.660   121791032.65307  23176063.140    94902121.02945
  21048246.660   110609343.75009  21048247.060    86189121.18947
  22139954.820   116346275.45608  22139954.640    90659446.65345
  23705055.480   124570910.85506  23705055.980    97068242.81944
  23269672.400   122282955.04707  23269671.620    95285427.25445
  24355177.220   127987319.14906  24355177.720    99730366.55643
  20495229.920   107703179.37909  20495227.540    83924557.26248
  21491180.960   112937032.56909  21491178.960    88002908.42147
  20604106.900   108275353.84109  20604109.000    84370428.97048
  21598701.680   113501994.69808  21598702.660    88443133.03346
 15 02 28 03 20 30.0000000  0 10G01G04G11G14G16G18G19G22G27G32
  23162580.780   121720206.21007  23162585.300    94846931.61845
  21039679.600   110564323.45409  21039680.040    86154040.44747
  22125951.600   116272688.34308  22125951.420    90602106.06245
  23693268.960   124508971.43906  23693269.400    97019978.36944
  23289540.560   122387363.34007  23289540.040    95366784.35145
  24372288.520   128077240.06606  24372289.020    99800434.80744
  20491994.160   107686175.48409  20491991.820    83911307.48048
  21502005.560   112993915.88209  21502003.460    88047233.07447
  20610223.240   108307495.07309  20610225.220    84395474.07548
  21581717.520   113412742.23508  21581718.420    88373585.67846
 15 02 28 03 21  0.0000000  0 10G01G04G11G14G16G18G19G22G27G32
  23149131.240   121649528.69707  23149135.780    94791858.24345
  21031162.440   110519565.41009  21031162.840    86119164.07247
  22111979.980   116199267.07708  22111979.760    90544894.69945
  23681534.620   124447306.83006  23681535.120    96971928.06744
  23309437.740   122491924.45107  23309437.560    95448260.49944
  24389422.880   128167281.93006  24389423.320    99870597.28643
  20488828.900   107669542.16709  20488826.640    83898346.45448
  21512903.320   113051183.41109  21512901.100    88091857.12547
  20616418.200   108340049.48209  20616420.080    84420841.13548
  21564809.260   113323888.58208  21564810.040    88304349.09446
 15 02 28 03 21 30.0000000  0 10G01G04G11G14G16G18G19G22G27G32
  23135709.840   121578999.34807  23135714.360    94736900.34945
  21022695.040   110475068.90209  21022695.440    86084491.48747
  22098039.920   116126011.85308  22098039.620    90487812.73245
  23669852.820   124385919.30306  23669853.600    96924093.67444
  23329363.460   122596635.39507  23329363.520    95529853.43644
  24406579.760   128257442.19505  24406580.140    99940852.00141
  20485734.280   107653279.77409  20485732.000    83885674.45749
  21523873.500   113108832.21409  21523871.300    88136778.26647
  20622691.600   108373016.50809  20622693.480    84446529.72048
  21547977.120   113235435.13608  21547977.840    88235424.35046
 15 02 28 03 22  0.0000000  0 10G01G04G11G14G16G18G19G22G27G32
  23122316.620   121508617.74307  23122321.020    94682057.56345
  21014277.280   110430833.50809  21014277.740    86050022.36147
  22084131.520   116052922.71008  22084131.040    90430860.16745
  23658224.280   124324811.10206  23658225.040    96876476.92243
  23349316.980   122701492.68607  23349317.440    95611560.41044
  24423758.720   128347718.55405  24423759.060   100011197.21044
  20482710.420   107637389.24609  20482708.180    83873292.23248
  21534915.760   113166859.91609  21534913.620    88181994.65147
  20629043.460   108406395.94409  20629045.420    84472539.66548
  21531221.440   113147383.75408  21531222.140    88166812.91146
 15 02 28 03 22 30.0000000  0 10G01G04G11G14G16G18G19G22G27G32
  23108951.560   121438383.82107  23108955.940    94627329.86245
  21005909.180   110386859.09609  21005909.700    86015756.59547
  22070254.900   115980000.69008  22070254.280    90374037.84044
  23646649.380   124263984.94606  23646650.200    96829079.91444
  23369297.800   122806492.99207  23369298.440    95693378.81244
  24440959.380   128438108.88505  24440959.860   100081631.19944
  20479757.560   107621871.68309  20479755.300    83861200.61648
  21546029.760   113225264.56209  21546027.680    88227504.76547
  20635473.820   108440187.86609  20635475.820    84498871.02048
  21514542.700   113059736.60108  21514543.480    88098516.44546
 15 02 28 03 23  0.0000000  0 10G01G04G11G14G16G18G19G22G27G32
  23095614.740   121368298.17007  23095619.140    94572717.69146
  20997590.800   110343146.10309  20997591.380    85981694.53347
  22056410.220   115907246.96808  22056409.580    90317346.65545
  23635128.700   124203444.18906  23635129.700    96781905.33544
  23389305.340   122911634.01307  23389306.120    95775306.84944
  24458181.500   128528611.83605  24458181.940   100152152.97544
  20476875.920   107606728.51509  20476873.660    83849400.74549
  21557215.180   113284044.48809  21557213.140    88273307.30647
  20641982.820   108474393.01809  20641984.860    84525524.37948
  21497941.440   112972496.59408  21497942.300    88030537.23146
 15 02 28 03 23 30.0000000  0 10G01G04G11G14G16G18G19G22G27G32
  23082305.920   121298359.99007  23082310.340    94518220.44845
  20989322.080   110299693.89609  20989322.640    85947835.68347
  22042597.440   115834661.41808  22042596.980    90260786.49445
  23623662.860   124143190.65706  23623663.660    96734954.53744
  23409339.220   123016912.44307  23409340.000    95857341.98544
  24475424.660   128619224.69105  24475425.140   100222760.35043
  20474065.680   107591960.36009  20474063.360    83837893.09449
  21568471.440   113343196.84109  21568469.440    88319400.04947
  20648570.400   108509010.76409  20648572.400    84552499.24048
  21481417.880   112885664.98908  21481418.900    87962876.25646
 15 02 28 03 24  0.0000000  0 10G01G04G11G14G16G18G19G22G27G32
  23069025.180   121228569.20707  23069029.480    94463838.05045
  20981102.980   110256502.21609  20981103.500    85914179.83447
  22028816.880   115762244.47708  22028816.440    90204357.72245
  23612252.060   124083227.03906  23612252.840    96688229.66043
  23429398.700   123122325.18507  23429399.320    95939481.74644
  24492688.320   128709945.00705  24492688.720   100293451.53344
  20471327.020   107577568.39709  20471324.640    83826678.57149
  21579798.180   113402719.44209  21579796.140    88365781.29147
  20655236.560   108544041.15109  20655238.460    84579795.63148
  21464972.440   112799243.91808  21464973.560    87895535.17846
 15 02 28 03 24 30.0000000  0 10G01G04G11G14G16G18G19G22G27G32
  23055773.020   121158928.33407  23055777.160    94409572.45345
  20972933.940   110213573.68909  20972934.440    85880729.04647
  22015069.140   115689999.81608  22015068.760    90148063.21345
  23600897.440   124023558.51306  23600898.020    96641734.70944
  23449483.740   123227872.06607  23449484.100    96021726.06844
  24509972.460   128800773.67805  24509972.840   100364227.09144
  20468660.580   107563556.15009  20468658.220    83815759.93749
  21591195.540   113462612.53509  21591193.360    88412451.23547
  20661981.740   108579486.82509  20661983.520    84607415.62748
  21448606.020   112713238.10508  21448607.260    87828517.68046
 15 02 28 03 25  0.0000000  0 10G01G04G11G14G16G18G19G22G27G32
  23042548.960   121089435.15107  23042552.820    94355421.94746
  20964814.500   110170905.93309  20964814.980    85847481.44947
  22001353.860   115617925.84008  22001353.540    90091901.67645
  23589599.160   123964185.77706  23589599.660    96595470.26644
  23469593.220   123333547.92007  23469593.340    96104070.86144
  24527276.380   128891706.41305  24527276.900   100435083.74843
  20466066.260   107549922.85109  20466063.860    83805136.58549
  21602662.640   113522872.07909  21602660.320    88459406.71647
  20668805.480   108615345.70309  20668807.200    84635357.60348
  21432318.700   112627647.48508  21432319.920    87761823.70346
 15 02 28 03 25 30.0000000  0 10G01G04G11G14G16G18G19G22G27G32
  23029353.020   121020089.83507  23029356.820    94301386.67245
  20956744.780   110128499.24209  20956745.180    85814437.28247
  21987671.340   115546023.45508  21987671.040    90035873.85745
  23578357.720   123905111.74006  23578358.180    96549438.56544
  23489726.740   123439349.93507  23489726.740    96186513.95745
  24544599.700   128982741.53605  24544600.320   100506020.21243
  20463544.280   107536669.58309  20463541.760    83794809.35748
  21614199.100   113583496.02809  21614196.680    88506646.15347
  20675707.860   108651618.05109  20675709.640    84663621.76348
  21416110.800   112542474.35108  21416111.940    87695455.04346
 15 02 28 03 26  0.0000000  0 10G01G04G11G14G16G18G19G22G27G32
  23016185.500   120950893.79007  23016189.220    94247467.70945
  20948725.000   110086354.99809  20948725.340    85781597.61947
  21974021.920   115474294.85908  21974021.560    89979981.46945
  23567173.720   123846340.06406  23567174.600    96503642.49944
  23509883.840   123545276.25507  23509883.780    96269053.93844
  24561942.420   129073878.28706  24561942.940   100577035.86643
  20461095.060   107523798.86409  20461092.460    83784780.21948
  21625804.720   113644483.63409  21625802.160    88554168.95647
  20682689.200   108688305.29309  20682691.040    84692209.21248
  21399983.040   112457722.26608  21399984.080    87629414.48246
 15 02 28 03 26 30.0000000  0 10G01G04G11G14G16G18G19G22G27G32
  23003046.060   120881846.10007  23003049.880    94193664.34945
  20940755.000   110044472.20709  20940755.260    85748961.68147
  21960405.560   115402740.02808  21960405.040    89924224.47945
  23556047.620   123787872.88106  23556048.580    96458083.64344
  23530064.040   123651323.79307  23530063.880    96351688.36144
  24579304.100   129165113.94505  24579304.360   100648128.58544
  20458718.660   107511310.97109  20458716.040    83775049.39749
  21637478.920   113705831.99309  21637476.260    88601972.87647
  20689749.340   108725406.66909  20689751.260    84721119.37048
  21383935.620   112373392.38908  21383936.580    87563702.91946
 15 02 28 03 27  0.0000000  0 10G01G04G11G14G16G18G19G22G27G32
  22989934.500   120812944.95507  22989938.520    94139975.18045
  20932834.360   110002849.14209  20932834.660    85716528.12547
  21946822.020   115331357.78908  21946821.440    89868601.97545
  23544979.860   123729711.24206  23544980.840    96412762.92444
  23550266.440   123757487.85107  23550266.140    96434413.58344
  24596683.940   129256444.88005  24596684.180   100719295.51444
  20456414.940   107499205.14309  20456412.400    83765616.27848
  21649221.040   113767537.31308  21649218.380    88650054.94047
  20696887.940   108762920.44909  20696889.920    84750350.87348
  21367968.620   112289485.16408  21367969.480    87498320.68846
 15 02 28 03 27 30.0000000  0 10G01G04G11G14G16G18G19G22G27G32
  22976851.480   120744192.54807  22976855.460    94086401.91945
  20924963.560   109961487.88009  20924963.880    85684298.57047
  21933271.880   115260151.20708  21933271.300    89813116.34545
  23533971.120   123671859.78306  23533972.100    96367683.88844
  23570490.800   123863767.61407  23570490.460    96517228.97444
  24614081.920   129347871.43205  24614082.060   100790537.00644
  20454184.660   107487484.94709  20454182.180    83756483.65548
  21661031.060   113829599.44708  21661028.520    88698415.04547
  20704105.460   108800848.86409  20704107.460    84779905.47448
  21352082.920   112206004.85008  21352083.640    87433271.10946
 15 02 28 03 28  0.0000000  0 10G01G04G11G14G16G18G19G22G27G32
  22963796.700   120675588.55907  22963800.500    94032944.29845
  20917142.520   109920387.96909  20917142.760    85652272.67447
  21919755.220   115189120.70308  21919754.720    89757767.91745
  23523022.020   123614320.96807  23523022.800    96322848.45444
  23590736.620   123970159.69407  23590736.340    96600131.86544
  24631497.500   129439390.93905  24631497.480   100861850.88544
  20452027.920   107476151.09209  20452025.480    83747652.07549
  21672908.420   113892015.65309  21672906.080    88747051.04547
  20711401.860   108839191.58709  20711403.840    84809782.91248
  21336278.760   112122953.16609  21336279.380    87368555.53446
 15 02 28 03 28 30.0000000  0 10G01G04G11G14G16G18G19G22G27G32
  22950770.260   120607133.91607  22950773.980    93979603.04845
  20909371.440   109879550.59209  20909371.600    85620451.35347
  21906272.400   115118268.04008  21906271.920    89702558.06845
  23512133.200   123557098.33807  23512133.720    96278259.41144
  23611003.420   124076662.36007  23611003.200    96683120.95544
  24648930.600   129531002.62405  24648930.420   100933236.60144
  20449945.040   107465205.71709  20449942.720    83739123.21849
  21684853.020   113954785.43808  21684850.900    88795962.56247
  20718777.280   108877949.62009  20718779.240    84839983.97148
  21320556.760   112040333.09109  21320557.260    87304176.27946
 15 02 28 03 29  0.0000000  0 10G01G04G11G14G16G18G19G22G27G32
  22937772.020   120538827.58807  22937775.700    93926377.35345
  20901650.020   109838974.39009  20901650.180    85588833.54247
  21892823.340   115047593.00708  21892822.820    89647486.64145
  23501304.700   123500193.49807  23501304.880    96233918.00844
  23631290.500   124183271.37507  23631290.240    96766192.88844
  24666380.680   129622703.31805  24666380.480   101004691.67643
  20447936.060   107454648.83209  20447933.860    83730897.07149
  21696864.260   114017905.25408  21696862.280    88845146.83047
  20726231.500   108917121.94009  20726233.500    84870507.84648
  21304917.080   111958145.70009  21304917.440    87240134.18746
 15 02 28 03 29 30.0000000  0 10G01G04G11G14G16G18G19G22G27G32
  22924802.180   120470670.52707  22924805.580    93873267.97545
  20893978.480   109798660.51109  20893978.700    85557420.13847
  21879408.400   114977097.05908  21879407.680    89592554.75345
  23490537.260   123443610.26306  23490537.320    96189827.20144
  23651597.540   124289985.17507  23651597.300    96849346.50744
  24683847.640   129714492.53405  24683847.280   101076215.74043
  20446001.480   107444482.42209  20445999.360    83722975.19749
  21708941.980   114081373.88309  21708940.040    88894602.90247
  20733764.760   108956709.52009  20733766.820    84901355.30148
  21289360.260   111876393.99608  21289360.540    87176431.57546
 15 02 28 03 30  0.0000000  0 10G01G04G11G14G16G18G19G22G27G32
  22911860.500   120402661.31907  22911863.740    93820273.81745
  20886356.640   109758607.60009  20886356.960    85526210.09047
  21866027.560   114906780.10708  21866026.680    89537762.33145
  23479831.200   123387349.64607  23479831.140    96145987.77344
  23671923.700   124396799.58007  23671923.560    96932578.46844
  24701330.780   129806366.89205  24701330.340   101147806.12642
  20444141.160   107434706.09909  20444139.060    83715357.28749
  21721085.420   114145188.02709  21721083.520    88944328.21047
  20741376.800   108996710.91009  20741378.860    84932525.19748
  21273886.340   111795078.56808  21273886.680    87113068.92446
 15 02 28 03 30 30.0000000  0 10G01G04G11G14G16G18G19G22G27G32
  22898946.960   120334800.28907  22898950.180    93767395.12845
  20878784.520   109718815.76509  20878784.880    85495203.49047
  21852680.980   114836642.99808  21852680.060    89483110.05946
  23469187.000   123331414.67806  23469187.160    96102402.11744
  23692268.780   124503712.73307  23692268.600    97015887.41644
  24718829.720   129898324.63205  24718829.500   101219461.55144
  20442355.380   107425321.59809  20442353.220    83708044.68849
  21733294.220   114209345.53908  21733292.320    88994321.06447
  20749067.720   109037126.43709  20749069.660    84964017.80548
  21258495.840   111714201.78308  21258496.300    87050048.06546
 15 02 28 03 31  0.0000000  0 10G01G04G11G14G16G18G19G22G27G32
  22886061.920   120267089.15707  22886065.180    93714633.24845
  20871262.420   109679286.85709  20871262.800    85464401.75047
  21839369.120   114766688.45808  21839368.180    89428600.02446
  23458605.600   123275809.68706  23458605.860    96059073.55644
  23712632.360   124610722.85407  23712631.980    97099271.91243
  24736344.380   129990365.43705  24736344.520   101291181.68043
  20440644.640   107416331.60709  20440642.440    83701039.50149
  21745568.440   114273846.39309  21745566.340    89044581.47647
  20756837.760   109077957.79409  20756839.580    84995834.44148
  21243189.560   111633767.43709  21243190.180    86987371.96247
 15 02 28 03 31 30.0000000  0 10G01G04G11G14G16G18G19G22G27G32
  22873204.980   120199525.98307  22873208.380    93661986.65445
  20863789.920   109640018.79409  20863790.340    85433803.27547
  21826091.660   114696915.13708  21826090.960    89374231.22946
  23448087.260   123220535.28206  23448087.580    96016002.62444
  23733013.420   124717824.92807  23733012.900    97182728.04544
  24753874.120   130082485.50005  24753874.420   101362963.52244
  20439008.820   107407735.23109  20439006.520    83694341.02949
  21757907.100   114338686.09308  21757904.860    89095105.91347
  20764686.420   109119202.97509  20764688.280    85027973.53148
  21227967.500   111553775.43708  21227968.340    86925040.54546
 15 02 28 03 32  0.0000000  0 10G01G04G11G14G16G18G19G22G27G32
  22860376.480   120132112.17907  22860380.100    93609456.44745
  20856367.240   109601013.09609  20856367.740    85403409.24147
  21812849.120   114627325.03008  21812848.600    89320005.18046
  23437632.600   123165595.53107  23437633.020    95973192.45144
  23753411.620   124825017.27007  23753410.920    97266254.52344
  24771418.860   130174684.65604  24771419.240   101434807.07142
  20437448.380   107399534.85609  20437446.040    83687951.12449
  21770310.040   114403864.09808  21770307.860    89145893.96747
  20772614.020   109160863.31509  20772615.960    85060436.11948
  21212830.340   111474229.23209  21212831.280    86863056.50246
 15 02 28 03 32 30.0000000  0 10G01G04G11G14G16G18G19G22G27G32
  22847576.180   120064846.72607  22847580.000    93557041.84246
  20848994.320   109562268.64509  20848994.980    85373218.77247
  21799641.500   114557918.63908  21799641.080    89265922.30446
  23427241.960   123110992.19707  23427242.500    95930644.43943
  23773826.340   124932296.62807  23773825.500    97349848.82344
  24788978.020   130266959.91504  24788978.340   101506709.81544
  20435963.300   107391730.58409  20435960.920    83681869.87149
  21782776.780   114469377.26108  21782774.600    89196943.18347
  20780620.460   109202937.73009  20780622.460    85093221.37148
  21197778.300   111395129.85509  21197779.220    86801420.63846
 15 02 28 03 33  0.0000000  0 10G01G04G11G14G16G18G19G22G27G32
  22834804.660   119997731.92208  22834808.380    93504744.61246
  20841671.580   109523787.69609  20841672.380    85343233.63847
  21786469.280   114488698.68908  21786468.960    89211984.70445
  23416916.180   123056730.00107  23416916.720    95888362.23844
  23794257.360   125039662.74607  23794256.420    97433510.69943
  24806551.780   130359311.55604  24806551.820   101578672.13144
  20434554.280   107384325.96609  20434551.860    83676100.03949
  21795307.260   114535225.74308  21795305.160    89248253.68647
  20788706.240   109245428.46509  20788708.260    85126331.02648
  21182812.160   111316481.51209  21182812.920    86740136.22946
 15 02 28 03 33 30.0000000  0 10G01G04G11G14G16G18G19G22G27G32
  22822061.160   119930764.22308  22822064.760    93452562.00445
  20834398.360   109485566.79609  20834399.180    85313451.13847
  21773331.920   114419662.18708  21773331.600    89158190.04746
  23406655.040   123002807.93307  23406655.660    95846345.04344
  23814703.480   125147108.93107  23814702.600    97517234.98444
  24824139.180   130451734.29004  24824139.320   101650689.85443
  20433220.760   107377318.37609  20433218.340    83670639.58549
  21807900.480   114601403.56609  21807898.380    89299820.81947
  20796870.540   109288331.86409  20796872.560    85159762.24148
  21167931.480   111238282.53009  21167932.060    86679201.98047
 15 02 28 03 34  0.0000000  0 10G01G04G11G14G16G18G19G22G27G32
  22809345.920   119863944.54508  22809349.340    93400494.74445
  20827174.720   109447606.61109  20827175.580    85283871.79047
  21760230.000   114350811.49808  21760229.620    89104540.17645
  23396459.420   122949229.60406  23396460.080    95804595.71543
  23835164.320   125254632.83407  23835163.820    97601019.85444
  24841739.980   130544227.60204  24841740.400   101722762.51343
  20431963.060   107370709.67509  20431960.700    83665489.94849
  21820556.200   114667909.76908  21820554.040    89351643.83647
  20805113.500   109331648.72009  20805115.480    85193515.62448
  21153136.800   111160535.91209  21153137.260    86618620.21846
 15 02 28 03 34 30.0000000  0 10G01G04G11G14G16G18G19G22G27G32
  22796658.960   119797273.89108  22796662.340    93348543.59446
  20820001.040   109409908.46109  20820001.820    85254496.61447
  21747163.760   114282148.28808  21747163.320    89051036.40946
  23386329.940   122895998.56907  23386330.500    95763117.01144
  23855639.640   125362233.40106  23855639.620    97684864.42343
  24859354.080   130636790.03104  24859354.400   101794889.16944
  20430781.700   107364502.09609  20430779.420    83660652.87649
  21833274.220   114734743.43909  21833271.960    89403722.01646
  20813435.220   109375379.91909  20813437.220    85227591.87148
  21138428.600   111083244.39409  21138429.120    86558393.08746
 15 02 28 03 35  0.0000000  0 10G01G04G11G14G16G18G19G22G27G32
  22784000.400   119730752.69408  22784003.680    93296708.91745
  20812877.280   109372472.40009  20812877.980    85225325.67247
  21734133.500   114213673.90108  21734133.020    88997679.74646
  23376267.260   122843117.79407  23376267.580    95721911.22643
  23876129.060   125469907.80006  23876129.500    97768766.53844
  24876981.060   130729420.32504  24876981.260   101867068.55644
  20429677.000   107358696.91909  20429674.720    83656129.35949
  21846054.200   114801902.36909  21846051.800    89456053.65047
  20821835.840   109419525.71909  20821837.860    85261991.18648
  21123807.400   111006410.31808  21123808.100    86498522.38747
 15 02 28 03 35 30.0000000  0 10G01G04G11G14G16G18G19G22G27G32
  22771370.180   119664381.01808  22771373.480    93244990.76745
  20805803.460   109335298.83309  20805804.080    85196359.26547
  21721139.420   114145389.32208  21721138.960    88944471.00746
  23366271.580   122790589.79707  23366271.920    95680980.36744
  23896632.200   125577653.36406  23896632.820    97852724.10844
  24894620.560   130822116.49204  24894621.000   101939299.33544
  20428649.140   107353295.49109  20428646.880    83651920.46749
  21858895.720   114869384.65708  21858893.220    89508637.25347
  20830315.380   109464086.13709  20830317.420    85296713.57948
  21109273.600   110930035.66108  21109274.540    86439009.67747
 15 02 28 03 36  0.0000000  0 10G01G04G11G14G16G18G19G22G27G32
  22758770.580   119598170.25607  22758773.900    93193397.97045
  20798781.700   109298398.93609  20798782.240    85167606.11047
  21708183.720   114077306.35908  21708183.220    88891419.36246
  23356345.420   122738428.66907  23356345.980    95640335.36944
  23917150.560   125685478.15206  23917151.320    97936743.40944
  24912274.600   130914888.46804  24912275.040   102011589.19544
  20427700.460   107348309.93909  20427698.140    83648035.61549
  21871800.460   114937199.43908  21871797.920    89561479.92747
  20838875.960   109509072.27009  20838878.000    85331767.69848
  21094829.760   110854133.67309  21094830.960    86379865.28847
 15 02 28 03 36 30.0000000  0 10G01G03G04G11G14G16G19G22G27G32
  22746192.920   119532074.60307  22746196.300    93141894.90945
  24623731.160   129398584.11706  24623735.500   100830082.02944
  20791803.240   109261726.93609  20791803.700    85139030.53647
  21695257.880   114009380.23308  21695257.400    88838489.93646
  23346480.940   122686591.20507  23346481.360    95599942.54244
  23937675.060   125793334.30007  23937675.700    98020787.15043
  20426822.380   107343695.57609  20426820.100    83644440.01049
  21884759.360   115005298.90308  21884756.760    89614544.44446
  20847508.880   109554438.25009  20847510.880    85367117.80748
  21080467.680   110778660.49109  21080468.980    86321055.03447
 15 02 28 03 37  0.0000000  0 10G01G03G04G11G14G16G19G22G27G32
  22733647.840   119466150.34107  22733651.400    93090525.38545
  24603220.280   129290799.58706  24603224.820   100746094.28744
  20784878.880   109225339.01309  20784879.240    85110676.31747
  21682372.700   113941668.22308  21682372.260    88785727.35345
  23336689.180   122635135.96806  23336689.500    95559847.56244
  23958215.760   125901275.46107  23958216.220    98104897.14044
  20426025.900   107339509.67809  20426023.520    83641178.26249
  21897782.760   115073736.98208  21897780.080    89667872.81546
  20856224.780   109600240.06709  20856226.700    85402807.52448
  21066198.280   110703674.04309  21066199.580    86262624.05347
 15 02 28 03 37 30.0000000  0 10G01G03G04G11G14G16G19G22G27G32
  22721130.780   119400373.65907  22721134.560    93039270.84345
  24582729.960   129183122.69106  24582734.300   100662190.33944
  20778004.080   109189211.57209  20778004.420    85082525.07447
  21669523.980   113874147.59208  21669523.440    88733113.88245
  23326966.180   122584041.83107  23326966.440    95520033.95744
  23978767.460   126009274.54307  23978767.980    98189052.23843
  20425306.540   107335729.35509  20425304.140    83638232.55649
  21910865.620   115142487.67608  21910862.800    89721444.78046
  20865018.980   109646453.81909  20865020.900    85438818.22948
  21052017.400   110629152.47009  21052018.660    86204555.31247
 15 02 28 03 38  0.0000000  0 10G01G03G04G11G14G16G19G22G27G32
  22708641.840   119334744.20907  22708645.800    92988131.04146
  24562260.220   129075554.54806  24562264.420   100578371.18344
  20771178.680   109153343.87109  20771179.020    85054576.22247
  21656711.760   113806818.62408  21656711.040    88680649.76846
  23317312.380   122533310.77007  23317312.600    95480503.28244
  23999329.700   126117328.80907  23999330.140    98273250.34844
  20424664.460   107332355.16309  20424662.060    83635603.31549
  21924007.500   115211548.61908  21924004.540    89775258.49446
  20873891.400   109693078.80809  20873893.400    85475149.38648
  21037925.280   110555097.05709  21037926.360    86146849.81447
 15 02 28 03 38 30.0000000  0 10G01G03G04G11G14G16G19G22G27G32
  22696181.340   119269264.28907  22696185.460    92937107.72945
  24541812.100   128968099.53106  24541816.240   100494640.14044
  20764403.140   109117738.38109  20764403.520    85026831.68547
  21643936.620   113739684.51908  21643935.720    88628337.48445
  23307728.600   122482947.50307  23307728.720    95441259.21344
  24019902.320   126225437.21107  24019902.460    98357490.65843
  20424100.360   107329390.53209  20424097.980    83633293.20749
  21937208.300   115280919.55708  21937205.300    89829313.77246
  20882842.440   109740117.16409  20882844.600    85511802.63848
  21023922.620   110481512.01409  21023923.480    86089510.84547
 15 02 28 03 39  0.0000000  0 10G01G03G04G11G14G16G19G22G27G32
  22683749.220   119203933.47007  22683753.260    92886200.60945
  24521385.840   128860759.07806  24521390.040   100410998.40244
  20757677.420   109082394.76009  20757677.940    84999291.19647
  21631198.560   113672745.57708  21631197.560    88576177.28745
  23298215.180   122432954.17207  23298215.220    95402303.38244
  24040484.600   126333596.84306  24040484.560    98441770.86644
  20423614.320   107326836.24309  20423611.960    83631302.84649
  21950467.720   115350598.46608  21950464.720    89883609.02446
  20891872.000   109787568.18209  20891874.300    85548777.44748
  21010009.700   110408398.65109  21010010.340    86032539.40347
 15 02 28 03 39 30.0000000  0 10G01G03G04G11G14G16G19G22G27G32
  22671345.420   119138751.53407  22671349.420    92835409.50945
  24500981.600   128753534.77206  24500985.660   100327447.13444
  20751001.560   109047312.75009  20751002.080    84971954.56547
  21618497.760   113606002.72008  21618496.760    88524169.87146
  23288772.660   122383333.00107  23288772.720    95363637.56244
  24061075.900   126441804.48406  24061075.820    98526088.48644
  20423206.440   107324692.69009  20423204.040    83629632.53749
  21963785.280   115420582.75508  21963782.340    89938142.22847
  20900980.020   109835431.39209  20900982.340    85586073.45048
  20996186.720   110335758.40809  20996187.240    85975936.63947
 15 02 28 03 40  0.0000000  0 10G01G03G04G11G14G16G19G22G27G32
  22658969.940   119073717.30607  22658973.740    92784733.52445
  24480599.580   128646427.37206  24480603.680   100243986.97645
  20744375.300   109012491.15109  20744375.680    84944820.85847
  21605834.220   113539455.66208  21605833.220    88472315.02546
  23279401.240   122334085.16207  23279401.280    95325262.65044
  24081675.560   126550056.21506  24081675.300    98610440.47644
  20422876.640   107322959.58209  20422874.260    83628282.05949
  21977160.300   115490868.96508  21977157.380    89992910.70146
  20910166.240   109883705.39909  20910168.520    85623689.54548
  20982453.820   110263591.99109  20982454.360    85919703.07647
 15 02 28 03 40 30.0000000  0 10G01G03G04G11G14G16G19G22G27G32
  22646623.140   119008834.77907  22646627.100    92734175.73146
  24460240.980   128539442.55606  24460244.980   100160622.33444
  20737799.340   108977933.95109  20737799.680    84917893.17447
  21593208.880   113473109.30508  21593208.000    88420616.58446
  23270101.940   122285217.30307  23270102.140    95287183.82344
  24102283.640   126658353.31606  24102283.440    98694827.82743
  20422625.900   107321642.07409  20422623.540    83627255.42349
  21990593.120   115561458.88208  21990590.220    90047915.82746
  20919431.340   109932393.87809  20919433.520    85661628.60348
  20968812.100   110191904.93909  20968812.740    85863843.05547
 15 02 28 03 41  0.0000000  0 10G01G03G04G11G14G16G19G22G27G32
  22634304.640   118944100.65107  22634308.620    92683733.57846
  24439905.400   128432578.84006  24439909.320   100077352.04645
  20731273.040   108943637.79509  20731273.340    84891168.89447
  21580621.280   113406961.04208  21580620.440    88369072.49946
  23260874.740   122236728.26007  23260875.120    95249400.17444
  24122898.920   126766690.01506  24122899.280    98779246.02043
  20422453.740   107320737.64609  20422451.480    83626550.66649
  22004082.660   115632346.85308  22004079.760    90103153.19946
  20928774.680   109981493.13209  20928776.780    85699887.75948
  20955261.300   110120695.68009  20955262.060    85808355.33747
 15 02 28 03 41 30.0000000  0 10G01G03G04G11G14G16G19G22G27G32
  22622014.500   118879515.13708  22622018.400    92633407.22445
  24419593.220   128325838.34706  24419597.120    99994177.77644
  20724796.400   108909602.74009  20724796.720    84864648.08347
  21568071.580   113341012.21508  21568070.860    88317683.82146
  23251720.300   122188620.85907  23251720.640    95211913.92444
  24143521.280   126875063.12706  24143521.780    98863692.60143
  20422360.420   107320247.36609  20422358.180    83626168.62849
  22017628.660   115703531.25408  22017625.680    90158621.56746
  20938196.220   110031003.16309  20938198.300    85738466.99748
  20941801.820   110049966.19209  20941802.740    85753241.47547
 15 02 28 03 42  0.0000000  0 10G01G03G04G11G14G16G19G22G27G32
  22609752.620   118815077.60108  22609756.340    92583196.15746
  24399304.740   128219222.33206  24399308.500    99911100.47744
  20718369.400   108875828.39609  20718369.600    84838330.41047
  21555559.840   113275263.08208  21555559.220    88266450.74846
  23242638.820   122140897.21007  23242639.020    95174726.68144
  24164150.240   126983469.77906  24164150.760    98948165.33744
  20422346.000   107320171.54409  20422343.740    83626109.53949
  22031230.520   115775009.32408  22031227.580    90214318.76346
  20947695.740   110080922.97809  20947697.840    85777365.54848
  20928433.900   109979717.36709  20928434.860    85698502.14547
 15 02 28 03 42 30.0000000  0 10G01G03G04G11G14G16G19G22G27G32
  22597519.420   118750790.92608  22597522.840    92533102.66445
  24379040.620   128112735.36806  24379044.500    99828123.75344
  20711992.480   108842317.36909  20711992.560    84812217.93147
  21543086.860   113209717.26308  21543086.140    88215376.08546
  23233631.100   122093561.70307  23233631.340    95137841.88944
  24184785.760   127091910.03006  24184786.220    99032664.18944
  20422411.180   107320514.05709  20422408.820    83626376.43549
  22044888.300   115846781.27408  22044885.320    90270244.94746
  20957273.600   110131255.08509  20957275.740    85816585.36248
  20915158.380   109909953.78109  20915159.260    85644140.93047
 15 02 28 03 43  0.0000000  0 10G01G03G04G11G14G16G19G22G27G32
  22585314.640   118686654.05108  22585317.820    92483125.89146
  24358801.260   128006378.30906  24358805.320    99745248.27444
  20705665.500   108809068.93809  20705665.540    84786310.06747
  21530652.600   113144374.58408  21530651.780    88164459.73446
  23224697.500   122046616.23807  23224697.780    95101261.02844
  24205426.940   127200379.95006  24205427.300    99117186.17643
  20422555.940   107321274.76509  20422553.560    83626969.18849
  22058601.480   115918844.07208  22058598.380    90326397.78746
  20966929.680   110181998.12309  20966931.840    85856125.38348
  20901975.340   109840676.03609  20901976.040    85590158.28447
 15 02 28 03 43 30.0000000  0 10G01G03G04G11G14G16G19G22G27G32
  22573138.200   118622666.42708  22573141.400    92433265.41946
  24338586.800   127900152.31206  24338591.020    99662474.87444
  20699388.300   108776082.08509  20699388.340    84760606.03447
  21518257.080   113079235.62908  21518256.240    88113702.12546
  23215838.520   122000062.22807  23215838.800    95064985.18644
  24226073.140   127308875.99006  24226073.200    99201728.56744
  20422780.320   107322453.72509  20422777.920    83627887.84849
  22072369.380   115991194.81408  22072366.240    90382774.98346
  20976663.780   110233151.05609  20976665.900    85895984.80548
  20888884.880   109771885.05409  20888885.540    85536554.94247
 15 02 28 03 44  0.0000000  0 10G01G03G04G11G14G16G19G22G27G32
  22560989.840   118558826.54008  22560993.080    92383520.07546
  24318397.460   127794057.76806  24318401.600    99579803.93244
  20693160.620   108743355.51309  20693160.680    84735104.82347
  21505900.080   113014299.69708  21505899.380    88063102.72646
  23207054.280   121953900.76707  23207054.600    95029015.24544
  24246723.680   127417394.15406  24246723.480    99286288.17443
  20423084.240   107324050.70609  20423081.800    83629132.24349
  22086191.460   116063830.11208  22086188.360    90439373.91846
  20986475.580   110284712.10009  20986477.600    85936162.23048
  20875887.060   109703580.98409  20875887.680    85483331.00147
 15 02 28 03 44 30.0000000  0 10G01G03G04G11G14G16G19G22G27G32
  22548869.840   118495135.69408  22548873.080    92333890.85746
  24298233.840   127688097.71606  24298237.820    99497237.79544
  20686982.720   108710890.52109  20686982.820    84709807.43647
  21493582.220   112949569.20008  21493581.580    88012663.38646
  23198345.460   121908135.54007  23198345.820    94993354.04044
  24267378.220   127525933.04406  24267377.900    99370863.90143
  20423468.040   107326067.43409  20423465.560    83630703.71549
  22100067.460   116136748.89708  22100064.460    90496193.74946
  20996365.200   110336682.09109  20996367.140    85976658.32148
  20862982.380   109635766.72209  20862983.040    85430488.73747
 15 02 28 03 45  0.0000000  0 10G01G03G04G11G14G16G19G22G27G32
  22536778.040   118431593.49708  22536781.260    92284377.46945
  24278096.240   127582273.59806  24278100.020    99414777.59144
  20680854.500   108678686.73109  20680854.700    84684713.58147
  21481303.500   112885044.46908  21481302.920    87962384.38546
  23189712.380   121862768.21207  23189712.680    94958002.91845
  24288036.020   127634489.28606  24288035.540    99455453.15242
  20423931.760   107328504.42009  20423929.260    83632602.65949
  22113996.800   116209948.47008  22113993.900    90553232.36446
  21006332.420   110389060.21509  21006334.340    86017472.43748
  20850171.140   109568443.37709  20850171.840    85378029.00347
 15 02 28 03 45 30.0000000  0 10G01G03G04G11G14G16G19G22G27G32
  22524714.900   118368201.78408  22524718.000    92234981.35346
  24257985.200   127476589.03906  24257988.940    99332426.13344
  20674776.340   108646745.80309  20674776.680    84659824.56147
  21469064.480   112820728.10608  21469063.840    87912267.74646
  23181155.800   121817802.90507  23181156.080    94922965.03344
  24308696.720   127743062.12406  24308696.380    99540055.34942
  20424476.000   107331364.36509  20424473.480    83634831.18749
  22127979.540   116283428.94008  22127976.760    90610489.86746
  21016377.520   110441847.91809  21016379.520    86058605.69648
  20837453.960   109501614.31809  20837454.760    85325954.42247
 15 02 28 03 46  0.0000000  0 10G01G03G04G11G14G16G19G22G27G32
  22512680.140   118304959.16908  22512683.360    92185701.42646
  24237900.860   127371044.48606  24237904.620    99250183.74245
  20668748.000   108615066.56309  20668748.340    84635139.45147
  21456865.100   112756619.75808  21456864.440    87862313.20446
  23172675.880   121773240.76407  23172676.140    94888241.29644
  24329359.740   127851647.27906  24329359.580    99624667.14844
  20425100.640   107334646.72309  20425098.140    83637388.86749
  22142015.060   116357186.33108  22142012.340    90667963.15646
  21026500.180   110495043.31809  21026502.280    86100056.64248
  20824830.860   109435279.68309  20824831.780    85274265.10547
 15 02 28 03 46 30.0000000  0 10G01G03G04G11G14G16G19G22G27G32
  22500674.100   118241867.09708  22500677.480    92136538.79846
  24217843.600   127265643.06306  24217847.300    99168052.84444
  20662769.620   108583650.13509  20662769.940    84610659.12947
  21444705.780   112692722.00208  21444705.180    87812522.75846
  23164273.240   121729085.06607  23164273.540    94853834.29444
  24350024.960   127960243.75306  24350024.900    99709287.78543
  20425806.100   107338353.94609  20425803.680    83640277.60849
  22156103.160   116431219.78908  22156100.460    90725651.55446
  21036700.680   110548647.38109  21036702.800    86141826.03448
  20812302.440   109369442.41509  20812303.440    85222963.35747
 15 02 28 03 47  0.0000000  0 10G01G03G04G11G14G16G19G22G27G32
  22488696.300   118178923.64608  22488699.820    92087491.99246
  24197813.500   127160384.61106  24197817.360    99086033.39644
  20656840.920   108552494.84509  20656841.200    84586382.29347
  21432586.340   112629033.90008  21432585.860    87762895.68146
  23155948.120   121685336.52507  23155948.340    94819744.53044
  24370691.400   128068846.57906  24370691.440    99793913.35744
  20426592.200   107342484.76909  20426589.760    83643496.42749
  22170243.060   116505525.41508  22170240.400    90783552.03746
  21046978.580   110602657.74509  21046980.660    86183912.01748
  20799868.560   109304101.90009  20799869.560    85172048.68847
 15 02 28 03 47 30.0000000  0 10G01G03G04G11G14G16G19G22G27G32
  22476747.160   118116131.23508  22476750.760    92038562.87546
  24177811.460   127055273.43106  24177815.580    99004128.66245
  20650962.320   108521603.09309  20650962.700    84562310.81047
  21420507.460   112565558.68908  21420506.980    87713434.48446
  23147701.300   121641999.71607  23147701.700    94785975.61144
  24391358.900   128177455.32606  24391359.180    99878543.54244
  20427459.400   107347042.07209  20427456.980    83647047.57449
  22184434.740   116580103.41208  22184432.140    90841664.75046
  21057334.120   110657076.30409  21057336.220    86226316.07748
  20787529.960   109239262.10909  20787530.920    85121524.19047
 15 02 28 03 48  0.0000000  0 10G01G03G04G11G14G16G19G22G27G32
  22464826.300   118053487.07208  22464829.860    91989749.28445
  24157837.120   126950308.48206  24157841.400    98922337.88644
  20645133.360   108490972.06909  20645133.820    84538442.48647
  21408468.780   112502294.57308  21408468.240    87664137.78846
  23139532.740   121599073.93007  23139533.220    94752526.99544
  24412026.500   128286064.83106  24412027.080    99963174.33144
  20428407.460   107352024.11709  20428404.980    83650929.68149
  22198677.220   116654948.46208  22198674.720    90899985.56546
  21067766.680   110711899.82909  21067768.780    86269035.69948
  20775286.420   109174921.78809  20775287.320    85071388.89147
 15 02 28 03 48 30.0000000  0 10G01G03G04G11G14G16G19G22G27G32
  22452934.220   117990994.36808  22452937.780    91941053.67945
  24137891.400   126845494.69806  24137896.100    98840664.90544
  20639354.660   108460604.71909  20639355.120    84514779.62447
  21396470.980   112439245.53208  21396470.420    87615008.67246
  23131443.360   121556564.73907  23131444.120    94719402.95744
  24432694.460   128394675.71506  24432695.140   100047806.18144
  20429437.100   107357434.85609  20429434.600    83655145.84149
  22212970.880   116730062.03208  22212968.380    90958515.60846
  21078276.800   110767130.95909  21078278.920    86312072.93748
  20763138.760   109111085.39609  20763139.640    85021646.26747
 15 02 28 03 49  0.0000000  0 10G01G03G04G11G14G16G19G22G27G32
  22441070.240   117928648.71708  22441073.800    91892472.66045
  24117973.860   126740829.41806  24117978.980    98759107.65344
  20633625.300   108430496.78509  20633625.780    84491318.90647
  21384513.400   112376408.17808  21384512.860    87566044.51246
  23123432.940   121514469.89007  23123433.780    94686601.79044
  24453361.300   128503280.47406  24453361.820   100132433.27843
  20430547.580   107363270.58409  20430545.120    83659693.15749
  22227314.340   116805437.28408  22227311.860    91017249.56746
  21088863.560   110822764.73509  21088865.680    86355423.92548
  20751086.500   109047749.94009  20751087.340    84972293.98447
 15 02 28 03 49 30.0000000  0 10G01G03G04G11G14G16G19G22G27G32
  22429234.940   117866453.51208  22429238.420    91844008.90146
  24098085.660   126636317.85606  24098090.900    98677670.16444
  20627945.900   108400651.56509  20627946.420    84468062.90147
  21372596.920   112313786.84709  21372596.320    87517248.68246
  23115502.400   121472794.68107  23115503.220    94654127.62244
  24474027.120   128611879.68106  24474027.460   100217056.04542
  20431739.700   107369535.38209  20431737.340    83664574.81049
  22241707.800   116881075.58908  22241705.400    91076188.49446
  21099527.560   110878804.07309  21099529.600    86399090.92748
  20739130.460   108984920.23409  20739131.260    84923335.78647
 15 02 28 03 50  0.0000000  0 11G01G03G04G11G14G16G19G22G27G28G32
  22417428.260   117804408.36408  22417431.620    91795662.06446
  24078227.040   126531961.21006  24078232.060    98596353.39345
  20622316.460   108371068.75509  20622317.000    84445011.36547
  21360721.720   112251382.13709  21360720.980    87468621.65046
  23107652.060   121431541.16107  23107652.760    94621982.06644
  24494691.360   128720470.47506  24494691.560   100301672.21343
  20433013.580   107376229.70309  20433011.220    83669791.16349
  22256150.740   116956973.97708  22256148.440    91135330.08946
  21110268.500   110935247.87809  21110270.500    86443073.10148
  25087640.480   131836438.19904                                
  20727270.740   108922597.09309  20727271.520    84874772.32647
 15 02 28 03 50 30.0000000  0 11G01G03G04G11G14G16G19G22G27G28G32
  22405649.360   117742509.47208  22405652.660    91747429.19346
  24058397.760   126427757.65306  24058402.500    98515155.90744
  20616736.220   108341744.42009  20616736.720    84422161.24747
  21348887.220   112189191.20709  21348886.340    87420161.18946
  23099881.760   121390707.74007  23099882.220    94590163.81945
  24515352.420   128829045.66906  24515352.920   100386276.27344
  20434368.560   107383350.29509  20434366.220    83675339.67549
  22270642.100   117033126.49108  22270639.880    91194669.69546
  21121085.600   110992091.87009  21121087.480    86487367.11048
  25072876.620   131758855.17804                                
  20715506.880   108860778.19309  20715507.720    84826601.76747
 15 02 28 03 51  0.0000000  0 10G01G03G04G11G14G16G19G22G27G32
  22393899.100   117680760.67208  22393902.200    91699313.26446
  24038598.800   126323712.54906  24038603.140    98434081.88344
  20611205.820   108312682.45809  20611206.420    84399515.57347
  21337094.320   112127218.92009  21337093.400    87371871.11646
  23092192.440   121350299.88607  23092192.820    94558677.18544
  24536011.000   128937607.75006  24536011.460   100470870.08744
  20435805.540   107390901.75709  20435803.200    83681223.92249
  22285182.300   117109535.37908  22285180.120    91254209.08146
  21131979.460   111049339.30909  21131981.320    86531975.49048
  20703839.920   108799468.65609  20703840.800    84778828.11847
 15 02 28 03 51 30.0000000  0 10G01G03G04G11G14G16G19G22G27G32
  22382177.320   117619162.35208  22382180.480    91651314.58346
  24018830.520   126219828.18606  24018834.320    98353133.11744
  20605725.400   108283883.34209  20605726.140    84377074.71247
  21325343.280   112065466.56509  21325342.440    87323752.42046
  23084584.660   121310320.45107  23084585.040    94527524.41544
  24556666.600   129046153.76006  24556666.920   100555451.39044
  20437324.740   107398885.23909  20437322.440    83687444.82049
  22299770.760   117186198.29308  22299768.700    91313946.41246
  21142950.040   111106989.94709  21142951.960    86576898.04848
  20692270.180   108738670.12909  20692271.080    84731452.66347
 15 02 28 03 52  0.0000000  0 10G01G03G04G11G14G16G19G22G27G32
  22370484.180   117557714.63708  22370487.500    91603433.26946
  23999092.980   126116106.27706  23999096.460    98272310.95544
  20600295.040   108255346.91809  20600295.820    84354838.54747
  21313634.320   112003935.33909  21313633.560    87275806.01847
  23077058.780   121270771.47707  23077059.160    94496707.06644
  24577318.620   129154680.97305  24577318.980   100640018.02944
  20438926.260   107407301.54609  20438924.040    83694002.98049
  22314407.160   117263113.14208  22314405.200    91373880.05446
  21153997.200   111165043.22509  21153999.180    86622134.35748
  20680798.040   108678383.92609  20680798.900    84684476.40947
 15 02 28 03 52 30.0000000  0 10G01G03G04G11G14G16G19G22G27G32
  22358819.740   117496417.85108  22358823.060    91555669.57946
  23979386.840   126012548.88006  23979390.220    98191616.97144
  20594914.920   108227073.68609  20594915.580    84332807.45847
  21301967.680   111942626.59009  21301966.880    87228032.97746
  23069615.380   121231655.63107  23069615.680    94466227.20845
  24597966.600   129263186.84305  24597966.960   100724568.09744
  20440610.300   107416151.50109  20440608.140    83700899.04049
  22329091.140   117340278.13808  22329089.280    91434008.61746
  21165120.920   111223498.89109  21165122.980    86667684.22048
  20669423.720   108618611.68609  20669424.580    84637900.65047
 15 02 28 03 53  0.0000000  0 10G01G03G04G11G14G16G19G22G27G32
  22347183.700   117435270.39508  22347186.960    91508022.22946
  23959711.980   125909156.07306  23959715.400    98111051.24444
  20589584.580   108199061.91209  20589585.120    84310980.10947
  21290343.200   111881539.27809  21290342.320    87180432.48946
  23062254.340   121192973.05207  23062254.640    94436084.97045
  24618609.680   129371667.04705  24618609.940   100809098.16143
  20442376.740   107425434.26609  20442374.620    83708132.36049
  22343822.060   117417689.39008  22343820.200    91494329.06046
  21176320.800   111282354.62409  21176322.880    86713545.81648
  20658147.200   108559353.03909  20658147.980    84591725.09547
 15 02 28 03 53 30.0000000  0 10G01G03G04G11G14G16G19G22G27G32
  22335576.600   117374275.48508  22335579.880    91460493.75446
  23940069.240   125805932.91606  23940072.940    98030617.67744
  20584304.520   108171314.84909  20584305.080    84289359.03847
  21278761.700   111820678.02909  21278760.780    87133008.15446
  23054976.720   121154729.05407  23054977.000    94406284.47644
  24639247.820   129480122.31705  24639248.260   100893608.75443
  20444226.320   107435153.53309  20444224.100    83715705.80949
  22358600.040   117495347.93408  22358598.140    91554842.21646
  21187597.240   111341613.02609  21187599.400    86759721.18648
  20646969.280   108500612.36309  20646969.980    84545953.16347
 15 02 28 03 54  0.0000000  0 10G01G03G04G11G14G16G19G22G27G32
  22323997.820   117313428.65308  22324001.060    91413080.66546
  23920458.080   125702876.50007  23920462.120    97950314.06644
  20579073.960   108143828.03609  20579074.480    84267940.74847
  21267222.480   111760039.22409  21267221.520    87085757.14246
  23047782.100   121116921.18107  23047782.400    94376823.81444
  24659880.020   129588545.61905  24659880.660   100978094.43642
  20446158.260   107445305.52309  20446155.920    83723616.44649
  22373423.800   117573247.42308  22373421.820    91615543.10446
  21198949.320   111401268.87409  21198951.600    86806206.25548
  20635889.260   108442386.33109  20635889.920    84500582.24947
 15 02 28 03 54 30.0000000  0 10G01G03G04G11G14G16G19G22G27G32
  22312447.720   117252732.53408  22312450.900    91365785.01046
  23900879.360   125599991.18006  23900883.780    97870143.75045
  20573893.380   108116603.90509  20573893.780    84246727.14747
  21255726.240   111699626.43009  21255725.340    87038682.25046
  23040671.300   121079554.18207  23040671.640    94347706.67443
  24680506.340   129696936.68505  24680507.060   101062555.02144
  20448173.080   107455893.41109  20448170.780    83731866.74849
  22388293.480   117651387.84308  22388291.360    91676431.74546
  21210377.440   111461324.16909  21210379.760    86853002.57348
  20624907.920   108384678.80609  20624908.420    84455615.35847
 15 02 28 03 55  0.0000000  0 10G01G03G04G11G14G16G19G22G27G32
  22300926.080   117192185.61008  22300929.200    91318605.60946
  23881333.220   125497277.05506  23881337.800    97790106.83945
  20568762.540   108089641.13009  20568762.820    84225717.20547
  21244272.860   111639438.92909  21244272.020    86991782.90746
  23033644.440   121042628.29807  23033644.860    94318933.30545
  24701125.760   129805291.28406  24701126.560   101146987.18844
  20450270.700   107466916.40209  20450268.360    83740456.08849
  22403208.320   117729765.63608  22403206.060    91737505.34646
  21221881.140   111521776.59409  21221883.440    86900108.35348
  20614025.140   108327489.30609  20614025.600    84411052.13047
 15 02 28 03 55 30.0000000  0 10G01G03G04G11G14G16G19G22G27G32
  22289433.280   117131789.91808  22289436.260    91271544.05446
  23861820.440   125394737.92106  23861824.960    97710206.24644
  20563681.840   108062941.75809  20563682.140    84204912.50247
  21232863.020   111579480.14409  21232862.300    86945061.79846
  23026702.320   121006147.82107  23026702.760    94290506.95144
  24721738.000   129913609.09706  24721738.820   101231390.66543
  20452451.600   107478376.97509  20452449.200    83749386.40249
  22418168.160   117808380.63308  22418165.860    91798763.76646
  21233460.640   111582627.53209  21233462.960    86947524.65648
  20603241.600   108270821.07409  20603242.040    84366895.08447
 15 02 28 03 56  0.0000000  0 11G01G03G04G11G14G16G19G22G27G28G32
  22277968.880   117071543.69008  22277971.920    91224598.95846
  23842341.120   125292373.72406  23842345.440    97630442.01645
  20558650.900   108036503.84309  20558651.220    84184311.53947
  21221496.500   111519749.00409  21221495.800    86898518.06546
  23019844.960   120970112.50307  23019845.400    94262427.51144
  24742342.300   130021885.58406  24742343.340   101315761.97242
  20454715.540   107490274.01309  20454713.120    83758656.81949
  22433172.460   117887228.80108  22433169.980    91860203.90146
  21245115.500   111643874.42609  21245117.860    86995249.49748
  24914451.100   130926319.93504                                
  20592557.080   108214673.36309  20592557.560    84323143.64647
 15 02 28 03 56 30.0000000  0 11G01G03G04G11G14G16G19G22G27G28G32
  22266531.120   117011438.31808  22266534.380    91177763.61746
  23822893.720   125190177.37306  23822897.840    97550808.58444
  20553668.080   108010318.82109  20553668.400    84163907.63847
  21210171.940   111460238.00009  21210171.180    86852145.86146
  23013071.120   120934515.83307  23013071.500    94234689.86744
  24762936.680   130130109.06406  24762937.720   101400091.96143
  20457060.980   107502599.43809  20457058.580    83768261.04349
  22448219.180   117966299.60908  22448216.560    91921817.52846
  21256843.960   111705507.86809  21256846.340    87043275.54548
  24900418.520   130852578.21404  24900417.740   101963039.64741
  20581970.120   108159038.60009  20581970.760    84279791.89747
 15 02 28 03 57  0.0000000  0 10G01G03G04G11G14G16G19G22G27G32
  22255125.580   116951501.95608  22255128.660    91131059.98346
  23803483.980   125088178.82406  23803487.840    97471329.27344
  20548738.720   107984414.90109  20548739.080    84143722.77447
  21198894.760   111400976.06609  21198893.880    86805967.74346
  23006386.480   120899387.99707  23006386.920    94207317.55244
  24783525.900   130238305.40506  24783526.980   101484400.79543
  20459493.380   107515381.68909  20459490.980    83778221.22849
  22463313.160   118045618.82508  22463310.500    91983624.70446
  21268651.220   111767555.30909  21268653.580    87091624.18848
  20571486.320   108103946.11609  20571487.040    84236862.70947
 15 02 28 03 57 30.0000000  0 10G01G03G04G11G14G16G19G22G27G32
  22243746.960   116891707.08808  22243750.020    91084466.60646
  23784106.960   124986352.11406  23784110.680    97391983.84744
  20543857.560   107958764.27209  20543857.900    84123735.27547
  21187659.920   111341937.04909  21187659.040    86759963.32046
  22999786.120   120864703.18607  22999786.640    94180290.44544
  24804104.180   130346444.39706  24804104.880   101568664.89443
  20462007.660   107528594.09709  20462005.240    83788516.60249
  22478448.700   118125156.70608  22478445.980    92045602.26946
  21280531.880   111829988.41009  21280534.200    87140273.34148
  20561100.600   108049369.25509  20561101.340    84194335.29947
 15 02 28 03 58  0.0000000  0 10G01G03G04G11G14G16G19G22G27G32
  22232397.100   116832064.07808  22232400.360    91037991.55546
  23764764.840   124884709.23106  23764768.580    97312781.66444
  20539026.600   107933377.36109  20539026.880    84103953.27947
  21176469.620   111283131.89109  21176468.760    86714141.12746
  22993272.380   120830473.72407  22993273.020    94153618.15244
  24824672.900   130454533.34806  24824673.400   101652890.09043
  20464605.820   107542247.46209  20464603.380    83799155.59249
  22493627.400   118204921.25808  22493624.640    92107756.45946
  21292487.760   111892816.71009  21292490.020    87189230.44848
  20550815.260   107995319.52009  20550815.940    84152218.63947
 15 02 28 03 58 30.0000000  0 10G01G03G04G11G14G16G19G22G27G32
  22221075.700   116772570.17708  22221079.060    90991632.68446
  23745457.480   124783249.11906  23745461.480    97233721.90945
  20534245.240   107908251.39409  20534245.520    84084374.61547
  21165323.520   111224558.93209  21165322.660    86668499.87646
  22986845.200   120796698.64207  22986845.940    94127299.92644
  24845231.180   130562567.37406  24845231.380   101737072.46343
  20467287.400   107556339.41009  20467284.980    83810136.32949
  22508848.360   118284907.55408  22508845.500    92170083.43746
  21304518.200   111956036.60009  21304520.340    87238492.70048
  20540629.920   107941795.01609  20540630.500    84110511.26047
 15 02 28 03 59  0.0000000  0 10G01G03G04G11G14G16G19G22G27G32
  22209782.920   116713226.81408  22209786.380    90945391.13146
  23726185.560   124681974.80007  23726189.700    97154806.91144
  20529513.860   107883387.91109  20529514.120    84065000.48947
  21154222.120   111166220.78909  21154221.260    86623041.58947
  22980505.160   120763381.18607  22980505.820    94101338.30544
  24865778.700   130670545.22506  24865778.920   101821211.05744
  20470052.840   107570871.79009  20470050.400    83821460.25549
  22524111.380   118365115.22608  22524108.540    92232582.90746
  21316623.240   112019648.74109  21316625.360    87288060.58848
  20530544.960   107888798.16409  20530545.520    84069215.03047
 15 02 28 03 59 30.0000000  0 10G01G03G04G11G14G16G19G22G27G32
  22198519.120   116654035.59408  22198522.640    90899268.13146
  23706949.680   124580889.47407  23706953.920    97076039.19644
  20524832.760   107858788.51409  20524832.980    84045832.13447
  21143165.900   111108119.85509  21143165.040    86577768.14146
  22974252.880   120730524.88907  22974253.260    94075736.03844
  24886315.100   130778465.50306  24886315.560   101905304.78943
  20472902.460   107585846.74109  20472899.980    83833129.04749
  22539416.340   118445543.37008  22539413.540    92295254.18346
  21328803.040   112083653.81409  21328805.140    87337934.67548
  20520560.880   107836331.52509  20520561.440    84028331.95547
 15 02 28 04 00  0.0000000  0 10G01G03G04G11G14G16G19G22G27G32
  22187283.660   116594993.10808  22187287.300    90853261.03246
  23687749.420   124479991.41406  23687753.740    96997417.39644
  20520201.280   107834449.57609  20520201.440    84026866.73847
  21132154.360   111050253.67809  21132153.540    86532677.62346
  22968087.980   120698127.90807  22968088.180    94050491.66244
  24906839.480   130886322.27106  24906840.000   101989349.01141
  20475835.720   107601261.27909  20475833.300    83845140.37549
  22554762.280   118526186.40908  22554759.380    92358092.92046
  21341056.780   112148047.58709  21341058.920    87388111.62248
  20510677.180   107784392.59909  20510677.780    83987860.07547
 15 02 28 04 00 30.0000000  0 10G01G03G04G11G14G16G19G22G27G32
  22176077.080   116536101.89708  22176080.740    90807371.78446
  23668585.420   124379284.62906  23668589.740    96918944.65345
  20515619.760   107810373.47109  20515620.000    84008106.14547
  21121188.200   110992626.00209  21121187.400    86487772.94746
  22962011.300   120666194.53407  22962011.320    94025608.53244
  24927351.700   130994115.15305  24927352.000   102073343.46942
  20478853.200   107617118.41409  20478850.860    83857496.58049
  22570149.200   118607044.70408  22570146.200    92421099.36646
  21353384.860   112212831.60909  21353386.980    87438592.67448
  20500894.480   107732984.66809  20500895.220    83947801.97047
 15 02 28 04 01  0.0000000  0 10G01G03G04G11G14G16G19G22G27G32
  22164899.300   116477362.20608  22164902.840    90761600.61146
  23649458.120   124278770.94506  23649462.420    96840622.36144
  20511088.380   107786560.74809  20511088.680    83989550.78447
  21110267.600   110935237.97209  21110266.840    86443055.00846
  22956023.300   120634726.74907  22956023.080    94001088.19844
  24947851.380   131101842.37105  24947851.720   102157286.75244
  20481955.000   107633418.69109  20481952.700    83870198.09249
  22585576.660   118688116.19108  22585573.580    92484271.93845
  21365787.120   112278005.28709  21365789.100    87489377.34048
  20491213.060   107682108.94609  20491213.900    83908158.56447
 15 02 28 04 01 30.0000000  0  9G01G03G04G11G14G19G22G27G32
  22153751.660   116418780.81008  22153755.080    90715952.79346
  23630369.160   124178458.86006  23630373.640    96762457.17644
  20506608.280   107763018.07309  20506608.640    83971205.85347
  21099394.060   110878097.63809  21099393.480    86398530.08047
  22950125.520   120603733.15607  22950125.240    93976937.37645
  20485142.520   107650169.27909  20485140.220    83883250.49449
  22601045.620   118769405.48108  22601042.300    92547614.23645
  21378264.600   112343574.54509  21378266.500    87540470.25848
  20481634.460   107631773.13709  20481635.320    83868935.86647
 15 02 28 04 02  0.0000000  0  9G01G03G04G11G14G19G22G27G32
  22142631.660   116360345.21708  22142635.060    90670418.58546
  23611316.640   124078337.42607  23611320.980    96684440.51544
  20502177.180   107739732.82509  20502177.560    83953061.50848
  21088565.420   110821193.24809  21088564.980    86354189.01147
  22944315.780   120573202.88707  22944315.620    93953147.57845
  20488413.480   107667358.21609  20488411.160    83896644.47249
  22616553.340   118850898.13008  22616549.820    92611115.00446
  21390814.720   112409525.87909  21390816.620    87591860.90148
  20472156.380   107581965.39609  20472157.140    83830124.65747
 15 02 28 04 02 30.0000000  0 10G01G03G04G11G14G19G22G27G28G32
  22131540.160   116302059.02608  22131543.620    90625000.80246
  23592301.460   123978411.71307  23592305.320    96606576.37845
  20497795.800   107716708.55709  20497796.200    83935120.53048
  21077782.680   110764529.26709  21077782.160    86310035.27846
  22938595.120   120543141.38107  22938595.100    93929723.05044
  20491768.540   107684989.25209  20491766.280    83910382.93549
  22632099.900   118932595.07408  22632096.200    92674774.95246
  21403437.980   112475861.89909  21403439.920    87643551.30148
  24737133.720   129994513.03204                                
  20462779.680   107532690.19409  20462780.340    83791728.41347
 15 02 28 04 03  0.0000000  0 10G01G03G04G11G14G19G22G27G28G32
  22120477.480   116243924.42108  22120481.060    90579701.13746
  23573324.320   123878685.53807  23573327.840    96528867.76144
  20493464.460   107693947.35109  20493464.980    83917384.53447
  21067046.320   110708108.94909  21067045.680    86266071.40947
  22932964.400   120513552.33307  22932964.540    93906666.67444
  20495208.220   107703065.08909  20495206.040    83924467.99749
  22647685.340   119014496.91708  22647681.560    92738594.56345
  21416134.700   112542583.91009  21416136.760    87695542.47448
  24723962.420   129925295.27904  24723959.600   101240498.21643
  20453504.820   107483950.43209  20453505.460    83753749.39648
 15 02 28 04 03 30.0000000  0 10G01G03G04G11G14G19G22G27G28G32
  22109443.440   116185940.44108  22109447.000    90534518.82546
  23554385.360   123779159.47007  23554388.560    96451315.00344
  20489183.040   107671448.30209  20489183.560    83899852.81847
  21056356.380   110651932.45409  21056355.600    86222297.52346
  22927423.660   120484436.31007  22927423.900    93883978.88444
  20498732.440   107721584.93009  20498730.300    83938899.04749
  22663309.060   119096600.05908  22663305.300    92802571.03045
  21428904.480   112609689.92009  21428906.580    87747832.86148
  24710859.200   129856438.40404  24710856.940   101186843.58842
  20444331.820   107435745.90709  20444332.460    83716187.44547
 15 02 28 04 04  0.0000000  0 10G01G03G04G11G14G19G22G27G28G32
  22098437.460   116128103.53608  22098440.980    90489451.12746
  23535483.940   123679831.44907  23535487.100    96373916.61045
  20484950.820   107649207.87809  20484951.240    83882522.62247
  21045712.340   110595997.12709  21045711.360    86178711.55947
  22921972.620   120455791.43507  22921972.960    93861658.22744
  20502340.620   107740545.74409  20502338.420    83953673.70649
  22678969.960   119178898.82508  22678966.300    92866699.93446
  21441746.460   112677175.37409  21441748.640    87800418.91147
  24697824.700   129787940.86205  24697823.500   101133468.86842
  20435260.140   107388073.72809  20435260.740    83679040.30547
 15 02 28 04 04 30.0000000  0 10G01G03G04G11G14G19G22G27G28G32
  22087461.740   116070425.42308  22087465.140    90444507.16646
  23516622.720   123580714.78007  23516625.960    96296682.89145
  20480770.020   107627237.84409  20480770.400    83865403.11847
  21035116.560   110540315.87709  21035115.480    86135323.58347
  22916613.860   120427631.08507  22916614.320    93839715.10544
  20506034.960   107759959.56409  20506032.780    83968801.35349
  22694669.840   119261402.72408  22694666.320    92930988.67745
  21454662.740   112745050.97309  21454664.940    87853308.98248
  24684861.080   129719816.17905  24684860.560   101080384.66143
  20426292.120   107340946.40509  20426292.680    83642317.73347
 15 02 28 04 05  0.0000000  0 10G01G03G04G11G14G19G22G27G28G32
  22076515.280   116012900.87808  22076518.520    90399682.85946
  23497800.920   123481805.71607  23497804.340    96219610.94545
  20476639.640   107605532.65309  20476640.040    83848489.98347
  21024568.160   110484884.11009  21024567.140    86092130.02347
  22911346.540   120399951.36007  22911347.020    93818146.51544
  20509814.480   107779821.14109  20509812.320    83984277.90149
  22710407.400   119344104.61008  22710403.980    92995431.69845
  21467652.080   112813310.49209  21467654.320    87906498.20348
  24671967.500   129652061.05505  24671967.640   101027588.52743
  20417426.840   107294359.23809  20417427.420    83606016.07047
 15 02 28 04 05 30.0000000  0 10G01G03G04G11G14G19G22G27G28G32
  22065597.040   115955524.80508  22065600.120    90354974.24246
  23479017.800   123383100.68207  23479021.540    96142697.99945
  20472558.680   107584087.29509  20472559.180    83831779.33047
  21014066.480   110429697.82209  21014065.540    86049127.73247
  22906170.100   120372748.88907  22906170.400    93796949.81545
  20513678.320   107800125.80709  20513676.180    84000099.71349
  22726181.280   119426996.98208  22726177.900    93060023.16745
  21480713.240   112881947.73409  21480715.560    87959981.75447
  24659143.900   129584672.09905  24659144.060   100975077.66241
  20408663.480   107248307.90709  20408664.080    83570131.93048
 15 02 28 04 06  0.0000000  0 10G01G03G04G11G14G19G22G27G28G32
  22054707.820   115898301.32108  22054710.720    90310384.52246
  23460274.640   123284605.32907  23460278.640    96065948.42244
  20468527.920   107562905.98609  20468528.480    83815274.41247
  21003612.620   110374762.22709  21003611.660    86006320.78447
  22901085.620   120346029.52207  22901085.700    93776129.55644
  20517627.340   107820877.89009  20517625.160    84016270.15849
  22741991.700   119510081.68108  22741988.500    93124764.47546
  21493846.920   112950965.79909  21493849.180    88013762.05847
  24646391.160   129517655.53205  24646391.640   100922856.97843
  20400002.960   107202797.13509  20400003.620    83534669.01748
 15 02 28 04 06 30.0000000  0 10G01G03G04G11G14G19G22G27G28G32
  22043847.920   115841232.05608  22043850.740    90265914.96946
  23441572.000   123186322.76207  23441576.200    95989364.64345
  20464547.760   107541990.15709  20464548.260    83798976.37248
  20993206.940   110320079.92809  20993205.980    85963711.22747
  22896093.640   120319796.28007  22896093.540    93755688.08345
  20521661.920   107842079.42809  20521659.680    84032790.83549
  22757838.580   119593358.16508  22757835.680    93189655.23545
  21507053.200   113020365.24009  21507055.400    88067839.53047
  24633709.600   129451014.83505  24633710.460   100870929.23644
  20391445.760   107157829.13109  20391446.440    83499629.02947
 15 02 28 04 07  0.0000000  0 10G01G03G04G11G14G19G22G27G28G32
  22033016.620   115784313.16708  22033019.420    90221562.60646
  23422909.400   123088250.61107  23422913.660    95912944.84044
  20460617.440   107521335.84209  20460617.840    83782882.10847
  20982849.000   110265648.41009  20982848.020    85921297.07747
  22891193.580   120294046.57007  22891193.520    93735623.40645
  20525781.260   107863726.68209  20525778.980    84049658.82949
  22773720.880   119676820.55108  22773718.180    93254690.85145
  21520331.160   113090141.13009  21520333.260    88122210.35047
  24621099.340   129384747.71405  24621100.340   100819292.53443
  20382991.280   107113400.53609  20382991.860    83465009.36147
 15 02 28 04 07 30.0000000  0 10G01G03G04G11G14G19G22G27G28G32
  22022214.200   115727546.13508  22022217.060    90177328.57446
  23404287.560   122990391.81807  23404291.480    95836691.27445
  20456737.140   107500944.59909  20456737.520    83766992.84047
  20972539.120   110211469.73009  20972538.160    85879079.93747
  22886386.120   120268783.50907  22886386.180    93715937.92944
  20529985.720   107885821.04509  20529983.380    84066875.21449
  22789638.400   119760468.19608  22789635.940    93319870.82946
  21533680.780   113160293.79909  21533682.940    88176874.75347
  24608560.900   129318857.71905  24608561.500   100767949.67343
  20374639.900   107069513.45709  20374640.380    83430811.65547
 15 02 28 04 08  0.0000000  0 10G01G03G04G11G14G19G22G27G28G32
  22011440.640   115670931.28108  22011443.720    90133213.12346
  23385706.640   122892748.14907  23385710.160    95760605.37444
  20452906.900   107480816.79309  20452907.300    83751308.83847
  20962277.580   110157545.29209  20962276.680    85837060.90447
  22881671.660   120244008.83707  22881671.760    93696633.01445
  20534275.440   107908363.41609  20534273.060    84084440.70049
  22805590.740   119844298.79908  22805588.480    93385193.37245
  21547102.060   113230822.51009  21547104.160    88231832.18247
  24596094.580   129253347.07605  24596095.060   100716902.49443
  20366391.760   107026168.71109  20366392.160    83397036.54448
 15 02 28 04 08 30.0000000  0 10G01G03G04G11G14G19G22G27G28G32
  22000696.200   115614468.97308  22000699.380    90089216.53046
  23367167.060   122795321.53107  23367170.300    95684688.56745
  20449126.880   107460952.58909  20449127.260    83735830.24147
  20952064.680   110103876.50309  20952063.880    85795241.08847
  22877050.460   120219724.25107  22877050.620    93677709.96244
  20538650.460   107931354.24309  20538648.060    84102355.62649
  22821577.680   119928311.28308  22821575.660    93450657.64046
  21560594.740   113301726.43109  21560596.720    88287081.98047
  24583700.840   129188217.74005  24583701.280   100666152.38142
  20358246.940   106983367.18809  20358247.360    83363684.72548
 15 02 28 04 09  0.0000000  0 10G01G03G04G11G14G19G22G27G28G32
  21989980.740   115558159.10308  21989983.980    90045338.73846
  23348668.960   122698113.15907  23348671.960    95608941.83845
  20445396.980   107441351.81109  20445397.380    83720556.90447
  20941900.680   110050464.45309  20941899.920    85753621.32047
  22872522.780   120195930.84307  22872522.940    93659169.68145
  20543110.820   107954793.48309  20543108.380    84120619.96348
  22837598.720   120012503.07808  22837596.860    93516261.63145
  21574158.580   113373004.28509  21574160.480    88342623.16747
  24571380.020   129123471.40706  24571380.460   100615700.73643
  20350205.500   106941109.20109  20350205.980    83330756.44047
