     2.11           OBSERVATION DATA    G                   RINEX VERSION / TYPE
SPIDER V4,0,0,3554                      2015 03 12 00:03    PGM / RUN BY / DATE 
EECH                                                        MARKER NAME         
EECH                                                        MARKER NUMBER       
                                                            OBSERVER / AGENCY   
462240              LEICA GRX1200PRO    8.20/2.127          REC # / TYPE / VERS 
103299              LEIAT504                                ANT # / TYPE        
  5154282.7593   121017.3605  3742656.9418                  APPROX POSITION XYZ 
        0.0590        0.0000        0.0000                  ANTENNA: DELTA H/E/N
     1     1                                                WAVELENGTH FACT L1/2
     4    C1    L1    P2    L2                              # / TYPES OF OBSERV 
    30.000                                                  INTERVAL            
  2015    02    28    00    00    0.0000000     GPS         TIME OF FIRST OBS   
  2015    02    28    23    59   30.0000000     GPS         TIME OF LAST OBS    
    16                                                      LEAP SECONDS        
    30                                                      # OF SATELLITES     
   G 1   821   821   821   821                              PRN / # OF OBS      
   G 2   885   885   884   884                              PRN / # OF OBS      
   G 3   796   796   796   796                              PRN / # OF OBS      
   G 4   837   837   833   833                              PRN / # OF OBS      
   G 5   670   670   670   670                              PRN / # OF OBS      
   G 6   666   666   664   664                              PRN / # OF OBS      
   G 7   696   696   696   696                              PRN / # OF OBS      
   G 9   780   780   780   780                              PRN / # OF OBS      
   G10   778   778   778   778                              PRN / # OF OBS      
   G11   784   784   784   784                              PRN / # OF OBS      
   G12   803   803   803   803                              PRN / # OF OBS      
   G13   810   810   810   810                              PRN / # OF OBS      
   G14   864   864   862   862                              PRN / # OF OBS      
   G15   729   729   729   729                              PRN / # OF OBS      
   G16   688   688   688   688                              PRN / # OF OBS      
   G17   909   909   909   909                              PRN / # OF OBS      
   G18   895   895   895   895                              PRN / # OF OBS      
   G19   776   776   776   776                              PRN / # OF OBS      
   G20   788   788   788   788                              PRN / # OF OBS      
   G21   654   654   652   652                              PRN / # OF OBS      
   G22   768   768   768   768                              PRN / # OF OBS      
   G23   695   695   691   691                              PRN / # OF OBS      
   G24   810   810   810   810                              PRN / # OF OBS      
   G25   825   825   825   825                              PRN / # OF OBS      
   G27   820   820   820   820                              PRN / # OF OBS      
   G28   880   880   878   878                              PRN / # OF OBS      
   G29   732   732   732   732                              PRN / # OF OBS      
   G30   656   656   655   655                              PRN / # OF OBS      
   G31   692   692   691   691                              PRN / # OF OBS      
   G32   730   730   730   730                              PRN / # OF OBS      
BIT 2 OF LLI FLAGS DATA COLLECTED UNDER A/S CONDITION       COMMENT             
SNR is mapped to RINEX snr flag value [2-9]                 COMMENT             
Lx:     = 25dBHz -> 1; 26-27dBHz -> 2; 28-31dBHz -> 3       COMMENT             
       32-35dBHz -> 4; 36-38dBHz -> 5; 39-41dBHz -> 6       COMMENT             
       42-44dBHz -> 7; 45-48dBHz -> 8; >=49dBHz -> 9        COMMENT             
                                                            END OF HEADER       
 15 02 28 00 00  0.0000000  0  7G16G18G21G22G27G29G31
  21513015.220   113051688.54409  21513014.860    88092239.18548
  22799832.740   119813932.04608  22799832.980    93361519.91346
  21386537.620   112387014.23708  21386537.080    87574292.99648
  24036220.160   126311231.10907  24036221.940    98424339.93845
  22611885.260   118826298.15308  22611887.760    92591938.41047
  24234396.500   127352604.32805  24234399.240    99235791.93844
  22911923.100   120402949.27608  22911923.560    93820474.22147
 15 02 28 00 00 30.0000000  0  7G16G18G21G22G27G29G31
  21500395.300   112985370.46609  21500394.960    88040562.76648
  22788367.920   119753684.84108  22788368.320    93314574.06946
  21394171.420   112427129.89609  21394170.840    87605551.94848
  24018703.480   126219181.07607  24018704.760    98352612.96946
  22600047.120   118764088.74308  22600049.680    92543463.56647
  24249040.000   127429554.97605  24249042.440    99295753.50744
  22929626.120   120495977.87608  22929626.300    93892963.96347
 15 02 28 00 01  0.0000000  0  7G16G18G21G22G27G29G31
  21487828.640   112919332.25609  21487828.320    87989104.43348
  22776958.140   119693726.45208  22776958.600    93267853.24946
  21401871.200   112467592.21009  21401870.620    87637081.02948
  24001186.920   126127133.51206  24001188.260    98280887.88545
  22588234.420   118702013.99708  22588237.520    92495093.67147
  24263685.920   127506517.83205  24263687.780    99355724.54144
  22947365.220   120589196.46708  22947365.200    93965601.73247
 15 02 28 00 01 30.0000000  0  7G16G18G21G22G27G29G31
  21475313.680   112853565.82909  21475313.440    87937857.88048
  22765601.780   119634048.87708  22765602.420    93221351.27146
  21409634.660   112508389.40808  21409634.140    87668871.05348
  23983669.360   126035080.85106  23983670.820    98209158.81345
  22576445.600   118640063.95208  22576449.100    92446820.92547
  24278332.140   127583482.72205  24278333.840    99415697.22544
  22965137.960   120682592.01608  22965137.780    94038377.38847
 15 02 28 00 02  0.0000000  0  7G16G18G21G22G27G29G31
  21462851.000   112788074.51109  21462850.900    87886825.69048
  22754299.620   119574655.73508  22754300.380    93175070.93346
  21417461.680   112549520.88008  21417461.200    87700921.55348
  23966151.820   125943026.74906  23966153.100    98137428.63746
  22564680.940   118578239.42708  22564684.460    92398646.00547
  24292978.760   127660450.06505  24292980.780    99475671.79541
  22982943.940   120776162.36808  22982943.700    94111289.23847
 15 02 28 00 02 30.0000000  0  7G16G18G21G22G27G29G31
  21450440.960   112722860.09909  21450441.000    87836009.27548
  22743052.100   119515549.38208  22743052.920    93129014.06446
  21425351.820   112590984.09808  21425351.380    87733230.55648
  23948634.680   125850973.92506  23948635.840    98065699.44945
  22552940.380   118516540.36008  22552943.380    92350568.83947
  24307626.020   127737420.54305  24307628.460    99535648.72343
  23000782.560   120869904.72808  23000782.380    94184335.11447
 15 02 28 00 03  0.0000000  0  7G16G18G21G22G27G29G31
  21438085.080   112657929.90509  21438085.120    87785414.31748
  22731860.520   119456736.84408  22731861.280    93083186.13646
  21433305.780   112632782.69209  21433305.340    87765800.88548
  23931119.160   125758929.74606  23931120.120    97993977.00446
  22541224.540   118454971.63708  22541227.000    92302593.24147
  24322274.600   127814398.41805  24322277.220    99595631.52644
  23018654.160   120963820.68808  23018654.100    94257516.16147
 15 02 28 00 03 30.0000000  0  7G16G18G21G22G27G29G31
  21425783.840   112593286.61009  21425783.880    87735042.92748
  22720725.500   119398221.15908  22720726.120    93037589.52746
  21441323.500   112674915.79809  21441322.960    87798631.88148
  23913605.900   125666897.55006  23913606.680    97922263.89245
  22529533.380   118393533.82208  22529535.600    92254719.66047
  24336924.640   127891384.17805  24336927.060    99655620.34943
  23036558.380   121057908.09908  23036558.460    94330830.80147
 15 02 28 00 04  0.0000000  0  7G16G18G21G22G27G29G31
  21413536.800   112528927.51809  21413536.740    87684892.99348
  22709646.580   119340000.49308  22709647.060    92992222.77646
  21449403.540   112717376.33009  21449402.940    87831718.00748
  23896094.420   125574875.31806  23896095.020    97850558.53545
  22517866.060   118332222.38208  22517868.380    92206944.54547
  24351575.400   127968372.95205  24351577.180    99715611.61441
  23054493.960   121152159.71408  23054494.060    94404273.39947
 15 02 28 00 04 30.0000000  0  7G16G18G21G22G27G29G31
  21401344.740   112464857.49809  21401344.560    87634968.31048
  22698624.660   119282079.39208  22698624.940    92947089.47546
  21457546.200   112760165.97109  21457545.560    87865060.58748
  23878585.820   125482868.11006  23878586.480    97778864.86545
  22506223.240   118271039.86508  22506225.840    92159269.87247
  24366227.020   128045367.47404  24366228.840    99775607.38744
  23072460.720   121246574.25908  23072460.700    94477842.68347
 15 02 28 00 05  0.0000000  0  7G16G18G21G22G27G29G31
  21389208.060   112401078.78209  21389207.800    87585270.61648
  22687660.200   119224460.44008  22687660.340    92902191.59746
  21465751.120   112803283.08009  21465750.500    87898658.33248
  23861080.520   125390878.75406  23861081.280    97707185.11145
  22494605.060   118209986.41108  22494607.840    92111695.77047
  24380879.400   128122367.76404  24380881.560    99835607.58043
  23090458.320   121341150.34108  23090458.260    94551538.11646
 15 02 28 00 05 30.0000000  0  7G16G18G21G22G27G29G31
  21377125.880   112337586.05409  21377125.500    87535795.76748
  22676752.160   119167138.58708  22676752.280    92857525.24646
  21474016.540   112846718.05809  21474015.920    87932503.76948
  23843577.880   125298902.79006  23843578.800    97635515.75445
  22483010.060   118149054.73908  22483012.860    92064216.56548
  24395531.820   128199366.67205  24395533.920    99895606.67444
  23108484.560   121435877.26408  23108484.580    94625351.03246
 15 02 28 00 06  0.0000000  0  7G16G18G21G22G27G29G31
  21365099.880   112274388.39809  21365099.400    87486550.84948
  22665902.360   119110123.39308  22665902.480    92813097.84646
  21482343.520   112890476.47609  21482342.900    87966601.23648
  23826079.760   125206949.72207  23826080.640    97563864.24445
  22471439.580   118088251.77708  22471442.220    92016837.65347
  24410185.300   128276370.99605  24410187.040    99955610.04544
  23126540.160   121530759.05508  23126540.340    94699284.65647
 15 02 28 00 06 30.0000000  0  7G16G18G21G22G27G29G31
  21353130.720   112211489.70709  21353130.220    87437538.88948
  22655111.760   119053418.82508  22655111.860    92768912.48946
  21490732.020   112934558.15709  21490731.380    88000950.59848
  23808586.680   125115023.69406  23808587.540    97492233.80045
  22459893.900   118027579.02408  22459896.360    91969560.22747
  24424839.920   128353381.99304  24424841.600   100015618.63045
  23144624.880   121625794.20908  23144625.160    94773337.84346
 15 02 28 00 07  0.0000000  0  6G16G18G21G22G27G31
  21341215.920   112148877.04209  21341215.420    87388749.80248
  22644377.860   118997012.06808  22644377.900    92724959.18246
  21499178.780   112978946.12809  21499178.020    88035538.63148
  23791096.260   125023112.23307  23791097.280    97420614.68645
  22448370.140   117967021.50908  22448372.500    91922372.58147
  23162735.320   121720964.55408  23162735.660    94847496.34046
 15 02 28 00 07 30.0000000  0  6G16G18G21G22G27G31
  21329361.100   112086579.54509  21329360.560    87340206.29848
  22633706.160   118940932.19808  22633706.160    92681260.58746
  21507688.640   113023665.90409  21507687.760    88070385.20848
  23773614.200   124931244.91206  23773615.360    97349029.98446
  22436873.420   117906606.12408  22436875.880    91875295.68648
  23180876.000   121816293.79507  23180876.400    94921778.57946
 15 02 28 00 08  0.0000000  0  7G16G18G21G22G27G29G31
  21317563.300   112024581.43509  21317562.700    87291896.09148
  22623093.780   118885164.20908  22623093.920    92637805.04046
  21516257.900   113068697.92109  21516256.940    88105475.09048
  23756137.920   124839407.19707  23756138.980    97277468.33745
  22425400.480   117846315.35908  22425403.140    91828315.90148
  24468806.420   128584443.34605  24468807.780   100195680.80745
  23199043.100   121911762.14308  23199043.740    94996169.29947
 15 02 28 00 08 30.0000000  0  7G16G18G21G22G27G29G31
  21305824.120   111962891.59909  21305823.580    87243826.10148
  22612542.280   118829716.87408  22612542.700    92594599.34346
  21524887.460   113114046.94108  21524886.600    88140811.98848
  23738669.020   124747608.28807  23738669.860    97205936.92145
  22413952.640   117786155.93908  22413955.400    91781438.45748
  24483464.700   128661472.42304  24483465.420   100255703.47844
  23217237.320   122007373.06807  23217238.220    95070671.14846
 15 02 28 00 09  0.0000000  0  7G16G18G21G22G27G29G31
  21294143.160   111901508.16609  21294142.740    87195994.85248
  22602051.560   118774588.54808  22602052.140    92551642.21746
  21533576.300   113159707.47108  21533575.600    88176391.62448
  23721207.200   124655846.37007  23721207.720    97134434.32146
  22402529.000   117726123.58308  22402531.680    91734660.01447
  24498123.060   128738504.81104  24498124.100   100315728.70845
  23235457.300   122103119.51407  23235458.400    95145278.55446
 15 02 28 00 09 30.0000000  0  6G16G18G21G22G27G31
  21282519.880   111840428.22409  21282519.680    87148400.09848
  22591621.120   118719776.36908  22591621.820    92508931.43346
  21542323.000   113205671.95508  21542322.460    88212208.10948
  23703752.120   124564119.32407  23703752.340    97062958.87545
  22391128.540   117666213.39908  22391131.020    91687976.78747
  23253701.560   122198993.41407  23253702.840    95219985.20246
 15 02 28 00 10  0.0000000  0  6G16G18G21G22G27G31
  21270952.280   111779640.80609  21270952.260    87101033.28948
  22581248.860   118665269.58008  22581249.600    92466458.62546
  21551124.940   113251926.60708  21551124.460    88248250.68748
  23686301.700   124472417.23107  23686301.700    96991502.85946
  22379748.620   117606412.47008  22379750.940    91641378.67847
  23271967.100   122294978.83607  23271968.560    95294778.75747
 15 02 28 00 10 30.0000000  0  7G16G18G21G22G27G29G31
  21259453.180   111719212.86609  21259453.080    87053946.58548
  22570947.560   118611135.23208  22570948.160    92424276.03246
  21559994.040   113298533.84709  21559993.480    88284568.01748
  23668868.700   124380806.94707  23668868.440    96920118.38145
  22368401.720   117546785.45808  22368403.960    91594916.08447
  24542102.780   128969624.33705  24542102.300   100495798.35144
  23290265.640   122391137.68507  23290267.320    95369707.49147
 15 02 28 00 11  0.0000000  0  7G16G18G21G22G27G29G31
  21248008.780   111659072.55909  21248008.620    87007084.01448
  22560703.560   118557301.89708  22560703.980    92382327.98646
  21568915.820   113345418.06009  21568915.200    88321101.16748
  23651439.700   124289217.48307  23651439.200    96848750.12945
  22357074.060   117487258.57408  22357076.260    91548531.51948
  24556763.220   129046666.02405  24556763.420   100555830.78745
  23308582.660   122487393.10507  23308584.480    95444711.39547
 15 02 28 00 11 30.0000000  0  6G16G18G21G22G27G31
  21236619.620   111599222.52409  21236619.460    86960447.62348
  22550517.260   118503771.96908  22550517.560    92340616.37446
  21577889.960   113392577.63408  21577889.300    88357848.88948
  23634015.340   124197651.78207  23634014.620    96777400.41345
  22345765.660   117427832.08408  22345767.920    91502225.19248
  23326917.780   122583742.82707  23326919.620    95519788.91246
 15 02 28 00 12  0.0000000  0  6G16G18G21G22G27G31
  21225299.840   111539736.84909  21225299.700    86914095.15548
  22540402.780   118450619.60008  22540403.000    92299198.97046
  21586929.960   113440083.43308  21586929.340    88394866.39948
  23616609.380   124106184.59207  23616608.860    96706127.42746
  22334490.160   117368578.28008  22334492.560    91456053.42348
  23345283.980   122680255.92107  23345285.760    95594993.76646
 15 02 28 00 12 30.0000000  0  6G16G18G21G22G27G31
  21214040.340   111480567.20709  21214040.140    86867988.94548
  22530351.080   118397797.12208  22530351.280    92258038.61847
  21596025.920   113487883.13809  21596025.380    88432112.92348
  23599213.080   124014768.40207  23599212.780    96634894.19546
  22323237.880   117309446.64808  22323240.420    91409976.84748
  23363670.940   122776878.50307  23363672.560    95670283.88346
 15 02 28 00 13  0.0000000  0  6G16G18G21G22G27G31
  21202839.960   111421708.23209  21202839.700    86822124.81148
  22520360.960   118345298.59508  22520361.200    92217130.69746
  21605175.900   113535966.76508  21605175.420    88469580.68648
  23581825.740   123923398.09707  23581825.420    96563696.70146
  22312007.340   117250429.57008  22312009.960    91363989.53247
  23382076.660   122873600.43407  23382078.240    95745651.44646
 15 02 28 00 13 30.0000000  0  7G16G18G19G21G22G27G31
  21191702.780   111363181.88009  21191702.500    86776519.87148
  22510436.700   118293146.57208  22510437.040    92176492.77847
  24521257.020   128860068.15606  24521256.720   100410442.61545
  21614383.600   113584353.43209  21614383.140    88507284.58048
  23564451.560   123832096.55907  23564451.200    96492552.78546
  22300802.300   117191547.26208  22300804.940    91318107.23848
  23400504.520   122970439.00007  23400506.240    95821109.97346
 15 02 28 00 14  0.0000000  0  7G16G18G19G21G22G27G31
  21180618.660   111304934.37909  21180618.380    86731132.20848
  22500568.060   118241287.31708  22500568.500    92136082.98847
  24505972.020   128779742.54006  24505971.480   100347851.27745
  21623637.780   113632984.16909  21623637.340    88545178.66148
  23547080.140   123740810.47607  23547079.840    96421420.90546
  22289612.180   117132743.84408  22289614.840    91272286.40848
  23418943.340   123067335.14907  23418945.220    95896613.29146
 15 02 28 00 14 30.0000000  0  7G16G18G19G21G22G27G31
  21169609.380   111247079.94909  21169609.040    86686050.84048
  22490776.820   118189834.88908  22490777.340    92095990.20546
  24490714.960   128699567.02606  24490714.320   100285376.93045
  21632959.580   113681970.08009  21632959.100    88583349.49948
  23529733.560   123649654.30007  23529733.480    96350390.22146
  22278458.380   117074131.02808  22278461.020    91226614.10548
  23437413.840   123164397.68807  23437415.780    95972246.34046
 15 02 28 00 15  0.0000000  0  7G16G18G19G21G22G27G31
  21158662.780   111189554.94909  21158662.400    86641226.16748
  22481051.000   118138725.66508  22481051.540    92056164.85646
  24475473.180   128619476.05005  24475473.060   100222968.44744
  21642336.060   113731243.43409  21642335.560    88621744.31648
  23512400.020   123558565.37507  23512399.760    96279411.99646
  22267328.520   117015643.30808  22267331.160    91181039.28748
  23455902.920   123261557.93107  23455904.820    96047955.44445
 15 02 28 00 15 30.0000000  0  7G16G18G19G21G22G27G31
  21147780.220   111132366.61509  21147779.860    86596663.84548
  22471391.940   118087966.93308  22471392.500    92016612.61047
  24460248.280   128539474.95405  24460249.100   100160629.99444
  21651767.820   113780807.48609  21651767.300    88660365.65748
  23495080.560   123467551.26707  23495080.360    96208492.01246
  22256223.540   116957286.05808  22256226.180    91135566.13148
  23474411.140   123358818.75807  23474412.920    96123742.95246
 15 02 28 00 16  0.0000000  0  7G16G18G19G21G22G27G31
  21136959.160   111075501.62409  21136958.800    86552353.46548
  22461797.060   118037545.30708  22461797.620    91977323.05347
  24445038.280   128459548.23206  24445039.500   100098349.52545
  21661251.520   113830644.70008  21661251.000    88699199.84848
  23477772.880   123376599.38307  23477772.720    96137620.54746
  22245140.400   116899043.66408  22245142.940    91090182.46448
  23492934.840   123456160.82807  23492936.580    96199593.58446
 15 02 28 00 16 30.0000000  0  7G16G18G19G21G22G27G31
  21126201.280   111018968.90609  21126200.960    86508302.00048
  22452268.040   117987470.08908  22452268.660    91938303.43247
  24429844.500   128379702.78106  24429845.420   100036132.38145
  21670788.280   113880760.98308  21670787.820    88738251.48948
  23460478.780   123285719.57807  23460478.960    96066805.21546
  22234080.440   116840923.13508  22234082.740    91044893.75248
  23511474.960   123553588.85207  23511476.800    96275511.34046
 15 02 28 00 17  0.0000000  0  7G16G18G19G21G22G27G31
  21115509.920   110962785.91709  21115509.700    86464523.04948
  22442808.080   117937758.20808  22442808.760    91899566.91946
  24414668.880   128299953.93706  24414669.600    99973990.50945
  21680380.520   113931168.78309  21680380.080    88777530.28648
  23443201.780   123194929.18407  23443202.220    95996059.56046
  22223046.560   116782939.63908  22223048.700    90999711.81548
  23530033.700   123651114.68007  23530035.660    96351505.26346
 15 02 28 00 17 30.0000000  0  7G16G18G19G21G22G27G31
  21104885.020   110906951.80809  21104884.880    86421015.96048
  22433417.260   117888409.59108  22433417.860    91861113.46847
  24399510.720   128220299.03406  24399511.400    99911921.79245
  21690027.660   113981864.61809  21690027.120    88817033.53648
  23425941.980   123104228.59107  23425942.420    95925383.88546
  22212038.260   116725090.64208  22212040.380    90954634.70248
  23548609.980   123748733.19907  23548612.200    96427571.49645
 15 02 28 00 18  0.0000000  0  7G16G18G19G21G22G27G31
  21094324.700   110851456.77109  21094324.540    86377773.07248
  22424093.580   117839413.85308  22424094.160    91822934.98546
  24384368.300   128140725.86606  24384368.440    99849916.79344
  21699726.820   114032833.78709  21699726.200    88856749.77448
  23408697.480   123013608.33607  23408697.780    95854770.81146
  22201053.200   116667364.12208  22201055.540    90909653.02348
  23567201.020   123846429.20307  23567203.260    96503698.07246
 15 02 28 00 18 30.0000000  0  7G16G18G19G21G22G27G31
  21083829.560   110796304.52709  21083829.420    86334797.30448
  22414837.840   117790775.06008  22414838.400    91785034.64446
  24369242.060   128061236.19706  24369241.460    99787976.91744
  21709477.980   114084076.63909  21709477.400    88896679.27148
  23391469.080   122923073.12407  23391469.280    95784223.98746
  22190091.720   116609761.87608  22190094.400    90864768.18048
  23585806.540   123944201.23207  23585808.720    96579883.84246
 15 02 28 00 19  0.0000000  0  7G16G18G19G21G22G27G31
  21073402.380   110741509.33509  21073402.200    86292099.75348
  22405652.780   117742507.26508  22405653.320    91747423.40147
  24354133.880   127981842.79505  24354133.040    99726112.01045
  21719283.140   114135603.41609  21719282.580    88936830.00848
  23374259.820   122832637.60607  23374259.880    95713754.84646
  22179156.260   116552296.32608  22179159.220    90819989.84848
  23604428.500   124042059.51507  23604430.500    96656137.02846
 15 02 28 00 19 30.0000000  0  7G16G18G19G21G22G27G31
  21063042.640   110687068.49709  21063042.460    86249678.32548
  22396537.840   117694607.57508  22396538.340    91710098.99846
  24339042.700   127902540.54505  24339042.400    99664318.10845
  21729141.020   114187406.99009  21729140.440    88977196.42848
  23357069.180   122742299.78107  23357069.020    95643361.81346
  22168245.980   116494962.33108  22168249.040    90775314.03248
  23623065.180   124139995.52207  23623067.060    96732450.82745
 15 02 28 00 20  0.0000000  0  7G16G18G19G21G22G27G31
  21052748.800   110632974.06009  21052748.660    86207526.82049
  22387491.480   117647067.86508  22387491.880    91673055.07846
  24323967.300   127823319.50806  24323967.400    99602587.47545
  21739049.480   114239476.01309  21739048.800    89017769.69048
  23339895.480   122652051.92207  23339895.040    95573038.88845
  22157359.040   116437750.00308  22157361.940    90730733.02448
  23641714.060   124237995.96907  23641715.860    96808814.75446
 15 02 28 00 20 30.0000000  0  7G16G18G19G21G22G27G31
  21042520.720   110579225.56809  21042520.680    86165644.88448
  22378513.620   117599888.17008  22378513.920    91636291.71247
  24308907.440   127744176.43306  24308907.160    99540917.62845
  21749007.480   114291805.57208  21749006.740    89058545.97048
  23322739.060   122561894.46007  23322738.260    95502786.40745
  22146494.760   116380656.84608  22146497.360    90686244.86848
  23660374.160   124336055.68207  23660376.000    96885224.91046
 15 02 28 00 21  0.0000000  0  7G16G18G19G21G22G27G31
  21032362.020   110525841.29709  21032362.040    86124046.75549
  22369607.700   117553086.94708  22369607.960    91599823.24647
  24293865.800   127665128.75206  24293864.860    99479322.14445
  21759017.960   114344410.84708  21759017.260    89099537.09548
  23305603.520   122471846.60607  23305602.420    95432619.32346
  22135656.240   116323699.48508  22135658.600    90641862.53348
  23679048.100   124434188.22207  23679050.040    96961691.84946
 15 02 28 00 21 30.0000000  0  7G16G18G19G21G22G27G31
  21022273.240   110472824.22409  21022273.180    86082734.75649
  22360774.200   117506666.37608  22360774.300    91563651.39346
  24278841.940   127586176.83406  24278840.740    99417801.27946
  21769080.600   114397290.44808  21769080.000    89140741.98148
  23288489.480   122381911.71607  23288488.320    95362540.26246
  22124843.540   116266878.58108  22124845.900    90597586.53148
  23697735.440   124532391.39807  23697737.640    97038213.79646
 15 02 28 00 22  0.0000000  0  7G16G18G19G21G22G27G31
  21012254.340   110420174.67809  21012254.180    86041709.13849
  22352013.200   117460626.70008  22352013.140    91527776.33147
  24263835.460   127507318.91506  24263834.880    99356353.60946
  21779194.760   114450440.67008  21779194.260    89182157.73948
  23271397.020   122292090.75507  23271395.880    95292549.97246
  22114056.360   116210192.51108  22114058.940    90553415.59048
  23716435.340   124630660.32707  23716437.800    97114786.83245
 15 02 28 00 22 30.0000000  0  7G16G18G19G21G22G27G31
  21002306.040   110367895.94809  21002305.820    86000972.47849
  22343325.180   117414971.23608  22343325.100    91492200.66147
  24248846.800   127428556.14106  24248847.140    99294980.06846
  21789360.200   114503860.46208  21789359.740    89223783.55348
  23254326.840   122202387.16107  23254325.720    95222651.12346
  22103295.020   116153642.44408  22103297.880    90509350.63348
  23735147.540   124728993.72307  23735150.260    97191410.24146
 15 02 28 00 23  0.0000000  0  7G16G18G19G21G22G27G31
  20992426.520   110315978.42609  20992426.300    85960517.27849
  22334708.320   117369690.29508  22334708.460    91456916.83747
  24233874.280   127349877.47406  24233875.240    99233672.10246
  21799574.620   114557537.71208  21799574.240    89265609.97548
  23237277.580   122112792.98907  23237276.240    95152837.57946
  22092557.500   116097217.24608  22092560.500    90465382.96748
  23753869.320   124827377.05207  23753872.180    97268072.49746
 15 02 28 00 23 30.0000000  0  7G16G18G19G21G22G27G31
  20982615.640   110264421.40909  20982615.380    85920342.98549
  22326162.800   117324783.55308  22326163.100    91421924.58147
  24218917.700   127271279.75606  24218918.280    99172427.21345
  21809837.040   114611467.25908  21809836.720    89307632.99648
  23220248.920   122023307.56207  23220247.660    95083108.74246
  22081843.300   116040914.01608  22081846.200    90421510.34748
  23772599.540   124925804.48107  23772602.260    97344769.14446
 15 02 28 00 24  0.0000000  0  7G16G18G19G21G22G27G31
  20972875.240   110213235.18809  20972874.960    85880457.62549
  22317690.460   117280261.12908  22317690.880    91387231.79747
  24203978.360   127192771.42306  24203977.980    99111251.94645
  21820148.580   114665655.22208  21820148.320    89349857.38548
  23203243.040   121933942.54407  23203242.120    95013473.73746
  22071154.040   115984741.17108  22071156.660    90377739.32848
  23791339.220   125024281.52607  23791341.740    97421504.53246
 15 02 28 00 24 30.0000000  0  7G16G18G19G21G22G27G31
  20963206.700   110162426.50209  20963206.340    85840866.44949
  22309292.320   117236129.04708  22309292.840    91352843.18247
  24189056.660   127114357.42306  24189055.720    99050150.19445
  21830509.700   114720103.85308  21830509.500    89392284.88848
  23186261.600   121844704.78207  23186261.000    94943937.90047
  22060490.480   115928703.40408  22060492.820    90334073.56448
  23810088.720   125122809.99607  23810090.940    97498279.98046
 15 02 28 00 25  0.0000000  0  7G16G18G19G21G22G27G31
  20953608.980   110111990.23509  20953608.620    85801565.47249
  22300967.560   117192382.27708  22300968.060    91318754.80547
  24174151.600   127036030.41606  24174150.480    98989116.23146
  21840918.980   114774805.52708  21840918.820    89434909.56748
  23169303.580   121755589.91207  23169303.020    94874497.83646
  22049851.240   115872793.62308  22049853.420    90290507.53048
  23828846.080   125221379.45007  23828847.900    97575087.32145
 15 02 28 00 25 30.0000000  0  7G16G18G19G21G22G27G31
  20944083.340   110061933.00909  20944083.100    85762559.84949
  22292717.420   117149027.47808  22292717.880    91284971.87547
  24159263.800   126957794.96906  24159263.260    98928153.59945
  21851376.920   114829762.55208  21851376.740    89477733.22048
  23152370.440   121666605.25607  23152369.760    94805159.22146
  22039237.140   115817016.61908  22039239.380    90247044.95548
  23847611.600   125319992.28007  23847613.220    97651928.56845
 15 02 28 00 26  0.0000000  0  7G16G18G19G21G22G27G31
  20934630.120   110012256.31509  20934629.980    85723850.73949
  22284542.140   117106065.77608  22284542.540    91251495.24547
  24144393.220   126879650.71306  24144393.220    98867262.00345
  21861882.980   114884972.04408  21861882.760    89520753.59848
  23135462.380   121577752.91607  23135461.700    94735923.67846
  22028648.200   115761371.90208  22028650.520    90203685.45248
  23866384.480   125418644.48507  23866385.980    97728800.39245
 15 02 28 00 26 30.0000000  0  7G16G18G19G21G22G27G31
  20925248.780   109962956.95909  20925248.640    85685435.66449
  22276440.940   117063493.56508  22276441.320    91218322.10147
  24129539.200   126801592.38406  24129538.900    98806437.38545
  21872435.900   114940427.27708  21872435.520    89563965.46848
  23118579.000   121489030.42307  23118578.380    94666789.32646
  22018083.560   115705854.40508  22018085.900    90160425.07748
  23885163.300   125517328.22607  23885164.780    97805696.80545
 15 02 28 00 27  0.0000000  0  7G16G18G19G21G22G27G31
  20915940.420   109914041.01609  20915940.200    85647319.34949
  22268415.040   117021317.54308  22268415.440    91185457.68747
  24114702.480   126723624.10907  24114701.640    98745682.94045
  21883035.840   114996129.85408  21883035.380    89607370.06748
  23101721.740   121400444.97407  23101721.200    94597761.75046
  22007544.120   115650468.47508  22007546.360    90117267.22248
  23903948.400   125616044.79506  23903949.920    97882618.72145
 15 02 28 00 27 30.0000000  0  7G16G18G19G21G22G27G31
  20906705.680   109865512.39809  20906705.440    85609504.84149
  22260465.040   116979540.59708  22260465.460    91152904.24947
  24099883.200   126645747.68606  24099881.800    98685000.07745
  21893683.020   115052081.03408  21893682.540    89650968.38948
  23084891.320   121312000.56007  23084890.700    94528844.08446
  21997029.960   115595215.63208  21997032.180    90074213.07948
  23922739.500   125714792.60606  23922741.140    97959564.93046
 15 02 28 00 28  0.0000000  0  7G16G18G19G21G22G27G31
  20897545.320   109817374.31509  20897545.060    85571994.65149
  22252591.720   116938166.28408  22252592.160    91120664.54347
  24085081.520   126567965.11806  24085080.080    98624390.32245
  21904377.280   115108279.80408  21904376.860    89694759.63948
  23068088.460   121223701.65408  23068087.820    94460039.78146
  21986541.340   115540097.71908  21986543.660    90031264.07648
  23941536.420   125813570.57706  23941538.160    98036534.62446
 15 02 28 00 28 30.0000000  0  7G16G18G19G21G22G27G31
  20888458.260   109769621.53209  20888457.960    85534784.69949
  22244794.100   116897189.23108  22244794.500    91088734.38647
  24070296.220   126490268.52806  24070295.340    98563847.56045
  21915116.920   115164716.92508  21915116.500    89738736.61048
  23051312.600   121135543.41007  23051311.640    94391345.12546
  21976076.900   115485107.46708  21976079.480    89988414.56248
  23960337.120   125912368.70706  23960338.960    98113520.12146
 15 02 28 00 29  0.0000000  0  7G16G18G19G21G22G27G31
  20879445.260   109722258.11009  20879444.940    85497878.14649
  22237072.760   116856613.06008  22237073.160    91057116.60747
  24055527.760   126412659.64706  24055527.360    98503373.14646
  21925901.940   115221391.99109  21925901.380    89782898.99948
  23034564.300   121047530.65007  23034563.220    94322763.81547
  21965637.180   115430246.97008  21965639.900    89945666.14348
  23979141.400   126011185.77306  23979143.180    98190520.32246
 15 02 28 00 29 30.0000000  0  7G16G18G19G21G22G27G31
  20870507.360   109675289.27009  20870507.060    85461279.05349
  22229428.620   116816442.87008  22229429.060    91025815.18147
  24040776.840   126335142.29306  24040776.480    98442970.09145
  21936732.620   115278306.95009  21936731.840    89827248.31848
  23017844.900   120959669.76508  23017843.780    94254300.84746
  21955222.960   115375519.82508  21955225.600    89903021.62948
  23997949.400   126110022.57806  23997951.120    98267535.92746
 15 02 28 00 30  0.0000000  0  7G16G18G19G21G22G27G31
  20861646.600   109628725.57609  20861646.300    85424995.66049
  22221863.680   116776689.00808  22221864.120    90994838.16847
  24026044.580   126257725.36006  24026044.340    98382645.26946
  21947610.200   115335468.75108  21947609.320    89871789.97948
  23001156.460   120871971.62808  23001155.200    94185964.68646
  21944835.860   115320934.68608  21944838.240    89860487.77348
  24016762.200   126208884.71906  24016763.940    98344571.30345
 15 02 28 00 30 30.0000000  0  7G16G18G19G21G22G27G31
  20852861.120   109582557.59809  20852860.880    85389020.61549
  22214376.160   116737341.63008  22214376.380    90964177.88247
  24011329.060   126180397.09606  24011329.140    98322389.52845
  21958532.140   115392864.04608  21958531.260    89916513.57948
  22984497.460   120784427.46208  22984495.880    94117748.51346
  21934473.600   115266480.03008  21934475.680    89818055.59048
  24035577.040   126307757.58106  24035578.940    98421614.93645
 15 02 28 00 31  0.0000000  0  7G16G18G19G21G22G27G31
  20844150.460   109536782.83909  20844150.240    85353351.97049
  22206965.460   116698397.92908  22206965.480    90933832.15547
  23996629.900   126103152.91906  23996630.240    98262199.30446
  21969497.300   115450486.76608  21969496.520    89961414.39848
  22967867.440   120697035.85408  22967865.800    94049651.21246
  21924135.300   115212151.72108  21924137.200    89775721.85348
  24054392.740   126406634.42606  24054394.840    98498661.73446
 15 02 28 00 31 30.0000000  0  7G16G18G19G21G22G27G31
  20835515.860   109491407.51809  20835515.580    85317994.57749
  22199632.560   116659863.52108  22199632.460    90903805.36647
  23981948.000   126025997.23007  23981948.120    98202078.04545
  21980506.120   115508339.19608  21980505.500    90006494.21448
  22951267.560   120609803.59507  22951266.100    93981678.05847
  21913821.760   115157954.08108  21913823.700    89733489.93848
  24073209.460   126505516.48906  24073211.800    98575712.59246
 15 02 28 00 32  0.0000000  0  7G16G18G19G21G22G27G31
  20826958.980   109446440.36909  20826958.680    85282955.24849
  22192379.300   116621747.27208  22192379.020    90874104.40146
  23967284.120   125948937.11406  23967283.980    98142031.25046
  21991559.520   115566425.80708  21991559.080    90051756.49948
  22934699.780   120522740.31408  22934698.560    93913836.59346
  21903534.380   115103894.16508  21903536.480    89691365.33448
  24092027.940   126604407.57806  24092030.500    98652770.46845
 15 02 28 00 32 30.0000000  0  7G16G18G19G21G22G27G31
  20818480.480   109401885.37509  20818480.120    85248237.06449
  22185206.500   116584053.65408  22185206.020    90844732.76747
  23952638.180   125871974.52106  23952638.000    98082060.46646
  22002657.660   115624747.40708  22002657.340    90097201.90448
  22918165.180   120435850.67208  22918164.020    93846130.43347
  21893273.620   115049974.27708  21893276.000    89649349.85148
  24110848.200   126703307.00406  24110850.680    98729834.81145
 15 02 28 00 33  0.0000000  0  7G16G18G19G21G22G27G31
  20810079.020   109357735.81709  20810078.620    85213834.81149
  22178112.540   116546774.85808  22178112.040    90815684.38947
  23938009.060   125795100.82706  23938009.120    98022158.95246
  22013798.440   115683292.71908  22013798.100    90142821.62448
  22901662.500   120349128.45408  22901661.400    93778554.73147
  21883037.820   114996185.56508  21883040.500    89607436.58648
  24129668.020   126802203.06707  24129670.140    98806896.61046
 15 02 28 00 33 30.0000000  0  7G16G18G19G21G22G27G31
  20801753.940   109313987.33909  20801753.520    85179745.09049
  22171096.660   116509906.41208  22171096.300    90786955.75347
  23923396.200   125718309.57207  23923396.360    97962321.67846
  22024980.380   115742054.06608  22024979.940    90188609.68448
  22885191.060   120262570.32608  22885190.000    93711106.89547
  21872825.900   114942521.99208  21872828.780    89565620.83248
  24148485.420   126901086.64607  24148487.200    98883948.58845
 15 02 28 00 34  0.0000000  0  7G16G18G19G21G22G27G31
  20793506.640   109270647.82709  20793506.320    85145974.04849
  22164160.400   116473456.15108  22164160.240    90758552.96647
  23908800.680   125641607.22207  23908800.580    97902553.69846
  22036204.280   115801035.67508  22036203.700    90234569.37648
  22868752.560   120176185.33908  22868751.560    93643793.96547
  21862639.100   114888990.10708  21862642.040    89523907.69248
  24167300.960   126999961.58607  24167302.720    98960993.84946
 15 02 28 00 34 30.0000000  0  7G16G18G19G21G22G27G31
  20785339.040   109227727.31909  20785338.840    85112529.49349
  22157305.500   116437433.46608  22157305.460    90730483.35647
  23894223.340   125565001.92606  23894223.160    97842861.31646
  22047471.340   115860244.07308  22047470.680    90280705.78848
  22852349.080   120089984.19108  22852348.120    93576624.29747
  21852479.000   114835598.07708  21852481.860    89482303.52148
  24186115.540   127098832.71407  24186117.640    99038036.17346
 15 02 28 00 35  0.0000000  0  7G16G18G19G21G22G27G31
  20777251.840   109185229.05709  20777251.660    85079413.96549
  22150532.600   116401841.57108  22150532.560    90702749.42047
  23879664.260   125488494.91606  23879664.000    97783245.52945
  22058781.400   115919678.44808  22058780.720    90327018.29248
  22835981.140   120003970.74508  22835980.220    93509600.87547
  21842345.780   114782347.36208  21842348.560    89440809.47048
  24204928.940   127197698.64407  24204931.540    99115074.45245
 15 02 28 00 35 30.0000000  0  7G16G18G19G21G22G27G31
  20769243.200   109143143.34009  20769242.900    85046619.90349
  22143839.660   116366669.89408  22143839.600    90675342.92747
  23865121.800   125412074.82407  23865121.180    97723697.46745
  22070131.860   115979325.29708  22070131.280    90373496.35248
  22819647.200   119918136.02108  22819646.260    93442716.71947
  21832237.120   114729226.34508  21832239.860    89399416.47348
  24223738.620   127296544.66107  24223741.600    99192097.15645
 15 02 28 00 36  0.0000000  0  7G16G18G19G21G22G27G31
  20761313.760   109101473.48109  20761313.380    85014149.88149
  22137227.220   116331921.71808  22137227.200    90648266.44947
  23850596.500   125335742.51207  23850595.320    97664217.79445
  22081522.740   116039184.56008  22081522.240    90420139.92748
  22803348.160   119832484.04808  22803347.080    93375974.96946
  21822153.400   114676236.67508  21822156.120    89358125.82948
  24242544.440   127395370.01707  24242547.600    99269103.78244
 15 02 28 00 36 30.0000000  0  7G16G18G19G21G22G27G31
  20753465.300   109060229.33809  20753464.920    84982011.58549
  22130697.240   116297607.03608  22130697.320    90621527.73947
  23836089.420   125259506.28807  23836087.840    97604812.98645
  22092955.100   116099261.89908  22092954.620    90466953.43848
  22787086.020   119747025.73108  22787084.800    93309384.10846
  21812096.300   114623386.59608  21812098.960    89316943.96748
  24261347.200   127494179.19007  24261350.320    99346097.76744
 15 02 28 00 37  0.0000000  0  7G16G18G19G21G22G27G31
  20745698.300   109019413.35209  20745697.900    84950206.92049
  22124250.120   116263727.48808  22124250.240    90595128.10847
  23821600.240   125183367.01206  23821599.060    97545483.72146
  22104428.800   116159556.27708  22104428.260    90513936.06848
  22770861.240   119661764.50108  22770859.960    93242946.82946
  21802066.100   114570676.96408  21802068.560    89275871.53848
  24280146.460   127592970.40407  24280149.500    99423077.76644
 15 02 28 00 37 30.0000000  0  7G16G18G19G21G22G27G31
  20738012.360   108979023.37509  20738011.880    84918734.21549
  22117885.340   116230280.63508  22117885.440    90569065.63347
  23807128.540   125107320.64806  23807127.840    97486226.82845
  22115942.740   116220062.32108  22115942.120    90561083.63348
  22754673.640   119576698.86708  22754672.280    93176661.96846
  21792061.920   114518103.84508  21792064.220    89234905.48148
  24298940.980   127691736.83807  24298943.940    99500038.46845
 15 02 28 00 38  0.0000000  0  7G16G18G19G21G22G27G31
  20730406.320   108939053.48309  20730405.800    84887588.84149
  22111601.720   116197260.50208  22111601.980    90543335.67647
  23792673.340   125031359.30706  23792672.940    97427036.23246
  22127495.060   116280770.15208  22127494.360    90608388.43048
  22738522.440   119491824.00308  22738521.000    93110525.76447
  21782082.240   114465659.82308  21782084.480    89194040.01448
  24317728.760   127790467.96406  24317731.780    99576971.62445
 15 02 28 00 38 30.0000000  0  7G16G18G19G21G22G27G31
  20722881.860   108899512.33409  20722881.460    84856777.55249
  22105400.880   116164674.84108  22105401.260    90517944.27647
  23778235.940   124955489.94806  23778235.860    97367917.30646
  22139086.720   116341684.76508  22139085.940    90655854.36448
  22722409.380   119407149.13608  22722407.880    93044545.37947
  21772128.300   114413351.82508  21772130.680    89153280.53948
  24336510.640   127889167.79806  24336513.880    99653880.38945
 15 02 28 00 39  0.0000000  0  7G16G18G19G21G22G27G31
  20715439.840   108860404.14509  20715439.500    84826303.63449
  22099283.520   116132527.71908  22099283.880    90492894.59147
  23763816.580   124879715.11606  23763816.580    97308872.04446
  22150717.720   116402806.40108  22150716.940    90703481.60548
  22706335.220   119322679.23608  22706333.800    92978724.71747
  21762200.700   114361182.36308  21762203.260    89112629.02748
  24355286.520   127987835.67406  24355289.900    99730764.19145
 15 02 28 00 39 30.0000000  0  7G16G18G19G21G22G27G31
  20708080.160   108821729.06509  20708079.880    84796167.21049
  22093249.600   116100819.06408  22093249.920    90468186.56847
  23749414.700   124804033.11006  23749415.000    97249899.10945
  22162387.500   116464131.61308  22162386.740    90751267.47948
  22690300.240   119238415.57308  22690298.980    92913064.74847
  21752299.340   114309150.17409  21752301.920    89072084.47848
  24374055.740   128086467.41706  24374059.060    99807619.84045
 15 02 28 00 40  0.0000000  0  7G16G18G19G21G22G27G31
  20700802.880   108783487.10509  20700802.620    84766368.28049
  22087299.020   116069548.31508  22087299.240    90443819.76047
  23735030.220   124728442.00207  23735030.160    97190996.99146
  22174095.520   116525656.20808  22174094.720    90799210.49448
  22674304.680   119154358.71608  22674303.460    92847565.92947
  21742423.840   114257253.43809  21742426.320    89031645.47548
  24392817.320   128185058.20706  24392820.380    99884443.58045
 15 02 28 00 40 30.0000000  0  7G16G18G19G21G22G27G31
  20693608.420   108745679.98909  20693608.120    84736908.19249
  22081432.020   116038716.66008  22081432.120    90419795.11447
  23720663.380   124652942.16107  23720662.460    97132166.01546
  22185841.200   116587380.28608  22185840.520    90847307.17448
  22658349.080   119070511.53008  22658347.820    92782230.48847
  21732574.240   114205492.48409  21732576.460    88991312.27548
  24411570.720   128283605.50006  24411573.340    99961233.40944
 15 02 28 00 41  0.0000000  0  7G16G18G19G21G22G27G31
  20686498.100   108708314.55609  20686497.740    84707792.26249
  22075649.840   116008330.76008  22075649.840    90396117.80347
  23706314.740   124577538.51907  23706313.280    97073409.98246
  22197625.240   116649305.87308  22197624.640    90895560.87048
  22642434.880   118986881.89408  22642433.600    92717064.57947
  21722751.380   114153872.62809  21722753.420    88951089.03348
  24430316.220   128382111.55806  24430318.520   100037991.08544
 15 02 28 00 41 30.0000000  0  6G16G18G19G22G27G31
  20679471.860   108671391.20209  20679471.460    84679020.81249
  22069952.400   115978390.61808  22069952.360    90372787.83947
  23691983.900   124502229.75407  23691982.520    97014727.84646
  22626562.300   118903470.69208  22626560.880    92652068.87447
  21712954.980   114102392.51609  21712957.020    88910974.67448
  24449053.080   128480572.11006  24449055.160   100114713.28245
 15 02 28 00 42  0.0000000  0  7G16G18G19G21G22G27G31
  20672530.220   108634912.44109  20672529.780    84650595.79749
  22064340.180   115948898.34008  22064340.040    90349806.85947
  23677670.980   124427016.26806  23677670.240    96956119.96546
  22221306.060   116773752.72508  22221305.820    90992531.87048
  22610731.920   118820281.63108  22610730.480    92587246.26847
  21703185.360   114051053.22109  21703187.520    88870970.04548
  24467780.900   128578985.47606  24467782.720   100191398.71144
 15 02 28 00 42 30.0000000  0  7G16G18G19G21G22G27G31
  20665672.660   108598875.56209  20665672.220    84622515.11249
  22058812.600   115919850.36708  22058812.340    90327172.08147
  23663375.520   124351894.13606  23663375.020    96897583.28246
  22233201.620   116836264.45908  22233201.380    91041242.30648
  22594943.400   118737312.65608  22594942.020    92522595.14947
  21693441.760   113999850.53409  21693444.020    88831071.85948
  24486498.160   128677344.14106  24486500.000   100268041.48845
 15 02 28 00 43  0.0000000  0  7G16G18G19G21G22G27G31
  20658899.900   108563284.56809  20658899.560    84594781.87449
  22053370.340   115891250.80808  22053370.140    90304886.71947
  23649097.860   124276865.81606  23649097.700    96839119.68246
  22245133.700   116898967.96808  22245133.520    91090102.17348
  22579197.680   118654568.95408  22579196.440    92458119.56447
  21683724.640   113948786.90509  21683726.960    88791282.03348
  24505204.740   128775647.49106  24505206.880   100344641.18046
 15 02 28 00 43 30.0000000  0  7G16G18G19G21G22G27G31
  20652212.460   108528141.77309  20652212.180    84567397.87249
  22048013.720   115863101.68508  22048013.700    90282952.34847
  23634838.180   124201931.63807  23634838.160    96780729.45346
  22257102.060   116961861.90908  22257101.860    91139110.43247
  22563495.680   118572054.17908  22563494.440    92393822.36847
  21674034.140   113897863.41709  21674036.500    88751601.39948
  24523900.380   128873894.02606  24523903.180   100421196.56145
 15 02 28 00 44  0.0000000  0  7G16G18G19G21G22G27G31
  20645610.440   108493447.71109  20645610.080    84540363.53349
  22042742.720   115835402.76108  22042742.860    90261368.79147
  23620596.320   124127090.48907  23620596.320    96722411.70946
  22269106.040   117024942.96308  22269105.760    91188264.50747
  22547837.480   118489769.27808  22547836.140    92329704.29847
  21664370.100   113847078.95909  21664372.440    88712029.11148
  24542584.440   128972079.33706  24542587.820   100497704.20945
 15 02 28 00 44 30.0000000  0  7G16G18G19G21G22G27G31
  20639093.540   108459201.23109  20639093.220    84513677.96249
  22037556.980   115808151.98408  22037557.160    90240134.44047
  23606371.920   124052339.35507  23606371.740    96664164.09246
  22281144.780   117088206.73808  22281144.420    91237560.95247
  22532222.880   118407713.72808  22532221.480    92265764.93947
  21654732.000   113796430.81408  21654734.280    88672563.04448
  24561255.860   129070197.67805  24561259.760   100574159.68845
 15 02 28 00 45  0.0000000  0  7G16G18G19G21G22G27G31
  20632662.720   108425407.27809  20632662.500    84487345.00649
  22032457.460   115781354.07208  22032457.580    90219252.95847
  23592165.540   123977681.65707  23592164.740    96605989.29446
  22293218.460   117151654.10208  22293218.020    91287000.44947
  22516653.120   118325893.61908  22516651.660    92202009.03747
  21645120.520   113745922.44008  21645122.740    88633205.89048
  24579914.680   129168249.76606  24579918.920   100650563.49745
 15 02 28 00 45 30.0000000  0  7G16G18G19G21G22G27G31
  20626319.400   108392072.85909  20626319.180    84461370.12849
  22027445.440   115755015.74509  22027445.500    90198729.60747
  23577977.740   123903122.90907  23577976.380    96547891.61546
  22305327.900   117215289.36308  22305327.400    91336586.36047
  22501129.660   118244317.14708  22501128.320    92138442.98347
  21635536.780   113695559.65408  21635538.980    88593962.17548
  24598561.520   129266238.55805  24598565.920   100726917.99445
 15 02 28 00 46  0.0000000  0  7G16G18G19G21G22G27G31
  20620062.920   108359194.90009  20620062.740    84435750.93949
  22022520.220   115729133.61608  22022520.280    90178561.73247
  23563807.580   123828658.34407  23563805.860    96489867.31846
  22317471.780   117279105.66508  22317471.240    91386313.34148
  22485651.980   118162982.04208  22485650.780    92075065.00547
  21625979.920   113645337.86609  21625982.160    88554828.32548
  24617194.940   129364156.35606  24617199.340   100803217.12744
 15 02 28 00 46 30.0000000  0  7G16G18G19G21G22G27G31
  20613893.520   108326774.58709  20613893.320    84410488.35549
  22017681.920   115703708.46408  22017682.040    90158749.93447
  23549655.160   123754288.05707  23549653.420    96431916.50746
  22329649.700   117343100.97708  22329649.140    91436179.81447
  22470220.700   118081890.92208  22470219.620    92011877.14847
  21616449.900   113595257.00809  21616452.180    88515804.30048
  24635814.520   129462000.49806  24635818.660   100879458.88344
 15 02 28 00 47  0.0000000  0  7G16G18G19G21G22G27G31
  20607812.540   108294818.69009  20607812.300    84385587.65249
  22012931.660   115678746.10508  22012931.860    90139298.76647
  23535521.340   123680016.93907  23535520.460    96374042.96947
  22341862.280   117407278.36108  22341861.660    91486188.15847
  22454837.300   118001050.83308  22454836.180    91948884.89847
  21606947.680   113545322.30209  21606949.980    88476894.15648
  24654420.500   129559772.41606  24654424.160   100955644.29645
 15 02 28 00 47 30.0000000  0  7G16G18G19G21G22G27G31
  20601818.640   108263320.18109  20601818.280    84361043.35549
  22008268.140   115654239.36808  22008268.300    90120202.61747
  23521404.880   123605836.55607  23521405.060    96316240.10647
  22354107.500   117471627.55008  22354106.820    91536330.38347
  22439500.660   117920455.98008  22439499.360    91886083.75747
  21597471.660   113495525.43409  21597473.920    88438091.43048
  24673010.640   129657461.44506  24673014.100   101031765.16544
 15 02 28 00 48  0.0000000  0  7G16G18G19G21G22G27G31
  20595912.800   108232284.90809  20595912.400    84336860.01649
  22003692.360   115630193.61308  22003692.380    90101465.67147
  23507306.660   123531750.77707  23507307.640    96258510.96246
  22366385.840   117536151.17108  22366385.180    91586608.52447
  22424212.100   117840113.41408  22424210.580    91823479.19147
  21588022.680   113445870.89309  21588024.860    88399399.60448
  24691585.300   129755069.14605  24691588.440   101107822.64744
 15 02 28 00 48 30.0000000  0  6G16G18G19G21G22G27
  20590094.080   108201707.58309  20590093.720    84313033.53149
  21999203.120   115606602.85208  21999203.060    90083083.27147
  23493225.380   123457752.70707  23493226.400    96200850.19046
  22378695.660   117600840.07208  22378695.020    91637015.45147
  22408970.700   117760018.79308  22408968.980    91761067.82747
  21578599.400   113396352.05008  21578601.600    88360813.50348
 15 02 28 00 49  0.0000000  0  6G16G18G19G21G22G27
  20584366.120   108171606.84009  20584365.760    84289578.40449
  21994803.900   115583485.19508  21994803.900    90065069.53247
  23479164.260   123383859.62707  23479164.500    96143271.21646
  22391039.840   117665709.52808  22391039.320    91687563.07747
  22393780.060   117680191.45208  22393778.200    91698864.72247
  21569205.240   113346986.23608  21569207.580    88322346.65048
 15 02 28 00 49 30.0000000  0  6G16G18G19G21G22G27
  20578726.900   108141972.49109  20578726.540    84266486.69849
  21990492.760   115560829.87708  21990492.800    90047416.05047
  23465120.900   123310059.81407  23465120.100    96085764.91345
  22403415.840   117730746.12508  22403415.460    91738240.93147
  22378638.460   117600622.30308  22378636.620    91636862.81547
  21559838.100   113297761.96209  21559840.600    88283990.08248
 15 02 28 00 50  0.0000000  0  6G16G18G19G21G22G27
  20573177.240   108112808.86309  20573176.940    84243761.79449
  21986270.340   115538640.76908  21986270.400    90030125.85647
  23451095.680   123236356.14407  23451094.100    96028333.55446
  22415823.920   117795950.78908  22415823.620    91789049.76047
  22363546.980   117521316.55608  22363545.220    91575066.13647
  21550498.580   113248682.28509  21550501.160    88245746.19348
 15 02 28 00 50 30.0000000  0  6G16G18G19G21G22G27
  20567717.740   108084118.67309  20567717.400    84221405.79949
  21982137.140   115516920.56708  21982137.220    90013201.04447
  23437088.880   123162750.15507  23437087.100    95970978.29546
  22428264.000   117861323.26508  22428263.760    91839989.34447
  22348506.480   117442278.58108  22348504.780    91513478.12747
  21541186.920   113199749.14708  21541189.580    88207616.48748
 15 02 28 00 51  0.0000000  0  6G16G18G19G21G22G27
  20562348.000   108055900.23109  20562347.580    84199417.40049
  21978092.600   115495666.14008  21978092.660    89996639.16947
  23423099.940   123089238.12407  23423098.360    95913696.24046
  22440734.960   117926858.27908  22440734.800    91891055.57847
  22333516.740   117363507.17908  22333515.080    91452097.83147
  21531902.480   113150959.04309  21531905.140    88169598.24348
 15 02 28 00 51 30.0000000  0  6G16G18G19G21G22G27
  20557069.440   108028161.46309  20557069.040    84177802.77249
  21974138.140   115474885.12308  21974138.140    89980446.19247
  23409129.760   123015826.47906  23409128.900    95856492.40846
  22453237.820   117992560.77908  22453237.640    91942252.32147
  22318579.480   117285011.46308  22318577.880    91390932.37347
  21522646.560   113102318.84209  21522649.160    88131696.80248
 15 02 28 00 52  0.0000000  0  6G16G18G19G21G22G27
  20551881.320   108000897.75909  20551880.900    84156558.32949
  21970272.880   115454572.75008  21970272.760    89964618.38347
  23395177.640   122942509.55407  23395177.340    95799362.36746
  22465770.880   118058422.54308  22465770.720    91993573.16447
  22303693.980   117206787.84508  22303692.400    91329978.93447
  21513418.040   113053822.62909  21513420.580    88093907.55748
 15 02 28 00 52 30.0000000  0  6G16G18G19G21G22G27
  20546783.560   107974108.53609  20546783.120    84135683.61249
  21966496.560   115434727.42409  21966496.180    89949154.49347
  23381243.600   122869285.70507  23381243.380    95742304.87046
  22478333.540   118124440.06608  22478333.320    92045015.38447
  22288860.400   117128836.98808  22288858.820    91269238.04547
  21504216.640   113005468.90109  21504219.160    88056229.33648
 15 02 28 00 53  0.0000000  0  6G16G18G19G21G22G27
  20541777.360   107947800.47309  20541776.900    84115183.82449
  21962810.240   115415355.61108  21962809.760    89934059.58347
  23367328.300   122796159.90307  23367328.000    95685323.77047
  22490926.480   118190616.61308  22490926.180    92096581.51747
  22274080.240   117051166.62608  22274078.640    91208715.70947
  21495043.420   112957263.12309  21495045.880    88018666.39648
 15 02 28 00 53 30.0000000  0  6G16G18G19G21G22G27
  20536862.640   107921973.54509  20536862.200    84095058.94149
  21959213.780   115396456.53808  21959213.400    89919333.04547
  23353431.380   122723130.44907  23353430.620    95628417.75746
  22503549.020   118256948.67308  22503548.620    92148268.83147
  22259353.640   116973777.57808  22259352.060    91148412.58647
  21485898.040   112909203.88809  21485900.500    87981217.64949
 15 02 28 00 54  0.0000000  0  6G16G18G19G21G22G27
  20532039.640   107896628.51409  20532039.180    84075309.56549
  21955707.420   115378030.81208  21955707.240    89904975.35647
  23339552.840   122650197.06007  23339551.380    95571586.60045
  22516200.760   118323434.09708  22516200.180    92200075.65147
  22244680.980   116896671.78008  22244679.440    91088330.17748
  21476780.600   112861291.22809  21476783.020    87943883.12248
 15 02 28 00 54 30.0000000  0  6G16G18G19G21G22G27
  20527309.240   107871770.25209  20527308.800    84055939.48449
  21952291.960   115360082.27308  21952291.880    89890989.49947
  23325693.020   122577363.06507  23325691.200    95514832.88746
  22528882.080   118390074.75508  22528881.360    92252003.43247
  22230063.320   116819855.19608  22230061.840    91028473.11748
  21467691.760   112813528.77809  21467694.100    87906665.63448
 15 02 28 00 55  0.0000000  0  6G16G18G19G21G22G27
  20522671.740   107847400.12209  20522671.340    84036949.76849
  21948967.420   115342611.68408  21948967.300    89877376.06147
  23311852.020   122504628.87807  23311850.320    95458156.93446
  22541592.540   118456868.78308  22541591.860    92304050.71947
  22215501.120   116743330.36608  22215499.740    90968843.40347
  21458631.600   112765916.95609  21458633.840    87869565.51748
 15 02 28 00 55 30.0000000  0  6G16G18G19G21G22G27
  20518126.660   107823515.94409  20518126.340    84018338.72049
  21945733.300   115325616.40808  21945733.120    89864132.98947
  23298029.340   122431990.44307  23298027.900    95401555.57546
  22554331.180   118523810.68108  22554330.580    92356213.23047
  22200994.160   116667096.07108  22200992.860    90909440.07747
  21449599.400   112718452.17709  21449601.600    87832579.98449
 15 02 28 00 56  0.0000000  0  6G16G18G19G21G22G27
  20513674.700   107800121.10109  20513674.460    84000108.97149
  21942590.060   115309099.12208  21942589.980    89851262.39547
  23284225.320   122359450.06307  23284224.160    95345030.66046
  22567098.000   118590900.84608  22567097.520    92408491.26947
  22186543.300   116591157.13008  22186542.080    90850266.90747
  21440595.620   112671136.89209  21440597.740    87795710.93448
 15 02 28 00 56 30.0000000  0  6G16G18G19G21G22G27
  20509316.340   107777218.21409  20509316.220    83982262.56149
  21939538.160   115293062.19408  21939538.340    89838766.10847
  23270440.160   122287009.28007  23270439.360    95288583.34946
  22579893.000   118658138.73108  22579892.540    92460884.41747
  22172149.320   116515516.90808  22172148.080    90791326.51047
  21431620.560   112623972.89109  21431622.620    87758959.76948
 15 02 28 00 57  0.0000000  0  6G16G18G19G21G22G27
  20505051.800   107754807.76609  20505051.700    83964799.87049
  21936577.660   115277505.19208  21936577.980    89826643.78547
  23256673.780   122214667.16407  23256673.220    95232212.89946
  22592715.600   118725521.76208  22592715.140    92513390.66547
  22157812.640   116440177.22008  22157811.340    90732620.28647
  21422674.160   112576959.57809  21422676.240    87722326.01648
 15 02 28 00 57 30.0000000  0  6G16G18G19G21G22G27
  20500881.200   107732890.58409  20500881.040    83947721.54949
  21933708.660   115262428.55608  21933708.980    89814895.76947
  23242926.160   122142423.39307  23242925.680    95175919.08447
  22605565.420   118793047.73808  22605564.940    92566008.30347
  22143533.540   116365139.95108  22143532.160    90674149.71348
  21413756.420   112530096.74509  21413758.520    87685809.53248
 15 02 28 00 58  0.0000000  0  6G16G18G19G21G22G27
  20496804.300   107711465.90509  20496803.980    83931026.98949
  21930930.720   115247830.32708  21930931.000    89803520.54347
  23229197.040   122070275.79707  23229196.400    95119700.21547
  22618441.720   118860712.92808  22618441.260    92618734.41347
  22129312.060   116290405.44308  22129310.640    90615915.05047
  21404867.040   112483382.62509  21404869.120    87649408.92549
 15 02 28 00 58 30.0000000  0  6G16G18G19G21G22G27
  20492822.040   107690538.69509  20492821.660    83914720.07149
  21928244.700   115233715.03108  21928244.900    89792521.61347
  23215486.980   121998228.06007  23215486.080    95063559.15646
  22631344.800   118928518.99008  22631344.380    92671570.29247
  22115149.240   116215979.69208  22115147.920    90557920.97548
  21396006.800   112436821.22909  21396008.800    87613127.32249
 15 02 28 00 59  0.0000000  0  6G16G18G19G21G22G27
  20488934.800   107670110.84109  20488934.440    83898802.26049
  21925650.900   115220084.41009  21925651.040    89781900.35847
  23201796.080   121926281.05207  23201794.860    95007496.59146
  22644274.460   118996465.08208  22644274.140    92724515.28947
  22101045.780   116141866.05408  22101044.540    90500170.09847
  21387175.760   112390413.63009  21387177.720    87576965.56649
 15 02 28 00 59 30.0000000  0  6G16G18G19G21G22G27
  20485142.200   107650180.53809  20485141.900    83883272.15449
  21923149.080   115206936.72609  21923149.100    89771655.41847
  23188123.800   121854432.51007  23188122.420    94951510.75946
  22657230.000   119064547.26408  22657229.720    92777566.33047
  22087001.740   116068064.59008  22087000.520    90442662.48847
  21378373.520   112344157.96709  21378375.520    87540922.19249
 15 02 28 01 00  0.0000000  0  6G16G18G19G21G22G27
  20481445.540   107630754.31209  20481445.200    83868134.82949
  21920739.980   115194276.23709  21920739.920    89761790.10747
  23174470.820   121782686.39107  23174469.540    94895604.74847
  22670211.820   119132767.43608  22670211.580    92830724.89747
  22073018.260   115994581.35108  22073017.000    90385402.84447
  21369601.040   112298058.43909  21369603.040    87505000.48849
 15 02 28 01 00 30.0000000  0  6G16G18G19G21G22G27
  20477844.320   107611829.68609  20477843.940    83853388.37149
  21918423.080   115182100.37008  21918422.980    89752302.43547
  23160836.660   121711039.81207  23160835.720    94839776.29046
  22683219.000   119201120.74608  22683218.760    92883987.20147
  22059095.300   115921415.83608  22059093.940    90328390.77148
  21360857.800   112252112.34809  21360859.780    87469198.34549
 15 02 28 01 01  0.0000000  0  6G16G18G19G21G22G27
  20474339.200   107593410.34809  20474338.860    83839035.63649
  21916198.920   115170412.30409  21916198.840    89743194.87247
  23147221.940   121639495.35807  23147221.500    94784027.39847
  22696251.700   119269607.93408  22696251.380    92937353.83047
  22045233.660   115848572.99108  22045232.340    90271630.14348
  21352144.220   112206322.50109  21352146.280    87433517.95249
 15 02 28 01 01 30.0000000  0  6G16G18G19G21G22G27
  20470928.940   107575489.73109  20470928.700    83825071.51749
  21914066.200   115159204.91608  21914066.060    89734461.85047
  23133625.460   121568045.69907  23133625.240    94728352.36546
  22709308.180   119338220.10808  22709307.760    92990817.84947
  22031432.480   115776047.53508  22031431.160    90215116.82747
  21343458.920   112160681.65709  21343461.120    87397953.66549
 15 02 28 01 02  0.0000000  0  6G16G18G19G21G22G27
  20467615.360   107558076.84809  20467615.140    83811503.03049
  21912026.500   115148486.49309  21912026.320    89726109.84347
  23120048.520   121496698.16407  23120048.260    94672756.93346
  22722389.660   119406963.25008  22722389.040    93044383.93247
  22017693.660   115703849.54608  22017692.240    90158858.67448
  21334803.580   112115197.97409  21334805.820    87362511.83148
 15 02 28 01 02 30.0000000  0  6G16G18G19G21G22G27
  20464398.560   107541172.57109  20464398.360    83798330.86449
  21910079.880   115138257.52708  21910079.720    89718139.23047
  23106491.020   121425452.74207  23106490.400    94617241.04846
  22735495.680   119475835.40808  22735494.900    93098050.54147
  22004017.620   115631981.31308  22004016.140    90102857.47248
  21326178.200   112069871.81409  21326180.500    87327192.74948
 15 02 28 01 03  0.0000000  0  6G16G18G19G21G22G27
  20461278.700   107524777.56909  20461278.460    83785555.53949
  21908226.380   115128517.67709  21908226.100    89710549.74247
  23092952.840   121354309.20007  23092951.840    94561804.55646
  22748625.760   119544834.12608  22748624.960    93151815.76147
  21990404.580   115560444.43408  21990403.080    90047114.47047
  21317582.780   112024702.74809  21317585.140    87291996.08049
 15 02 28 01 03 30.0000000  0  6G16G18G19G21G22G27
  20458256.020   107508893.05809  20458255.700    83773177.99949
  21906466.220   115119267.69009  21906465.820    89703341.96847
  23079434.040   121283267.94107  23079432.740    94506447.77947
  22761779.660   119613958.25108  22761778.900    93205678.69747
  21976855.140   115489241.68008  21976853.520    89991631.82148
  21309017.480   111979691.60609  21309019.900    87256922.46749
 15 02 28 01 04  0.0000000  0  6G16G18G19G21G22G27
  20455330.780   107493520.24309  20455330.340    83761199.17449
  21904799.420   115110508.36009  21904798.980    89696516.52747
  23065934.700   121212329.13507  23065933.320    94451170.83046
  22774957.120   119683206.28408  22774956.440    93259638.19147
  21963369.800   115418375.58208  21963368.140    89936411.51248
  21300482.400   111934838.93709  21300484.800    87221972.33849
 15 02 28 01 04 30.0000000  0  6G16G18G19G21G22G27
  20452502.480   107478657.13709  20452502.000    83749617.52949
  21903225.200   115102235.80209  21903224.780    89690070.38647
  23052454.280   121141489.40707  23052452.960    94395971.07647
  22788157.060   119752572.83608  22788156.460    93313690.03847
  21949948.260   115347844.67508  21949946.580    89881452.38647
  21291976.820   111890141.46309  21291979.220    87187143.14849
 15 02 28 01 05  0.0000000  0  6G16G18G19G21G22G27
  20449772.080   107464308.86409  20449771.660    83738437.05149
  21901744.680   115094455.73508  21901744.300    89684007.99647
  23038993.580   121070752.98807  23038992.480    94340851.80946
  22801380.000   119822060.32508  22801379.460    93367836.12147
  21936591.820   115277655.70708  21936590.040    89826759.70048
  21283501.640   111845604.02409  21283504.040    87152438.65149
 15 02 28 01 05 30.0000000  0  6G16G18G19G21G22G27
  20447139.620   107450475.19609  20447139.200    83727657.56749
  21900357.620   115087167.15308  21900357.360    89678328.58847
  23025552.480   121000119.21507  23025551.540    94285812.52246
  22814625.460   119891666.19908  22814625.020    93422074.45847
  21923300.660   115207810.07608  21923298.920    89772334.56247
  21275056.760   111801226.01109  21275059.140    87117858.38049
 15 02 28 01 06  0.0000000  0  6G16G18G19G21G22G27
  20444605.120   107437156.59509  20444604.720    83717279.43249
  21899063.960   115080369.54108  21899063.940    89673031.75847
  23012130.740   120929587.08607  23012129.760    94230852.44046
  22827893.000   119961388.03408  22827892.680    93476403.15447
  21910075.080   115138309.37908  21910073.400    89718178.19548
  21266642.120   111757006.97109  21266644.420    87083401.98749
 15 02 28 01 06 30.0000000  0  6G16G18G19G21G22G27
  20442168.980   107424354.79309  20442168.580    83707303.99849
  21897863.980   115074063.84608  21897864.160    89668118.25147
  22998728.620   120859157.61008  22998727.440    94175972.37847
  22841182.500   120031224.76208  22841182.180    93530821.37647
  21896915.680   115069156.26808  21896914.000    89664292.67648
  21258258.020   111712948.04209  21258260.160    87049070.36049
 15 02 28 01 07  0.0000000  0  6G16G18G19G21G22G27
  20439832.040   107412074.00309  20439831.660    83697734.54349
  21896758.400   115068254.15708  21896758.680    89663591.24247
  22985346.600   120788834.47608  22985345.340    94121175.16247
  22854494.300   120101178.56708  22854494.000    93585330.81847
  21883823.560   115000356.75008  21883821.800    89610682.67648
  21249905.220   111669053.17709  21249907.200    87014866.57549
 15 02 28 01 07 30.0000000  0  6G16G18G19G21G22G27
  20437594.060   107400313.37109  20437593.760    83688570.40849
  21895746.820   115062938.45708  21895747.100    89659449.15047
  22971984.300   120718615.59108  22971983.200    94066459.18847
  22867827.720   120171245.55308  22867827.280    93639928.46347
  21870798.680   114931910.90308  21870796.940    89557348.27948
  21241583.360   111625320.80609  21241585.220    86980789.41149
 15 02 28 01 08  0.0000000  0  6G16G18G19G21G22G27
  20435455.060   107389073.06809  20435454.800    83679811.72249
  21894829.080   115058115.87708  21894829.320    89655691.30047
  22958641.760   120648500.53808  22958640.820    94011824.11747
  22881182.220   120241423.40908  22881181.700    93694612.49447
  21857841.300   114863820.11808  21857839.660    89504290.54348
  21233292.280   111581750.64509  21233294.140    86946838.62849
 15 02 28 01 08 30.0000000  0  6G16G18G19G21G22G27
  20433415.140   107378353.29709  20433414.840    83671458.65049
  21894005.160   115053786.22208  21894005.320    89652317.56347
  22945318.880   120578488.68608  22945317.980    93957269.46247
  22894557.300   120311709.80808  22894556.760    93749381.09947
  21844951.900   114796086.52408  21844950.360    89451511.14348
  21225031.920   111538342.48909  21225033.860    86913014.08749
 15 02 28 01 09  0.0000000  0  6G16G18G19G21G22G27
  20431474.580   107368155.83809  20431474.380    83663512.57249
  21893275.500   115049951.56509  21893275.560    89649329.52847
  22932015.800   120508581.23808  22932014.840    93902796.16547
  22907952.900   120382104.01908  22907952.320    93804233.72947
  21832131.080   114728712.77308  21832129.560    89399012.13748
  21216802.600   111495097.72209  21216804.720    86879316.86849
 15 02 28 01 09 30.0000000  0  6G16G18G19G21G22G27
  20429633.380   107358480.54809  20429633.280    83655973.37649
  21892639.760   115046610.24209  21892639.760    89646725.91147
  22918732.460   120438777.02307  22918731.340    93848403.29847
  22921368.340   120452602.79208  22921367.760    93859167.83047
  21819379.080   114661700.14808  21819377.480    89346794.52248
  21208604.300   111452015.54809  21208606.500    86845746.35149
 15 02 28 01 10  0.0000000  0  6G16G18G19G21G22G27
  20427892.580   107349332.61109  20427892.460    83648845.10649
  21892098.660   115043766.20409  21892098.560    89644509.79147
  22905469.560   120369080.24908  22905468.280    93794094.14547
  22934804.280   120523209.55108  22934803.800    93914186.07146
  21806697.020   114595054.78509  21806695.300    89294863.09648
  21200437.880   111409100.58509  21200440.100    86812306.12449
 15 02 28 01 10 30.0000000  0  6G16G18G19G21G22G27
  20426252.020   107340711.16009  20426251.860    83642127.08849
  21891651.920   115041418.11509  21891651.620    89642680.11847
  22892226.900   120299489.51708  22892225.540    93739867.63147
  22948260.040   120593920.52008  22948259.740    93969285.52146
  21794085.000   114528777.36309  21794083.120    89243218.37148
  21192303.100   111366351.65209  21192305.260    86778995.27649
 15 02 28 01 11  0.0000000  0  6G16G18G19G21G22G27
  20424711.640   107332615.97009  20424711.440    83635819.14049
  21891299.520   115039566.08509  21891299.140    89641236.98047
  22879004.300   120230004.19908  22879002.800    93685723.25347
  22961735.160   120664733.23808  22961734.960    94024464.24347
  21781543.220   114462869.30709  21781541.220    89191861.45648
  21184199.800   111323768.48109  21184201.900    86745813.58849
 15 02 28 01 11 30.0000000  0  6G16G18G19G21G22G27
  20423271.840   107325049.39209  20423271.640    83629923.09849
  21891041.660   115038211.15109  21891041.320    89640181.19147
  22865801.940   120160625.96207  22865800.520    93631662.32247
  22975229.720   120735647.80808  22975229.560    94079722.34646
  21769072.380   114397334.27509  21769070.340    89140795.20848
  21176128.340   111281353.06709  21176130.460    86712762.62649
 15 02 28 01 12  0.0000000  0  7G04G16G18G19G21G22G27
  24599820.800   129272934.66606  24599825.300   100732178.96645
  20421935.020   107318024.37409  20421934.760    83624449.05049
  21890880.660   115037365.40808  21890880.480    89639522.17747
  22852622.260   120091367.10307  22852621.000    93577694.40547
  22988745.700   120806674.65408  22988745.520    94135067.92846
  21756675.120   114332186.52808  21756673.200    89090030.74648
  21168091.200   111239117.98909  21168093.320    86679852.18649
 15 02 28 01 12 30.0000000  0  7G04G16G18G19G21G22G27
  24580470.460   129171249.81106  24580475.220   100652944.34044
  20420694.520   107311505.42809  20420694.160    83619369.34049
  21890809.520   115036992.27108  21890809.480    89639231.44348
  22839458.520   120022191.33508  22839457.460    93523791.24847
  23002275.860   120877775.68108  23002275.580    94190471.32246
  21744345.000   114267391.89308  21744343.220    89039541.44748
  21160081.620   111197027.29409  21160083.660    86647054.25249
 15 02 28 01 13  0.0000000  0  7G04G16G18G19G21G22G27
  24561148.540   129069714.45405  24561153.340   100573826.21344
  20419556.520   107305524.99309  20419556.160    83614709.25949
  21890834.580   115037124.27309  21890834.520    89639334.31047
  22826316.780   119953130.50308  22826316.020    93469977.63747
  23015826.040   120948981.19908  23015825.600    94245956.13246
  21732088.540   114202984.04808  21732086.820    88989353.54448
  21152105.700   111155113.25209  21152107.620    86614393.97249
 15 02 28 01 13 30.0000000  0  7G04G16G18G19G21G22G27
  24541854.040   128968323.19005  24541859.020   100494820.33344
  20418519.920   107300077.57609  20418519.560    83610464.50449
  21890954.580   115037754.85608  21890954.460    89639825.67948
  22813195.740   119884178.30708  22813195.180    93416248.68847
  23029394.580   121020283.30408  23029394.100    94301516.20046
  21719905.000   114138958.97609  21719903.180    88939463.88848
  21144162.240   111113370.01909  21144164.160    86581866.79249
 15 02 28 01 14  0.0000000  0  7G04G16G18G19G21G22G27
  24522587.220   128867075.83505  24522592.300   100415926.56843
  20417584.600   107295162.52009  20417584.240    83606634.58249
  21891169.240   115038882.86009  21891169.140    89640704.65647
  22800095.100   119815333.97208  22800094.700    93362603.79247
  23042980.860   121091679.07008  23042980.420    94357149.24647
  21707794.440   114075317.70108  21707792.560    88889873.29848
  21136251.120   111071796.97909  21136253.160    86549472.22449
 15 02 28 01 14 30.0000000  0  7G04G16G18G19G21G22G27
  24503348.380   128765974.30805  24503353.240   100337146.44644
  20416750.860   107290781.16609  20416750.440    83603220.53049
  21891478.680   115040508.91209  21891478.640    89641971.71848
  22787015.120   119746598.66208  22787014.720    93309043.85247
  23056584.760   121163167.89408  23056584.380    94412854.81346
  21695757.360   114012062.85008  21695755.520    88840583.81248
  21128372.580   111030395.40009  21128374.780    86517211.25949
 15 02 28 01 15  0.0000000  0  7G04G16G18G19G21G22G27
  24484137.420   128665019.38306  24484142.080   100258480.60444
  20416018.840   107286934.37509  20416018.400    83600223.02049
  21891882.820   115042632.68209  21891882.780    89643626.61447
  22773955.840   119677972.04008  22773955.220    93255568.59747
  23070205.960   121234748.07008  23070205.680    94468631.56946
  21683794.160   113949196.39808  21683792.420    88791596.99148
  21120526.680   110989165.54609  21120529.020    86485084.11049
 15 02 28 01 15 30.0000000  0  7G04G16G18G19G21G22G27
  24464954.580   128564213.49605  24464959.140   100179930.84343
  20415388.920   107283624.21209  20415388.520    83597643.66849
  21892382.020   115045255.84609  21892381.820    89645670.63847
  22760917.700   119609455.78908  22760916.760    93202179.34147
  23083844.400   121306419.39107  23083844.340    94524479.34247
  21671905.580   113886721.94608  21671903.860    88742915.61248
  21112713.920   110948109.44109  21112716.280    86453092.34649
 15 02 28 01 16  0.0000000  0  7G04G16G18G19G21G22G27
  24445800.060   128463558.89805  24445804.760   100101498.94343
  20414861.480   107280852.38909  20414861.100    83595483.79549
  21892976.460   115048379.24509  21892976.020    89648104.45547
  22747901.000   119541051.35208  22747899.700    93148877.20747
  23097500.020   121378181.34607  23097500.260    94580397.71846
  21660092.240   113824642.61708  21660090.480    88694542.13148
  21104934.600   110907228.82209  21104936.920    86421237.33549
 15 02 28 01 16 30.0000000  0  7G04G16G18G19G21G22G27
  24426674.000   128363053.95105  24426679.020   100023183.66442
  20414436.080   107278616.91509  20414435.740    83593741.86449
  21893665.520   115052000.41908  21893664.980    89650926.15347
  22734905.140   119472756.29608  22734903.480    93095660.30147
  23111172.160   121450029.93607  23111172.600    94636383.61846
  21648354.000   113762957.83908  21648352.140    88646476.09348
  21097188.300   110866521.51809  21097190.580    86389517.37249
 15 02 28 01 17  0.0000000  0  7G04G16G18G19G21G22G27
  24407576.240   128262696.66505  24407581.120    99944983.45643
  20414112.200   107276914.94309  20414111.920    83592415.64249
  21894448.560   115056116.13908  21894448.200    89654133.22247
  22721929.380   119404567.78408  22721927.460    93042526.42047
  23124860.040   121521960.60107  23124860.520    94692433.48146
  21636690.660   113701666.69108  21636688.780    88598716.76648
  21089474.580   110825985.04109  21089476.760    86357930.51549
 15 02 28 01 17 30.0000000  0  7G04G16G18G19G21G22G27
  24388508.020   128162493.53105  24388512.620    99866903.31944
  20413891.140   107275753.37009  20413890.940    83591510.50949
  21895326.800   115060731.76509  21895326.580    89657729.82247
  22708974.640   119336491.31108  22708972.660    92989479.83847
  23138564.340   121593976.84507  23138564.740    94748550.02046
  21625103.740   113640776.93709  21625101.860    88551270.21448
  21081794.480   110785625.47309  21081796.580    86326481.51349
 15 02 28 01 18  0.0000000  0  7G04G16G18G19G21G22G27
  24369468.920   128062442.74505  24369473.200    99788941.93144
  20413772.500   107275129.68109  20413772.280    83591024.50649
  21896299.840   115065844.65509  21896299.540    89661713.88847
  22696040.700   119268524.69508  22696038.620    92936518.84747
  23152284.260   121666074.95708  23152284.600    94804730.34446
  21613593.080   113580287.77409  21613591.260    88504135.82048
  21074147.580   110745440.69009  21074149.680    86295168.70549
 15 02 28 01 18 30.0000000  0  7G04G16G18G19G21G22G27
  24350459.260   127962547.57405  24350463.520    99711101.78444
  20413756.680   107275046.55509  20413756.420    83590959.73049
  21897367.900   115071456.80109  21897367.520    89666087.00147
  22683128.280   119200670.46908  22683126.000    92883645.43847
  23166019.960   121738255.47608  23166020.160    94860974.88246
  21602159.480   113520203.40109  21602157.640    88457316.84448
  21066534.420   110705433.51109  21066536.540    86263994.29049
 15 02 28 01 19  0.0000000  0  7G04G16G18G19G21G22G27
  24331478.820   127862806.28605  24331483.260    99633381.54044
  20413843.300   107275501.80609  20413843.000    83591314.45949
  21898530.320   115077565.06809  21898529.920    89670846.70447
  22670236.860   119132925.85408  22670234.560    92830857.45147
  23179770.700   121810514.80908  23179770.620    94917280.82746
  21590802.720   113460523.08509  21590800.780    88410812.72248
  21058954.660   110665601.70609  21058956.720    86232956.52249
 15 02 28 01 19 30.0000000  0  7G04G16G18G19G21G22G27
  24312528.540   127763221.83706  24312533.180    99555783.49344
  20414032.780   107276497.53009  20414032.460    83592090.34249
  21899787.360   115084170.82109  21899787.000    89675994.05447
  22657366.680   119065292.77308  22657364.600    92778156.37547
  23193536.320   121882852.27508  23193535.880    94973647.66346
  21579523.460   113401250.25809  21579521.380    88364626.12448
  21051408.700   110625947.62809  21051410.720    86202057.24349
 15 02 28 01 20  0.0000000  0  7G04G16G18G19G21G22G27
  24293608.580   127663796.52705  24293613.220    99478309.48544
  20414325.640   107278036.34909  20414325.200    83593289.41349
  21901139.400   115091276.01009  21901139.020    89681530.56147
  22644518.080   118997773.65208  22644516.440    92725544.08547
  23207316.920   121955268.88408  23207316.120    95030076.17346
  21568322.540   113342389.07609  21568320.320    88318760.27648
  21043896.920   110586473.58909  21043899.020    86171298.25349
 15 02 28 01 20 30.0000000  0  7G04G16G18G19G21G22G27
  24274719.160   127564532.88205  24274723.980    99400961.40843
  20414722.100   107280119.70509  20414721.660    83594912.80849
  21902586.540   115098881.50708  21902586.160    89687456.93047
  22631691.340   118930369.69008  22631690.240    92673021.54647
  23221112.400   122027764.18408  23221111.340    95086565.99546
  21557200.480   113283942.34509  21557198.220    88273217.38648
  21036419.820   110547181.46009  21036421.980    86140681.01449
 15 02 28 01 21  0.0000000  0  7G04G16G18G19G21G22G27
  24255860.040   127465429.12005  24255865.120    99323737.93044
  20415221.800   107282745.46509  20415221.400    83596958.84849
  21904128.380   115106984.50408  21904128.060    89693770.96447
  22618886.180   118863078.26408  22618885.340    92620586.66947
  23234922.000   122100333.77308  23234920.820    95143113.69646
  21546157.200   113225909.65709  21546155.040    88227997.12948
  21028977.000   110508069.07709  21028979.160    86110203.83749
 15 02 28 01 21 30.0000000  0  7G04G16G18G19G21G22G27
  24237031.560   127366485.40706  24237036.500    99246639.15644
  20415824.620   107285913.35609  20415824.280    83599427.32249
  21905764.760   115115583.78109  21905764.480    89700471.71247
  22606102.560   118795899.10208  22606101.660    92568239.29347
  23248745.200   122172975.06308  23248744.040    95199717.28246
  21535192.920   113168292.19209  21535190.940    88183100.42248
  21021568.340   110469136.36609  21021570.500    86079866.66449
 15 02 28 01 22  0.0000000  0  6G16G18G19G21G22G27
  20416530.000   107289620.22409  20416529.700    83602315.78249
  21907494.940   115124675.48109  21907494.660    89707556.16847
  22593339.820   118728829.09708  22593338.540    92515976.97247
  23262581.240   122245684.03407  23262580.200    95256373.60046
  21524307.400   113111088.49809  21524305.500    88138526.12748
  21014193.380   110430380.59509  21014195.500    86049667.36249
 15 02 28 01 22 30.0000000  0  7G04G16G18G19G21G22G27
  24199467.400   127169057.93405  24199469.220    99092781.83844
  20417340.820   107293880.98509  20417340.480    83605635.85249
  21909321.560   115134273.93709  21909321.240    89715035.48847
  22580600.480   118661882.52308  22580598.880    92463810.82947
  23276432.460   122318473.23207  23276431.540    95313092.42846
  21513503.600   113054314.24309  21513501.780    88094286.46048
  21006854.960   110391816.52009  21006856.940    86019617.43549
 15 02 28 01 23  0.0000000  0  7G04G16G18G19G21G22G27
  24180732.820   127070608.07106  24180735.320    99016067.85643
  20418255.020   107298685.23909  20418254.720    83609379.42049
  21911242.500   115144367.96709  21911242.060    89722900.97048
  22567882.620   118595049.47308  22567880.840    92411733.14447
  23290296.680   122391330.59707  23290295.880    95369864.38446
  21502779.880   112997961.06109  21502778.140    88050374.90648
  20999551.120   110353434.19009  20999553.020    85989709.13649
 15 02 28 01 23 30.0000000  0  7G04G16G18G19G21G22G27
  24162029.680   126972323.96706  24162033.040    98939483.06344
  20419272.980   107304034.98809  20419272.760    83613548.04849
  21913258.060   115154959.21309  21913257.560    89731153.89747
  22555186.500   118528331.89308  22555184.840    92359745.43547
  23304173.880   122464256.66107  23304173.220    95426689.87046
  21492137.080   112942033.17909  21492135.400    88006794.75948
  20992282.340   110315236.10209  20992284.220    85959944.39449
 15 02 28 01 24  0.0000000  0  7G04G16G18G19G21G22G27
  24143358.480   126874208.31905  24143362.520    98863029.51244
  20420395.120   107309931.84209  20420394.880    83618142.98749
  21915368.220   115166048.40709  21915367.860    89739794.83647
  22542512.600   118461731.36208  22542511.180    92307848.92847
  23318064.140   122537251.14507  23318063.660    95483568.66846
  21481575.740   112886533.27309  21481574.060    87963548.09648
  20985048.900   110277224.19209  20985050.820    85930324.73649
 15 02 28 01 24 30.0000000  0  7G04G16G18G19G21G22G27
  24124718.960   126776259.08805  24124723.440    98786705.60245
  20421621.040   107316374.03809  20421620.780    83623162.86949
  21917572.580   115177632.65209  21917572.320    89748821.52647
  22529860.680   118395245.52308  22529859.420    92256041.78347
  23331966.680   122610309.83508  23331966.380    95540497.50546
  21471095.720   112831460.23609  21471093.960    87920634.05148
  20977850.440   110239396.45809  20977852.480    85900848.58449
 15 02 28 01 25  0.0000000  0  6G16G18G19G21G22G27
  20422950.720   107323361.40609  20422950.440    83628607.56449
  21919871.100   115189711.61309  21919870.920    89758233.70448
  22517230.800   118328874.45708  22517229.560    92204324.08147
  23345881.220   122683431.18407  23345881.020    95597475.16546
  21460697.400   112776816.25409  21460695.500    87878054.32948
  20970687.180   110201753.38309  20970689.280    85871516.30549
 15 02 28 01 25 30.0000000  0  7G04G16G18G19G21G22G27
  24087536.900   126580853.20106  24087540.240    98634454.78345
  20424384.660   107330896.67009  20424384.380    83634479.19449
  21922264.100   115202286.88709  21922263.920    89768032.62548
  22504623.360   118262620.98008  22504622.060    92152698.00747
  23359807.920   122756616.33707  23359807.840    95654502.55545
  21450381.500   112722605.56309  21450379.500    87835812.23848
  20963559.760   110164298.13809  20963561.880    85842330.40349
 15 02 28 01 26  0.0000000  0  7G04G16G18G19G21G22G27
  24068995.360   126483429.66506  24068998.700    98558518.58544
  20425923.260   107338981.70209  20425922.940    83640779.20249
  21924751.860   115215360.18809  21924751.720    89778219.62548
  22492038.540   118196487.21808  22492037.260    92101165.21047
  23373746.960   122829866.23907  23373746.920    95711580.39146
  21440148.660   112668831.84709  21440146.680    87793910.65748
  20956468.520   110127033.22609  20956470.640    85813292.81149
 15 02 28 01 26 30.0000000  0  7G04G16G18G19G21G22G27
  24050485.740   126386159.00506  24050488.300    98482723.42844
  20427565.120   107347609.38009  20427564.680    83647502.06249
  21927332.920   115228923.65008  21927332.800    89788788.55047
  22479475.060   118130466.25208  22479473.820    92049720.32047
  23387696.500   122903171.20207  23387696.420    95768701.12946
  21429997.880   112615489.35109  21429995.960    87752345.08248
  20949412.200   110089951.83009  20949414.240    85784398.21749
 15 02 28 01 27  0.0000000  0  7G04G16G18G19G21G22G27
  24032009.740   126289065.44606  24032012.240    98407066.30844
  20429312.040   107356789.20909  20429311.520    83654655.17049
  21930008.800   115242985.60509  21930008.680    89799745.92647
  22466934.840   118064567.23808  22466933.480    91998370.45547
  23401658.140   122976539.60007  23401657.940    95825871.29946
  21419931.240   112562588.66409  21419929.340    87711123.79048
  20942392.620   110053063.73609  20942394.620    85755654.24949
 15 02 28 01 27 30.0000000  0  7G04G16G18G19G21G22G27
  24013566.800   126192147.48906  24013569.160    98331545.95944
  20431163.640   107366519.17309  20431163.140    83662236.95449
  21932778.980   115257543.18309  21932778.860    89811089.49347
  22454417.580   117998788.46408  22454415.980    91947114.27847
  23415631.080   123049967.68807  23415630.840    95883087.96846
  21409948.600   112510129.54209  21409946.680    87670246.56748
  20935409.460   110016367.27409  20935411.540    85727059.60349
 15 02 28 01 28  0.0000000  0  7G04G16G18G19G21G22G27
  23995157.620   126095408.27206  23995160.380    98256164.92944
  20433120.340   107376801.53309  20433119.860    83670249.17049
  21935643.880   115272598.48609  21935643.760    89822820.90747
  22441923.720   117933132.40508  22441921.900    91895953.73147
  23429615.460   123123456.48407  23429615.280    95940351.93546
  21400050.820   112458116.29909  21400048.800    87629716.78348
  20928463.360   109979865.64009  20928465.540    85698616.77649
 15 02 28 01 28 30.0000000  0  7G04G16G18G19G21G22G27
  23976781.680   125998843.75506  23976784.760    98180920.01144
  20435181.100   107387631.14709  20435180.680    83678687.82249
  21938602.400   115288145.81108  21938602.260    89834935.70747
  22429452.280   117867594.52508  22429450.360    91844885.26547
  23443610.040   123196999.28407  23443609.960    95997657.99046
  21390237.160   112406545.40709  21390235.060    87589531.68948
  20921553.420   109943554.33509  20921555.680    85670322.25549
 15 02 28 01 29  0.0000000  0  7G04G16G18G19G21G22G27
  23958439.740   125902457.00106  23958442.920    98105813.56744
  20437346.420   107399010.43709  20437346.060    83687554.79149
  21941654.820   115304186.74108  21941654.700    89847435.14747
  22417003.740   117802177.26808  22417001.800    91793910.78147
  23457615.020   123270597.09107  23457615.140    96055006.91445
  21380508.320   112355420.73309  21380506.300    87549694.28948
  20914680.240   109907436.16709  20914682.500    85642178.22949
 15 02 28 01 29 30.0000000  0  7G04G16G18G19G21G22G27
  23940131.960   125806248.91206  23940134.920    98030846.37344
  20439616.480   107410939.92509  20439616.140    83696850.48749
  21944801.080   115320720.86708  21944800.900    89860318.88447
  22404578.220   117736881.03508  22404576.360    91743030.61047
  23471630.160   123344248.26607  23471630.440    96112397.42546
  21370864.740   112304743.94509  21370862.900    87510205.89348
  20907844.000   109871511.93009  20907846.280    85614185.31549
 15 02 28 01 30  0.0000000  0  7G04G16G18G19G21G22G27
  23921858.540   125710220.60106  23921861.160    97956019.26544
  20441991.260   107423419.52509  20441990.880    83706574.84149
  21948041.120   115337747.65508  21948040.900    89873586.50948
  22392175.760   117671705.98608  22392173.980    91692244.86847
  23485655.420   123417952.02707  23485655.740    96169828.90746
  21361306.840   112254517.07509  21361305.160    87471068.08948
  20901044.960   109835782.34409  20901047.160    85586344.07849
 15 02 28 01 30 30.0000000  0  7G04G16G18G19G21G22G27
  23903619.180   125614371.07406  23903621.480    97881331.48644
  20444470.320   107436447.21809  20444469.960    83716726.28649
  21951374.440   115355264.33309  21951374.260    89887235.87247
  22379796.240   117606651.16708  22379794.520    91641552.81947
  23499690.140   123491705.38607  23499690.400    96227299.03546
  21351834.560   112204739.92409  21351832.960    87432280.71348
  20894282.800   109800246.53609  20894284.960    85558653.83849
 15 02 28 01 31  0.0000000  0  7G04G16G18G19G21G22G27
  23885414.720   125518705.37707  23885416.880    97806786.93244
  20447054.660   107450027.93509  20447054.220    83727308.65749
  21954801.780   115373274.71109  21954801.560    89901269.93748
  22367440.480   117541720.84708  22367438.720    91590957.78747
  23513734.880   123565510.91607  23513734.980    96284809.82545
  21342449.040   112155418.17409  21342447.420    87393848.19048
  20887558.440   109764909.27309  20887560.540    85531118.31049
 15 02 28 01 31 30.0000000  0  7G04G16G18G19G21G22G27
  23867244.720   125423220.71207  23867246.960    97732383.43244
  20449743.440   107464157.53509  20449742.980    83738318.72449
  21958322.260   115391774.77208  21958322.040    89915685.56947
  22355107.740   117476911.91908  22355105.940    91540457.34447
  23527788.800   123639363.96307  23527788.720    96342357.62746
  21333149.820   112106549.88009  21333148.120    87355769.01948
  20880871.320   109729767.79509  20880873.420    85503735.34049
 15 02 28 01 32  0.0000000  0  7G04G16G18G19G21G22G27
  23849110.060   125327922.31007  23849112.480    97658125.06044
  20452537.560   107478840.58009  20452537.140    83749760.04449
  21961936.540   115410767.85708  21961936.240    89930485.37647
  22342798.960   117412229.33408  22342797.240    91490055.33947
  23541852.260   123713267.14507  23541852.020    96399944.50045
  21323938.020   112058141.28709  21323936.260    87318048.05048
  20874222.380   109694827.09809  20874224.440    85476508.82149
 15 02 28 01 32 30.0000000  0  8G04G07G16G18G19G21G22G27
  23831013.700   125232826.78306  23831016.480    97584024.76244
  24540694.880   128962225.90106  24540694.660   100490045.14944
  20455440.020   107494092.78709  20455439.640    83761644.87049
  21965647.560   115430269.08909  21965647.100    89945681.14147
  22330517.120   117347688.60708  22330515.580    91439763.86947
  23555928.140   123787235.05707  23555927.700    96457581.80745
  21314816.900   112010209.47809  21314815.060    87280698.60448
  20867614.760   109660103.65009  20867616.760    85449451.59549
 15 02 28 01 33  0.0000000  0  8G04G07G16G18G19G21G22G27
  23812946.960   125137878.53706  23812951.800    97510052.27244
  24535775.320   128936371.82306  24535775.600   100469899.09044
  20458443.400   107509875.22409  20458443.000    83773942.86549
  21969447.880   115450239.38809  21969447.320    89961242.41747
  22318255.180   117283252.13808  22318253.820    91389553.65147
  23570008.780   123861228.09007  23570008.200    96515238.69945
  21305779.440   111962717.31609  21305777.520    87243691.73948
  20861041.320   109625559.69809  20861043.240    85422534.23449
 15 02 28 01 33 30.0000000  0  8G04G07G16G18G19G21G22G27
  23794918.140   125043137.61806  23794922.700    97436228.27445
  24530955.200   128911040.62306  24530955.760   100450160.44844
  20461552.060   107526211.11909  20461551.600    83786672.12849
  21973341.580   115470701.08208  21973341.080    89977186.59047
  22306017.560   117218943.58108  22306016.380    91339443.11048
  23584098.320   123935268.28707  23584097.600    96572932.33745
  21296830.540   111915690.26309  21296828.480    87207047.29148
  20854506.600   109591219.25009  20854508.480    85395775.44949
 15 02 28 01 34  0.0000000  0  8G04G07G16G18G19G21G22G27
  23776925.300   124948583.77206  23776929.300    97362550.09245
  24526234.000   128886229.64906  24526234.880   100430827.19644
  20464765.580   107543098.10509  20464765.080    83799830.81049
  21977328.060   115491650.54408  21977327.680    89993510.85647
  22293803.760   117154759.91508  22293802.600    91289429.89547
  23598195.820   124009350.97607  23598195.100    96630659.08746
  21287969.800   111869126.42209  21287967.620    87170763.78648
  20848010.140   109557079.89109  20848011.980    85369173.34949
 15 02 28 01 34 30.0000000  0  8G04G07G16G18G19G21G22G27
  23758969.060   124854223.22806  23758972.780    97289022.50644
  24521612.600   128861944.01706  24521614.040   100411903.36045
  20468084.860   107560541.01809  20468084.360    83813422.67649
  21981408.260   115513092.48608  21981407.940    90010218.86747
  22281614.920   117090707.23608  22281613.700    91239518.74148
  23612302.260   124083480.74707  23612301.540    96688422.54345
  21279198.540   111823033.01009  21279196.280    87134846.85248
  20841553.160   109523148.01409  20841555.000    85342732.92649
 15 02 28 01 35  0.0000000  0  8G04G07G16G18G19G21G22G27
  23741048.340   124760048.67007  23741051.600    97215639.86244
  24517089.760   128838175.96006  24517091.320   100393382.79444
  20471508.220   107578531.09909  20471507.760    83827440.90849
  21985580.520   115535017.64508  21985580.100    90027303.40947
  22269449.560   117026777.72708  22269448.180    91189703.54647
  23626415.740   124157647.74606  23626415.100    96746214.98345
  21270515.420   111777403.02809  21270513.140    87099291.03648
  20835134.100   109489415.83609  20835135.980    85316448.12449
 15 02 28 01 35 30.0000000  0  8G04G07G16G18G19G21G22G27
  23723164.400   124666066.60507  23723167.140    97142407.17245
  24512666.460   128814931.28506  24512667.960   100375270.03645
  20475036.800   107597074.11709  20475036.380    83841890.00149
  21989845.520   115557430.58408  21989845.120    90044768.03947
  22257308.940   116962977.53508  22257307.300    91139989.11647
  23640537.180   124231856.38506  23640536.640    96804039.85645
  21261921.860   111732243.83009  21261919.600    87064102.06548
  20828754.260   109455890.03709  20828756.220    85290324.12549
 15 02 28 01 36  0.0000000  0  8G04G07G16G18G19G21G22G27
  23705317.000   124572276.54707  23705319.340    97069324.10844
  24508342.580   128792208.90606  24508343.900   100357564.25144
  20478670.400   107616168.86909  20478670.060    83856769.02249
  21994203.000   115580329.50408  21994202.700    90062611.35947
  22245192.720   116899305.78008  22245191.040    91090374.77248
  23654666.060   124306104.36006  23654665.720    96861895.41145
  21253417.880   111687555.50009  21253415.740    87029279.99848
  20822413.580   109422570.06909  20822415.620    85264360.51649
 15 02 28 01 36 30.0000000  0  8G04G07G16G18G19G21G22G27
  23687506.440   124478680.47707  23687508.380    96996392.20245
  24504118.340   128770010.28805  24504119.180   100340266.61745
  20482409.200   107635816.26109  20482408.880    83872078.66449
  21998653.140   115603715.24708  21998653.020    90080834.01847
  22233101.180   116835763.80408  22233099.640    91040861.55648
  23668802.400   124380391.80106  23668802.220    96919781.69045
  21245003.980   111643340.84809  21245002.040    86994827.03548
  20816112.480   109389457.96509  20816114.560    85238558.88249
 15 02 28 01 37  0.0000000  0  8G04G07G16G18G19G21G22G27
  23669732.720   124385278.29907  23669734.520    96923611.41744
  24499993.320   128748334.49405  24499993.860   100323376.32245
  20486252.780   107656014.80709  20486252.520    83887817.77949
  22003195.580   115627585.94408  22003195.580    90099434.56547
  22221034.200   116772351.51208  22221032.920    90991449.39748
  23682945.800   124454716.44006  23682945.720    96977696.98045
  21236680.200   111599600.21109  21236678.500    86960743.43648
  20809850.960   109356553.56309  20809853.060    85212919.08849
 15 02 28 01 37 30.0000000  0  8G04G07G16G18G19G21G22G27
  23651996.080   124292072.21207  23651997.900    96850983.40444
  24495967.860   128727182.93705  24495968.440   100306894.60944
  20490201.460   107676765.79409  20490201.260    83903987.36949
  22007830.320   115651941.65608  22007830.360    90118413.04847
  22208992.180   116709070.68208  22208991.120    90942139.67848
  23697096.280   124529078.28506  23697096.180    97035641.24445
  21228447.340   111556336.83409  21228445.760    86927031.72548
  20803629.360   109323858.93409  20803631.500    85187442.75649
 15 02 28 01 38  0.0000000  0  8G04G07G16G18G19G21G22G27
  23634296.320   124199060.24207  23634298.140    96778506.63245
  24492041.800   128706552.75805  24492042.620   100290819.11345
  20494254.800   107698066.29509  20494254.660    83920585.14949
  22012556.680   115676778.89308  22012556.680    90137766.74147
  22196974.680   116645918.80808  22196973.760    90892930.45048
  23711253.200   124603473.35406  23711253.040    97093611.38145
  21220305.080   111513548.99509  21220303.480    86893690.56448
  20797447.320   109291372.15509  20797449.500    85162128.38149
 15 02 28 01 38 30.0000000  0  8G04G07G16G18G19G21G22G27
  23616633.580   124106243.06707  23616635.360    96706181.64744
  24488215.340   128686444.13105  24488216.380   100275150.05244
  20498412.720   107719916.14609  20498412.600    83937610.99349
  22017374.400   115702096.50308  22017374.380    90157494.75347
  22184981.820   116582896.77308  22184981.040    90843822.39148
  23725416.400   124677900.66606  23725416.180    97151606.66245
  21212253.680   111471238.12709  21212252.000    86860721.06548
  20791304.960   109259094.01409  20791307.140    85136976.58249
 15 02 28 01 39  0.0000000  0  8G04G07G16G18G19G21G22G27
  23599008.340   124013623.03607  23599010.180    96634010.27845
  24484488.680   128666858.58205  24484489.740   100259888.58843
  20502675.380   107742316.61809  20502675.280    83955065.89249
  22022283.680   115727895.40808  22022283.740    90177597.80147
  22173014.140   116520006.41908  22173013.340    90794816.93948
  23739585.780   124752360.47706  23739585.520    97209627.28045
  21204293.660   111429407.44509  21204291.880    86828125.74548
  20785202.800   109227026.87609  20785204.960    85111989.21249
 15 02 28 01 39 30.0000000  0  8G04G07G16G18G19G21G22G27
  23581421.100   123921202.28607  23581423.000    96561994.19145
  24480861.920   128647797.47305  24480862.820   100245035.74344
  20507043.000   107765268.48409  20507042.800    83972950.45349
  22027284.660   115754175.99808  22027284.800    90198076.18447
  22161071.900   116457249.06508  22161070.940    90745915.12348
  23753761.280   124826852.92006  23753761.000    97267673.32745
  21196425.460   111388059.19709  21196423.500    86795906.34548
  20779141.160   109195172.85009  20779143.340    85087167.89249
 15 02 28 01 40  0.0000000  0  8G04G07G16G18G19G21G22G27
  23563872.500   123828984.55306  23563874.580    96490136.32245
  24477335.000   128629263.64804  24477335.940   100230593.80044
  20511516.020   107788773.99309  20511515.700    83991266.42349
  22032377.760   115780940.14608  22032377.860    90218931.37547
  22149155.780   116394628.32808  22149154.560    90697119.75448
  23767943.200   124901379.56006  23767942.920    97325746.01945
  21188649.880   111347197.73309  21188647.800    86764066.25448
  20773120.800   109163535.50309  20773122.920    85062515.41949
 15 02 28 01 40 30.0000000  0  8G04G07G16G18G19G21G22G27
  23546362.020   123736967.21107  23546364.320    96418434.56845
  24473907.440   128611253.28104  24473908.620   100216559.75546
  20516093.740   107812829.69809  20516093.400    84010011.11249
  22037562.000   115808183.17208  22037562.000    90240159.71947
  22137265.200   116332141.63108  22137263.720    90648428.83148
  23782130.780   124975935.93006  23782130.520    97383841.86545
  21180966.480   111306820.99209  21180964.280    86732603.85848
  20767141.220   109132112.44009  20767143.300    85038029.92649
 15 02 28 01 41  0.0000000  0  8G04G07G16G18G19G21G22G27
  23528889.920   123645151.50407  23528892.360    96346889.95045
  24470579.620   128593767.24504  24470581.200   100202934.23244
  20520776.200   107837435.93609  20520775.860    84029184.79649
  22042837.280   115835904.83008  22042837.220    90261761.01547
  22125400.120   116269789.69508  22125398.500    90599842.91748
  23796323.960   125050521.43906  23796323.700    97441960.40145
  21173375.660   111266931.27909  21173373.520    86701520.96948
  20761202.700   109100905.06309  20761204.720    85013712.49749
 15 02 28 01 41 30.0000000  0  8G04G07G16G18G19G21G22G27
  23511455.640   123553534.39407  23511458.080    96275500.08645
  24467351.040   128576801.71504  24467352.760   100189714.29745
  20525562.620   107862588.45709  20525562.240    84048784.15349
  22048202.740   115864100.56208  22048202.720    90283731.72847
  22113560.000   116207569.56508  22113558.320    90551359.70748
  23810521.800   125125131.34506  23810521.580    97500097.97344
  21165876.920   111227525.80709  21165874.980    86670815.41648
  20755304.600   109069910.39109  20755306.640    84989560.80549
 15 02 28 01 42  0.0000000  0  8G04G07G16G18G19G21G22G27
  23494060.060   123462119.82007  23494062.280    96204268.02045
  24464222.340   128560359.54205  24464224.000   100176902.24144
  20530453.380   107888289.58509  20530452.980    84068810.99349
  22053658.780   115892772.17009  22053658.780    90306073.24647
  22101745.400   116145484.44508  22101743.860    90502981.70448
  23824724.600   125199767.37606  23824724.540    97558255.89945
  21158471.200   111188608.77409  21158469.360    86640490.46248
  20749447.660   109039132.18409  20749449.780    84965577.79149
 15 02 28 01 42 30.0000000  0  8G04G07G16G18G19G21G22G27
  23476702.860   123370906.86107  23476704.860    96133193.07145
  24461193.200   128544438.88605  24461194.460   100164496.48643
  20535448.140   107914537.38109  20535447.780    84089263.81149
  22059205.000   115921917.41909  22059204.920    90328783.83047
  22089956.280   116083533.49908  22089954.880    90454708.26448
  23838931.940   125274427.14206  23838932.040    97616432.30745
  21151158.580   111150180.38709  21151156.680    86610546.27448
  20743631.840   109008570.04009  20743634.020    84941763.14049
 15 02 28 01 43  0.0000000  0  8G04G07G16G18G19G21G22G27
  23459384.980   123279901.00807  23459386.880    96062279.48345
  24458264.040   128529044.06305  24458265.000   100152500.49844
  20540547.720   107941335.96709  20540547.420    84110145.81449
  22064841.920   115951539.22609  22064841.680    90351865.76047
  22078193.700   116021721.75408  22078192.380    90406543.29548
  23853144.380   125349113.70006  23853144.400    97674629.60746
  21143939.960   111112245.80709  21143937.980    86580986.86848
  20737858.120   108978229.09509  20737860.300    84918120.85049
 15 02 28 01 43 30.0000000  0  8G04G07G16G18G19G21G22G27
  23442106.620   123189102.94207  23442108.460    95991527.82545
  24455434.620   128514175.17405  24455435.640   100140914.38144
  20545752.120   107968685.43409  20545751.880    84131457.07349
  22070569.400   115981637.27608  22070569.100    90375318.79047
  22066457.980   115960050.16608  22066456.600    90358487.53048
  23867361.760   125423826.36506  23867361.800    97732847.21945
  21136815.620   111074806.92709  21136813.620    86551813.72948
  20732126.720   108948110.57909  20732128.880    84894651.87949
 15 02 28 01 44  0.0000000  0  8G04G07G16G18G19G21G22G27
  23424867.620   123098511.78707  23424869.420    95920937.37845
  24452704.880   128499830.31205  24452705.980   100129736.59144
  20551060.880   107996583.21709  20551060.700    84153195.59249
  22076386.860   116012208.39808  22076386.560    90399140.45547
  22054748.740   115898517.42108  22054747.260    90310539.94948
  23881583.600   125498562.32406  23881583.440    97791082.99645
  21129785.380   111037862.92109  21129783.400    86523026.19848
  20726437.440   108918213.46309  20726439.660    84871355.42949
 15 02 28 01 44 30.0000000  0  8G04G07G16G18G19G21G22G27
  23407668.200   123008128.36407  23407670.100    95850508.80245
  24450074.740   128486009.45305  24450076.100   100118967.09545
  20556473.940   108025028.96609  20556473.760    84175361.10149
  22082294.240   116043251.78708  22082293.900    90423330.11947
  22043066.040   115837124.01408  22043064.440    90262700.94748
  23895809.660   125573320.63706  23895809.520    97849336.21345
  21122849.560   111001415.42509  21122847.640    86494625.55648
  20720790.560   108888538.81909  20720792.780    84848232.33049
 15 02 28 01 45  0.0000000  0  8G04G07G16G18G19G21G22G27
  23390508.340   122917952.65507  23390510.320    95780242.09144
  24447544.100   128472711.14705  24447545.020   100108604.74544
  20561990.940   108054020.82509  20561990.760    84197952.14449
  22088291.080   116074765.43108  22088290.700    90447886.20947
  22031409.800   115775869.71208  22031408.100    90214970.33748
  23910039.480   125648098.98206  23910039.460    97907605.02345
  21116008.220   110965464.47609  21116006.360    86466611.83848
  20715186.080   108859086.51809  20715188.200    84825282.49349
 15 02 28 01 45 30.0000000  0  8G04G07G16G18G19G21G22G27
  23373388.540   122827987.86607  23373390.640    95710139.72245
  24445113.260   128459937.92705  24445113.560   100098651.58744
  20567612.400   108083561.44809  20567612.160    84220970.79849
  22094377.640   116106750.61109  22094377.280    90472809.73147
  22019780.640   115714757.84308  22019778.900    90167350.71348
  23924273.400   125722899.37006  23924273.420    97965891.02344
  21109262.160   110930014.09409  21109260.320    86438988.17548
  20709624.540   108829860.23409  20709626.680    84802508.77349
 15 02 28 01 46  0.0000000  0  8G04G07G16G18G19G21G22G27
  23356308.240   122738231.25307  23356310.560    95640199.57045
  24442781.720   128447686.12905  24442781.860   100089104.70944
  20573337.380   108113646.22609  20573337.040    84244413.46949
  22100553.080   116139202.58108  22100552.740    90498096.99047
  22008178.040   115653785.40408  22008176.260    90119839.74148
  23938510.540   125797717.41205  23938510.800    98024190.76345
  21102610.880   110895061.48709  21102609.040    86411752.39048
  20704105.420   108800857.23609  20704107.640    84779909.03949
 15 02 28 01 46 30.0000000  0  8G04G07G16G18G19G21G22G27
  23339268.000   122648685.07307  23339270.480    95570423.38545
  24440549.820   128435957.22605  24440550.060   100079965.29045
  20579166.040   108144276.20109  20579165.700    84268280.96849
  22106817.480   116172122.15908  22106817.180    90523748.61847
  21996602.400   115592954.48708  21996600.540    90072439.04448
  23952751.080   125872552.98206  23952751.480    98082504.18045
  21096054.940   110860609.70809  21096053.060    86384906.86248
  20698629.300   108772080.01509  20698631.480    84757485.22949
 15 02 28 01 47  0.0000000  0  8G04G07G16G18G19G21G22G27
  23322268.380   122559351.92207  23322270.860    95500813.19145
  24438417.380   128424752.11905  24438418.420   100071234.04844
  20585098.820   108175453.21009  20585098.480    84292574.72649
  22113170.980   116205510.08008  22113170.620    90549765.19247
  21985054.100   115532267.71708  21985052.240    90025150.67148
  23966995.280   125947407.28406  23966995.680    98140832.18345
  21089594.900   110826661.63209  21089592.940    86358453.82748
  20693196.680   108743531.44109  20693198.840    84735239.59549
 15 02 28 01 47 30.0000000  0  8G04G07G16G18G19G21G22G27
  23305308.600   122470227.65507  23305311.140    95431365.75945
  24436383.720   128414065.85505  24436385.540   100062907.06444
  20591134.600   108207171.28009  20591134.240    84317290.09749
  22119612.420   116239360.37508  22119612.040    90576142.04147
  21973532.300   115471720.93708  21973530.560    89977971.37748
  23981242.080   126022274.53106  23981242.420    98199170.28345
  21083230.040   110793213.77009  21083228.020    86332390.56248
  20687806.760   108715207.55109  20687808.920    84713169.03149
 15 02 28 01 48  0.0000000  0  8G04G07G16G18G19G21G22G27
  23288389.740   122381318.18907  23288392.420    95362085.72945
  24434449.800   128403903.04706  24434451.920   100054987.99944
  20597274.120   108239434.62509  20597273.760    84342430.35249
  22126142.500   116273676.40608  22126142.160    90602881.81147
  21962038.060   115411319.33908  21962036.520    89930905.22148
  23995492.100   126097158.09306  23995492.380    98257521.07244
  21076961.400   110760271.93909  21076959.440    86306721.61948
  20682460.720   108687114.12409  20682462.880    84691278.04949
 15 02 28 01 48 30.0000000  0  8G04G07G16G18G19G21G22G27
  23271511.300   122292620.86207  23271513.960    95292971.00345
  24432614.980   128394260.38306  24432617.140   100047474.24545
  20603516.700   108272239.65209  20603516.400    84367992.70049
  22132760.360   116308454.05408  22132760.200    90629981.27847
  21950571.100   115351060.87208  21950569.720    89883950.59048
  24009744.680   126172054.69006  24009744.920    98315882.04045
  21070788.740   110727834.36909  21070786.780    86281445.59048
  20677158.200   108659249.13809  20677160.400    84669565.08149
 15 02 28 01 49  0.0000000  0  8G04G07G16G18G19G21G22G27
  23254674.140   122204140.62907  23254676.600    95224025.40445
  24430879.740   128385141.03306  24430881.440   100040368.27544
  20609862.920   108305589.47609  20609862.720    84393979.56249
  22139466.620   116343696.09108  22139466.660    90657442.61547
  21939132.380   115290950.04008  21939131.000    89837111.00148
  24024000.180   126246966.50306  24024000.340    98374254.85245
  21064712.900   110695905.77409  21064710.900    86256566.17648
  20671900.120   108631617.51809  20671902.320    84648033.95549
 15 02 28 01 49 30.0000000  0  8G04G07G16G18G19G21G22G27
  23237878.840   122115881.52807  23237881.340    95155252.14045
  24429244.820   128376548.36206  24429246.000   100033672.68145
  20616313.460   108339487.37109  20616313.280    84420393.49649
  22146261.800   116379404.88708  22146261.820    90685267.65947
  21927722.580   115230990.94708  21927721.120    89790389.64648
  24038259.160   126321896.89506  24038259.260    98432642.14444
  21058734.740   110664490.43909  21058732.680    86232086.70248
  20666687.320   108604223.73509  20666689.440    84626688.14449
 15 02 28 01 50  0.0000000  0  8G04G07G16G18G19G21G22G27
  23221123.880   122027834.79107  23221126.480    95086644.33845
  24427708.080   128368472.45806  24427709.060   100027379.76644
  20622866.300   108373922.79909  20622866.100    84447226.28449
  22153143.820   116415569.86508  22153143.760    90713448.16647
  21916339.980   115171174.81208  21916338.360    89743779.68348
  24052519.460   126396835.28805  24052519.400    98491035.66845
  21052852.820   110633580.70909  21052850.700    86208001.20248
  20661518.080   108577059.14309  20661520.160    84605520.93549
 15 02 28 01 50 30.0000000  0  8G04G07G16G18G19G21G22G27
  23204410.100   121940003.94107  23204412.620    95018204.78845
  24426270.120   128360915.35906  24426270.960   100021491.09245
  20629521.760   108408897.68209  20629521.600    84474479.43249
  22160112.860   116452192.19708  22160112.760    90741985.04747
  21904985.180   115111505.05608  21904983.400    89697283.79048
  24066781.480   126471783.24705  24066781.520    98549436.64944
  21047067.720   110603180.00109  21047065.640    86184312.35148
  20656393.080   108550127.43309  20656395.220    84584535.19849
 15 02 28 01 51  0.0000000  0  8G04G07G16G18G19G21G22G27
  23187737.840   121852390.27907  23187740.120    94949934.45745
  24424930.800   128353877.44306  24424931.780   100016007.02945
  20636279.820   108444411.36409  20636279.680    84502152.41749
  22167168.860   116489271.33308  22167168.640    90770877.87947
  21893658.500   115051983.07508  21893656.620    89650903.02948
  24081045.360   126546740.61106  24081045.500    98607844.93945
  21041379.820   110573290.00309  21041377.840    86161021.45749
  20651312.740   108523430.37109  20651314.900    84563732.29249
 15 02 28 01 51 30.0000000  0  8G04G07G16G18G19G21G22G27
  23171107.320   121764995.54507  23171109.480    94881834.72046
  24423690.460   128347359.54606  24423691.660   100010928.16944
  20643140.640   108480464.94409  20643140.500    84530246.10249
  22174311.700   116526807.09208  22174311.400    90800126.52447
  21882360.300   114992610.47308  21882358.400    89604638.67648
  24095311.160   126621707.12106  24095311.200    98666260.39344
  21035789.420   110543912.54109  21035787.580    86138129.93949
  20646277.460   108496969.80709  20646279.600    84543113.66649
 15 02 28 01 52  0.0000000  0  8G04G07G16G18G19G21G22G27
  23154518.860   121677822.59907  23154521.080    94813907.81946
  24422549.220   128341362.71505  24422550.380   100006255.32045
  20650104.500   108517059.92509  20650104.320    84558761.66249
  22181541.440   116564799.91108  22181541.200    90829731.32047
  21871091.080   114933389.95408  21871089.180    89558492.84248
  24109579.040   126696684.05406  24109578.820    98724683.98243
  21030297.140   110515050.55409  21030295.360    86115640.09049
  20641287.860   108470748.91109  20641289.940    84522681.79849
 15 02 28 01 52 30.0000000  0  8G04G07G16G18G19G21G22G27
  23137971.920   121590869.57107  23137974.460    94746152.26646
  24421506.740   128335883.89706  24421507.600   100001986.14644
  20657170.560   108554192.29009  20657170.340    84587695.96449
  22188857.520   116603246.73808  22188857.440    90859689.89947
  21859850.480   114874320.15008  21859848.620    89512464.43248
  24123848.380   126771668.36506  24123847.960    98783113.30344
  21024902.720   110486702.59109  21024900.900    86093550.78048
  20636343.520   108444766.22109  20636345.560    84502435.54849
 15 02 28 01 53  0.0000000  0  8G04G07G16G18G19G21G22G27
  23121466.940   121504136.82407  23121469.640    94678568.36046
  24420562.700   128330922.23106  24420563.260    99998119.87645
  20664338.740   108591861.17009  20664338.540    84617048.32249
  22196259.680   116642145.70908  22196259.740    90890000.78847
  21848638.520   114815401.18108  21848636.740    89466553.55948
  24138118.760   126846658.95106  24138118.200    98841547.48345
  21019606.300   110458869.50609  21019604.400    86071862.66849
  20631444.660   108419022.32809  20631446.640    84482375.37349
 15 02 28 01 53 30.0000000  0  8G04G07G16G18G19G21G22G27
  23105004.680   121417626.88807  23105007.100    94611158.08845
  24419717.140   128326478.97805  24419717.420    99994657.57044
  20671609.140   108630067.21109  20671609.000    84646819.25149
  22203748.040   116681497.39808  22203748.100    90920664.43847
  21837455.700   114756635.60608  21837454.080    89420762.21948
  24152390.200   126921656.48105  24152389.700    98899987.10944
  21014408.340   110431553.82409  21014406.360    86050577.72748
  20626591.800   108393520.09009  20626593.740    84462503.50649
 15 02 28 01 54  0.0000000  0  8G04G07G16G18G19G21G22G27
  23088585.160   121331340.82207  23088587.140    94543922.24345
  24418969.880   128322553.99705  24418970.480    99991599.16445
  20678981.700   108668810.10009  20678981.580    84677008.50249
  22211322.340   116721300.75308  22211322.260    90951680.03647
  21826302.240   114698024.58008  21826300.840    89375091.30748
  24166662.740   126996660.47305  24166662.360    98958431.74745
  21009309.020   110404756.80609  21009307.020    86029696.94449
  20621785.220   108368261.00309  20621787.100    84442821.11049
 15 02 28 01 54 30.0000000  0  8G04G07G16G18G19G21G22G27
  23072207.540   121245275.45107  23072209.360    94476858.37746
  24418320.840   128319142.92706  24418321.500    99988941.18144
  20686455.500   108708085.04209  20686455.360    84707612.34349
  22218981.460   116761550.13908  22218981.280    90983043.19847
  21815177.560   114639564.70108  21815176.360    89329538.17248
  24180935.580   127071665.69105  24180935.320    99016877.36344
  21004307.740   110378475.35409  21004305.800    86009217.90548
  20617024.260   108343241.94409  20617026.140    84423325.74049
 15 02 28 01 55  0.0000000  0  8G04G07G16G18G19G21G22G27
  23055872.480   121159434.39707  23055874.400    94409969.28946
  24417770.220   128316247.88906  24417770.940    99986685.30544
  20694030.980   108747894.45809  20694030.800    84738632.65349
  22226725.840   116802247.14908  22226725.600    91014755.16047
  21804082.540   114581260.19008  21804081.420    89284106.10248
  24195209.340   127146674.70705  24195209.140    99075325.92045
  20999405.300   110352713.30509  20999403.440    85989143.58749
  20612309.720   108318466.99609  20612311.560    84404020.59349
 15 02 28 01 55 30.0000000  0  8G04G07G16G18G19G21G22G27
  23039582.600   121073830.99907  23039584.660    94343265.39846
  24417320.020   128313880.80306  24417320.840    99984840.80444
  20701710.300   108788249.78309  20701710.140    84770078.35349
  22234557.640   116843403.53508  22234557.400    91046825.06647
  21793019.620   114523124.18208  21793018.540    89238805.33248
  24209486.120   127221699.42105  24209486.060    99133786.74744
  20994604.360   110327484.35209  20994602.520    85969484.67349
  20607644.220   108293949.87209  20607646.040    84384916.33749
 15 02 28 01 56  0.0000000  0  9G04G07G11G16G18G19G21G22G27
  23023327.860   120988412.58807  23023329.980    94276705.63946
  24416959.820   128311987.65305  24416960.560    99983365.62244
  24684798.820   129719474.63105  24684797.540   101080124.61242
  20709483.100   108829096.21709  20709482.920    84801906.72449
  22242466.460   116884964.72308  22242466.260    91079210.39947
  21781978.840   114465104.15308  21781977.740    89193594.93048
  24223755.560   127296685.85005  24223755.880    99192217.65344
  20989894.940   110302735.87809  20989893.040    85950200.16049
  20603017.780   108269638.26209  20603019.700    84365972.22849
 15 02 28 01 56 30.0000000  0  9G04G07G11G16G18G19G21G22G27
  23007121.240   120903247.03007  23007123.360    94210342.91345
  24416702.060   128310634.89405  24416703.140    99982311.53044
  24667351.620   129627787.15006  24667350.200   101008679.95144
  20717362.180   108870500.90409  20717361.940    84834170.09949
  22250464.800   116926996.40708  22250464.640    91111962.35847
  21770973.100   114407268.04708  21770971.920    89148527.84948
  24238030.320   127371699.93105  24238030.680    99250670.15945
  20985289.940   110278535.74909  20985287.900    85931342.92749
  20598443.440   108245600.40109  20598445.460    84347241.42649
 15 02 28 01 57  0.0000000  0  9G04G07G11G16G18G19G21G22G27
  22990958.180   120818309.72607  22990960.200    94144158.06045
  24416542.320   128309796.86805  24416543.580    99981658.53344
  24649920.260   129536184.69006  24649919.140   100937301.54044
  20725342.400   108912437.22309  20725342.160    84866847.73749
  22258547.660   116969471.75708  22258547.460    91145060.03047
  21759997.660   114349591.16408  21759996.400    89103584.83148
  24252305.460   127446715.87005  24252305.720    99309124.12345
  20980784.540   110254859.19209  20980782.320    85912893.66649
  20593916.640   108221812.19009  20593918.720    84328705.16849
 15 02 28 01 57 30.0000000  0  9G04G07G11G16G18G19G21G22G27
  22974839.140   120733602.72408  22974840.900    94078152.64345
  24416480.720   128309473.84105  24416481.880    99981406.78344
  24632504.720   129444669.10905  24632504.460   100865990.79244
  20733423.860   108954905.35309  20733423.600    84899939.78049
  22266715.020   117012390.78008  22266714.780    91178503.41847
  21749053.020   114292076.25908  21749051.700    89058768.03048
  24266581.060   127521734.34405  24266581.100    99367580.07744
  20976379.280   110231709.18909  20976376.940    85894854.70749
  20589437.800   108198275.89509  20589439.960    84310365.20049
 15 02 28 01 58  0.0000000  0  9G04G07G11G16G18G19G21G22G27
  22958764.180   120649126.85208  22958765.660    94012327.33545
  24416517.060   128309665.26305  24416517.780    99981555.92342
  24615105.340   129353241.33805  24615105.900   100794748.42544
  20741606.280   108997904.01109  20741605.980    84933445.21049
  22274966.540   117055752.40308  22274966.280    91212291.69047
  21738139.300   114234724.14408  21738137.960    89014078.08148
  24280856.960   127596754.44806  24280856.680    99426037.29244
  20972074.300   110209086.38809  20972071.900    85877226.56449
  20585007.200   108174992.79609  20585009.380    84292222.51949
 15 02 28 01 58 30.0000000  0  9G04G07G11G16G18G19G21G22G27
  22942731.900   120564876.78307  22942733.500    93946677.97446
  24416650.220   128310364.36405  24416650.440    99982100.67144
  24597721.900   129261895.35506  24597722.780   100723569.79944
  20749888.440   109041426.96809  20749888.060    84967359.18449
  22283300.840   117099549.13808  22283300.600    91246419.02047
  21727255.500   114177529.60708  21727254.140    88969510.92048
  24295131.900   127671769.50405  24295131.160    99484490.56244
  20967868.560   110186985.24609  20967866.200    85860004.90549
  20580623.840   108151957.90509  20580626.000    84274273.25649
 15 02 28 01 59  0.0000000  0  9G04G07G11G16G18G19G21G22G27
  22926742.560   120480854.22607  22926744.620    93881205.88046
  24416880.140   128311571.39905  24416880.420    99983041.19344
  24580354.940   129170632.77806  24580355.900   100652456.20943
  20758270.320   109085474.28709  20758269.940    85001681.75649
  22291717.820   117143780.24908  22291717.520    91280884.81847
  21716402.020   114120494.55308  21716400.600    88925068.03248
  24309406.000   127746779.81405  24309404.920    99542940.17143
  20963762.360   110165407.46609  20963760.160    85843191.06349
  20576288.140   108129173.43209  20576290.300    84256519.12949
 15 02 28 01 59 30.0000000  0  9G04G07G11G16G18G19G21G22G27
  22910797.260   120397063.13707  22910799.800    93815914.15346
  24417207.140   128313288.88405  24417207.960    99984379.47444
  24563005.020   129079457.38206  24563005.720   100581410.55243
  20766752.320   109130047.81809  20766752.060    85036414.37149
  22300217.780   117188447.82908  22300217.440    91315690.73146
  21705579.680   114063623.00608  21705578.180    88880752.54848
  24323678.440   127821793.60605  24323679.060    99601400.78744
  20959756.500   110144356.92609  20959754.480    85826788.05349
  20572000.900   108106643.66309  20572003.080    84238963.46549
 15 02 28 02 00  0.0000000  0  8G04G07G11G16G18G19G22G27
  22894896.200   120313503.83007  22894899.060    93750803.05646
  24417630.980   128315515.85705  24417632.380    99986114.76845
  24545671.760   128988369.30106  24545672.380   100510432.88244
  20775334.260   109175146.27809  20775334.120    85071556.01449
  22308800.380   117233550.22208  22308800.140    91350835.44747
  21694788.600   114006915.52208  21694787.080    88836564.90148
  20955851.240   110123834.60409  20955849.320    85810796.64049
  20567762.260   108084369.50109  20567764.480    84221606.97249
 15 02 28 02 00 30.0000000  0  8G04G07G11G16G18G19G22G27
  22879039.240   120230174.88707  22879042.020    93685871.44945
  24418151.020   128318248.76706  24418152.620    99988244.35545
  24528354.540   128897367.00506  24528355.220   100439522.05644
  20784015.460   109220766.00309  20784015.340    85107103.83549
  22317465.040   117279083.67508  22317464.920    91386316.06047
  21684028.460   113950370.65408  21684026.980    88792503.97248
  20952046.140   110103838.57709  20952044.220    85795215.32849
  20563572.040   108062349.76009  20563574.260    84204448.72949
 15 02 28 02 01  0.0000000  0  9G04G07G11G16G18G19G21G22G27
  22863227.320   120147082.04607  22863229.880    93621123.82846
  24418768.080   128321492.21205  24418769.540    99990771.69944
  24511054.320   128806455.94805  24511055.480   100368682.30843
  20792796.680   109266911.29409  20792796.500    85143061.19149
  22326212.500   117325051.98008  22326212.380    91422135.51847
  21673300.520   113893994.77509  21673299.060    88748574.72848
  24366494.680   128046791.41304  24366495.040    99776725.06143
  20948342.340   110084374.76409  20948340.300    85780048.73449
  20559431.500   108040590.82009  20559433.600    84187493.71049
 15 02 28 02 01 30.0000000  0  9G04G07G11G16G18G19G21G22G27
  22847458.980   120064218.22407  22847461.360    93556554.64746
  24419480.800   128325237.86705  24419481.940    99993690.34444
  24493770.180   128715628.90805  24493771.320   100297908.05644
  20801676.240   109313573.59409  20801676.060    85179421.41249
  22335040.980   117371445.82108  22335040.840    91458286.55947
  21662603.440   113837780.99109  21662601.980    88704771.78548
  24380764.400   128121780.90804  24380764.640    99835152.03243
  20944738.440   110065435.83709  20944736.200    85765291.13949
  20555339.300   108019085.82309  20555341.260    84170736.56449
 15 02 28 02 02  0.0000000  0  9G04G07G11G16G18G19G21G22G27
  22831734.880   119981587.88307  22831737.300    93492167.39146
  24420289.700   128329487.92505  24420290.540    99997002.07744
  24476502.920   128624890.04005  24476503.960   100227202.53944
  20810654.580   109360755.35809  20810654.440    85216186.40449
  22343950.900   117418267.60708  22343950.720    91494771.05947
  21651938.020   113781733.81009  21651936.580    88661098.66548
  24395032.800   128196760.81305  24395033.060    99893577.93443
  20941235.160   110047026.31809  20941232.840    85750946.07449
  20551296.360   107997839.85109  20551298.300    84154181.26249
 15 02 28 02 02 30.0000000  0  9G04G07G11G16G18G19G21G22G27
  22816055.280   119899191.72807  22816057.840    93427962.61946
  24421194.600   128334242.53105  24421193.980   100000713.16945
  24459252.860   128534239.83206  24459253.800   100156566.11644
  20819731.420   109408455.16509  20819731.420    85253355.08149
  22352941.920   117465515.80408  22352941.820    91531587.83847
  21641304.480   113725854.05609  21641303.000    88617556.00648
  24409299.620   128271732.68804  24409300.140    99951997.58144
  20937832.620   110029146.22809  20937830.320    85737013.54849
  20547302.900   107976853.99509  20547304.840    84137828.64549
 15 02 28 02 03  0.0000000  0  9G04G07G11G16G18G19G21G22G27
  22800420.880   119817032.86407  22800423.580    93363942.75646
  24422195.080   128339501.64704  24422195.520   100004811.16544
  24442020.440   128443681.19106  24442021.120   100086001.00844
  20828907.220   109456674.78209  20828907.260    85290928.79249
  22362014.260   117513191.58008  22362014.340    91568737.78547
  21630703.440   113670145.16309  21630701.900    88574146.48348
  24423564.820   128346698.84404  24423565.860   100010412.75744
  20934531.660   110011799.79409  20934529.400    85723496.85749
  20543359.520   107956131.91709  20543361.540    84121681.56749
 15 02 28 02 03 30.0000000  0  9G04G07G11G16G18G19G21G22G27
  22784831.220   119735108.10707  22784833.900    93300105.32546
  24423290.540   128345261.71504  24423291.700   100009299.46843
  24424804.780   128353211.14106  24424805.440   100015504.93544
  20838181.040   109505409.19509  20838181.060    85328903.65149
  22371166.980   117561289.55608  22371167.120    91606216.72347
  21620134.520   113614605.07908  21620132.880    88530868.50448
  24437828.200   128421654.64404  24437829.240   100068819.85541
  20931331.560   109994983.42609  20931329.400    85710393.20449
  20539465.820   107935671.04209  20539467.940    84105738.02649
 15 02 28 02 04  0.0000000  0  9G04G07G11G16G18G19G21G22G27
  22769286.060   119653416.94107  22769288.600    93236449.91246
  24424481.120   128351519.95005  24424482.780   100014176.03545
  24407605.740   128262828.88006  24407606.400    99945077.26044
  20847552.360   109554655.48309  20847552.300    85367277.36849
  22380399.480   117609806.65808  22380399.560    91644022.24947
  21609597.360   113559232.47308  21609595.700    88487721.02548
  24452089.700   128496598.56704  24452090.560   100127217.65244
  20928232.140   109978696.17409  20928230.140    85697701.85749
  20535621.780   107915470.95109  20535624.040    84089997.69949
 15 02 28 02 04 30.0000000  0  8G04G07G11G16G18G19G22G27
  22753785.920   119571962.66408  22753788.280    93172979.09646
  24425767.500   128358278.34606  24425769.100   100019442.27543
  24390423.900   128172537.29606  24390424.720    99874720.23044
  20857021.440   109604415.40809  20857021.320    85406051.32249
  22389711.940   117658744.23108  22389712.000    91682155.42147
  21599092.880   113504031.71508  21599091.220    88444707.45848
  20925234.120   109962941.54309  20925232.180    85685425.52649
  20531828.180   107895535.88409  20531830.540    84074463.88349
 15 02 28 02 05  0.0000000  0  8G04G07G11G16G18G19G22G27
  22738331.300   119490748.45508  22738333.620    93109695.32846
  24427149.480   128365538.54506  24427150.860   100025099.58344
  24373259.820   128082339.77305  24373261.020    99804436.52344
  20866588.480   109654690.20109  20866588.260    85445226.47549
  22399104.580   117708103.27608  22399104.620    91720617.00647
  21588621.820   113449006.41209  21588620.180    88401830.61048
  20922338.040   109947722.39809  20922336.080    85673566.46849
  20528085.760   107875869.37709  20528088.120    84059139.32649
 15 02 28 02 05 30.0000000  0  8G04G07G11G16G18G19G22G27
  22722922.220   119409773.76408  22722924.460    93046598.18246
  24428626.140   128373298.13305  24428627.840   100031146.00945
  24356113.300   127992235.51105  24356115.100    99734225.47945
  20876253.000   109705477.45209  20876252.720    85484800.94449
  22408577.080   117757881.41508  22408577.020    91759405.16347
  21578184.000   113394155.65808  21578182.480    88359089.77548
  20919543.660   109933037.90909  20919541.660    85662124.01549
  20524394.520   107856471.35409  20524396.780    84044023.98149
 15 02 28 02 06  0.0000000  0  8G04G07G11G16G18G19G22G27
  22707558.500   119329037.41708  22707560.700    92983686.77046
  24430197.120   128381554.23505  24430199.080   100037579.36044
  24338984.140   127902223.20105  24338986.040    99664086.10345
  20886014.400   109756774.13909  20886014.200    85524772.37649
  22418128.720   117808074.98708  22418128.580    91798517.03647
  21567779.360   113339479.12909  21567777.980    88316484.70248
  20916850.840   109918887.28609  20916848.820    85651097.56549
  20520754.280   107837341.16209  20520756.460    84029117.34049
 15 02 28 02 06 30.0000000  0  8G04G07G11G16G18G19G22G27
  22692240.500   119248540.46308  22692242.500    92920961.90746
  24431862.380   128390305.95305  24431864.260   100044398.85845
  24321872.560   127812303.50905  24321874.300    99594018.86445
  20895872.560   109808579.22509  20895872.500    85565139.95949
  22427759.180   117858682.91508  22427759.080    91837951.77547
  21557408.140   113284978.05808  21557406.860    88274016.33748
  20914259.640   109905270.69309  20914257.640    85640487.24349
  20517165.280   107818480.27209  20517167.340    84014420.53149
 15 02 28 02 07  0.0000000  0  8G04G07G11G16G18G19G22G27
  22676967.760   119168281.62808  22676969.620    92858422.61146
  24433621.560   128399550.53806  24433623.260   100051602.38745
  24304778.540   127722475.25406  24304779.960    99524022.88544
  20905826.980   109860889.69009  20905826.960    85605901.34649
  22437467.760   117909701.70008  22437467.760    91877706.67547
  21547070.140   113230651.24109  21547068.800    88231683.76348
  20911769.840   109892186.74709  20911767.800    85630291.97649
  20513627.340   107799888.04109  20513629.320    83999933.07549
 15 02 28 02 07 30.0000000  0  9G04G07G11G16G18G19G22G27G32
  22661741.180   119088266.14807  22661743.240    92796072.94446
  24435475.340   128409291.27206  24435476.840   100059192.53545
  24287703.240   127632743.52906  24287704.320    99454102.16244
  20915878.200   109913708.68709  20915878.140    85647058.99649
  22447255.100   117961134.37708  22447255.140    91917784.09846
  21536766.460   113176504.49109  21536764.960    88189491.50048
  20909382.460   109879640.56009  20909380.300    85620515.73249
  20510141.640   107781570.29309  20510143.580    83985659.50449
  24502518.800   128761612.86505  24502523.960   100333743.12644
 15 02 28 02 08  0.0000000  0  9G04G07G11G16G18G19G22G27G32
  22646556.180   119008468.88608  22646558.560    92733893.29846
  24437418.680   128419501.81106  24437419.940   100067148.77745
  24270641.740   127543083.30206  24270642.500    99384237.11744
  20926020.960   109967009.05109  20926020.880    85688591.73649
  22457115.980   118012953.99508  22457116.060    91958163.02747
  21526492.400   113122513.52809  21526490.820    88147420.63948
  20907092.640   109867607.06809  20907090.360    85611138.99349
  20506703.480   107763502.63509  20506705.420    83971580.80349
  24479924.340   128642878.63606  24479929.340   100241223.44744
 15 02 28 02 08 30.0000000  0  9G04G07G11G16G18G19G22G27G32
  22631421.100   118928933.36008  22631423.580    92671917.60246
  24439459.120   128430223.40706  24439460.100   100075503.27444
  24253601.760   127453537.03506  24253602.560    99314460.87144
  20936263.340   110020832.80309  20936263.200    85730532.30449
  22467058.200   118065201.24208  22467058.260    91998875.17047
  21516256.200   113068721.73209  21516254.580    88105504.98448
  20904908.540   109856129.34509  20904906.240    85602195.31949
  20503321.260   107745728.84609  20503323.140    83957731.09849
  24457335.900   128524177.39605  24457340.540   100148729.56644
 15 02 28 02 09  0.0000000  0  9G04G07G11G16G18G19G22G27G32
  22616332.220   118849640.33408  22616334.640    92610130.87446
  24441592.440   128441434.85505  24441593.540   100084239.44645
  24236579.820   127364086.09706  24236580.700    99244758.91944
  20946601.120   110075157.98109  20946600.940    85772863.59949
  22477077.820   118117854.87108  22477077.760    92039903.97447
  21506054.320   113015110.50709  21506052.660    88063730.02148
  20902826.400   109845187.51009  20902824.120    85593669.21449
  20499991.380   107728230.30109  20499993.220    83944095.86749
  24434750.520   128405491.85506  24434754.920   100056247.82443
 15 02 28 02 09 30.0000000  0  9G04G07G11G16G18G19G22G27G32
  22601289.160   118770588.49208  22601291.580    92548532.08046
  24443818.280   128453131.47905  24443819.960   100093357.24245
  24219575.600   127274729.67106  24219576.680    99175130.62844
  20957033.660   110129981.58009  20957033.520    85815583.27449
  22487174.180   118170911.41208  22487174.060    92081246.73147
  21495886.580   112961679.04009  21495884.940    88022095.12948
  20900845.960   109834780.33309  20900843.740    85585559.73149
  20496713.700   107711006.43109  20496715.680    83930674.67049
  24412168.220   128286823.11105  24412172.800    99963779.16943
 15 02 28 02 10  0.0000000  0  9G04G07G11G16G18G19G22G27G32
  22586291.900   118691777.55507  22586294.260    92487120.98846
  24446136.860   128465315.07605  24446138.640   100102850.93845
  24202589.100   127185466.90506  24202590.120    99105575.25944
  20967560.700   110185301.88209  20967560.660    85858689.99149
  22497346.740   118224368.40208  22497346.600    92122901.52447
  21485753.040   112908427.31909  21485751.440    87980600.28648
  20898967.200   109824907.50309  20898965.000    85577866.62749
  20493488.340   107694057.45109  20493490.440    83917467.67149
  24389589.520   128168173.00806  24389594.160    99871324.97443
 15 02 28 02 10 30.0000000  0  9G04G07G11G16G18G19G22G27G32
  22571341.360   118613212.58108  22571343.600    92425901.56046
  24448548.420   128477986.72406  24448549.880   100112724.90345
  24185621.600   127096302.46706  24185622.300    99036096.55344
  20978182.780   110241121.22309  20978182.700    85902185.56549
  22507595.900   118278228.52408  22507595.820    92164870.44547
  21475654.820   112855360.98609  21475653.240    87939249.90448
  20897190.920   109815573.64309  20897188.820    85570593.49849
  20490316.360   107677388.87609  20490318.520    83904479.16849
  24367015.600   128049548.64906  24367020.400    99778890.89044
 15 02 28 02 11  0.0000000  0  9G04G07G11G16G18G19G22G27G32
  22556437.120   118534890.93408  22556439.360    92364871.75446
  24451051.960   128491142.09606  24451052.900   100122975.81344
  24168672.440   127007233.40406  24168672.880    98966692.16344
  20988899.000   110297434.85309  20988898.840    85946066.30249
  22517920.860   118332486.90808  22517920.820    92207149.70847
  21465591.480   112802477.86409  21465589.900    87898042.28348
  20895516.580   109806775.56309  20895514.640    85563737.86149
  20487197.340   107660998.79609  20487199.600    83891707.67849
  24344446.540   127930949.78706  24344451.560    99686476.70244
 15 02 28 02 11 30.0000000  0  9G04G07G11G16G18G19G22G27G32
  22541579.400   118456813.20408  22541581.680    92304032.01647
  24453647.320   128504779.82206  24453647.860   100133602.62945
  24151741.520   126918261.04306  24151742.180    98897363.10745
  20999709.080   110354241.94209  20999708.840    85990331.55149
  22528321.440   118387142.17708  22528321.380    92249738.23247
  21455563.280   112749779.12609  21455561.640    87856978.34548
  20893944.320   109798513.72209  20893942.500    85557300.06949
  20484131.620   107644888.42809  20484133.960    83879154.14749
  24321882.840   127812379.06806  24321887.980    99594084.35644
 15 02 28 02 12  0.0000000  0  9G04G07G11G16G18G19G22G27G32
  22526768.800   118378982.32908  22526770.940    92243384.61846
  24456334.640   128518900.97206  24456335.080   100144606.13345
  24134829.300   126829387.80906  24134830.480    98828111.30444
  21010613.040   110411542.79909  21010612.820    86034981.56348
  22538797.760   118442195.09808  22538797.640    92292636.61047
  21445570.740   112697267.81309  21445569.060    87816060.45848
  20892474.660   109790790.71709  20892472.920    85551282.16049
  20481119.820   107629061.32609  20481122.200    83866821.33949
  24299325.480   127693841.79305  24299330.860    99501718.07444
 15 02 28 02 12 30.0000000  0  9G04G07G11G16G18G19G22G27G32
  22512004.840   118301396.02908  22512006.700    92182927.79746
  24459113.040   128533501.45506  24459113.740   100155983.13044
  24117935.580   126740611.50206  24117937.100    98758935.01944
  21021610.100   110469333.02809  21021609.980    86080012.90248
  22549348.880   118497640.86708  22549348.500    92335841.10547
  21435613.560   112644942.60009  21435611.880    87775287.57948
  20891107.040   109783603.74109  20891105.260    85545681.92549
  20478161.600   107613515.87209  20478164.000    83854707.99949
  24276774.400   127575337.96105  24276779.920    99409377.85845
 15 02 28 02 13  0.0000000  0  9G04G07G11G16G18G19G22G27G32
  22497288.200   118224058.89408  22497289.880    92122665.12746
  24461982.140   128548590.79305  24461984.440   100167731.63044
  24101061.280   126651936.68606  24101062.920    98689837.81944
  21032700.920   110527615.75409  21032700.880    86125427.99949
  22559975.100   118553481.75108  22559974.580    92379353.49146
  21425692.720   112592808.37009  21425690.980    87734663.50848
  20889842.260   109776956.80509  20889840.360    85540502.50449
  20475257.960   107598257.11409  20475260.280    83842818.05649
  24254230.920   127456874.24505  24254236.680    99317068.91745
 15 02 28 02 13 30.0000000  0  9G04G07G11G16G18G19G22G27G32
  22482617.680   118146965.28508  22482619.340    92062592.22846
  24464942.980   128564147.67906  24464945.000   100179853.86444
  24084205.300   126563357.21206  24084206.700    98620814.92544
  21043883.980   110586383.05509  21043883.960    86171220.68948
  22570674.980   118609710.04008  22570674.460    92423167.74147
  21415807.280   112540860.13209  21415805.520    87694184.37048
  20888679.200   109770844.38109  20888677.200    85535739.59549
  20472407.960   107583280.16309  20472410.220    83831147.70449
  24231694.560   127338447.32505  24231700.420    99224788.63544
 15 02 28 02 14  0.0000000  0  8G04G11G16G18G19G22G27G32
  22467990.680   118070101.12608  22467992.180    92002698.12646
  24067364.740   126474859.86606  24067366.220    98551856.04044
  21055156.080   110645618.31909  21055156.020    86217378.02748
  22581445.540   118666309.49108  22581445.020    92467271.20647
  21405954.660   112489084.39409  21405952.940    87653839.65248
  20887614.980   109765251.84609  20887612.960    85531381.78249
  20469609.000   107568571.60609  20469611.280    83819686.49049
  24209163.020   127220045.49606  24209168.840    99132527.90945
 15 02 28 02 14 30.0000000  0  8G04G11G16G18G19G22G27G32
  22453417.040   117993517.13208  22453418.340    91943022.31946
  24050549.120   126386494.64206  24050551.040    98483000.06945
  21066526.420   110705370.09609  21066526.380    86263937.83748
  22592295.960   118723328.55208  22592295.440    92511701.65346
  21396144.580   112437532.34909  21396142.980    87613669.24648
  20886659.240   109760229.36709  20886657.180    85527468.17649
  20466870.920   107554182.69009  20466873.160    83808474.35149
  24186646.420   127101721.51206  24186651.700    99040327.81244
 15 02 28 02 15  0.0000000  0  8G04G11G16G18G19G22G27G32
  22438888.400   117917168.48008  22438889.560    91883529.89446
  24033750.140   126298216.65406  24033752.520    98414212.07244
  21077986.240   110765591.87509  21077986.200    86310863.88648
  22603217.080   118780719.90308  22603216.640    92556422.18946
  21386368.640   112386159.67609  21386367.160    87573638.59848
  20885803.300   109755731.52209  20885801.240    85523963.36849
  20464185.260   107540069.25509  20464187.460    83797476.87149
  24164136.660   126983432.90706  24164141.680    98948155.31145
 15 02 28 02 15 30.0000000  0  8G04G11G16G18G19G22G27G32
  22424407.020   117841067.72008  22424408.080    91824230.65046
  24016970.440   126210038.46206  24016972.880    98345501.85844
  21089537.500   110826294.15009  21089537.500    86358164.34648
  22614211.000   118838493.88908  22614210.680    92601440.87346
  21376629.360   112334979.40109  21376627.880    87533757.87148
  20885049.460   109751770.38409  20885047.460    85520876.77349
  20461554.460   107526244.44709  20461556.700    83786704.29549
  24141636.460   126865194.30506  24141641.320    98856021.66944
 15 02 28 02 16  0.0000000  0  8G04G11G16G18G19G22G27G32
  22409972.360   117765213.05208  22409973.600    91765123.14447
  24000209.520   126121958.47606  24000211.760    98276868.16845
  21101179.300   110887472.27009  21101179.320    86405835.59048
  22625277.000   118896646.48508  22625276.740    92646754.58046
  21366926.540   112283990.52309  21366924.980    87494026.27748
  20884397.300   109748343.84109  20884395.400    85518206.74349
  20458978.480   107512707.26009  20458980.700    83776155.83149
  24119145.880   126747006.42606  24119150.340    98763927.55144
 15 02 28 02 16 30.0000000  0  8G04G11G16G18G19G22G27G32
  22395585.060   117689607.62708  22395586.680    91706209.85747
  23983467.940   126033979.99206  23983469.880    98208313.54344
  21112912.000   110949127.80609  21112911.940    86453878.85548
  22636415.300   118955178.76708  22636415.060    92692364.14846
  21357260.860   112233196.85809  21357259.200    87454446.80648
  20883847.400   109745454.58009  20883845.560    85515955.38049
  20456457.980   107499461.56209  20456460.140    83765834.52149
  24096665.960   126628874.86606  24096670.500    98671877.28844
 15 02 28 02 17  0.0000000  0  8G04G11G16G18G19G22G27G32
  22381245.980   117614255.85708  22381247.800    91647494.22546
  23966746.420   125946107.04606  23966747.900    98139841.21345
  21124736.000   111011262.90709  21124735.840    86502295.80648
  22647626.220   119014092.75708  22647626.020    92738271.16046
  21347633.260   112182603.28109  21347631.560    87415023.24848
  20883400.620   109743106.78309  20883398.760    85514125.93349
  20453993.860   107486512.29009  20453996.000    83755744.17949
  24074198.040   126510806.11906  24074202.220    98579875.92545
 15 02 28 02 17 30.0000000  0  8G04G11G16G18G19G22G27G32
  22366954.300   117539152.67408  22366955.920    91588972.30146
  23950043.800   125858334.81406  23950044.940    98071447.33544
  21136649.840   111073870.39609  21136649.640    86551080.85248
  22658908.380   119073380.95508  22658908.240    92784469.75646
  21338042.880   112132205.22909  21338041.140    87375752.04548
  20883055.840   109741294.52609  20883053.880    85512713.80849
  20451585.280   107473855.10409  20451587.460    83745881.44249
  24051741.560   126392797.60207  24051745.640    98487921.50144
 15 02 28 02 18  0.0000000  0  8G04G11G16G18G19G22G27G32
  22352710.500   117464300.68508  22352711.880    91530646.11046
  23933360.520   125770665.64806  23933361.840    98003133.77344
  21148653.520   111136950.38809  21148653.380    86600234.08548
  22670261.880   119133043.88708  22670261.800    92830960.34846
  21328490.320   112082006.03509  21328488.540    87336635.80248
  20882813.360   109740019.83309  20882811.300    85511720.55549
  20449232.920   107461493.20009  20449235.060    83736248.80149
  24029297.560   126274854.10907  24029301.680    98396017.73245
 15 02 28 02 18 30.0000000  0  8G04G11G16G18G19G22G27G32
  22338514.220   117389698.35708  22338515.480    91472514.46346
  23916696.840   125683098.40706  23916698.300    97934899.62444
  21160746.360   111200499.17509  21160746.340    86649752.60848
  22681685.980   119193077.80908  22681685.960    92877740.03046
  21318975.380   112032004.89009  21318973.620    87297673.87148
  20882672.760   109739280.85909  20882670.680    85511144.73749
  20446936.540   107449425.93109  20446938.660    83726845.73049
  24006866.140   126156976.63207  24006870.180    98304165.38644
 15 02 28 02 19  0.0000000  0  8G04G11G16G18G19G22G27G32
  22324365.540   117315346.70408  22324366.920    91414578.14946
  23900052.960   125595633.76707  23900054.160    97866745.44244
  21172928.200   111264515.48609  21172928.240    86699635.43548
  22693180.460   119253481.11008  22693180.300    92924807.53746
  21309498.480   111982203.45009  21309496.700    87258867.55248
  20882634.020   109739077.51309  20882631.980    85510986.29649
  20444696.480   107437654.82809  20444698.660    83717673.44149
  23984447.940   126039168.37507  23984451.880    98212366.98044
 15 02 28 02 19 30.0000000  0  8G04G11G16G18G19G22G27G32
  22310264.640   117241246.76808  22310266.340    91356837.96847
  23883428.880   125508272.63607  23883429.820    97798671.92144
  21185198.980   111328998.81809  21185199.060    86749882.16948
  22704745.040   119314252.87908  22704744.600    92972162.14946
  21300059.900   111932603.47209  21300058.140    87220218.21448
  20882697.340   109739410.64009  20882695.440    85511245.88049
  20442513.180   107426181.71909  20442515.400    83708733.35749
  23962043.600   125921432.87607  23962047.340    98120625.23944
 15 02 28 02 20  0.0000000  0  8G04G11G16G18G19G22G27G32
  22296212.360   117167402.26408  22296214.280    91299296.82847
  23866825.200   125421019.11507  23866825.960    97730682.22845
  21197558.900   111393950.18409  21197558.980    86800493.60648
  22716379.980   119375394.19408  22716379.300    93019804.73146
  21290660.480   111883209.17309  21290658.680    87181729.15648
  20882863.380   109740283.39409  20882861.560    85511925.95249
  20440387.440   107415010.98809  20440389.680    83700028.89149
  23939654.160   125803776.11107  23939657.700    98028944.86644
 15 02 28 02 20 30.0000000  0  8G04G11G16G18G19G22G27G32
  22282208.420   117093811.04408  22282210.360    91241953.03946
  23850241.580   125333871.05507  23850242.300    97662774.71444
  21210007.000   111459364.75509  21210007.040    86851465.98948
  22728084.460   119436900.98208  22728083.640    93067732.09446
  21281299.980   111834019.16709  21281298.080    87143399.27748
  20883131.620   109741692.82909  20883129.780    85513024.21749
  20438318.960   107404141.16209  20438321.160    83691558.88649
  23917279.780   125686198.32107  23917282.980    97937326.00544
 15 02 28 02 21  0.0000000  0  9G04G11G16G18G19G21G22G27G32
  22268252.840   117020473.06208  22268254.600    91184806.59447
  23833677.940   125246828.47606  23833678.720    97594949.40144
  21222542.800   111525240.57109  21222542.880    86902797.78448
  22739857.880   119498770.74008  22739857.140    93115942.30546
  21271978.520   111785034.03009  21271976.500    87105229.04548
  24935096.060   131034817.61804                                
  20883501.940   109743638.45009  20883499.980    85514540.29249
  20436307.920   107393572.93109  20436310.060    83683323.90349
  23894920.840   125568702.00207  23894923.740    97845770.63944
 15 02 28 02 21 30.0000000  0  9G04G11G16G18G19G21G22G27G32
  22254342.660   116947374.26508  22254344.320    91127846.51446
  23817131.500   125159877.54506  23817132.620    97527195.49345
  21235163.280   111591561.66209  21235163.340    86954476.54248
  22751697.140   119560987.44608  22751696.800    93164422.84546
  21262693.540   111736240.65009  21262691.480    87067208.24049
  24949221.460   131109050.86904  24949219.360   102162879.76943
  20883971.440   109746105.50009  20883969.360    85516462.67249
  20434351.780   107383293.09909  20434353.960    83675313.64249
  23872575.140   125451275.47607  23872577.820    97754269.64845
 15 02 28 02 22  0.0000000  0  9G04G11G16G18G19G21G22G27G32
  22240484.520   116874550.23308  22240486.380    91071100.53347
  23800609.040   125073053.32106  23800610.620    97459540.29245
  21247874.560   111658360.07909  21247874.580    87006527.24048
  22763608.640   119623583.77608  22763608.580    93213199.20846
  21253451.820   111687674.81109  21253449.820    87029364.73449
  24963345.220   131183275.48104  24963343.240   102220713.12843
  20884546.740   109749128.73809  20884544.580    85518818.45449
  20432457.320   107373337.67109  20432459.540    83667556.16249
  23850249.880   125333956.53806  23850252.360    97662852.48544
 15 02 28 02 22 30.0000000  0  9G04G11G16G18G19G21G22G27G32
  22226673.440   116801973.92608  22226675.540    91014547.60447
  23784105.800   124986328.95506  23784107.360    97391962.90344
  21260671.380   111725607.96109  21260671.360    87058928.17948
  22775587.000   119686531.03908  22775587.120    93262249.02246
  21244248.500   111639311.11109  21244246.620    86991678.73349
  24977462.300   131257464.07004  24977461.520   102278522.46543
  20885222.640   109752680.59809  20885220.420    85521586.13749
  20430619.680   107363680.62909  20430621.860    83660031.19249
  23827940.400   125216720.87706  23827942.740    97571500.19445
 15 02 28 02 23  0.0000000  0  9G04G11G16G18G19G21G22G27G32
  22212911.920   116729657.23608  22212914.080    90958196.96547
  23767624.060   124899716.92706  23767625.360    97324473.08145
  21273555.540   111793314.77309  21273555.460    87111686.71548
  22787633.940   119749838.52308  22787634.160    93311579.51246
  21235085.960   111591161.77009  21235084.160    86954159.75949
  24991574.940   131331628.03604  24991575.200   102336312.51644
  20886001.180   109756772.10109  20885999.020    85524774.32749
  20428841.280   107354334.55109  20428843.360    83652748.53449
  23805649.460   125099582.72906  23805651.820    97480223.87444
 15 02 28 02 23 30.0000000  0  9G04G11G16G18G19G21G22G27G32
  22199198.580   116657592.84108  22199200.720    90902042.92147
  23751162.120   124813209.25606  23751163.420    97257064.57544
  21286525.100   111861470.25009  21286525.000    87164794.86748
  22799747.660   119813496.58808  22799747.980    93361183.17646
  21225962.900   111543219.79709  21225961.140    86916802.38749
  25005681.560   131405758.70604  25005681.040   102394076.59041
  20886880.900   109761395.41209  20886878.900    85528376.91849
  20427120.660   107345292.60309  20427122.740    83645702.85649
  23783376.140   124982536.90906  23783378.520    97389019.51146
 15 02 28 02 24  0.0000000  0  8G04G11G16G18G19G22G27G32
  22185534.980   116585789.88608  22185537.060    90846092.59947
  23734722.020   124726816.11507  23734723.320    97189745.31145
  21299581.340   111930081.34609  21299581.300    87218258.04848
  22811929.460   119877511.96908  22811929.780    93411065.28946
  21216881.280   111495495.71509  21216879.580    86879614.80249
  20887863.560   109766559.19709  20887861.660    85532400.65649
  20425459.840   107336565.01609  20425461.940    83638902.13749
  23761122.740   124865595.40406  23761125.140    97297896.41444
 15 02 28 02 24 30.0000000  0  8G04G11G16G18G19G22G27G32
  22171918.300   116514233.98108  22171920.280    90790334.78047
  23718300.900   124640522.38207  23718302.260    97122503.49644
  21312720.980   111999130.93609  21312721.080    87272062.91748
  22824176.100   119941867.97608  22824176.320    93461212.82946
  21207838.420   111447975.16509  21207836.680    86842585.81049
  20888946.080   109772247.69109  20888944.140    85536833.25849
  20423856.160   107328137.66009  20423858.220    83632335.37449
  23738886.900   124748745.81206  23738889.280    97206844.95045
 15 02 28 02 25  0.0000000  0  8G04G11G16G18G19G22G27G32
  22158350.840   116442936.89908  22158352.760    90734778.64746
  23701900.860   124554340.24406  23701902.280    97055348.62245
  21325946.060   112068629.51809  21325946.260    87326217.64248
  22836489.280   120006574.40508  22836489.480    93511633.43446
  21198836.880   111400671.65509  21198835.080    86805725.94549
  20890130.600   109778472.41709  20890128.580    85541683.71049
  20422312.020   107320023.59109  20422314.100    83626012.72949
  23716671.400   124632002.88706  23716673.820    97115876.61145
 15 02 28 02 25 30.0000000  0  8G04G11G16G18G19G22G27G32
  22144832.440   116371897.02808  22144834.200    90679422.93247
  23685521.880   124468268.45407  23685523.120    96988279.71844
  21339255.780   112138572.55609  21339255.980    87380718.70048
  22848868.380   120071627.37208  22848868.580    93562324.04546
  21189876.320   111353583.63909  21189874.520    86769033.98749
  20891416.640   109785230.90309  20891414.540    85546950.07049
  20420827.360   107312221.77609  20420829.420    83619933.38949
  23694476.380   124515367.38006  23694478.780    97024991.96045
 15 02 28 02 26  0.0000000  0  8G04G11G16G18G19G22G27G32
  22131362.720   116301112.26808  22131364.160    90624266.00947
  23669163.640   124382304.48507  23669164.620    96921294.82544
  21352649.160   112208954.72209  21352649.300    87435561.93348
  22861312.600   120137022.07408  22861312.600    93613280.94546
  21180956.520   111306710.03409  21180954.820    86732509.11249
  20892803.720   109792520.08909  20892801.520    85552629.95849
  20419401.860   107304730.66309  20419403.960    83614096.15249
  23672301.740   124398839.29606  23672304.120    96934191.00745
 15 02 28 02 26 30.0000000  0  8G04G11G16G18G19G22G27G32
  22117940.800   116230579.06908  22117942.140    90569305.09347
  23652825.320   124296445.24307  23652826.060    96854391.57244
  21366125.200   112279771.16309  21366125.240    87490743.56248
  22873820.780   120202752.80408  22873820.560    93664499.68546
  21172077.000   111260048.10209  21172075.360    86696149.17049
  20894290.980   109800335.68009  20894288.760    85558720.03749
  20418034.980   107297547.53409  20418037.160    83608498.90249
  23650147.400   124282417.81106  23650149.720    96843473.10845
 15 02 28 02 27  0.0000000  0  8G04G11G16G18G19G22G27G32
  22104571.880   116160324.75708  22104573.380    90514561.50647
  23636511.920   124210717.85707  23636512.720    96787591.04745
  21379688.620   112351047.08509  21379688.620    87546283.22348
  22886397.640   120268844.62308  22886397.320    93715999.79046
  21163243.080   111213625.93009  21163241.460    86659976.05449
  20895883.380   109808704.13509  20895881.240    85565240.91749
  20416732.100   107290700.57709  20416734.300    83603163.60749
  23628019.060   124166132.75707  23628021.320    96752861.52145
 15 02 28 02 27 30.0000000  0  8G04G11G16G18G19G22G27G32
  22091249.880   116090317.65008  22091251.640    90460010.52447
  23620217.520   124125090.91407  23620218.400    96720868.79545
  21393332.880   112422747.94509  21393332.880    87602153.99948
  22899036.700   120335263.51308  22899036.420    93767754.75946
  21154448.920   111167412.71009  21154447.300    86623965.76449
  20897574.760   109817592.80409  20897572.740    85572167.16149
  20415487.300   107284158.71309  20415489.460    83598066.04649
  23605911.060   124049954.81407  23605913.400    96662333.37945
 15 02 28 02 28  0.0000000  0  8G04G11G16G18G19G22G27G32
  22077975.280   116020559.55808  22077977.200    90405653.58846
  23603942.780   124039566.50207  23603943.520    96654226.43945
  21407057.880   112494872.89409  21407057.860    87658355.24448
  22911738.040   120402009.05308  22911737.700    93819764.25246
  21145695.000   111121411.32209  21145693.440    86588120.54049
  20899365.380   109827002.77509  20899363.440    85579499.60849
  20414300.980   107277924.67509  20414303.220    83593208.34649
  23583824.340   123933888.48207  23583826.640    96571892.20245
 15 02 28 02 28 30.0000000  0  9G01G04G11G16G18G19G22G27G32
  24548771.080   129004658.78104  24548775.320   100523136.29244
  22064751.120   115951066.56008  22064753.120    90351503.21447
  23587690.700   123954160.71407  23587691.400    96587676.52646
  21420866.240   112567435.94809  21420866.180    87714897.87148
  22924504.260   120469095.11208  22924503.740    93872039.08946
  21136984.600   111075638.54209  21136983.120    86552453.44649
  20901258.180   109836949.30109  20901256.240    85587250.15449
  20413176.400   107272015.37409  20413178.760    83588603.68449
  23561762.400   123817952.43607  23561764.760    96481552.55345
 15 02 28 02 29  0.0000000  0  9G01G04G11G16G18G19G22G27G32
  24532663.780   128920012.89805  24532668.260   100457178.62344
  22051575.040   115881825.94908  22051576.960    90297549.52647
  23571458.700   123868860.96007  23571459.500    96521209.24045
  21434754.960   112640421.53809  21434754.880    87771769.74948
  22937332.440   120536506.62808  22937331.740    93924567.53546
  21128315.500   111030082.38209  21128314.080    86516955.14849
  20903250.540   109847419.03509  20903248.560    85595408.39049
  20412111.400   107266418.66909  20412113.720    83584242.61349
  23539723.200   123702136.16307  23539725.560    96391306.22144
 15 02 28 02 29 30.0000000  0  9G01G04G11G16G18G19G22G27G32
  24516584.600   128835515.15405  24516589.800   100391336.32744
  22038449.460   115812850.71608  22038451.220    90243802.62846
  23555249.200   123783680.14307  23555250.140    96454834.64545
  21448726.180   112713840.45609  21448726.080    87828979.27748
  22950224.480   120604254.01708  22950223.660    93977357.70446
  21119690.340   110984756.69709  21119688.940    86481636.44149
  20905344.760   109858423.93809  20905342.700    85603983.64949
  20411108.520   107261148.40209  20411110.740    83580135.90349
  23517709.700   123586455.38607  23517712.120    96301165.46245
 15 02 28 02 30  0.0000000  0  9G01G04G11G16G18G19G22G27G32
  24500533.100   128751163.23205  24500538.900   100325607.63544
  22025373.880   115744138.34208  22025375.540    90190260.54346
  23539061.820   123698616.47206  23539062.900    96388551.31045
  21462779.020   112787688.18409  21462778.900    87886522.95548
  22963179.480   120672332.72008  22963178.700    94030406.03446
  21111108.900   110939660.21109  21111107.460    86446496.32249
  20907540.120   109869960.43609  20907538.000    85612973.13449
  20410167.380   107256202.89909  20410169.580    83576282.25649
  23495721.900   123470910.14107  23495724.500    96211130.31345
 15 02 28 02 30 30.0000000  0  9G01G04G11G16G18G19G22G27G32
  24484508.820   128666952.98305  24484515.200   100259989.33945
  22012347.620   115675684.68908  22012349.180    90136920.06947
  23522895.840   123613665.77006  23522897.220    96322355.99945
  21476912.120   112861957.85009  21476911.960    87944395.40848
  22976196.200   120740736.21908  22976195.560    94083707.44946
  21102570.380   110894789.29209  21102568.860    86411531.98349
  20909835.700   109882023.57209  20909833.500    85622372.98949
  20409287.420   107251578.70409  20409289.560    83572678.98749
  23473759.560   123355498.71807  23473762.320    96121199.43445
 15 02 28 02 31  0.0000000  0  9G01G04G11G16G18G19G22G27G32
  24468511.580   128582885.70905  24468518.460   100194482.44445
  21999370.740   115607490.94508  21999372.360    90083782.11347
  23506751.840   123528829.30507  23506753.220    96256249.69344
  21491125.180   112936648.25209  21491125.020    88002595.70548
  22989274.500   120809463.62808  22989274.000    94137261.25446
  21094075.200   110850146.25709  21094073.500    86376745.20749
  20912231.560   109894613.60409  20912229.280    85632183.40849
  20408468.980   107247277.88609  20408471.080    83569327.69049
  23451823.540   123240224.94107  23451826.300    96031375.80446
 15 02 28 02 31 30.0000000  0  9G01G04G11G16G18G19G22G27G32
  24452541.320   128498963.38605  24452548.520   100129088.51844
  21986443.680   115539559.04408  21986445.460    90030848.18947
  23490630.180   123444108.90307  23490631.280    96190233.84645
  21505418.140   113011758.40309  21505417.940    88061123.07948
  23002414.300   120878514.13408  23002413.960    94191066.84346
  21085623.860   110805733.92109  21085622.020    86342138.20149
  20914727.780   109907731.15809  20914725.460    85642404.87849
  20407712.500   107243302.98509  20407714.660    83566230.35949
  23429914.660   123125093.13607  23429917.320    95941662.80345
 15 02 28 02 32  0.0000000  0  9G01G04G11G16G18G19G22G27G32
  24436598.160   128415185.00105  24436605.640   100063806.73044
  21973566.280   115471887.76908  21973568.060    89978117.35847
  23474530.620   123359503.92507  23474531.460    96124307.93145
  21519790.340   113087284.87209  21519790.140    88119974.85848
  23015614.960   120947884.34408  23015614.740    94245121.55246
  21077216.280   110761551.97109  21077214.440    86307710.71549
  20917324.060   109921374.53609  20917321.680    85653036.08649
  20407018.140   107239653.80409  20407020.260    83563386.82949
  23408033.220   123010104.98007  23408035.720    95852061.74945
 15 02 28 02 32 30.0000000  0  9G01G04G11G16G18G19G22G27G32
  24420682.300   128331549.34905  24420690.080    99998636.20645
  21960738.300   115404476.03508  21960739.900    89925588.76447
  23458452.760   123275013.24407  23458453.340    96058471.07945
  21534241.140   113163224.64309  21534240.980    88179148.68548
  23028875.840   121017570.90408  23028875.720    94299422.77245
  21068852.460   110717600.10609  21068850.640    86273462.51249
  20920019.820   109935540.97409  20920017.500    85664074.87749
  20406385.640   107236329.78709  20406387.780    83560796.68649
  23386179.360   122895261.52207  23386181.660    95762573.44145
 15 02 28 02 33  0.0000000  0  9G01G04G11G16G18G19G22G27G32
  24404794.260   128248058.16505  24404801.740    99933578.20443
  21947959.900   115337325.19708  21947961.340    89873263.46747
  23442396.980   123190638.62107  23442397.360    95992724.66045
  21548770.260   113239576.28809  21548770.200    88238643.45548
  23042196.820   121087573.12708  23042196.760    94353969.94646
  21060532.820   110673880.82209  21060531.080    86239395.54249
  20922815.320   109950231.76709  20922813.080    85675522.25049
  20405815.420   107233333.28709  20405817.580    83558461.74049
  23364353.740   122780567.01207  23364355.780    95673201.19445
 15 02 28 02 33 30.0000000  0  9G01G04G11G16G18G19G22G27G32
  24388933.920   128164711.60306  24388940.720    99868632.92344
  21935231.120   115270435.54008  21935232.460    89821141.67547
  23426363.240   123106380.29907  23426363.540    95927068.85845
  21563377.380   113316337.47909  21563377.380    88298457.36648
  23055577.440   121157888.72508  23055577.380    94408761.31846
  21052257.640   110630395.30409  21052256.060    86205510.72349
  20925710.400   109965445.73609  20925708.180    85687377.29949
  20405307.760   107230665.28409  20405309.900    83556382.77349
  23342556.860   122666024.14707  23342558.800    95583947.09945
 15 02 28 02 34  0.0000000  0  9G01G04G11G16G18G19G22G27G32
  24373101.460   128081510.62306  24373107.500    99803801.09144
  21922552.160   115203807.80508  21922553.620    89769223.98447
  23410351.940   123022239.52707  23410352.240    95861504.66345
  21578062.040   113393506.36908  21578062.220    88358588.96148
  23069017.460   121228516.38608  23069017.360    94463795.85646
  21044027.400   110587145.18009  21044025.880    86171809.32349
  20928705.000   109981182.71009  20928702.860    85699639.88449
  20404862.940   107228327.41909  20404865.020    83554561.05849
  23320789.460   122551636.43907  23320791.460    95494813.91245
 15 02 28 02 34 30.0000000  0  9G01G04G11G16G18G19G22G27G32
  24357296.800   127998455.57806  24357301.920    99739082.97944
  21909923.200   115137442.46908  21909924.860    89717510.76447
  23394363.060   122938216.49207  23394363.140    95796032.23245
  21592823.880   113471080.77709  21592824.260    88419036.52948
  23082516.440   121299453.93108  23082516.280    94519071.86646
  21035842.280   110544131.91509  21035840.780    86138292.49049
  20931798.960   109997441.89209  20931796.900    85712309.38549
  20404481.080   107226320.68109  20404483.200    83552997.36649
  23299052.000   122437406.59007  23299054.180    95405803.71045
 15 02 28 02 35  0.0000000  0  9G01G04G11G16G18G19G22G27G32
  24341520.280   127915549.63706  24341524.900    99674481.05344
  21897344.780   115071342.29208  21897346.600    89666004.18147
  23378397.020   122854314.85307  23378397.120    95730654.38945
  21607663.140   113549061.28909  21607663.560    88479800.54148
  23096074.440   121370702.08008  23096074.440    94574589.90246
  21027702.980   110501359.42709  21027701.500    86104963.27849
  20934992.680   110014225.18209  20934990.620    85725387.28449
  20404162.960   107224648.99109  20404165.140    83551694.74449
  23277345.600   122323340.39107  23277348.060    95316921.03346
 15 02 28 02 35 30.0000000  0  9G01G04G11G16G18G19G22G27G32
  24325771.760   127832792.39805  24325776.420    99609994.96744
  21884816.700   115005506.85508  21884818.500    89614703.88647
  23362453.680   122770534.16907  23362453.960    95665370.75945
  21622579.220   113627444.99309  21622579.480    88540878.74048
  23109691.020   121442258.15608  23109691.300    94630347.87346
  21019609.580   110458828.06209  21019608.060    86071821.95749
  20938285.900   110031531.07809  20938283.800    85738872.40249
  20403908.740   107223312.55409  20403910.880    83550653.36149
  23255670.720   122209439.88607  23255673.520    95228167.45446
 15 02 28 02 36  0.0000000  0  9G01G04G11G16G18G19G22G27G32
  24310050.620   127750179.88306  24310055.740    99545621.64345
  21872338.240   114939932.34208  21872339.940    89563606.89147
  23346532.480   122686870.40007  23346533.040    95600178.26545
  21637570.800   113706225.61909  21637570.880    88602266.23048
  23123365.080   121514115.73508  23123365.480    94686340.78346
  21011561.500   110416534.77509  21011559.920    86038866.14949
  20941677.580   110049354.29809  20941675.380    85752760.62949
  20403717.660   107222308.22709  20403719.760    83549870.76549
  23234027.160   122095703.51407  23234030.260    95139541.78745
 15 02 28 02 36 30.0000000  0  9G01G04G11G16G18G19G22G27G32
  24294357.340   127667711.32306  24294362.660    99481360.48845
  21859909.220   114874617.67708  21859910.720    89512712.38847
  23330633.700   122603322.95007  23330634.260    95535076.39545
  21652637.120   113785399.55409  21652637.120    88663960.19048
  23137095.920   121586271.54908  23137096.260    94742566.09146
  21003558.760   110374479.98509  21003557.100    86006096.18849
  20945167.380   110067693.14209  20945165.120    85767050.64049
  20403589.760   107221635.91109  20403591.820    83549346.87249
  23212415.280   121982133.24007  23212418.580    95051045.54046
 15 02 28 02 37  0.0000000  0  9G01G04G11G16G18G19G22G27G32
  24278692.160   127585388.23406  24278697.520    99417212.70045
  21847529.880   114809564.21808  21847531.360    89462021.40447
  23314757.740   122519893.43407  23314758.020    95470066.43445
  21667777.960   113864965.03509  21667777.920    88725959.25548
  23150883.360   121658725.03308  23150883.540    94799023.34746
  20995601.860   110332666.16909  20995600.120    85973513.99949
  20948755.340   110086547.79409  20948753.060    85781742.58249
  20403525.400   107221297.76509  20403527.440    83549083.37949
  23190835.900   121868732.91107  23190839.180    94962681.72346
 15 02 28 02 37 30.0000000  0  9G01G04G11G16G18G19G22G27G32
  24263055.440   127503214.97706  24263060.600    99353181.63345
  21835201.080   114744776.31008  21835202.640    89411537.32047
  23298905.420   122436586.74707  23298905.380    95405152.17145
  21682993.820   113944924.65609  21682993.760    88788265.43748
  23164727.800   121731478.07208  23164727.720    94855714.01045
  20987691.680   110291097.98009  20987689.880    85941123.20649
  20952442.080   110105921.48109  20952439.740    85796838.96249
  20403525.600   107221298.91909  20403527.620    83549084.26849
  23169290.260   121755509.48307  23169293.420    94874455.74345
 15 02 28 02 38  0.0000000  0  9G01G04G11G16G18G19G22G27G32
  24247446.900   127421191.33206  24247452.140    99289267.17546
  21822922.900   114680253.70808  21822924.400    89361259.98247
  23283076.120   122353402.50707  23283076.120    95340333.32845
  21698284.100   114025275.49909  21698284.040    88850876.46748
  23178628.800   121804528.07308  23178628.500    94912636.06546
  20979828.500   110249776.72109  20979826.700    85908924.83149
  20956227.280   110125812.51809  20956224.840    85812338.47149
  20403590.420   107221639.85309  20403592.440    83549349.92649
  23147778.820   121642465.35407  23147781.680    94786369.48046
 15 02 28 02 38 30.0000000  0  9G01G04G11G16G18G19G22G27G32
  24231866.460   127339317.30705  24231872.180    99225469.31345
  21810695.220   114615996.22408  21810696.480    89311189.23247
  23267269.980   122270341.16207  23267270.220    95275610.22445
  21713648.120   114106014.42608  21713648.180    88913789.90148
  23192585.820   121877872.57208  23192585.360    94969787.61246
  20972012.400   110208703.25609  20972010.700    85876919.53849
  20960110.660   110146219.70809  20960108.160    85828240.17749
  20403720.060   107222321.27009  20403722.120    83549880.89549
  23126302.020   121529603.00207  23126304.520    94698424.83345
 15 02 28 02 39  0.0000000  0  9G01G04G11G16G18G19G22G27G32
  24216314.320   127257592.93205  24216320.600    99161788.04545
  21798517.960   114552003.79708  21798519.060    89261325.02347
  23251487.220   122187402.63707  23251487.600    95210982.83745
  21729085.600   114187139.19909  21729085.740    88977003.98748
  23206598.320   121951509.08508  23206597.940    95027166.71046
  20964243.640   110167878.61509  20964242.000    85845108.12849
  20964092.040   110167142.42109  20964089.620    85844543.59849
  20403914.660   107223343.91309  20403916.760    83550677.75449
  23104860.260   121416925.01807  23104862.460    94610623.86645
 15 02 28 02 39 30.0000000  0  9G01G04G11G16G18G19G22G27G32
  24200790.520   127176017.42405  24200796.960    99098222.76745
  21786390.940   114488275.52208  21786392.120    89211666.66047
  23235727.800   122104586.55207  23235728.200    95146450.84945
  21744595.800   114268646.01008  21744595.980    89040515.77648
  23220665.840   122025434.60608  23220665.560    95084771.00946
  20956522.240   110127302.61809  20956520.600    85813490.47349
  20968170.960   110188577.84209  20968168.640    85861246.52449
  20404174.160   107224707.72109  20404176.320    83551740.45149
  23083453.820   121304433.11107  23083455.860    94522967.87846
 15 02 28 02 40  0.0000000  0  9G01G04G11G16G18G19G22G27G32
  24185294.960   127094588.03506  24185300.960    99034771.36944
  21774313.520   114424808.61208  21774314.980    89162211.94947
  23219991.080   122021890.05307  23219991.460    95082012.03946
  21760177.680   114350529.77108  21760178.000    89104321.28548
  23234787.500   122099644.09708  23234787.160    95142596.57446
  20948847.980   110086973.89609  20948846.300    85782065.50149
  20972346.840   110210522.45009  20972344.600    85878346.22249
  20404498.200   107226410.64209  20404500.340    83553067.39849
  23062082.800   121192127.14907  23062084.660    94435456.79245
 15 02 28 02 40 30.0000000  0  9G01G04G11G16G18G19G22G27G32
  24169828.120   127013308.07006  24169833.400    98971436.40145
  21762286.380   114361606.32908  21762288.120    89112963.44047
  23204277.760   121939316.79307  23204278.240    95017669.26045
  21775831.380   114432791.11608  21775831.920    89168421.01248
  23248963.320   122174138.37807  23248962.900    95200644.05846
  20941221.520   110046896.31109  20941219.820    85750836.21349
  20976619.980   110232977.83409  20976617.740    85895843.92849
  20404887.580   107228456.72409  20404889.720    83554661.74449
  23040748.260   121080012.93807  23040749.960    94348095.11445
 15 02 28 02 41  0.0000000  0  9G01G04G11G16G18G19G22G27G32
  24154390.340   126932181.07206  24154395.300    98908220.63244
  21750310.440   114298672.26908  21750312.180    89063923.92847
  23188588.660   121856870.98307  23188589.300    94953425.79045
  21791557.120   114515430.61608  21791557.800    89232815.40748
  23263193.400   122248918.71307  23263193.020    95258914.44445
  20933643.760   110007074.65009  20933642.080    85719806.35649
  20980990.760   110255946.41709  20980988.540    85913741.52949
  20405343.000   107230850.15609  20405345.220    83556526.74549
  23019451.300   120968096.63207  23019452.920    94260887.64146
 15 02 28 02 41 30.0000000  0  9G01G04G11G16G18G19G22G27G32
  24138981.280   126851206.01206  24138986.500    98845123.23645
  21738385.420   114236004.99608  21738386.940    89015092.30247
  23172923.440   121774551.25107  23172924.340    94889280.57545
  21807354.300   114598444.74209  21807355.000    89297501.72148
  23277477.200   122323981.74207  23277476.920    95317405.10445
  20926114.680   109967509.00209  20926113.020    85688975.98149
  20985458.780   110279425.83909  20985456.620    85932037.18949
  20405864.480   107233590.64909  20405866.740    83558662.18849
  22998192.180   120856379.69407  22998193.880    94173835.54346
 15 02 28 02 42  0.0000000  0  9G01G04G11G16G18G19G22G27G32
  24123600.400   126770379.84406  24123606.220    98782141.84946
  21726510.540   114173601.35508  21726511.820    88966466.10247
  23157281.880   121692354.65107  23157282.920    94825231.31946
  21823221.740   114681827.94808  21823222.420    89362475.63748
  23291813.840   122399321.76707  23291813.520    95376111.60245
  20918633.840   109928197.03609  20918632.160    85658343.28449
  20990023.200   110303411.79909  20990021.060    85950727.55249
  20406451.560   107236675.82009  20406453.820    83561066.20949
  22976970.840   120744861.67107  22976972.720    94086938.42846
 15 02 28 02 42 30.0000000  0  9G01G04G11G16G18G19G22G27G32
  24108247.760   126689701.42306  24108254.120    98719275.58645
  21714685.460   114111460.30108  21714686.680    88918044.52247
  23141663.800   121610280.51407  23141664.940    94761277.47346
  21839158.640   114765576.15109  21839159.280    89427733.95848
  23306202.700   122474935.39207  23306202.140    95435031.29245
  20911201.220   109889138.63809  20911199.560    85627908.17749
  20994683.420   110327901.33709  20994681.220    85969810.31149
  20407104.100   107240105.33009  20407106.460    83563738.55149
  22955787.620   120633544.01607  22955789.700    94000197.44346
 15 02 28 02 43  0.0000000  0  9G01G04G11G16G18G19G22G27G32
  24092923.900   126609173.55606  24092930.400    98656526.68146
  21702910.760   114049584.65708  21702912.020    88869829.74747
  23126069.700   121528331.82007  23126070.840    94697421.36246
  21855165.040   114849689.63009  21855165.560    89493276.91348
  23320643.920   122550823.37207  23320643.040    95494164.77145
  20903817.660   109850337.79909  20903816.020    85597673.76249
  20999439.840   110352896.46109  20999437.580    85989287.03349
  20407822.900   107243882.66009  20407825.340    83566681.91649
  22934643.560   120522432.08707  22934645.800    93913616.76446
 15 02 28 02 43 30.0000000  0  9G01G04G11G16G18G19G22G27G32
  24077629.300   126528799.26006  24077635.620    98593897.42145
  21691187.160   113987977.06208  21691188.340    88821823.84547
  23110500.180   121446511.92607  23110501.000    94633665.61146
  21871240.840   114934168.06709  21871241.120    89559104.26048
  23335137.380   122626985.99107  23335136.200    95553512.24045
  20896483.880   109811798.55709  20896482.240    85567643.18349
  21004292.740   110378398.61209  21004290.420    86009158.83949
  20408608.640   107248011.41509  20408611.040    83569899.12449
  22913539.680   120411531.38507  22913542.100    93827200.68046
 15 02 28 02 44  0.0000000  0  9G01G04G11G16G18G19G22G27G32
  24062363.560   126448576.55106  24062369.460    98531386.29545
  21679514.320   113926635.63008  21679515.340    88774025.34347
  23094954.700   121364818.97408  23094955.180    94570008.80445
  21887385.280   115019007.65608  21887385.280    89625213.01948
  23349682.120   122703418.92407  23349680.920    95613070.35945
  20889199.660   109773519.89309  20889198.040    85537815.65549
  21009241.420   110404404.35109  21009239.120    86029423.04749
  20409461.020   107252490.43709  20409463.360    83573389.26549
  22892476.180   120300842.62107  22892478.760    93740949.74446
 15 02 28 02 44 30.0000000  0  9G01G04G11G16G18G19G22G27G32
  24047126.740   126368506.30106  24047132.160    98468993.95346
  21667892.200   113865561.01108  21667893.260    88726434.74947
  23079433.420   121283254.14407  23079433.600    94506451.81645
  21903597.920   115104206.06208  21903597.700    89691601.37247
  23364277.920   122780120.79407  23364276.840    95672838.03745
  20881965.420   109735503.53509  20881963.760    85508192.52149
  21014285.780   110430913.03509  21014283.580    86050079.17149
  20410380.300   107257321.28609  20410382.620    83577153.55749
  22871453.640   120190369.18907  22871456.320    93654866.60146
 15 02 28 02 45  0.0000000  0  9G01G04G11G16G18G19G22G27G32
  24031920.260   126288595.97406  24031925.180    98406726.24445
  21656322.120   113804760.82308  21656323.440    88679058.00247
  23063937.880   121201825.18607  23063938.020    94443000.70945
  21919879.740   115189768.40708  21919879.440    89758273.29947
  23378926.040   122857096.99507  23378925.100    95732819.47245
  20874782.760   109697758.12609  20874781.040    85478780.52249
  21019427.080   110457931.34309  21019425.000    86071132.39849
  20411368.060   107262512.09709  20411370.380    83581198.33849
  22850474.080   120080121.22207  22850476.800    93568959.14046
 15 02 28 02 45 30.0000000  0  9G01G04G11G16G18G19G22G27G32
  24016739.180   126208817.81206  24016743.600    98344561.52845
  21644798.760   113744206.79508  21644800.500    88631873.06147
  23048462.860   121120504.55807  23048463.140    94379633.99845
  21936224.960   115275663.86208  21936224.700    89825204.79148
  23393620.740   122934317.02707  23393619.880    95792990.89545
  20867646.600   109660257.08909  20867644.800    85449558.93349
  21024659.820   110485429.52809  21024657.740    86092559.55849
  20412419.200   107268035.83009  20412421.500    83585502.54249
  22829532.700   119970073.42807  22829535.240    93483207.65546
 15 02 28 02 46  0.0000000  0  9G01G04G11G16G18G19G22G27G32
  24001588.980   126129201.98606  24001593.320    98282523.32945
  21633328.200   113683929.39608  21633330.060    88584903.68047
  23033014.340   121039322.62307  23033014.680    94316375.37645
  21952638.880   115361920.05808  21952638.720    89892417.40047
  23408367.120   123011808.95407  23408366.420    95853374.21745
  20860562.880   109623031.61109  20860561.060    85420552.07549
  21029989.380   110513436.35709  21029987.340    86114383.06249
  20413539.580   107273923.38009  20413541.880    83590090.23549
  22808635.740   119860258.74407  22808637.960    93397637.80646
 15 02 28 02 46 30.0000000  0  9G01G04G11G16G18G19G22G27G32
  23986469.840   126049751.86106  23986474.740    98220614.22145
  21621911.080   113623931.57408  21621912.740    88538152.15547
  23017593.000   120958282.90007  23017593.220    94253227.57346
  21969121.680   115448537.73108  21969121.620    89959911.68447
  23423165.180   123089573.55307  23423164.780    95913970.00246
  20853532.340   109586085.97409  20853530.620    85391763.27549
  21035416.080   110541953.84509  21035414.120    86136604.49349
  20414729.980   107280178.75909  20414732.220    83594964.55249
  22787784.280   119750682.93307  22787786.080    93312254.10546
 15 02 28 02 47  0.0000000  0 10G01G04G11G14G16G18G19G22G27G32
  23971376.220   125970438.00205  23971382.100    98158811.30246
  21610541.620   113564184.05708  21610543.060    88491595.66947
  23002193.240   120877356.50808  23002193.300    94190168.08545
  24660542.520   129592028.60204  24660538.980   100980807.21841
  21985667.100   115535484.32608  21985667.080    90027662.26847
  23438009.040   123167579.32807  23438008.960    95974753.70645
  20846549.700   109549392.03109  20846547.980    85363170.59049
  21040933.900   110570950.58709  21040932.000    86159199.36149
  20415984.940   107286773.28709  20415987.100    83600103.14449
  22766973.180   119641319.22108  22766974.700    93227035.67746
 15 02 28 02 47 30.0000000  0  9G01G04G11G16G18G19G22G27G32
  23956313.020   125891284.33305  23956319.640    98097133.18746
  21599224.300   113504710.56608  21599225.680    88445252.71147
  22986819.700   120796567.56008  22986819.660    94127215.67945
  22002279.120   115622780.96208  22002279.140    90095685.59847
  23452903.040   123245847.62707  23452902.980    96035741.96645
  20839619.640   109512974.55209  20839617.940    85334793.33549
  21046547.400   110600449.79409  21046545.420    86182185.75749
  20417309.060   107293731.49009  20417311.220    83605525.11449
  22746207.460   119532194.09508  22746208.820    93142003.17046
 15 02 28 02 48  0.0000000  0 10G01G04G11G14G16G18G19G22G27G32
  23941277.880   125812275.83606  23941284.640    98035568.18245
  21587956.160   113445495.98008  21587957.600    88399111.49647
  22971469.460   120715901.26008  22971469.400    94064358.84246
  24633266.460   129448688.05804  24633265.960   100869105.98341
  22018954.440   115710410.16908  22018954.540    90163968.07848
  23467843.900   123324361.49307  23467843.660    96096921.58445
  20832739.580   109476819.66309  20832737.840    85306620.69349
  21052253.400   110630434.59309  21052251.220    86205550.53548
  20418699.680   107301039.14009  20418701.820    83611219.37849
  22725484.720   119423295.23008  22725486.100    93057146.96746
 15 02 28 02 48 30.0000000  0 10G01G04G11G14G16G18G19G22G27G32
  23926274.740   125733433.51706  23926281.300    97974132.67046
  21576741.260   113386561.24308  21576742.720    88353188.35347
  22956146.520   120635379.08208  22956146.620    94001614.31745
  24619652.280   129377146.17304                                
  22035696.560   115798390.29608  22035696.740    90232524.00747
  23482834.940   123403139.20707  23482834.520    96158306.80745
  20825913.740   109440949.57109  20825911.940    85278669.96849
  21058055.600   110660924.68209  21058053.200    86229309.04849
  20420160.940   107308717.90809  20420163.060    83617202.83049
  22704809.400   119314646.16807  22704810.960    92972485.40846
 15 02 28 02 49  0.0000000  0 10G01G04G11G14G16G18G19G22G27G32
  23911300.140   125654740.38306  23911306.300    97912813.43145
  21565576.400   113327889.37908  21565577.760    88307470.04247
  22940847.700   120554983.84808  22940847.980    93938968.74045
  24606052.960   129305681.30904                                
  22052501.680   115886701.30308  22052501.940    90301337.76547
  23497872.340   123482161.46907  23497871.960    96219882.59045
  20819138.980   109405348.19309  20819137.240    85250928.64349
  21063950.360   110691901.26409  21063947.820    86253446.65049
  20421689.700   107316751.50109  20421691.840    83623462.76249
  22684178.760   119206232.58207  22684180.580    92888007.33646
 15 02 28 02 49 30.0000000  0 10G01G04G11G14G16G18G19G22G27G32
  23896355.080   125576202.15206  23896360.680    97851614.87546
  21554462.580   113269485.95308  21554463.800    88261960.90347
  22925574.360   120474722.11708  22925574.660    93876427.19045
  24592470.040   129234301.96305  24592468.920   100702048.92053
  22069370.460   115975346.66008  22069370.780    90370412.05647
  23512956.680   123561431.74507  23512956.620    96281651.65545
  20812416.660   109370022.24709  20812414.920    85223401.93849
  21069938.440   110723368.60309  21069935.880    86277966.65849
  20423287.160   107325146.29709  20423289.340    83630004.15549
  22663594.500   119098062.69807  22663596.520    92803719.15346
 15 02 28 02 50  0.0000000  0 10G01G04G11G14G16G18G19G22G27G32
  23881436.980   125497806.07706  23881442.240    97790527.09846
  21543397.440   113211338.18408  21543398.420    88216650.97047
  22910324.080   120394581.24407  22910324.340    93813979.79145
  24578901.580   129162998.70104  24578901.860   100646487.98644
  22086299.800   116064310.23308  22086300.200    90439734.29248
  23528085.460   123640935.21107  23528085.660    96343602.42045
  20805744.580   109334960.16509  20805742.780    85196080.83049
  21076017.120   110755312.43109  21076014.640    86302857.95849
  20424951.040   107333890.22709  20424953.260    83636817.60349
  22643054.800   118990126.42407  22643056.880    92719613.00946
 15 02 28 02 50 30.0000000  0 10G01G04G11G14G16G18G19G22G27G32
  23866550.840   125419578.36306  23866556.060    97729570.52446
  21532385.800   113153471.87208  21532386.680    88171560.36247
  22895101.740   120314587.97007  22895102.020    93751647.39845
  24565352.840   129091799.80004  24565354.160   100591008.37844
  22103294.240   116153615.75908  22103294.640    90509322.99748
  23543263.260   123720695.60807  23543263.700    96405753.37145
  20799127.960   109300189.60809  20799126.100    85168986.89449
  21082191.220   110787757.66909  21082188.820    86328139.96348
  20426686.460   107343010.22809  20426688.700    83643924.08949
  22622565.120   118882452.58107  22622567.180    92635711.35646
 15 02 28 02 51  0.0000000  0 10G01G04G11G14G16G18G19G22G27G32
  23851693.780   125341503.98306  23851699.100    97668733.40645
  21521424.880   113095872.24808  21521425.820    88126677.55747
  22879904.540   120234727.40307  22879904.860    93689418.44145
  24551821.560   129020693.06104  24551822.940   100535600.48044
  22120350.360   116243245.55908  22120350.740    90579164.39248
  23558486.780   123800695.57807  23558487.340    96468090.99545
  20792564.080   109265696.31209  20792562.220    85142109.00349
  21088457.500   110820687.46609  21088455.200    86353799.54548
  20428490.680   107352491.88309  20428492.980    83651312.38449
  22602123.080   118775028.59208  22602125.080    92552004.39246
 15 02 28 02 51 30.0000000  0 10G01G04G11G14G16G18G19G22G27G32
  23836866.140   125263584.58506  23836871.540    97608017.05345
  21510515.000   113038540.81508  21510516.120    88082003.73347
  22864732.960   120155001.80707  22864733.340    93627294.63045
  24538308.580   128949682.75404  24538310.080   100480267.79444
  22137467.880   116333198.31908  22137468.320    90649257.44147
  23573755.720   123880934.31807  23573756.440    96530614.67444
  20786053.520   109231483.28009  20786051.800    85115449.49749
  21094815.960   110854101.90409  21094813.740    86379836.76548
  20430364.180   107362337.56509  20430366.620    83658984.34049
  22581729.480   118667858.93308  22581731.420    92468495.60246
 15 02 28 02 52  0.0000000  0 10G01G04G11G14G16G18G19G22G27G32
  23822067.640   125185817.53806  23822072.740    97547419.44845
  21499655.680   112981474.57508  21499656.900    88037536.55147
  22849586.540   120075408.29907  22849587.100    93565273.75646
  24524814.080   128878769.20404  24524815.680   100425010.49245
  22154645.740   116423468.90008  22154646.360    90719598.13447
  23589069.140   123961406.92006  23589069.900    96593320.57945
  20779596.020   109197549.00109  20779594.460    85089007.20049
  21101265.840   110887996.79309  21101263.700    86406248.36948
  20432306.620   107372545.33009  20432309.100    83666938.43649
  22561384.220   118560943.48908  22561386.140    92385184.90346
 15 02 28 02 52 30.0000000  0 10G01G04G11G14G16G18G19G22G27G32
  23807298.820   125108206.20007  23807303.720    97486943.16145
  21488847.560   112924677.12908  21488848.740    87993278.82047
  22834466.340   119995951.00708  22834466.940    93503359.01545
  24511339.300   128807958.47005  24511340.880   100369833.31044
  22171884.140   116514057.76108  22171884.880    90790186.84047
  23604427.300   124042114.69006  23604428.100    96656209.73845
  20773192.340   109163897.72709  20773190.860    85062785.42749
  21107807.560   110922374.00309  21107805.460    86433035.80848
  20434318.800   107383119.19709  20434321.240    83675177.79649
  22541088.340   118454288.23808  22541090.340    92302076.95846
 15 02 28 02 53  0.0000000  0 10G01G04G11G14G16G18G19G22G27G32
  23792559.080   125030747.78607  23792563.820    97426586.01945
  21478089.900   112868145.30508  21478091.020    87949228.06647
  22819371.760   119916627.30008  22819372.200    93441548.36345
  24497884.340   128737250.72304  24497885.580   100314736.35142
  22189181.940   116604959.04108  22189182.780    90861018.99047
  23619829.180   124123052.27106  23619829.980    96719277.97545
  20766842.260   109130527.99209  20766840.840    85036783.03749
  21114440.160   110957228.65609  21114438.040    86460195.27849
  20436400.240   107394056.97209  20436402.640    83683700.73449
  22520841.900   118347892.92208  22520843.960    92219171.55646
 15 02 28 02 53 30.0000000  0 10G01G04G11G14G16G18G19G22G27G32
  23777849.340   124953447.67306  23777854.060    97366352.24745
  21467383.700   112811884.63008  21467384.880    87905388.58947
  22804303.640   119837442.90207  22804304.000    93379846.26346
  24484450.100   128666653.74905  24484451.440   100259725.75944
  22206539.660   116696175.68408  22206540.620    90932096.88747
  23635275.540   124204222.89906  23635275.980    96782527.82145
  20760547.000   109097446.08309  20760545.600    85011004.92449
  21121164.540   110992565.27009  21121162.280    86487730.30548
  20438552.080   107405364.80009  20438554.480    83692512.01449
  22500646.420   118241765.54908  22500648.500    92136474.94946
 15 02 28 02 54  0.0000000  0 10G01G04G11G14G16G18G19G22G27G32
  23763169.040   124876303.23206  23763174.040    97306239.73645
  21456728.700   112755892.35309  21456729.920    87861758.25247
  22789261.560   119758395.95907  22789261.980    93318251.28446
  24471037.200   128596167.89705  24471038.320   100204801.70144
  22223956.380   116787702.09308  22223957.320    91003416.14447
  23650765.320   124285621.86406  23650765.460    96845955.56245
  20754306.340   109064650.72509  20754304.860    84985450.09249
  21127979.740   111028379.23009  21127977.340    86515637.28348
  20440773.980   107417040.65009  20440776.320    83701610.08049
  22480501.980   118135906.21008  22480504.040    92053987.18546
 15 02 28 02 54 30.0000000  0 10G01G04G11G14G16G18G19G22G27G32
  23748518.340   124799315.12606  23748523.680    97246249.10045
  21446125.000   112700168.97609  21446126.260    87818337.45348
  22774245.680   119679487.30007  22774246.220    93256764.05646
  24457646.140   128525796.69805  24457647.240   100149967.00244
  22241431.800   116879536.46808  22241432.560    91074975.37947
  23666298.060   124367247.10006  23666298.000    96909559.63644
  20748120.580   109032143.81409  20748119.000    84960120.03649
  21134885.540   111064669.26209  21134883.080    86543915.22848
  20443066.180   107429085.88309  20443068.440    83710995.96549
  22460409.140   118030318.13808  22460411.160    91971710.80646
 15 02 28 02 55  0.0000000  0 10G01G04G11G14G16G18G19G22G27G32
  23733897.520   124722484.34206  23733902.880    97186381.02945
  21435572.660   112644715.48009  21435574.000    87775126.94748
  22759256.300   119600718.29407  22759256.800    93195385.63346
  24444277.600   128455543.60305  24444278.440   100095224.35943
  22258965.460   116971676.13708  22258965.860    91146772.50147
  23681873.640   124449097.67506  23681873.460    96973339.28845
  20741990.080   108999927.37509  20741988.360    84935016.32149
  21141881.920   111101435.21109  21141879.400    86572564.02248
  20445428.960   107441502.11809  20445431.200    83720670.95149
  22440368.560   117925004.77608  22440370.480    91889648.48546
 15 02 28 02 55 30.0000000  0 10G01G04G11G14G16G18G19G22G27G32
  23719306.080   124645807.25506  23719311.240    97126632.73545
  21425070.900   112589527.97809  21425072.300    87732123.71948
  22744292.880   119522085.42708  22744293.220    93134113.30045
  24430931.360   128385408.01805  24430932.340   100040573.28945
  22276556.200   117064115.33508  22276556.160    91218803.03547
  23697491.000   124531167.55006  23697490.720    97037289.82845
  20735914.380   108967999.03809  20735912.540    84910137.10449
  21148967.820   111138671.68609  21148965.260    86601579.46148
  20447861.740   107454286.37909  20447864.000    83730632.70349
  22420380.140   117819965.25608  22420381.920    91807799.54546
 15 02 28 02 56  0.0000000  0 10G01G04G11G14G16G18G19G22G27G32
  23704744.560   124569272.83706  23704749.280    97066987.73446
  21414620.100   112534608.59309  21414621.440    87689329.40747
  22729355.920   119443591.24108  22729356.040    93072949.01946
  24417608.260   128315394.61005  24417609.280    99986017.41743
  22294203.820   117156853.58408  22294203.420    91291066.59547
  23713150.120   124613456.42406  23713149.780    97101410.99745
  20729894.020   108936361.65409  20729892.160    84885484.59549
  21156143.260   111176378.83309  21156140.720    86630961.65348
  20450365.020   107467441.29909  20450367.360    83740883.28149
  22400444.780   117715204.14808  22400446.260    91726167.55446
 15 02 28 02 56 30.0000000  0 10G01G04G11G14G16G18G19G22G27G32
  23690212.760   124492908.52206  23690217.760    97007483.14045
  21404220.460   112479958.38909  21404221.660    87646744.84947
  22714445.780   119365237.44308  22714445.660    93011894.15546
  24404308.980   128245507.48405  24404310.060    99931559.91044
  22311908.020   117249889.18908  22311907.420    91363561.84747
  23728850.920   124695963.49506  23728850.480    97165702.22145
  20723929.460   108905017.96109  20723927.660    84861060.94849
  21163408.140   111214556.43709  21163405.700    86660710.43648
  20452939.220   107480968.87909  20452941.600    83751424.24949
  22380563.180   117610725.31408  22380564.360    91644755.51346
 15 02 28 02 57  0.0000000  0 10G01G04G11G14G16G18G19G22G27G32
  23675711.140   124416702.09406  23675716.080    96948101.53945
  21393872.220   112425578.33608  21393873.280    87604370.79647
  22699562.800   119287025.48608  22699562.460    92950949.79546
  24391034.300   128175750.29905  24391035.540    99877203.67044
  22329668.380   117343219.69108  22329667.700    91436286.89147
  23744592.940   124778687.29606  23744592.340    97230162.31845
  20718021.200   108873970.06309  20718019.420    84836867.78549
  21170762.320   111253203.47809  21170760.020    86690825.01148
  20455584.620   107494870.64809  20455587.000    83762256.78549
  22360736.020   117506532.28608  22360736.940    91563566.17546
 15 02 28 02 57 30.0000000  0 10G01G04G11G14G16G18G19G22G27G32
  23661239.060   124340650.16006  23661243.940    96888840.33445
  21383574.640   112371464.88108  21383575.760    87562204.48048
  22684706.160   119208952.31808  22684705.760    92890113.57846
  24377784.320   128106122.50806  24377785.820    99822948.26544
  22347483.820   117436839.64608  22347483.200    91509237.48347
  23760375.060   124861622.37306  23760374.480    97294787.04444
  20712168.800   108843215.69309  20712167.040    84812903.34349
  21178204.920   111292314.96509  21178202.720    86721301.49548
  20458300.680   107509143.79709  20458303.080    83773378.71649
  22340963.120   117402624.24908  22340963.820    91482598.91046
 15 02 28 02 58  0.0000000  0 10G01G04G11G14G16G18G19G22G27G32
  23646797.160   124264756.07307  23646801.840    96829702.15345
  21373328.440   112317621.23608  21373329.680    87520248.41547
  22669876.460   119131021.58208  22669876.280    92829388.35846
  24364560.460   128036630.17406  24364561.920    99768798.39044
  22365354.180   117530748.75308  22365353.720    91582413.39047
  23776197.340   124944769.56806  23776196.840    97359577.07745
  20706373.120   108812759.29209  20706371.400    84789171.08449
  21185736.300   111331892.59509  21185734.180    86752141.21048
  20461088.220   107523792.31909  20461090.620    83784793.14049
  22321245.560   117299007.27008  22321246.160    91401858.44646
 15 02 28 02 58 30.0000000  0 10G01G04G11G14G16G18G19G22G27G32
  23632385.140   124189019.78406  23632389.540    96770686.93645
  21363133.500   112264047.07208  21363134.920    87478502.32647
  22655073.640   119053233.63308  22655073.960    92768774.38246
  24351363.000   127967276.12306  24351364.220    99714756.27544
  22383279.060   117624944.88608  22383278.820    91655812.96047
  23792059.520   125028126.56406  23792059.060    97424530.55444
  20700634.400   108782602.15709  20700632.700    84765672.02449
  21193356.100   111371934.60409  21193353.980    86783342.77848
  20463947.300   107538816.77809  20463949.720    83796500.51149
  22301583.780   117195683.81908  22301584.400    91321346.69946
 15 02 28 02 59  0.0000000  0 10G01G04G11G14G16G18G19G22G27G32
  23618003.000   124113441.24406  23618007.280    96711794.62946
  21352989.920   112210742.59108  21352991.420    87436966.36848
  22640298.000   118975589.10208  22640298.780    92708272.16046
  24338192.320   127898063.23305  24338193.460    99660824.16745
  22401257.840   117719424.76908  22401257.880    91729433.63247
  23807961.300   125111691.21106  23807960.780    97489645.84944
  20694952.880   108752745.25209  20694951.060    84742406.90849
  21201063.940   111412439.14909  21201061.780    86814904.76748
  20466878.000   107554217.70509  20466880.380    83808501.22949
  22281978.240   117092656.36508  22281978.980    91241065.59747
 15 02 28 02 59 30.0000000  0 10G01G04G11G14G16G18G19G22G27G32
  23603650.720   124038019.83207  23603654.940    96653024.77946
  21342897.520   112157706.91009  21342899.000    87395639.86848
  22625549.880   118898087.97808  22625550.780    92647881.70546
  24325048.560   127828993.46506  24325049.920    99607003.56445
  22419290.000   117814185.54708  22419290.380    91803273.18147
  23823902.240   125195461.05806  23823901.540    97554921.02944
  20689328.580   108723189.31409  20689326.720    84719376.30249
  21208859.340   111453403.98109  21208857.180    86846825.42448
  20469880.420   107569995.16309  20469882.640    83820795.34549
  22262429.360   116989926.93308  22262430.340    91161016.72746
 15 02 28 03 00  0.0000000  0 10G01G04G11G14G16G18G19G22G27G32
  23589328.100   123962753.34607  23589332.140    96594375.62745
  21332855.880   112104937.73009  21332857.200    87354521.03548
  22610828.900   118820727.92508  22610829.560    92587601.17346
  24311932.200   127760067.54206  24311933.720    99553295.09645
  22437374.520   117909221.44208  22437375.220    91877327.10447
  23839881.280   125279430.90806  23839880.380    97620352.06644
  20683761.340   108693933.05809  20683759.400    84696579.22349
  21216741.560   111494825.10409  21216739.400    86879101.62948
  20472954.160   107586147.49209  20472956.300    83833381.56949
  22242937.240   116887495.93108  22242938.480    91081200.40146
 15 02 28 03 00 30.0000000  0 10G01G04G11G14G16G18G19G22G27G32
  23575035.720   123887645.64407  23575039.600    96535850.22945
  21322865.780   112052438.93009  21322866.880    87313612.89947
  22596135.580   118743513.16708  22596136.120    92527433.84146
  24298844.560   127691292.35706  24298846.140    99499704.03945
  22455511.820   118004534.03308  22455512.740    91951596.63347
  23855898.720   125363602.57106  23855897.620    97685940.35844
  20678252.100   108664981.83309  20678250.160    84674019.82949
  21224710.940   111536704.51009  21224708.780    86911734.93748
  20476100.040   107602679.23509  20476102.140    83846263.43049
  22223503.100   116785369.74608  22223504.660    91001621.58847
 15 02 28 03 01  0.0000000  0 10G01G04G11G14G16G18G19G22G27G32
  23560773.200   123812696.19007  23560777.220    96477448.10846
  21312927.000   112000209.74509  21312927.960    87272914.85548
  22581469.880   118666444.22008  22581470.520    92467380.14546
  24285786.280   127622670.07006  24285787.680    99446232.13345
  22473701.240   118100119.87808  22473702.280    92026079.09947
  23871953.920   125447973.34506  23871952.900    97751683.81344
  20672801.000   108636336.16709  20672799.140    84651698.53549
  21232767.020   111579040.03509  21232764.980    86944723.65548
  20479318.140   107619590.48009  20479320.200    83859441.00749
  22204127.420   116683550.62508  22204129.220    90922282.06047
 15 02 28 03 01 30.0000000  0 10G01G04G11G14G16G18G19G22G27G32
  23546540.600   123737904.94006  23546544.840    96419169.26946
  21303039.540   111948250.27409  21303040.420    87232426.97548
  22566831.820   118589521.17908  22566832.580    92407440.14846
  24272757.680   127554203.16406  24272758.860    99392881.32245
  22491942.160   118195976.00208  22491943.200    92100772.15347
  23888046.560   125532541.16206  23888045.880    97817580.78244
  20667408.240   108607997.27909  20667406.440    84629616.29149
  21240909.480   111621829.72309  21240907.580    86978066.27648
  20482608.580   107636881.62009  20482610.560    83872914.61649
  22184810.640   116582040.83908  22184812.600    90843183.55047
 15 02 28 03 02  0.0000000  0 10G01G04G11G14G16G18G19G22G27G32
  23532338.280   123663273.47106  23532342.740    96361014.91846
  21293203.560   111896561.79809  21293204.480    87192150.24248
  22552221.880   118512746.02808  22552222.600    92347615.37746
  24259759.380   127485896.14306  24259760.460    99339655.05145
  22510234.220   118292100.69608  22510235.140    92175674.49147
  23904176.400   125617305.42606  23904176.220    97883630.84144
  20662074.420   108579967.86309  20662072.640    84607775.18649
  21249138.380   111665073.28409  21249136.560    87011762.55748
  20485971.800   107654554.91609  20485973.700    83886686.00649
  22165553.520   116480844.61008  22165555.600    90764329.36747
 15 02 28 03 02 30.0000000  0 10G01G04G11G14G16G18G19G22G27G32
  23518165.720   123588796.85906  23518170.220    96302981.24245
  21283418.140   111845139.25209  21283419.100    87152080.74448
  22537639.520   118436114.70408  22537639.760    92287902.68846
  24246791.080   127417746.95606  24246791.940    99286551.80145
  22528576.080   118388487.02508  22528576.840    92250780.70547
  23920342.240   125702258.58406  23920342.460    97949828.08944
  20656798.800   108552244.43509  20656797.120    84586172.51649
  21257452.620   111708764.27909  21257450.620    87045807.48748
  20489406.800   107672606.02609  20489408.760    83900751.79249
  22146355.680   116379959.63508  22146357.720    90685717.72447
 15 02 28 03 03  0.0000000  0 10G01G04G11G14G16G18G19G22G27G32
  23504023.500   123514477.85906  23504027.660    96245070.41746
  21273683.840   111793985.27909  21273684.820    87112220.51448
  22523085.220   118359630.15608  22523084.780    92228304.36846
  24233853.840   127349761.40106  24233854.800    99233576.07445
  22546967.680   118485134.88908  22546968.300    92326090.70847
  23936544.260   125787401.63006  23936544.660    98016173.28944
  20651582.160   108524830.77509  20651580.460    84564811.22749
  21265852.220   111752903.59309  21265849.940    87080201.75448
  20492914.400   107691038.31809  20492916.380    83915114.61049
  22127218.100   116279391.24408  22127220.020    90607352.77347
 15 02 28 03 03 30.0000000  0 10G01G04G11G14G16G18G19G22G27G32
  23489911.320   123440317.33506  23489915.420    96187283.07346
  21264000.900   111743100.93909  21264001.820    87072570.39548
  22508559.000   118283293.61108  22508558.200    92168821.37346
  24220948.380   127281942.93206  24220949.520    99180730.52744
  22565408.540   118582041.72408  22565409.080    92401602.51347
  23952782.360   125872733.25406  23952782.640    98082665.43244
  20646424.900   108497729.01509  20646423.160    84543692.97749
  21274336.900   111797490.32709  21274334.480    87114944.66348
  20496494.800   107709853.17909  20496496.780    83929775.53749
  22108141.500   116179142.87408  22108143.280    90529237.19347
 15 02 28 03 04  0.0000000  0 10G01G04G11G14G16G18G19G22G27G32
  23475828.880   123366314.87206  23475833.380    96129618.89246
  21254369.140   111692485.61409  21254370.040    87033129.90348
  22494060.820   118207105.53708  22494060.140    92109454.06046
  24208075.300   127214294.16707  24208076.500    99128017.20744
  22583898.140   118679204.72508  22583898.680    92477313.91947
  23969056.040   125958250.82406  23969055.920    98149302.50844
  20641327.140   108470939.91609  20641325.300    84522818.35049
  21282906.180   111842522.15809  21282903.780    87150034.39948
  20500147.940   107729050.82709  20500149.960    83944734.73349
  22089126.280   116079216.74008  22089127.920    90451372.70047
 15 02 28 03 04 30.0000000  0 10G01G04G11G14G16G18G19G22G27G32
  23461776.560   123292471.78006  23461781.540    96072078.84346
  21244788.720   111642140.53809  21244789.720    86993899.99148
  22479591.000   118131067.27808  22479590.800    92050203.50246
  24195235.340   127146819.19106  24195236.540    99075439.33045
  22602436.120   118776622.36008  22602436.840    92553223.73947
  23985364.840   126043953.03706  23985364.380    98216083.43344
  20636289.300   108444466.07209  20636287.440    84502189.37949
  21291559.980   111887998.25809  21291557.660    87185470.32948
  20503874.220   107748632.95509  20503876.300    83959993.53249
  22070173.100   115979616.53108  22070174.720    90373762.17647
 15 02 28 03 05  0.0000000  0 10G01G04G11G14G16G18G19G22G27G32
  23447754.980   123218788.32207  23447759.940    96014663.21045
  21235259.760   111592065.95909  21235260.860    86954880.84948
  22465149.860   118055179.83908  22465150.280    91991070.47246
  24182428.860   127079521.00806  24182430.000    99022999.20443
  22621021.940   118874291.92908  22621022.880    92629329.87447
  24001708.300   126129838.42606  24001707.840    98283007.10943
  20631311.700   108418308.83109  20631309.920    84481807.11749
  21300298.120   111933917.48509  21300295.900    87221251.54948
  20507673.940   107768600.54209  20507676.000    83975552.68849
  22051282.540   115880345.27208  22051284.160    90296407.96747
 15 02 28 03 05 30.0000000  0 10G01G04G11G14G16G18G19G22G27G32
  23433763.260   123145259.73907  23433767.820    95957368.24446
  21225781.380   111542256.95109  21225782.500    86916068.65248
  22450736.880   117979439.08408  22450737.460    91932051.72246
  24169655.680   127012397.85606  24169656.840    98970695.48844
  22639654.200   118972205.57108  22639655.280    92705626.19847
  24018085.160   126215900.00006  24018084.820    98350068.05144
  20626393.700   108392464.78209  20626391.920    84461668.89549
  21309119.300   111980273.08109  21309117.100    87257372.79648
  20511546.160   107788949.39509  20511548.220    83991408.92949
  22032454.080   115781400.73408  22032455.780    90219308.36247
 15 02 28 03 06  0.0000000  0 10G01G04G11G14G16G18G19G22G27G32
  23419801.720   123071889.59107  23419805.960    95900196.76145
  21216354.240   111492716.90709  21216355.320    86877466.03848
  22436352.720   117903848.92008  22436353.080    91873150.33246
  24156917.140   126945455.96706  24156918.020    98918533.00244
  22658333.280   119070364.74608  22658334.340    92782113.85347
  24034495.880   126302139.11806  24034495.620    98417267.35743
  20621536.220   108366938.65709  20621534.440    84441778.40649
  21318023.820   112027066.77809  21318021.520    87293835.42048
  20515491.680   107809683.55009  20515493.780    84007565.40649
  22013688.860   115682788.94808  22013690.620    90142468.03947
 15 02 28 03 06 30.0000000  0 10G01G04G11G14G16G18G19G22G27G32
  23405870.460   122998679.65807  23405874.540    95843150.12645
  21206978.620   111443447.47909  21206979.720    86839074.29448
  22421997.700   117828411.58508  22421997.600    91814368.02046
  24144214.000   126878700.06406  24144214.640    98866515.42545
  22677058.940   119168768.12008  22677059.880    92858791.79047
  24050940.380   126388555.26706  24050940.080    98484604.61743
  20616739.860   108341733.51809  20616738.080    84422138.03849
  21327011.640   112074298.36109  21327009.220    87330639.25348
  20519511.020   107830805.29809  20519513.100    84024023.90449
  21994987.720   115584514.36408  21994989.460    90065890.47447
 15 02 28 03 07  0.0000000  0 10G01G04G11G14G16G18G19G22G27G32
  23391969.100   122925628.03107  23391973.020    95786226.83746
  21197654.060   111394446.71609  21197655.260    86800891.90948
  22407671.420   117753125.78408  22407671.040    91755703.79246
  24131546.400   126812131.07406  24131547.100    98814643.50245
  22695830.080   119267410.49908  22695830.900    92935655.96547
  24067417.860   126475144.49706  24067417.540    98552076.69943
  20612004.420   108316848.71509  20612002.680    84402747.28949
  21336082.140   112121964.19509  21336079.640    87367781.46148
  20523603.840   107852313.28309  20523605.980    84040783.36749
  21976350.800   115486577.39508  21976352.520    89989575.97847
 15 02 28 03 07 30.0000000  0 10G01G04G11G14G16G18G19G22G27G32
  23378098.240   122852737.05007  23378101.920    95729428.73146
  21188381.040   111345717.04809  21188382.320    86762920.76148
  22393374.320   117677994.33708  22393373.900    91697159.84646
  24118915.180   126745754.20906  24118915.980    98762921.27545
  22714646.580   119366291.71108  22714647.380    93012706.23646
  24083928.320   126561906.85906  24083927.960    98619683.72444
  20607330.600   108292287.76509  20607328.900    84383608.89049
  21345235.360   112170064.70909  21345232.900    87405262.37748
  20527770.680   107874210.43009  20527772.940    84057846.07349
  21957779.180   115388983.20508  21957780.840    89913528.57947
 15 02 28 03 08  0.0000000  0 10G01G04G11G14G16G18G19G22G27G32
  23364257.800   122780005.43507  23364261.380    95672754.79545
  21179159.460   111297257.08509  21179160.640    86725159.76948
  22379106.320   117603016.66108  22379106.140    91638735.70746
  24106320.560   126679570.85506  24106321.740    98711349.85345
  22733507.700   119465407.87008  22733508.520    93089939.58047
  24100471.120   126648839.05506  24100470.840    98687423.07543
  20602718.380   108268050.66109  20602716.720    84364722.83749
  21354470.640   112218596.71409  21354468.260    87443079.52848
  20532011.440   107896495.90309  20532013.760    84075211.37749
  21939273.080   115291732.81708  21939274.640    89837749.08947
 15 02 28 03 08 30.0000000  0 10G01G04G11G14G16G18G19G22G27G32
  23350447.400   122707431.47007  23350451.100    95616203.71746
  21169988.920   111249064.97009  21169989.840    86687607.48648
  22364867.440   117528191.59508  22364867.460    91580430.46846
  24093763.020   126613582.17105  24093764.440    98659930.10545
  22752412.560   119564754.34008  22752413.520    93167352.38947
  24117045.500   126735937.41406  24117045.280    98755291.95944
  20598167.740   108244136.89209  20598166.060    84346088.73149
  21363787.320   112267556.68909  21363785.040    87481230.15248
  20536325.940   107919168.47009  20536328.200    84092878.31049
  21920832.560   115194827.04908  21920834.080    89762238.13547
 15 02 28 03 09  0.0000000  0 10G01G04G11G14G16G18G19G22G27G32
  23336667.120   122635016.10607  23336671.100    95559776.19546
  21160869.420   111201141.35609  21160870.240    86650264.41948
  22350657.940   117453520.56808  22350658.140    91522245.27246
  24081243.640   126547792.03006  24081244.860    98608665.08344
  22771360.860   119664328.92708  22771361.920    93244942.95047
  24133651.180   126823200.52006  24133651.100    98823289.12944
  20593679.120   108220548.60609  20593677.360    84327708.25349
  21373185.200   112316943.41309  21373183.000    87519713.32148
  20540714.340   107942229.65509  20540716.600    84110848.05649
  21902458.280   115098269.44808  21902459.820    89686998.46747
 15 02 28 03 09 30.0000000  0 10G01G04G11G14G16G18G19G22G27G32
  23322916.880   122562759.14806  23322921.260    95503472.10346
  21151800.880   111153486.31109  21151801.800    86613130.64448
  22336477.780   117379003.43708  22336477.960    91464179.98446
  24068762.640   126482203.32806  24068763.720    98557557.03944
  22790352.020   119764128.76908  22790353.120    93322709.03447
  24150287.740   126910625.99905  24150287.560    98891412.87743
  20589252.600   108197286.75309  20589250.780    84309582.13549
  21382663.980   112366754.86709  21382661.840    87558527.43948
  20545176.680   107965679.67509  20545179.000    84129120.79149
  21884150.660   115002062.35008  21884152.240    89612031.91647
 15 02 28 03 10  0.0000000  0 10G01G04G11G14G16G18G19G22G27G32
  23309197.360   122490664.09706  23309202.080    95447294.18246
  21142784.020   111106103.14109  21142785.160    86576208.71848
  22322327.820   117304645.30008  22322327.960    91406238.60146
  24056321.080   126416822.12205  24056321.820    98506610.66445
  22809386.240   119864154.93308  22809387.320    93400651.48046
  24166955.340   126998215.32205  24166955.480    98959664.26344
  20584889.100   108174356.27409  20584887.300    84291714.23049
  21392224.040   112416993.00609  21392221.980    87597674.04548
  20549713.820   107989522.58809  20549716.160    84147699.67849
  21865910.760   114906211.72508  21865912.420    89537343.13947
 15 02 28 03 10 30.0000000  0 10G01G04G11G14G16G18G19G22G27G32
  23295507.940   122418726.68707  23295512.820    95391239.10046
  21133818.100   111058987.46009  21133819.440    86539495.22148
  22308207.180   117230441.80108  22308207.280    91348417.72046
  24043918.580   126351645.15405  24043919.900    98455826.01744
  22828462.180   119964400.08608  22828463.120    93478764.57746
  24183652.780   127085962.14405  24183653.180    99028038.39344
  20580588.060   108151754.10109  20580586.300    84274102.14349
  21401864.120   112467651.44009  21401862.040    87637148.15248
  20554325.040   108013754.57909  20554327.340    84166581.74049
  21847738.420   114810715.88008  21847740.080    89462930.81347
 15 02 28 03 11  0.0000000  0 10G01G04G11G14G16G18G19G22G27G32
  23281849.200   122346948.54307  23281853.800    95335308.14746
  21124903.500   111012140.83109  21124904.820    86502991.36548
  22294116.520   117156395.29008  22294116.500    91290719.15946
  24031556.340   126286680.86105  24031557.820    98405204.51644
  22847579.600   120064862.72308  22847580.360    93557047.13046
  24200380.160   127173866.08105  24200380.940    99096534.96144
  20576349.940   108129482.96109  20576348.300    84256748.01049
  21411584.160   112518730.07209  21411581.960    87676949.68948
  20559010.660   108038377.79309  20559013.020    84185768.64949
  21829634.460   114715578.79208  21829636.000    89388798.05247
 15 02 28 03 11 30.0000000  0 10G01G04G11G14G16G18G19G22G27G32
  23268220.480   122275327.28707  23268224.640    95279499.44346
  21116039.700   110965560.73609  21116040.820    86466695.19448
  22280055.500   117082503.90508  22280055.320    91233141.48346
  24019234.800   126221927.63105  24019236.800    98354749.43843
  22866737.500   120165537.91708  22866738.100    93635495.31746
  24217136.820   127261922.67105  24217137.860    99165150.47044
  20572174.640   108107541.91109  20572173.040    84239651.09449
  21421383.240   112570224.08609  21421380.840    87717074.89948
  20563770.340   108063390.23609  20563772.760    84205258.85149
  21811598.880   114620800.71708  21811600.320    89314945.03547
 15 02 28 03 12  0.0000000  0 10G01G04G11G14G16G18G19G22G27G32
  23254621.480   122203863.11107  23254625.480    95223813.13446
  21107226.660   110919247.51709  21107227.620    86430606.97848
  22266024.220   117008768.60308  22266023.940    91175685.42846
  24006953.440   126157390.69204  24006953.600    98304482.39643
  22885935.320   120266422.81108  22885935.720    93714106.89046
  24233922.320   127350129.83905  24233923.520    99233883.32443
  20568062.440   108085932.40709  20568060.860    84222812.51949
  21431261.000   112622131.88609  21431258.480    87757522.53848
  20568604.260   108088792.62809  20568606.700    84225052.91549
  21793632.100   114526384.27508  21793633.480    89241373.80847
 15 02 28 03 12 30.0000000  0  9G01G04G11G16G18G19G22G27G32
  23241053.240   122132562.07707  23241057.340    95168253.92446
  21098465.400   110873206.89809  21098466.340    86394731.19348
  22252023.820   116935195.85208  22252023.620    91118356.03646
  22905173.740   120367521.11408  22905174.000    93792884.77346
  24250737.240   127438491.32705  24250738.420    99302736.39844
  20564014.660   108064661.46309  20564013.080    84206237.75849
  21441218.320   112674457.89309  21441215.740    87798296.05348
  20573513.700   108114591.39209  20573516.060    84245155.84349
  21775735.700   114432337.97408  21775737.120    89168091.00147
 15 02 28 03 13  0.0000000  0  9G01G04G11G16G18G19G22G27G32
  23227515.260   122061420.53207  23227519.480    95112818.99846
  21089755.260   110827435.10009  21089756.200    86359064.87648
  22238053.600   116861782.54108  22238053.580    91061150.87646
  22924451.460   120468826.05408  22924451.680    93871823.66446
  24267580.460   127527001.69505  24267581.500    99371705.52244
  20560030.960   108043726.81309  20560029.340    84189925.04549
  21451254.040   112727196.15409  21451251.460    87839390.80748
  20578497.920   108140783.40809  20578500.260    84265565.20149
  21757909.420   114338660.65008  21757910.940    89095095.72147
 15 02 28 03 13 30.0000000  0  9G01G04G11G16G18G19G22G27G32
  23214007.240   121990436.00407  23214011.440    95057506.41646
  21081095.820   110781929.81909  21081096.780    86323606.23048
  22224113.260   116788526.94208  22224113.480    91004068.60546
  22943767.460   120570332.06108  22943767.560    93950919.21946
  24284451.120   127615656.59705  24284451.860    99440787.22243
  20556111.000   108023127.31509  20556109.360    84173873.48949
  21461367.380   112780342.33609  21461364.840    87880803.41348
  20583556.560   108167366.56709  20583558.880    84286279.34049
  21740153.300   114245352.23008  21740154.900    89022387.88547
 15 02 28 03 14  0.0000000  0  9G01G04G11G16G18G19G22G27G32
  23200530.360   121919614.30907  23200534.520    95002320.72546
  21072488.180   110736696.71009  21072489.240    86288359.67048
  22210204.380   116715435.68908  22210204.600    90947114.41046
  22963122.420   120672042.72408  22963122.340    94030174.26346
  24301350.020   127704459.57905  24301350.580    99509984.31743
  20552256.200   108002869.88909  20552254.500    84158088.48649
  21471559.140   112833900.35409  21471556.600    87922536.92248
  20588690.760   108194347.12509  20588693.140    84307303.14049
  21722468.940   114152421.11108  21722470.580    88949974.05147
 15 02 28 03 14 30.0000000  0 10G01G04G11G14G16G18G19G22G27G32
  23187083.320   121848949.14007  23187087.340    94947256.98346
  21063931.120   110691729.27709  21063932.240    86253320.12648
  22196325.740   116642502.63608  22196325.780    90890283.49346
  23946185.420   125838063.57805  23946186.800    98055629.45045
  22982514.500   120773948.57708  22982514.220    94109581.39846
  24318275.860   127793402.18405  24318275.060    99579286.21642
  20548465.500   107982949.61609  20548463.780    84142566.19749
  21481827.760   112887861.96709  21481825.160    87964584.93048
  20593899.460   108221719.19109  20593901.900    84328632.01649
  21704855.700   114059863.45108  21704857.300    88877851.22847
 15 02 28 03 15  0.0000000  0  8G01G04G11G16G19G22G27G32
  23173664.780   121778434.30707  23173668.780    94892310.40846
  21055423.400   110647021.31409  21055424.580    86218482.76248
  22182476.340   116569722.63908  22182476.180    90833571.83746
  23001942.080   120876040.63908  23001941.500    94189133.63646
  20544737.980   107963361.45509  20544736.260    84127302.69149
  21492171.520   112942218.97109  21492168.980    88006941.03948
  20599181.580   108249477.01909  20599184.080    84350261.48649
  21687312.880   113967675.41008  21687314.340    88806016.41947
 15 02 28 03 15 30.0000000  0  8G01G04G11G16G19G22G27G32
  23160278.920   121708092.67507  23160283.320    94837498.78346
  21046969.420   110602595.75109  21046970.600    86183865.45748
  22168660.440   116497119.06308  22168660.160    90776997.64346
  23021408.900   120978338.82208  23021408.060    94268846.47746
  20541078.120   107944129.27109  20541076.520    84112316.57549
  21502594.400   112996992.12209  21502592.020    88049621.41648
  20604541.520   108277643.81209  20604544.000    84372209.62749
  21669845.220   113875882.28908  21669846.520    88734489.33247
 15 02 28 03 16  0.0000000  0  8G01G04G11G16G19G22G27G32
  23146923.760   121637913.71806  23146928.800    94782813.91446
  21038567.140   110558441.96809  21038568.260    86149459.92648
  22154876.260   116424682.20408  22154875.920    90720553.35446
  23040912.420   121080829.81008  23040911.460    94348709.56446
  20537484.400   107925244.24209  20537482.820    84097600.97349
  21513094.120   113052168.89309  21513091.860    88092616.30348
  20609977.360   108306209.48109  20609979.940    84394468.57349
  21652451.240   113784475.99208  21652452.360    88663263.66547
 15 02 28 03 16 30.0000000  0  9G01G04G11G14G16G19G22G27G32
  23133599.560   121567896.51907  23133604.740    94728255.09145
  21030216.440   110514558.77209  21030217.460    86115265.25148
  22141123.700   116352411.44108  22141123.380    90664238.48746
  23898369.860   125586777.31105  23898372.180    97859837.85643
  23060451.960   121183510.15508  23060451.060    94428720.19446
  20533956.820   107906706.41409  20533955.200    84083155.90549
  21523670.240   113107746.66109  21523668.000    88135923.65248
  20615489.060   108335173.44409  20615491.680    84417037.88349
  21635131.160   113693457.97708  21635132.120    88592340.56447
 15 02 28 03 17  0.0000000  0  9G01G04G11G14G16G19G22G27G32
  23120303.500   121498025.20207  23120308.140    94673809.95846
  21021914.280   110470930.37809  21021915.280    86081269.12148
  22127399.820   116280291.45708  22127399.500    90608041.12246
  23886530.260   125524557.89105  23886532.340    97811355.18944
  23080023.820   121286360.88408  23080023.220    94508863.60346
  20530492.380   107888501.01609  20530490.820    84068969.88749
  21534319.300   113163707.39709  21534317.020    88179529.41748
  20621073.620   108364520.24309  20621076.180    84439905.51349
  21617882.400   113602814.81008  21617883.280    88521709.55447
 15 02 28 03 17 30.0000000  0  9G01G04G11G14G16G19G22G27G32
  23107038.200   121428314.21407  23107042.380    94619489.74846
  21013663.300   110427570.82209  21013664.340    86047482.48048
  22113707.460   116208337.44908  22113707.120    90551973.09146
  23874738.000   125462586.89006  23874739.540    97763066.15444
  23099630.320   121389393.69208  23099630.000    94589148.89246
  20527094.260   107870643.68009  20527092.620    84055055.08449
  21545043.460   113220063.38009  21545041.240    88223443.17048
  20626733.740   108394264.61609  20626736.320    84463082.93549
  21600708.140   113512563.35708  21600709.040    88451383.76747
 15 02 28 03 18  0.0000000  0  9G01G04G11G14G16G19G22G27G32
  23093804.120   121358767.73707  23093808.300    94565297.73946
  21005464.300   110384484.70809  21005465.440    86013908.89848
  22100047.540   116136554.26908  22100047.160    90496038.15546
  23862994.220   125400871.78506  23862995.240    97714976.45642
  23119271.740   121492609.94908  23119271.540    94669577.13146
  20523763.520   107853140.17409  20523761.820    84041416.00149
  21555843.280   113276817.05609  21555841.120    88267666.82848
  20632470.400   108424411.18309  20632473.020    84486573.77049
  21583609.620   113422710.20408  21583610.600    88381368.33247
 15 02 28 03 18 30.0000000  0  9G01G04G11G14G16G19G22G27G32
  23080600.260   121289380.03907  23080604.580    94511229.44846
  20997316.120   110341665.83309  20997317.320    85980543.55548
  22086419.140   116064937.02708  22086418.760    90440232.54146
  23851298.300   125339409.22905  23851299.300    97667083.54543
  23138946.460   121596000.82208  23138946.200    94750141.42546
  20520499.200   107835985.93609  20520497.520    84028049.06849
  21566717.200   113333960.49609  21566715.140    88312194.19448
  20638282.600   108454954.51809  20638285.240    84510373.77249
  21566586.200   113333252.00908  21566587.340    88311660.66147
 15 02 28 03 19  0.0000000  0  9G01G04G11G14G16G19G22G27G32
  23067426.820   121220151.22407  23067430.980    94457284.97846
  20989218.840   110299114.46009  20989220.120    85947386.67448
  22072822.460   115993486.43608  22072822.100    90384556.78847
  23839650.900   125278202.26506  23839651.820    97619389.79444
  23158654.040   121699564.43308  23158653.700    94830840.32546
  20517301.580   107819182.05809  20517299.860    84014955.15249
  21577664.980   113391491.80909  21577663.000    88357023.80148
  20644170.440   108485895.06109  20644173.080    84534483.27849
  21549638.300   113244191.15808  21549639.700    88242262.63447
 15 02 28 03 19 30.0000000  0  9G01G04G11G14G16G19G22G27G32
  23054283.920   121151083.54407  23054287.780    94403466.05847
  20981172.900   110256832.89109  20981174.260    85914440.02448
  22059258.180   115922205.48208  22059257.800    90329013.22347
  23828053.040   125217255.90606  23828054.000    97571899.14343
  23178394.320   121803299.76608  23178393.800    94911673.03446
  20514171.400   107802732.37609  20514169.580    84002137.22849
  21588686.640   113449410.97109  21588684.680    88402155.61948
  20650134.360   108517235.37309  20650137.000    84558904.30449
  21532766.920   113155532.32708  21532768.540    88173177.86447
 15 02 28 03 20  0.0000000  0  9G01G04G11G14G16G19G22G27G32
  23041171.320   121082177.36107  23041175.220    94349772.98046
  20973178.340   110214821.02909  20973179.720    85881703.53348
  22045726.380   115851095.02808  22045725.980    90273602.50446
  23816505.360   125156573.51506  23816506.700    97524614.19444
  23198166.740   121907204.02008  23198166.020    94992637.36446
  20511108.800   107786638.20209  20511106.940    83989596.32749
  21599781.880   113507716.53609  21599779.780    88447588.53148
  20656174.480   108548976.18909  20656177.080    84583637.40749
  21515972.700   113067278.26008  21515974.360    88104408.49647
 15 02 28 03 20 30.0000000  0  9G01G04G11G14G16G19G22G27G32
  23028088.960   121013431.74707  23028093.280    94296204.99947
  20965235.000   110173078.06809  20965236.320    85849176.55848
  22032226.980   115780154.92808  22032226.560    90218324.53747
  23805008.240   125096156.65106  23805009.700    97477536.14345
  23217970.520   122011273.50507  23217969.580    95073730.44746
  20508113.920   107770899.59109  20508111.940    83977332.47549
  21610950.140   113566405.59909  21610947.820    88493320.27548
  20662290.640   108581116.77209  20662293.220    84608682.01949
  21499255.860   112979430.28408  21499257.420    88035955.54248
 15 02 28 03 21  0.0000000  0  9G01G04G11G14G16G19G22G27G32
  23015036.700   120944842.94207  23015041.260    94242759.20046
  20957342.120   110131600.18809  20957343.300    85816856.13848
  22018759.300   115709382.03408  22018758.940    90163176.84847
  23793561.580   125036004.35606  23793563.160    97430664.23345
  23237804.400   122115501.65708  23237803.360    95154947.17946
  20505186.220   107755514.32109  20505184.160    83965343.96749
  21622190.220   113625472.34809  21622187.720    88539346.30948
  20668482.240   108613653.73909  20668484.760    84634035.49449
  21482616.080   112891987.03608  21482617.480    87967817.97247
 15 02 28 03 21 30.0000000  0  9G01G04G11G14G16G19G22G27G32
  23002014.920   120876412.92407  23002019.440    94189437.14346
  20949500.040   110090389.39409  20949501.060    85784743.84148
  22005323.940   115638779.25608  22005323.620    90108161.71447
  23782166.340   124976121.74506  23782167.960    97384002.47945
  23257668.380   122219888.30207  23257667.300    95236287.41145
  20502326.380   107740485.54009  20502324.240    83953633.22949
  21633502.120   113684916.58609  21633499.560    88585666.48648
  20674749.660   108646589.39809  20674752.180    84659699.63449
  21466054.160   112804952.81008  21466055.420    87899999.11148
 15 02 28 03 22  0.0000000  0  9G01G04G11G14G16G19G22G27G32
  22989023.620   120808142.98507  22989028.080    94136239.83546
  20941708.960   110049446.84209  20941709.820    85752840.57148
  21991921.280   115568348.25108  21991921.000    90053280.43946
  23770823.160   124916512.65906  23770824.660    97337553.87746
  23277562.220   122324431.69407  23277561.100    95317749.78945
  20499534.760   107725815.81209  20499532.740    83942202.27549
  21644885.660   113744737.54509  21644883.100    88632280.21048
  20681093.280   108679925.24309  20681095.800    84685675.61349
  21449570.740   112718331.09408  21449571.840    87832501.69148
 15 02 28 03 22 30.0000000  0  9G01G04G11G14G16G19G22G27G32
  22976062.640   120740032.96407  22976067.000    94083167.15546
  20933968.800   110008772.30009  20933969.580    85721146.13748
  21978551.440   115498089.97008  21978551.280    89998533.76047
  23759532.540   124857179.88706  23759533.940    97291320.54645
  23297485.400   122429128.48808  23297484.180    95399331.70245
  20496811.680   107711506.22909  20496809.800    83931051.95149
  21656340.520   113804933.26209  21656337.940    88679185.96448
  20687513.000   108713661.42809  20687515.560    84711963.54549
  21433166.220   112632124.13108  21433167.200    87765327.45548
 15 02 28 03 23  0.0000000  0  9G01G04G11G14G16G19G22G27G32
  22963131.960   120672081.79507  22963136.020    94030218.25346
  20926279.340   109968364.52509  20926280.180    85689659.57148
  21965214.380   115428003.91608  21965214.300    89943921.26847
  23748294.440   124798124.11706  23748296.060    97245304.89346
  23317437.100   122533974.80107  23317435.840    95481030.10346
  20494157.080   107697556.57209  20494155.300    83920182.09749
  21667866.080   113865500.42809  21667863.500    88726381.16248
  20694008.700   108747797.09509  20694011.360    84738562.75849
  21416840.780   112546333.24408  21416841.740    87698477.43547
 15 02 28 03 23 30.0000000  0  9G01G04G11G14G16G19G22G27G32
  22950231.780   120604289.97707  22950235.660    93977393.51846
  20918640.720   109928224.08109  20918641.780    85658381.31948
  21951910.300   115358091.24508  21951910.340    89889443.87847
  23737110.200   124739350.49706  23737111.660    97199507.29445
  23337416.940   122638968.75707  23337415.720    95562843.56346
  20491571.400   107683968.76309  20491569.540    83909594.19649
  21679462.020   113926437.48309  21679459.560    88773864.57348
  20700580.640   108782333.02309  20700583.320    84765473.86749
  21400594.920   112460961.03908  21400595.940    87631953.66447
 15 02 28 03 24  0.0000000  0  9G01G04G11G14G16G19G22G27G32
  22937361.800   120536657.29007  22937365.920    93924692.77946
  20911052.880   109888350.55609  20911054.180    85627311.06648
  21938639.220   115288352.18408  21938639.420    89835101.78347
  23725980.140   124680860.67806  23725981.140    97153930.86545
  23357424.220   122744107.07707  23357423.060    95644769.50446
  20489054.760   107670743.89109  20489052.840    83899289.11549
  21691127.920   113987742.15909  21691125.560    88821634.45748
  20707228.860   108817269.20809  20707231.420    84792696.87249
  21384429.140   112376009.65408  21384430.200    87565757.81248
 15 02 28 03 24 30.0000000  0  9G01G04G11G14G16G19G22G27G32
  22924522.320   120469186.04007  22924526.940    93872117.82046
  20903516.360   109848746.29109  20903517.760    85596450.62748
  21925401.940   115218790.13408  21925402.140    89780897.62546
  23714904.940   124622659.58306  23714905.760    97108579.41244
  23377458.840   122849389.47907  23377457.800    95726807.73146
  20486607.800   107657885.25009  20486605.940    83889269.41149
  21702863.800   114049414.47309  21702861.460    88869690.81148
  20713953.700   108852608.18909  20713956.200    84820233.74349
  21368344.240   112291483.60408  21368345.400    87499893.39747
 15 02 28 03 25  0.0000000  0  9G01G04G11G14G16G19G22G27G32
  22911713.380   120401875.37007  22911718.180    93819667.95846
  20896031.000   109809410.21209  20896032.300    85565799.15548
  21912198.420   115149404.89808  21912198.400    89726831.23046
  23703884.880   124564749.36006  23703885.800    97063454.57345
  23397520.080   122954812.23307  23397519.200    95808955.29545
  20484230.640   107645393.46609  20484228.900    83879535.55449
  21714669.120   114111451.73809  21714666.740    88918031.54148
  20720755.080   108888349.30909  20720757.440    84848083.95249
  21352340.520   112207384.23708  21352341.840    87434361.44448
 15 02 28 03 25 30.0000000  0  9G01G04G11G14G16G19G22G27G32
  22898934.500   120334722.07107  22898939.080    93767340.73846
  20888596.200   109770339.22509  20888597.260    85535354.23548
  21899028.160   115080193.95208  21899027.880    89672900.64947
  23692920.020   124507129.47006  23692921.340    97018555.98845
  23417606.780   123060369.20507  23417606.100    95891207.46946
  20481922.920   107633266.30809  20481921.180    83870085.81649
  21726542.800   114173848.62009  21726540.400    88966652.48548
  20727632.420   108924489.62509  20727634.620    84876245.23749
  21336417.780   112123710.61408  21336419.320    87369161.24648
 15 02 28 03 26  0.0000000  0  9G01G04G11G14G16G19G22G27G32
  22886186.220   120267729.22807  22886190.280    93715138.56746
  20881212.420   109731536.34309  20881213.220    85505118.23548
  21885891.780   115011161.17608  21885891.280    89619108.89446
  23682011.540   124449805.51506  23682013.060    96973887.97544
  23437718.920   123166060.36007  23437718.520    95973564.18845
  20479685.440   107621508.00609  20479683.620    83860923.51149
  21738485.060   114236606.02009  21738482.680    89015554.35448
  20734586.360   108961032.34909  20734588.440    84904720.07449
  21320577.080   112040468.06708  21320578.800    87304296.94848
 15 02 28 03 26 30.0000000  0  9G01G04G11G14G16G19G22G27G32
  22873468.060   120200895.68207  22873471.960    93663060.53447
  20873879.240   109693000.21109  20873879.980    85475090.08948
  21872789.180   114942306.22008  21872788.560    89565455.70847
  23671159.880   124392779.23406  23671161.140    96929451.96345
  23457856.000   123271882.30507  23457855.760    96056022.82046
  20477518.180   107610118.58309  20477516.240    83852048.63849
  21750495.340   114299720.81909  21750493.000    89064734.71448
  20741616.660   108997976.51709  20741618.700    84933507.72949
  21304818.720   111957657.54208  21304820.480    87239769.28648
 15 02 28 03 27  0.0000000  0  9G01G04G11G14G16G19G22G27G32
  22860780.460   120134223.06907  22860784.600    93611107.89347
  20866596.960   109654732.54709  20866597.840    85445271.13748
  21859720.760   114873631.39308  21859720.280    89511942.86747
  23660365.740   124336055.15906  23660366.660    96885251.41043
  23478017.740   123377833.93807  23478017.820    96138582.52445
  20475421.580   107599100.73209  20475419.620    83843463.30349
  21762573.600   114363192.64309  21762571.260    89114193.27648
  20748723.640   109035323.95209  20748725.720    84962609.61049
  21289143.420   111875283.00008  21289145.120    87175581.34848
 15 02 28 03 27 30.0000000  0  9G01G04G11G14G16G19G22G27G32
  22848123.100   120067708.04307  22848127.420    93559278.04847
  20859365.140   109616729.82009  20859366.160    85415658.63748
  21846686.100   114805134.10508  21846685.960    89458568.36547
  23649628.800   124279632.45006  23649629.360    96841285.67143
  23498202.940   123483908.91807  23498203.360    96221238.33846
  20473395.260   107588452.52409  20473393.340    83835166.00149
  21774718.740   114427015.87109  21774716.440    89163925.65348
  20755906.760   109073071.45509  20755908.840    84992023.24549
  21273550.920   111793343.21108  21273552.500    87111732.19248
 15 02 28 03 28  0.0000000  0  9G01G04G11G14G16G19G22G27G32
  22835495.960   120001350.97907  22835500.160    93507571.28447
  20852183.960   109578992.24109  20852184.960    85386252.73748
  21833685.560   114736815.46008  21833685.640    89405333.07147
  23638949.860   124223514.36806  23638950.160    96797557.33643
  23518411.220   123590104.73507  23518411.920    96303988.31346
  20471439.560   107578175.40909  20471437.660    83827157.85949
  21786930.380   114491188.46709  21786928.140    89213930.26748
  20763166.120   109111219.54109  20763168.160    85021749.01649
  21258041.660   111711840.74509  21258043.100    87048223.80848
 15 02 28 03 28 30.0000000  0  9G01G04G11G14G16G19G22G27G32
  22822899.340   119935155.54107  22822903.500    93455990.45447
  20845054.100   109541523.69809  20845054.940    85357056.48548
  21820719.940   114668680.02308  21820720.040    89352240.54747
  23628330.280   124167707.23706  23628330.120    96754071.30743
  23538642.760   123696422.35007  23538643.600    96386833.18145
  20469555.460   107568274.28409  20469553.540    83819442.70249
  21799208.900   114555712.69908  21799206.700    89264208.88748
  20770502.440   109149772.06309  20770504.420    85051789.94049
  21242616.740   111630781.40309  21242617.960    86985060.69548
 15 02 28 03 29  0.0000000  0  9G01G04G11G14G16G19G22G27G32
  22810333.520   119869123.50807  22810337.800    93404536.93447
  20837975.620   109504325.54409  20837976.360    85328070.91648
  21807789.640   114600730.27608  21807789.620    89299292.72547
  23617770.400   124112215.46205  23617770.100    96710830.96142
  23558897.300   123802860.45307  23558898.160    96469771.93646
  20467743.520   107558752.02509  20467741.540    83812022.75749
  21811554.160   114620587.82008  21811552.020    89314760.92148
  20777916.020   109188730.85209  20777918.040    85082147.42649
  21227276.860   111550169.07509  21227277.920    86922245.90848
 15 02 28 03 29 30.0000000  0  9G01G04G11G14G16G19G22G27G32
  22797797.720   119803248.07607  22797801.900    93353205.44947
  20830947.160   109467391.16809  20830948.000    85299290.89148
  21794893.340   114532959.92208  21794893.180    89246484.68647
  23607269.620   124057035.11805  23607269.640    96667833.32944
  23579173.040   123909409.76507  23579173.840    96552797.36646
  20466002.500   107549602.83209  20466000.480    83804893.51449
  21823964.440   114685804.88608  21823962.400    89365579.41648
  20785405.600   109228089.27809  20785407.720    85112816.32149
  21212021.020   111469999.07309  21212022.100    86859775.79948
 15 02 28 03 30  0.0000000  0  9G01G04G11G14G16G19G22G27G32
  22785291.600   119737526.66008  22785295.520    93301993.97746
  20823968.280   109430717.97509  20823969.300    85270714.38448
  21782030.820   114465367.60908  21782030.580    89193815.36547
  23596828.300   124002166.12606  23596828.380    96625078.26243
  23599468.980   124016064.95307  23599469.620    96635905.27846
  20464332.160   107540825.23409  20464330.140    83798053.82649
  21836438.940   114751359.45108  21836437.060    89416660.89548
  20792970.720   109267844.80909  20792972.980    85143794.64549
  21196849.180   111390270.92608  21196850.320    86797649.98548
 15 02 28 03 30 30.0000000  0  9G01G04G11G14G16G19G22G27G32
  22772816.060   119671965.43708  22772819.780    93250907.34447
  20817040.260   109394311.84409  20817041.380    85242345.97848
  21769203.420   114397960.09708  21769203.200    89141290.04247
  23586448.060   123947617.39406  23586448.260    96582572.76544
  23619785.920   124122830.18007  23619786.320    96719098.92645
  20462734.020   107532426.88309  20462731.980    83791509.64949
  21848978.460   114817255.26808  21848976.740    89468008.27148
  20800612.660   109308003.76909  20800614.940    85175087.32749
  21181762.920   111310992.94608  21181764.160    86735874.95448
 15 02 28 03 31  0.0000000  0  9G01G04G11G14G16G19G22G27G32
  22760370.780   119606564.81007  22760374.600    93199945.84947
  20810163.340   109358173.32509  20810164.380    85214186.10748
  21756411.500   114330738.74008  21756411.320    89088909.77547
  23576129.380   123893391.97606  23576129.680    96540319.21344
  23640123.260   124229702.31407  23640123.380    96802375.90645
  20461208.300   107524409.12309  20461206.280    83785262.05249
  21861582.780   114883490.98808  21861581.100    89519620.51248
  20808331.440   109348566.61509  20808333.800    85206694.73349
  21166762.740   111232167.66608  21166764.100    86674452.67848
 15 02 28 03 31 30.0000000  0  9G01G04G11G14G16G19G22G27G32
  22747955.860   119541325.01907  22747959.960    93149109.66547
  20803337.460   109322302.43709  20803338.300    85186234.77848
  21743655.200   114263704.35408  21743655.060    89036675.19747
  23565872.800   123839492.75606  23565873.240    96498319.79644
  23660480.360   124336678.66407  23660480.300    96885734.08445
  20459755.280   107516773.33309  20459753.240    83779312.08249
  21874251.380   114950064.30208  21874249.600    89571495.81848
  20816127.180   109389533.62909  20816129.600    85238617.07149
  21151849.180   111153797.23309  21151850.560    86613384.82948
 15 02 28 03 32  0.0000000  0  9G01G04G11G14G16G19G22G27G32
  22735570.600   119476240.50608  22735574.760    93098394.49347
  20796561.500   109286693.71209  20796562.160    85158487.73448
  21730933.600   114196851.93108  21730933.540    88984582.41947
  23555677.660   123785916.86806  23555678.380    96456572.36145
  23680855.560   124443750.62907  23680855.440    96969166.77446
  20458374.060   107509514.96309  20458371.980    83773656.20449
  21886982.780   115016967.75608  21886980.860    89623628.38048
  20823998.840   109430899.37109  20824001.260    85270850.10749
  21137021.680   111075878.26609  21137022.960    86552668.76148
 15 02 28 03 32 30.0000000  0  9G01G04G11G14G16G19G22G27G32
  22723218.520   119411329.08908  22723222.440    93047814.18646
  20789838.720   109251364.79709  20789839.340    85130958.72048
  21718250.280   114130200.76908  21718250.320    88932646.47147
  23545547.720   123732684.88005  23545548.960    96415092.91244
  23701251.880   124550933.88807  23701251.840    97052686.17845
  20457068.220   107502652.95609  20457066.180    83768309.19449
  21899779.920   115084217.02908  21899777.900    89676030.40648
  20831949.860   109472681.65609  20831952.220    85303407.72149
  21122283.960   110998430.65909  21122285.140    86492319.99348
 15 02 28 03 33  0.0000000  0 10G01G03G04G11G14G16G19G22G27G32
  22710894.580   119346566.29407  22710898.320    92997349.69347
  24624303.700   129401581.77306  24624307.940   100832429.94546
  20783164.420   109216291.13809  20783165.140    85103628.60448
  21705600.660   114063726.79008  21705600.740    88880848.57847
  23535479.120   123679774.88106  23535480.720    96373864.34446
  23721664.240   124658201.43207  23721664.300    97136271.25545
  20455833.360   107496164.16709  20455831.440    83763252.98949
  21912637.760   115151785.54908  21912635.720    89728681.19748
  20839975.500   109514856.04309  20839977.800    85336270.87449
  21107631.580   110921431.89108  21107632.820    86432320.97748
 15 02 28 03 33 30.0000000  0 10G01G03G04G11G14G16G19G22G27G32
  22698600.880   119281963.81007  22698604.740    92947010.11847
  24603639.280   129292990.93206  24603643.940   100747813.95345
  20776540.900   109181484.38909  20776541.660    85076506.47448
  21692987.080   113997442.16908  21692987.220    88829198.23847
  23525474.600   123627201.01306  23525476.300    96332897.76345
  23742094.300   124765561.84107  23742094.400    97219928.70245
  20454671.960   107490061.18109  20454670.140    83758497.41049
  21925558.060   115219682.57008  21925556.080    89781587.96748
  20848077.840   109557434.22209  20848080.160    85369448.66349
  21093067.180   110844895.59609  21093068.580    86372682.32648
 15 02 28 03 34  0.0000000  0 10G01G03G04G11G14G16G19G22G27G32
  22686337.500   119217520.46407  22686341.540    92896794.54447
  24582994.260   129184502.42206  24582999.140   100663277.70645
  20769967.880   109146943.19309  20769968.640    85049591.26948
  21680409.580   113931347.22308  21680409.780    88777695.69947
  23515534.540   123574964.90706  23515536.100    96292194.35945
  23762541.220   124873010.81607  23762541.300    97303655.16045
  20453584.000   107484343.93409  20453582.220    83754042.41049
  21938540.340   115287905.11209  21938538.420    89834748.39348
  20856256.800   109600415.08109  20856259.040    85402940.23649
  21078591.020   110768822.81209  21078592.520    86313404.85748
 15 02 28 03 34 30.0000000  0 10G01G03G04G11G14G16G19G22G27G32
  22674104.320   119153234.35108  22674108.360    92846701.50647
  24562368.680   129076116.18006  24562373.920   100578821.12145
  20763445.080   109112665.84809  20763445.800    85022881.66548
  21667867.980   113865440.67608  21667868.140    88726339.96447
  23505659.040   123523067.31706  23505660.200    96251754.68545
  23783004.220   124980544.40407  23783004.280    97387447.55445
  20452569.320   107479011.71009  20452567.520    83749887.43049
  21951583.920   115356449.33309  21951582.000    89888159.47848
  20864512.100   109643796.66309  20864514.260    85436744.05949
  21064203.080   110693213.44309  21064204.560    86254488.48648
 15 02 28 03 35  0.0000000  0 10G01G03G04G11G14G16G19G22G27G32
  22661901.600   119089107.99708  22661905.640    92796732.94947
  24541763.540   128967836.77106  24541769.000   100494447.79746
  20756972.900   109078654.53609  20756973.600    84996379.35948
  21655362.920   113799725.93408  21655362.920    88675133.68847
  23495848.820   123471513.32706  23495849.780    96211582.79245
  23803483.260   125088161.96807  23803483.220    97471305.38045
  20451628.580   107474067.97709  20451626.780    83746035.16949
  21964688.800   115425315.21709  21964686.820    89941821.21048
  20872844.120   109687581.49709  20872846.320    85470862.10449
  21049904.180   110618071.99309  21049905.640    86195936.73348
 15 02 28 03 35 30.0000000  0 10G01G03G04G11G14G16G19G22G27G32
  22649729.080   119025140.96707  22649733.280    92746888.53747
  24521179.160   128859665.73406  24521184.600   100410158.89445
  20750551.400   109044909.03409  20750552.100    84970084.17548
  21642894.420   113734203.42208  21642894.240    88624077.20047
  23486104.280   123420304.96907  23486105.020    96171680.18845
  23823977.660   125195860.36007  23823977.620    97555226.18645
  20450761.900   107469513.58309  20450760.100    83742486.28849
  21977854.440   115494500.31809  21977852.400    89995731.67648
  20881252.760   109731769.17809  20881255.080    85505294.04849
  21035694.580   110543399.94909  21035695.960    86137750.74248
 15 02 28 03 36  0.0000000  0 10G01G03G04G11G14G16G19G22G27G32
  22637587.120   118961335.07507  22637591.380    92697169.68247
  24500616.200   128751606.85206  24500621.500   100325957.39145
  20744180.800   109011430.94709  20744181.580    84943997.36048
  21630462.880   113668875.40708  21630462.540    88573172.26147
  23476426.200   123369446.79906  23476426.900    96132050.48345
  23844487.220   125303638.19707  23844487.140    97639208.90245
  20449969.780   107465351.18509  20449968.020    83739242.86149
  21991080.740   115564004.24209  21991078.580    90049890.57848
  20889738.380   109776361.37209  20889740.680    85540041.20549
  21021575.060   110469201.15309  21021576.320    86079933.50848
 15 02 28 03 36 30.0000000  0 10G01G03G04G11G14G16G19G22G27G32
  22625475.040   118897685.88408  22625479.140    92647572.93647
  24480074.240   128643657.69206  24480079.280   100241841.34945
  20737860.220   108978215.76309  20737861.060    84918115.40048
  21618067.660   113603738.40408  21618067.220    88522416.16147
  23466814.340   123318937.10606  23466815.160    96092692.27545
  23865010.680   125411489.05607  23865010.560    97723248.51345
  20449251.640   107461577.48609  20449249.900    83736302.31449
  22004366.440   115633820.58909  22004364.180    90104292.92448
  20898300.160   109821353.69609  20898302.380    85575100.14849
  21007545.060   110395473.10509  21007546.280    86022483.08548
 15 02 28 03 37  0.0000000  0 10G01G03G04G11G14G16G19G22G27G32
  22613393.460   118834196.55008  22613397.200    92598100.76547
  24459554.100   128535823.32406  24459558.920   100157814.74945
  20731590.160   108945266.54609  20731591.040    84892440.69648
  21605709.580   113538796.59708  21605709.140    88471812.16847
  23457269.780   123268781.30306  23457270.940    96053609.82945
  23885548.160   125519413.44007  23885547.960    97807345.40645
  20448608.300   107458196.68209  20448606.540    83733667.92449
  22017711.580   115703950.19008  22017709.300    90158939.37148
  20906938.660   109866749.11809  20906940.880    85610473.19849
  20993605.480   110322220.74609  20993606.800    85965403.34948
 15 02 28 03 37 30.0000000  0 10G01G03G04G11G14G16G19G22G27G32
  22601342.260   118770867.10008  22601345.900    92548753.16947
  24439056.140   128428105.83006  24439060.700   100073879.21645
  20725370.680   108912583.39909  20725371.500    84866973.31948
  21593388.920   113474050.93908  21593388.440    88421361.02047
  23447793.200   123218982.07507  23447794.600    96014805.25245
  23906099.020   125627408.12907  23906098.740    97891497.10545
  20448039.980   107455209.76209  20448038.180    83731340.45049
  22031115.880   115774390.83008  22031113.580    90213828.17748
  20915653.880   109912547.67409  20915656.160    85646160.37849
  20979756.800   110249446.02709  20979758.200    85908695.79748
 15 02 28 03 38  0.0000000  0 10G01G03G04G11G14G16G19G22G27G32
  22589321.020   118707695.14708  22589324.760    92499528.29547
  24418580.160   128320504.68806  24418584.540    99990034.33245
  20719201.360   108880163.66109  20719202.080    84841711.20048
  21581105.300   113409499.80208  21581104.760    88371061.45147
  23438384.680   123169539.60907  23438386.020    95976278.69645
  23926662.320   125735468.63207  23926662.040    97975700.06445
  20447546.280   107452615.39109  20447544.500    83729318.86349
  22044578.600   115845138.26108  22044576.220    90268956.04448
  20924445.280   109958746.88209  20924447.620    85682159.75549
  20965998.940   110177148.40509  20966000.380    85852360.01048
 15 02 28 03 38 30.0000000  0 10G01G03G04G11G14G16G19G22G27G32
  22577330.100   118644681.95108  22577333.880    92450427.13447
  24398126.780   128213023.16206  24398131.080    99906282.64046
  20713082.460   108848008.58009  20713083.080    84816655.30148
  21568859.120   113345145.24208  21568858.440    88320915.06147
  23429044.840   123120457.50607  23429045.940    95938032.91445
  23947237.600   125843592.82307  23947237.420    98059952.66645
  20447127.740   107450415.95109  20447125.900    83727605.01849
  22058099.440   115916191.13608  22058096.980    90324321.91248
  20933313.060   110005347.86409  20933315.500    85718472.19849
  20952332.500   110105331.04609  20952333.920    85796398.44648
 15 02 28 03 39  0.0000000  0 10G01G03G04G11G14G16G19G22G27G32
  22565369.600   118581828.65508  22565373.240    92401450.57247
  24377696.720   128105664.41106  24377701.120    99822626.59145
  20707014.200   108816119.41909  20707014.780    84791806.61948
  21556650.680   113280989.14208  21556649.840    88270923.31147
  23419774.280   123071739.60407  23419775.060    95900070.95845
  23967824.680   125951779.39707  23967824.580    98144253.87445
  20446784.880   107448613.83409  20446782.920    83726200.76749
  22071678.260   115987549.05208  22071675.880    90379925.46748
  20942257.560   110052351.63409  20942260.040    85755098.49849
  20938758.040   110033996.93809  20938759.440    85740813.44348
 15 02 28 03 39 30.0000000  0 10G01G03G04G11G14G16G19G22G27G32
  22553439.480   118519135.44908  22553443.000    92352598.75847
  24357290.480   127998430.61906  24357294.920    99739067.94246
  20700996.520   108784496.29509  20700997.120    84767165.21948
  21544480.240   113217032.82708  21544479.320    88221087.23247
  23410573.400   123023388.54107  23410574.060    95862394.83145
  23988423.040   126060025.56606  23988423.160    98228601.52845
  20446517.720   107447209.96409  20446515.780    83725106.84249
  22085314.800   116059209.89208  22085312.520    90435765.06848
  20951278.740   110099758.31309  20951281.300    85792038.75749
  20925275.940   109963148.00309  20925277.280    85685606.49548
 15 02 28 03 40  0.0000000  0 10G01G03G04G11G14G16G19G22G27G32
  22541539.620   118456601.36808  22541543.120    92303870.93747
  24336908.140   127891322.66805  24336912.800    99655607.33246
  20695029.200   108753138.05909  20695029.840    84742730.23348
  21532347.680   113153276.08008  21532346.880    88171406.66047
  23401442.540   122975405.70307  23401443.220    95825005.64146
  24009032.040   126168327.77206  24009032.400    98312992.84745
  20446326.360   107446204.22609  20446324.400    83724323.14949
  22099008.480   116131170.34108  22099006.220    90491838.13948
  20960376.360   110147566.73309  20960378.960    85829292.06249
  20911886.360   109892785.11209  20911887.620    85630778.28248
 15 02 28 03 40 30.0000000  0 10G01G03G04G11G14G16G19G22G27G32
  22529669.220   118394222.31008  22529672.840    92255263.91247
  24316549.560   127784338.59305  24316554.440    99572243.26346
  20689111.460   108722040.67709  20689112.220    84718498.51848
  21520252.480   113089715.79308  21520251.840    88121879.17647
  23392381.540   122927789.81307  23392382.140    95787902.36745
  24029650.460   126276679.29306  24029651.060    98397422.60645
  20446210.220   107445593.82309  20446208.200    83723847.50949
  22112758.040   116203424.20608  22112755.780    90548139.85248
  20969549.660   110195772.71109  20969552.260    85866855.15349
  20898588.800   109822905.93409  20898589.940    85576326.99748
 15 02 28 03 41  0.0000000  0 10G01G03G04G11G14G16G19G22G27G32
  22517829.560   118332004.66308  22517833.340    92206782.64147
  24296216.140   127677486.50905  24296221.240    99488982.06347
  20683244.580   108691210.40309  20683245.480    84694474.94648
  21508196.040   113026359.01808  21508195.580    88072510.27947
  23383392.040   122880549.44807  23383392.680    95751091.70145
  24050279.040   126385084.05406  24050279.820    98481893.84644
  20446170.640   107445386.01509  20446168.600    83723685.57949
  22126564.180   116275975.56008  22126561.920    90604673.36448
  20978799.800   110244382.36409  20978802.380    85904732.79549
  20885384.880   109753518.64209  20885385.880    85522258.99448
 15 02 28 03 41 30.0000000  0 10G01G03G04G11G14G16G19G22G27G32
  22506019.980   118269945.20108  22506023.840    92158424.63547
  24275907.720   127570765.29106  24275912.900    99405822.80646
  20677427.900   108660643.78509  20677428.960    84670656.80848
  21496177.960   112963203.57808  21496177.580    88023298.26247
  23374473.760   122833683.96707  23374474.480    95714573.13045
  24070916.500   126493535.50506  24070917.460    98566401.44345
  20446207.240   107445578.39909  20446205.180    83723835.49149
  22140425.940   116348819.31108  22140423.640    90661434.72148
  20988126.100   110293392.35709  20988128.720    85942922.38949
  20872274.300   109684621.72209  20872275.200    85468573.09448
 15 02 28 03 42  0.0000000  0 10G01G03G04G11G14G16G19G22G27G32
  22494240.340   118208043.12508  22494244.280    92110189.27547
  24255624.440   127464176.04606  24255629.660    99322766.41046
  20671661.320   108630340.25509  20671662.460    84647043.67448
  21484198.260   112900249.60409  21484197.840    87974243.22447
  23365627.180   122787195.40607  23365627.960    95678348.28645
  24091562.380   126602030.65506  24091563.500    98650943.11445
  20446320.040   107446171.23809  20446318.000    83724297.43949
  22154342.800   116421952.60708  22154340.420    90718421.70048
  20997528.360   110342801.65309  20997531.000    85981423.12949
  20859257.200   109616216.08709  20859258.060    85415270.02148
 15 02 28 03 42 30.0000000  0 10G01G03G04G11G14G16G19G22G27G32
  22482491.040   118146300.71408  22482495.040    92062078.31247
  24235367.080   127357722.96606  24235372.320    99239816.09646
  20665945.220   108600301.78109  20665946.360    84623637.06548
  21472257.480   112837500.08208  21472256.960    87925347.50047
  23356853.140   122741087.64107  23356853.900    95642420.18245
  24112216.480   126710569.11906  24112217.740    98735518.52345
  20446509.680   107447167.86309  20446507.600    83725074.02949
  22168314.680   116495375.10108  22168312.240    90775634.01948
  21007007.000   110392612.32209  21007009.620    86020236.64149
  20846334.240   109548305.76809  20846335.200    85362352.91448
 15 02 28 03 43  0.0000000  0 10G01G03G04G11G14G16G19G22G27G32
  22470771.640   118084715.03608  22470775.680    92014089.48647
  24215135.460   127251405.03606  24215140.460    99156971.09644
  20660279.020   108570525.66509  20660280.120    84600434.90548
  21460355.160   112774952.92608  21460354.620    87876609.46547
  23348151.480   122695360.64806  23348152.340    95606788.81845
  24132877.740   126819144.99606  24132879.040    98820123.08845
  20446775.780   107448566.28109  20446773.720    83726163.70549
  22182340.720   116569081.85308  22182338.180    90833067.84748
  21016561.440   110442821.22709  21016564.020    86059360.45349
  20833505.260   109480889.48109  20833506.300    85309820.76048
 15 02 28 03 43 30.0000000  0 10G01G03G04G11G14G16G19G22G27G32
  22459082.980   118023290.61008  22459086.980    91966226.31647
  24194930.880   127145228.76806  24194935.740    99074236.49645
  20654663.540   108541016.03209  20654664.520    84577440.39448
  21448492.320   112712613.82308  21448491.860    87828033.55447
  23339523.540   122650021.11406  23339524.380    95571459.32144
  24153546.500   126927760.10306  24153547.820    98904758.24045
  20447119.320   107450371.84809  20447117.360    83727570.63849
  22196421.240   116643075.19608  22196418.640    90890724.99848
  21026192.500   110493432.66309  21026195.060    86098797.92449
  20820771.600   109413973.46409  20820772.580    85257678.42448
 15 02 28 03 44  0.0000000  0 10G01G03G04G11G14G16G19G22G27G32
  22447424.180   117962023.32908  22447428.160    91918485.60647
  24174752.880   127039191.97406  24174757.520    98991610.54545
  20649097.980   108511768.87509  20649098.840    84554650.41548
  21436668.380   112650479.43908  21436668.120    87779617.16647
  23330969.220   122605067.58507  23330969.880    95536430.61645
  24174221.480   127036407.74806  24174222.880    98989418.71845
  20447539.860   107452581.68809  20447537.900    83729292.58549
  22210555.080   116717349.10808  22210552.540    90948600.76148
  21035899.340   110544442.30409  21035901.880    86138545.67649
  20808132.700   109347555.29709  20808133.560    85205924.01248
 15 02 28 03 44 30.0000000  0 10G01G03G04G11G14G16G19G22G27G32
  22435795.500   117900914.25008  22435799.340    91870868.16747
  24154601.980   126933297.56706  24154606.340    98909095.56745
  20643582.600   108482785.19409  20643583.340    84532065.73148
  21424883.860   112588551.86808  21424883.780    87731361.93447
  23322488.960   122560503.48107  23322489.580    95501705.38145
  24194902.440   127145086.39806  24194903.840    99074103.37144
  20448037.620   107455197.35309  20448035.680    83731330.76149
  22224742.000   116791902.27808  22224739.600    91006694.13648
  21045682.140   110595850.86309  21045684.580    86178604.28349
  20795588.960   109281637.58309  20795589.840    85154559.56948
 15 02 28 03 45  0.0000000  0 10G01G03G04G11G14G16G19G22G27G32
  22424196.920   117839963.44808  22424200.700    91823374.05647
  24134478.360   126827547.57206  24134482.500    98826693.08645
  20638117.320   108454065.05909  20638118.100    84509686.40948
  21413138.920   112526831.89408  21413138.980    87683268.45247
  23314083.120   122516330.99906  23314083.880    95467285.28345
  24215588.840   127253793.17606  24215590.140    99158809.95745
  20448612.780   107458219.92009  20448610.860    83733686.00049
  22238981.640   116866732.51108  22238979.380    91065003.40348
  21055540.780   110647658.13209  21055543.160    86218973.57949
  20783140.700   109216221.97909  20783141.740    85103586.38448
 15 02 28 03 45 30.0000000  0 10G01G03G04G11G14G16G19G22G27G32
  22412628.880   117779173.19308  22412632.760    91776005.02147
  24114382.820   126721946.19406  24114386.860    98744406.42145
  20632702.580   108425610.51609  20632703.480    84487514.04048
  21401434.140   112465322.53709  21401434.260    87635339.10147
  23305752.600   122472554.82206  23305753.720    95433173.99045
  24236280.580   127362527.86106  24236281.760    99243538.24845
  20449265.960   107461652.57809  20449264.100    83736360.79449
  22253274.120   116941840.37608  22253271.980    91123529.00848
  21065475.620   110699866.13409  21065477.980    86259655.12749
  20770788.740   109151312.39009  20770789.980    85053007.50048
 15 02 28 03 46  0.0000000  0 10G01G03G04G11G14G16G19G22G27G32
  22401090.780   117718540.27808  22401094.700    91728758.60147
  24094315.160   126616492.10506  24094319.360    98662234.52045
  20627337.780   108397418.52809  20627338.800    84465546.26148
  21389769.080   112404021.66309  21389769.100    87587572.20147
  23297497.520   122429174.23807  23297498.620    95399370.99245
  24256976.500   127471284.47206  24256977.380    99328283.65545
  20449996.780   107465493.06009  20449994.940    83739353.37449
  22267618.400   117017220.20508  22267616.300    91182266.53347
  21075486.020   110752471.37009  21075488.460    86300646.20549
  20758532.820   109086907.23309  20758534.160    85002821.67748
 15 02 28 03 46 30.0000000  0 10G01G03G04G11G14G16G19G22G27G32
  22389582.700   117658065.14608  22389586.640    91681635.13747
  24074276.060   126511187.70506  24074280.540    98580179.27245
  20622023.020   108369489.19409  20622024.020    84443783.15048
  21378143.940   112342930.78009  21378143.780    87539968.93047
  23289318.260   122386191.69007  23289319.120    95365878.12845
  24277676.200   127580061.02906  24277676.900    99413044.61044
  20450805.520   107469742.91209  20450803.660    83742664.94149
  22282014.120   117092870.12208  22282012.020    91241214.51448
  21085572.100   110805473.92609  21085574.600    86341946.88649
  20746373.340   109023008.51109  20746374.580    84953030.48048
 15 02 28 03 47  0.0000000  0 10G01G03G04G11G14G16G19G22G27G32
  22378104.680   117597747.99108  22378108.660    91634634.78147
  24054266.040   126406035.00506  24054270.620    98498242.18745
  20616758.320   108341822.93009  20616759.260    84422225.03348
  21366558.880   112282051.03109  21366558.640    87492530.19347
  23281215.320   122343610.03307  23281215.960    95332697.61545
  24298379.040   127688854.76906  24298379.780    99497818.92745
  20451692.340   107474403.03609  20451690.440    83746296.20649
  22296460.940   117168788.38408  22296458.820    91300371.59147
  21095733.800   110858873.66209  21095736.240    86383557.07249
  20734310.580   108959617.80109  20734311.660    84903635.14448
 15 02 28 03 47 30.0000000  0 10G01G03G04G11G14G16G19G22G27G32
  22366656.880   117537589.10708  22366660.740    91587757.74347
  24034285.320   126301036.22206  24034289.960    98416425.07945
  20611543.700   108314419.92709  20611544.580    84400872.04848
  21355014.200   112221383.51209  21355013.880    87445256.82847
  23273189.040   122301431.78807  23273189.580    95299831.46145
  24319084.560   127797663.16606  24319085.400    99582604.68944
  20452657.380   107479474.26109  20452655.460    83750247.80449
  22310958.480   117244973.07208  22310956.300    91359736.26847
  21105970.920   110912670.52509  21105973.420    86425476.69949
  20722344.860   108896736.98409  20722345.780    84854637.12648
 15 02 28 03 48  0.0000000  0 10G01G03G04G11G14G16G19G22G27G32
  22355239.360   117477589.31408  22355243.100    91541004.66647
  24014334.380   126196194.13206  24014339.060    98334730.05646
  20606379.380   108287280.95609  20606380.180    84379724.79748
  21343510.320   112160930.02309  21343509.900    87398150.23247
  23265240.060   122259659.94007  23265240.540    95267281.99645
  24339792.520   127906484.74106  24339793.480    99667400.70643
  20453701.000   107484958.53909  20453699.080    83754521.26349
  22325506.440   117321422.53408  22325504.120    91419307.27647
  21116283.640   110966865.01709  21116286.280    86467706.15949
  20710476.540   108834368.47109  20710477.380    84806038.30448
 15 02 28 03 48 30.0000000  0 10G01G03G04G11G14G16G19G22G27G32
  22343854.400   117417761.47108  22343858.180    91494385.59047
  23994416.180   126091523.39206  23994420.720    98253168.52246
  20601267.700   108260418.55209  20601268.480    84358793.05248
  21332049.740   112100704.15009  21332049.300    87351220.98647
  23257371.360   122218309.63707  23257371.940    95235061.01945
  24360504.940   128015329.80506  24360506.040    99752215.05445
  20454825.840   107490869.55009  20454823.900    83759127.23849
  22340106.880   117398147.89908  22340104.360    91479093.27547
  21126674.520   111021469.54909  21126677.160    86510255.13949
  20698708.280   108772526.41709  20698709.180    84757849.71448
 15 02 28 03 49  0.0000000  0 11G01G03G04G11G14G16G19G22G27G28G32
  22332493.600   117358060.78608  22332497.500    91447865.59247
  23974522.480   125986981.15607  23974526.860    98171707.14946
  20596200.140   108233788.07109  20596200.920    84338042.03848
  21320624.080   112040662.15608  21320623.720    87304435.01947
  23249574.820   122177338.50606  23249575.460    95203135.46546
  24381212.800   128124150.64306  24381213.980    99837010.48445
  20456023.520   107497163.32009  20456021.580    83764031.47649
  22354750.820   117475102.04508  22354748.120    91539057.53847
  21137134.920   111076439.01709  21137137.500    86553088.48749
  25085907.800   131827332.85906  25085907.260   102722601.65043
  20687032.020   108711167.58309  20687032.980    84710037.65148
 15 02 28 03 49 30.0000000  0 11G01G03G04G11G14G16G19G22G27G28G32
  22321165.160   117298529.80808  22321169.120    91401477.85047
  23954661.820   125882611.83707  23954665.960    98090380.50146
  20591184.700   108207431.89609  20591185.500    84317504.76948
  21309241.620   111980847.44808  21309241.360    87257826.17048
  23241858.840   122136790.93906  23241859.540    95171539.96245
  24401923.640   128232986.94706  24401924.720    99921818.00445
  20457302.260   107503883.13309  20457300.300    83769267.69249
  22369445.920   117552325.48708  22369443.180    91599231.64747
  21147672.720   111131815.54109  21147675.340    86596239.01049
  25070708.680   131747459.59406  25070707.760   102660362.75043
  20675456.160   108650335.95909  20675457.180    84662636.39948
 15 02 28 03 50  0.0000000  0 11G01G03G04G11G14G16G19G22G27G28G32
  22309868.100   117239163.30408  22309872.000    91355218.26347
  23934833.320   125778411.99906  23934837.440    98009185.93246
  20586220.460   108181344.90409  20586221.260    84297177.24948
  21297901.600   111921255.83209  21297901.420    87211391.16147
  23234222.800   122096664.28407  23234223.600    95140272.46545
  24422635.980   128341831.13606  24422636.880   100006631.65044
  20458661.280   107511024.74709  20458659.300    83774832.58249
  22384190.680   117629810.48608  22384187.960    91659609.56847
  21158286.900   111187593.41709  21158289.540    86639702.27049
  25055566.400   131667886.10206  25055565.560   102598357.42443
  20663979.860   108590027.66209  20663980.960    84615642.93648
 15 02 28 03 50 30.0000000  0 11G01G03G04G11G14G16G19G22G27G28G32
  22298601.060   117179954.56808  22298604.920    91309081.60647
  23915035.920   125674376.88706  23915040.300    97928119.71146
  20581306.160   108155520.17809  20581306.920    84277054.09048
  21286603.040   111861881.50409  21286602.760    87165125.46348
  23226666.100   122056954.03807  23226666.840    95109329.44745
  24443347.940   128450673.16206  24443348.760   100091443.61444
  20460099.360   107518582.04009  20460097.380    83780721.37649
  22398983.520   117707548.23408  22398980.880    91720184.42847
  21168976.180   111243765.56109  21168978.760    86683472.76449
  25040480.360   131588608.54006  25040479.760   102536582.74344
  20652602.060   108530237.42609  20652603.180    84569053.16148
 15 02 28 03 51  0.0000000  0 11G01G03G04G11G14G16G19G22G27G28G32
  22287364.140   117120903.81308  22287368.060    91263068.05148
  23895270.180   125570508.50206  23895274.940    97847183.41246
  20576441.820   108129957.90409  20576442.560    84257135.43948
  21275346.140   111802725.66709  21275345.700    87119030.01648
  23219189.100   122017662.14807  23219189.740    95078712.39045
  24464059.380   128559511.95206  24464060.020   100176253.05443
  20461616.780   107526556.04409  20461614.820    83786934.88149
  22413824.240   117785537.32208  22413821.700    91780955.14447
  21179740.440   111300331.72409  21179742.960    86727550.28549
  25025451.100   131509629.30106  25025450.620   102475040.48144
  20641323.120   108470966.85309  20641324.240    84522868.31348
 15 02 28 03 51 30.0000000  0 11G01G03G04G11G14G16G19G22G27G28G32
  22276157.180   117062010.53008  22276161.200    91217177.20647
  23875536.500   125466808.23606  23875541.460    97766378.09446
  20571627.380   108104657.62209  20571628.100    84237420.94648
  21264130.900   111743788.69709  21264130.360    87073105.10447
  23211792.120   121978790.58507  23211792.860    95048422.88345
  24484769.460   128668343.73106  24484769.920   100261057.03644
  20463213.560   107534947.10109  20463211.580    83793473.36549
  22428712.320   117863774.54708  22428709.800    91841919.21647
  21190579.420   111357290.89909  21190581.960    86771934.05249
  25010478.920   131430950.15606  25010478.640   102413732.10544
  20630143.260   108412216.71009  20630144.400    84477088.99348
 15 02 28 03 52  0.0000000  0 11G01G03G04G11G14G16G19G22G27G28G32
  22264980.000   117003274.11908  22264984.080    91171408.59647
  23855835.180   125363277.31606  23855840.160    97685704.75846
  20566862.620   108079618.50309  20566863.340    84217909.94648
  21252957.320   111685071.07209  21252956.800    87027351.12348
  23204475.500   121940340.86807  23204476.340    95018462.07746
  24505477.600   128777165.10306  24505477.760   100345852.90044
  20464889.740   107543755.47009  20464887.780    83800337.02749
  22443647.200   117942257.20908  22443644.680    91903074.53747
  21201492.940   111414642.08309  21201495.580    86816623.27649
  24995564.260   131352572.83106  24995563.980   102352658.84044
  20619062.700   108353987.73809  20619063.800    84431715.78848
 15 02 28 03 52 30.0000000  0 11G01G03G04G11G14G16G19G22G27G28G32
  22253833.000   116944696.11808  22253837.000    91125763.41747
  23836166.800   125259919.06306  23836171.760    97605165.97345
  20562147.820   108054842.14009  20562148.560    84198603.68948
  21241825.800   111626575.30409  21241825.500    86981770.01548
  23197239.840   121902316.73407  23197240.740    94988832.93145
  24526183.520   128885974.79806  24526183.400   100430639.67544
  20466645.680   107552983.20009  20466643.800    83807527.45849
  22458628.660   118020984.72208  22458626.200    91964420.64847
  21212481.280   111472386.26809  21212483.980    86861618.73249
  24980707.640   131274500.98406  24980707.340   102291823.66844
  20608081.900   108296282.79509  20608082.920    84386750.91648
 15 02 28 03 53  0.0000000  0 11G01G03G04G11G14G16G19G22G27G28G32
  22242716.420   116886278.09308  22242720.260    91080242.89647
  23816531.860   125156737.01706  23816536.880    97524764.48346
  20557483.320   108030330.01409  20557484.040    84179503.34148
  21230736.860   111568303.58708  21230736.820    86936363.48748
  23190085.820   121864721.83207  23190086.600    94959538.21445
  24546887.060   128994771.79406  24546886.500   100515416.53945
  20468481.920   107562632.78209  20468480.060    83815046.60749
  22473656.540   118099956.43808  22473654.220    92025957.04347
  21223544.640   111530524.54109  21223547.360    86906921.27049
  24965909.820   131196738.61606  24965909.700   102231229.62344
  20597201.380   108239104.77709  20597202.300    84342196.63148
 15 02 28 03 53 30.0000000  0 11G01G03G04G11G14G16G19G22G27G28G32
  22231630.040   116828018.79408  22231633.740    91034846.06047
  23796930.420   125053731.67206  23796935.560    97444500.67346
  20552868.820   108006080.80509  20552869.540    84160607.86248
  21219690.680   111510256.05309  21219690.720    86891131.64248
  23183013.560   121827556.91807  23183014.280    94930578.55346
  24567587.480   129103552.40006  24567586.560   100600180.64143
  20470398.320   107572703.48509  20470396.480    83822893.90549
  22488730.180   118179168.97808  22488728.020    92087681.09747
  21234682.720   111589055.15009  21234685.420    86952529.52349
  24951170.920   131119286.33306  24951171.000   102170877.19144
  20586421.100   108182453.65309  20586421.960    84298052.90848
 15 02 28 03 54  0.0000000  0 11G01G03G04G11G14G16G19G22G27G28G32
  22220573.400   116769916.02108  22220577.080    90989571.20148
  23777362.500   124950902.63306  23777367.620    97364374.24646
  20548303.960   107982092.31209  20548304.700    84141915.54448
  21208687.020   111452431.28709  21208686.940    86846073.38548
  23176023.040   121790821.92407  23176023.820    94901953.90546
  24588283.880   129212311.88806  24588282.660   100684928.28543
  20472394.620   107583193.91809  20472392.780    83831068.26549
  22503848.820   118258618.28208  22503846.820    92149589.64647
  21245894.940   111647975.31409  21245897.560    86998441.33749
  24936491.160   131042144.54806  24936491.520   102110766.70145
  20575740.800   108126328.43209  20575741.760    84254318.98848
 15 02 28 03 54 30.0000000  0 11G01G03G04G11G14G16G19G22G27G28G32
  22209546.780   116711971.34108  22209550.620    90944419.51348
  23757828.840   124848253.28506  23757833.760    97284387.83146
  20543788.960   107958365.85309  20543789.720    84123427.40548
  21197726.340   111394831.72409  21197726.080    86801190.61548
  23169115.040   121754520.53308  23169115.980    94873667.12945
  24608976.060   129321048.99306  24608974.480   100769658.47344
  20474471.140   107594106.27009  20474469.360    83839571.38649
  22519012.200   118338303.31008  22519010.420    92211681.87547
  21257181.480   111707286.07209  21257183.960    87044657.50449
  24921871.260   130965316.79406  24921871.780   102050900.90644
  20565161.080   108070731.92009  20565162.200    84210997.04948
 15 02 28 03 55  0.0000000  0 11G01G03G04G11G14G16G19G22G27G28G32
  22198550.080   116654184.17008  22198554.220    90899390.56347
  23738329.600   124745784.83806  23738334.260    97204542.37246
  20539323.700   107934901.01609  20539324.500    84105143.12648
  21186808.600   111337457.65909  21186808.200    86756483.56348
  23162289.940   121718654.10408  23162290.760    94845719.28546
  24629663.380   129429760.51906  24629661.440   100854368.74143
  20476628.040   107605440.79309  20476626.280    83848403.48349
  22534219.980   118418221.48708  22534218.400    92273955.78247
  21268542.060   111766986.29109  21268544.500    87091177.13949
  24907311.600   130888804.93606  24907312.180   101991281.27944
  20554682.140   108015664.71809  20554683.300    84168087.56448
 15 02 28 03 55 30.0000000  0 11G01G03G04G11G14G16G19G22G27G28G32
  22187583.620   116596555.51508  22187587.940    90854485.12948
  23718865.400   124643500.15506  23718869.820    97124840.11246
  20534908.360   107911698.75509  20534909.200    84087063.44848
  21175934.200   111280311.42709  21175933.700    86711954.04448
  23155548.240   121683225.87107  23155548.820    94818112.88846
  24650345.520   129538445.14606  24650343.500   100939058.04543
  20478865.580   107617199.02109  20478863.820    83857565.72949
  22549471.920   118498371.65108  22549470.500    92336410.44747
  21279976.860   111827076.38709  21279979.300    87138000.57449
  24892812.540   130812611.97206  24892813.080   101931910.15045
  20544304.340   107961129.03209  20544305.420    84125592.23848
 15 02 28 03 56  0.0000000  0 11G01G03G04G11G14G16G19G22G27G28G32
  22176647.120   116539083.55408  22176651.320    90809701.80647
  23699436.220   124541399.13607  23699440.400    97045280.96046
  20530542.640   107888757.05909  20530543.500    84069186.81348
  21165102.840   111223391.89909  21165102.340    86667601.18348
  23148889.840   121648235.67007  23148890.360    94790847.82346
  24671021.700   129647098.36006  24671019.480   101023722.85844
  20481183.540   107629379.89409  20481181.800    83867057.31249
  22564767.320   118578749.74608  22564765.960    92399042.71847
  21291485.400   111887553.94209  21291487.820    87185125.93349
  24878374.120   130736738.21406  24878374.680   101872787.74644
  20534027.460   107907124.11309  20534028.500    84083510.49748
 15 02 28 03 56 30.0000000  0 11G01G03G04G11G14G16G19G22G27G28G32
  22165740.860   116481769.93808  22165744.780    90765041.86647
  23680042.740   124439485.26607  23680046.680    96965867.62746
  20526226.900   107866077.58809  20526227.700    84051514.50748
  21154315.100   111166701.83509  21154314.620    86623427.12248
  23142315.460   121613687.31407  23142315.960    94763927.04946
  24691691.660   129755718.84406  24691689.280   101108362.20344
  20483582.380   107641985.71009  20483580.560    83876880.02049
  22580106.160   118659355.61608  22580104.740    92461852.47147
  21303067.880   111948419.98809  21303070.280    87232554.00049
  24863997.400   130661187.72806  24863997.800   101813917.22944
  20523852.140   107853652.77109  20523853.160    84041844.53148
 15 02 28 03 57  0.0000000  0 11G01G03G04G11G14G16G19G22G27G28G32
  22154864.800   116424614.90808  22154868.400    90720505.48947
  23660685.220   124337760.55706  23660688.900    96886601.69746
  20521961.160   107843660.57309  20521961.800    84034046.71048
  21143571.140   111110242.18309  21143570.700    86579432.59648
  23135825.540   121579583.09507  23135826.200    94737352.36246
  24712354.840   129864304.53306  24712352.500   101192974.42344
  20486062.180   107655017.04709  20486060.340    83887034.30249
  22595488.020   118740187.07908  22595486.420    92524838.02047
  21314724.160   112009674.18209  21314726.520    87280284.53149
  24849682.620   130585962.66306  24849683.000   101755300.29944
  20513778.720   107800716.42109  20513779.700    84000595.43948
 15 02 28 03 57 30.0000000  0 11G01G03G04G11G14G16G19G22G27G28G32
  22144018.800   116367617.86108  22144022.200    90676092.22048
  23641363.840   124236226.19606  23641367.400    96807484.07746
  20517745.160   107821505.11009  20517745.680    84016782.71948
  21132871.140   111054013.70509  21132870.720    86535618.21048
  23129420.380   121545924.23307  23129421.060    94711124.70546
  24733010.740   129972852.25106  24733008.640   101277557.06144
  20488622.960   107668474.28109  20488621.140    83897520.45549
  22610912.300   118821241.35008  22610910.460    92587997.18747
  21326454.020   112071315.28009  21326456.340    87328316.54349
  24835430.060   130511065.06006  24835430.520   101696938.53244
  20503807.200   107748315.42209  20503808.120    83959763.51948
 15 02 28 03 58  0.0000000  0 11G01G03G04G11G14G16G19G22G27G28G32
  22133203.060   116310780.17708  22133206.360    90631803.13448
  23622079.100   124134885.28306  23622082.700    96728517.21446
  20513579.160   107799612.59809  20513579.660    83999723.62548
  21122215.460   110998018.37809  21122215.100    86491985.50048
  23123100.720   121512714.17207  23123101.300    94685246.75646
  24753659.080   130081360.41806  24753656.900   101362108.85043
  20491265.220   107682359.36709  20491263.360    83908339.99649
  22626378.820   118902517.56808  22626376.740    92651329.30447
  21338257.620   112133344.00609  21338260.020    87376650.60549
  24821240.180   130436498.04006  24821240.960   101638834.34944
  20493937.980   107696452.33409  20493938.820    83919350.73948
 15 02 28 03 58 30.0000000  0 11G01G03G04G11G14G16G19G22G27G28G32
  22122416.980   116254099.05208  22122420.320    90587636.04248
  23602830.900   124033736.80006  23602834.680    96649700.28946
  20509462.600   107777980.15809  20509463.260    83982867.18848
  21111603.820   110942254.42509  21111603.500    86448533.07948
  23116866.300   121479951.89507  23116866.820    94659717.75046
  24774298.980   130189824.13206  24774296.820   101446626.04843
  20493988.500   107696669.92109  20493986.580    83919491.07549
  22641886.520   118984010.74808  22641884.300    92714830.47147
  21350134.320   112195756.83009  21350136.900    87425283.95649
  24807113.200   130362261.11606  24807114.300   101580987.38044
  20484170.680   107645125.25709  20484171.500    83879355.63148
 15 02 28 03 59  0.0000000  0 11G01G03G04G11G14G16G19G22G27G28G32
  22111660.660   116197575.02608  22111664.120    90543591.36948
  23583619.880   123932783.06206  23583623.720    96571035.12346
  20505395.700   107756608.39109  20505396.500    83966213.87648
  21101036.620   110886723.55809  21101036.260    86405262.29148
  23110717.540   121447639.88307  23110718.180    94634539.57746
  24794929.980   130298241.33306  24794927.920   101531106.98743
  20496792.860   107711407.01909  20496790.880    83930974.53249
  22657435.200   119065719.66508  22657432.960    92778499.74747
  21362084.160   112258553.68409  21362086.860    87474216.55149
  24793049.820   130288357.06106  24793050.900   101523399.79144
  20474505.680   107594335.78909  20474506.580    83839779.43048
 15 02 28 03 59 30.0000000  0 11G01G03G04G11G14G16G19G22G27G28G32
  22100934.500   116141209.73608  22100938.060    90499670.39148
  23564446.720   123832027.32407  23564450.500    96492524.23846
  20501378.700   107735498.92409  20501379.580    83949764.94648
  21090514.280   110831428.19109  21090513.880    86362175.00448
  23104655.120   121415781.75107  23104655.900    94609715.08346
  24815551.820   130406610.68306  24815550.040   101615550.59343
  20499678.800   107726572.94909  20499676.820    83942792.13249
  22673024.720   119147643.48008  22673022.540    92842336.47347
  21374107.280   112321735.42709  21374110.000    87523449.06849
  24779050.580   130214789.43906  24779051.440   101466074.33044
  20464943.500   107544086.56409  20464944.540    83800624.20248
 15 02 28 04 00  0.0000000  0 11G01G03G04G11G14G16G19G22G27G28G32
  22090238.560   116085002.64708  22090242.060    90455872.68147
  23545311.540   123731470.93307  23545315.440    96414168.69246
  20497411.460   107714650.98209  20497412.380    83933519.80548
  21080036.820   110776368.73609  21080036.420    86319271.54848
  23098679.300   121384378.61807  23098680.100    94585245.13046
  24836163.960   130514929.18205  24836162.520   101699954.62244
  20502646.400   107742167.72909  20502644.400    83954943.90549
  22688654.600   119229779.57908  22688652.520    92906338.61247
  21386203.360   112385300.89609  21386206.100    87572980.59849
  24765115.540   130141559.86006  24765116.400   101409012.33344
  20455484.200   107494378.00109  20455485.440    83761890.27948
 15 02 28 04 00 30.0000000  0 11G01G03G04G11G14G16G19G22G27G28G32
  22079572.340   116028951.45108  22079575.740    90412196.44747
  23526214.140   123631113.26807  23526218.160    96335967.97446
  20493493.440   107694062.11509  20493494.460    83917476.53848
  21069604.060   110721544.14609  21069603.620    86276551.09948
  23092790.000   121353430.08507  23092790.660    94561129.40845
  24856765.440   130623191.82705  24856764.360   101784315.09744
  20505695.260   107758189.67009  20505693.320    83967428.53649
  22704324.100   119312123.57008  22704322.160    92970502.75747
  21398371.820   112449247.02309  21398374.560    87622808.74148
  24751244.760   130068668.22506  24751245.840   101352213.65644
  20446127.540   107445208.68909  20446128.880    83723576.54848
 15 02 28 04 01  0.0000000  0 11G01G03G04G11G14G16G19G22G27G28G32
  22068936.800   115973061.29508  22068940.180    90368645.69748
  23507155.720   123530961.18407  23507159.900    96257927.45746
  20489625.720   107673737.68509  20489626.820    83901639.32848
  21059217.140   110666960.43209  21059216.620    86234018.35348
  23086988.440   121322943.06007  23086989.020    94537373.28745
  24877356.920   130731401.67105  24877356.220   101868634.45943
  20508826.480   107774644.30809  20508824.560    83980250.33249
  22720033.760   119394678.30408  22720031.860    93034831.11547
  21410613.620   112513578.20909  21410616.300    87672936.93949
  24737439.720   129996122.03206  24737440.960   101295684.13945
  20436874.760   107396584.76309  20436876.060    83685687.79348
 15 02 28 04 01 30.0000000  0 11G01G03G04G11G14G16G19G22G27G28G32
  22058331.020   115917327.83108  22058334.580    90325217.03847
  23488135.860   123431012.03807  23488140.100    96180045.07346
  20485807.500   107653673.16909  20485808.600    83886004.64448
  21048875.440   110612614.40809  21048874.880    86191670.81248
  23081274.320   121292915.07707  23081274.820    94513974.87045
  24897936.960   130839551.53605  24897936.820   101952907.07343
  20512039.260   107791527.73409  20512037.320    83993406.25049
  22735782.280   119477437.26708  22735780.360    93099318.61247
  21422927.840   112578289.38009  21422930.380    87723361.21049
  24723699.920   129923918.90306  24723701.420   101239421.97144
  20427725.100   107348502.78009  20427726.320    83648221.32648
 15 02 28 04 02  0.0000000  0 10G01G03G04G11G14G19G22G27G28G32
  22047755.760   115861754.65908  22047759.500    90281913.28048
  23469155.720   123331271.11807  23469159.840    96102324.93546
  20482039.500   107633872.02709  20482040.540    83870575.19148
  21038579.820   110558510.48609  21038579.220    86149511.91448
  23075648.520   121263351.43507  23075649.060    94490938.27846
  20515334.460   107808844.22409  20515332.540    84006899.61949
  22751569.940   119560402.19008  22751568.080    93163966.59447
  21435314.940   112643383.33609  21435317.320    87774083.76749
  24710026.320   129852064.32106  24710027.980   101183431.40344
  20418679.320   107300967.06409  20418680.520    83611180.53048
 15 02 28 04 02 30.0000000  0 10G01G03G04G11G14G19G22G27G28G32
  22037211.260   115806342.81408  22037215.120    90238735.23548
  23450215.800   123231741.16207  23450219.700    96024769.17646
  20478321.840   107614335.26109  20478322.780    83855351.74548
  21028330.580   110504650.56309  21028330.000    86107543.15248
  23070111.600   121234255.14008  23070112.340    94468265.86645
  20518712.360   107826595.13509  20518710.440    84020731.49349
  22767396.480   119643571.54208  22767394.640    93228773.87247
  21447774.880   112708860.30809  21447777.260    87825104.77949
  24696419.540   129780561.34106  24696421.400   101127714.83344
  20409737.840   107253979.66409  20409739.080    83574566.98448
 15 02 28 04 03  0.0000000  0 10G01G03G04G11G14G19G22G27G28G32
  22026694.700   115751077.55308  22026698.600    90195671.41448
  23431313.540   123132409.09107  23431317.220    95947367.62246
  20474651.640   107595047.93009  20474652.500    83840322.65448
  21018125.220   110451020.86909  21018124.600    86065753.79048
  23064661.160   121205612.98707  23064661.920    94445947.33046
  20522170.240   107844766.26209  20522168.280    84034890.80949
  22783258.760   119726928.95908  22783256.940    93293727.69347
  21460304.680   112774704.77309  21460307.100    87876412.15149
  24682877.540   129709397.22806  24682879.100   101072262.28144
  20400898.080   107207526.50609  20400899.300    83538369.73048
 15 02 28 04 03 30.0000000  0 10G01G03G04G11G14G19G22G27G28G32
  22016210.180   115695981.03208  22016214.140    90152739.08448
  23412453.420   123033298.78607  23412457.080    95870138.85646
  20471033.020   107576032.26409  20471033.900    83825505.25648
  21007968.120   110397644.75109  21007967.480    86024162.01448
  23059301.780   121177448.80807  23059302.440    94424001.22746
  20525712.360   107863380.12809  20525710.380    84049395.12049
  22799160.560   119810494.07908  22799158.740    93358843.36247
  21472908.360   112840938.07309  21472910.900    87928022.49748
  24669404.880   129638596.47406  24669405.840   101017092.86145
  20392164.440   107161630.61609  20392165.520    83502606.71348
 15 02 28 04 04  0.0000000  0 10G01G03G04G11G14G19G22G27G28G32
  22005754.960   115641038.57408  22005758.860    90109926.80048
  23393633.060   122934397.22107  23393636.780    95793072.75946
  20467463.220   107557273.55509  20467464.240    83810888.08548
  20997856.640   110344508.38409  20997856.020    85982757.05248
  23054030.760   121149749.60807  23054031.420    94402417.44946
  20529336.040   107882422.65309  20529334.060    84064233.44149
  22815098.780   119894250.10308  22815096.880    93424107.79047
  21485583.080   112907544.71309  21485585.640    87979923.76848
  24655998.720   129568146.46006  24655999.360   100962196.80345
  20383534.240   107116278.02609  20383535.180    83467267.04549
 15 02 28 04 04 30.0000000  0 10G01G03G04G11G14G19G22G27G28G32
  21995329.960   115586254.91908  21995333.680    90067238.25448
  23374853.700   122835710.73707  23374857.400    95716174.26946
  20463943.240   107538776.56109  20463944.400    83796474.85148
  20987791.900   110291617.71609  20987791.360    85941543.54848
  23048849.360   121122521.94007  23048850.020    94381201.13346
  20533042.300   107901899.02609  20533040.320    84079409.83149
  22831073.840   119978199.63908  22831071.860    93489523.00147
  21498329.660   112974528.55309  21498332.160    88032118.95848
  24642660.300   129498053.85606  24642660.860   100907579.23645
  20375008.480   107071474.29209  20375009.320    83432355.06149
 15 02 28 04 05  0.0000000  0 10G01G03G04G11G14G19G22G27G28G32
  21984934.700   115531627.52208  21984938.240    90024671.47548
  23356115.060   122737238.49307  23356118.740    95639442.71646
  20460472.600   107520538.39009  20460473.780    83782263.29148
  20977773.460   110238970.78709  20977773.000    85900519.97648
  23043757.540   121095764.64407  23043758.160    94360351.31946
  20536830.640   107921806.78709  20536828.640    84094922.36649
  22847084.940   120062338.26708  22847082.860    93555085.57047
  21511147.440   113041886.19409  21511149.860    88084605.42648
  24629389.900   129428318.24006  24629390.340   100853239.81444
  20366586.740   107027217.48409  20366587.540    83397869.25348
 15 02 28 04 05 30.0000000  0 10G01G03G04G11G14G19G22G27G28G32
  21974569.400   115477157.80508  21974572.900    89982227.56348
  23337417.700   122638983.55507  23337421.460    95562880.48046
  20457051.640   107502560.53809  20457052.700    83768254.58348
  20967801.900   110186570.13009  20967801.500    85859688.30348
  23038755.840   121069480.93507  23038756.440    94339870.52646
  20540701.440   107942147.91509  20540699.400    84110772.59049
  22863131.920   120146665.06908  22863129.680    93620794.76547
  21524036.480   113109618.14709  21524038.800    88137383.56948
  24616188.280   129358942.81506  24616188.460   100799181.07244
  20358269.440   106983509.83609  20358270.240    83363811.36249
 15 02 28 04 06  0.0000000  0 10G01G03G04G11G14G19G22G27G28G32
  21964234.220   115422846.08608  21964237.660    89939906.76548
  23318762.020   122540947.88607  23318766.020    95486489.11146
  20453680.320   107484843.38809  20453681.220    83754449.02648
  20957877.480   110134417.14509  20957877.100    85819049.62448
  23033844.780   121043673.01507  23033845.340    94319760.48846
  20544654.820   107962923.07809  20544652.740    84126961.02649
  22879214.360   120231178.16308  22879212.060    93686649.11147
  21536996.680   113177723.92209  21536998.920    88190452.99348
  24603055.640   129289930.14206  24603055.580   100745404.97744
  20350056.780   106940352.33109  20350057.560    83330182.15248
 15 02 28 04 06 30.0000000  0 10G01G03G04G11G14G19G22G27G28G32
  21953929.240   115368693.03508  21953932.660    89897709.59348
  23300148.540   122443133.75907  23300152.720    95410270.37046
  20450358.580   107467387.35309  20450359.400    83740846.92748
  20948000.420   110082513.44109  20948000.140    85778605.18948
  23029024.720   121018342.92107  23029025.220    94300022.77846
  20548691.020   107984133.43109  20548689.000    84143488.57049
  22895332.000   120315876.03208  22895329.660    93752647.43847
  21550027.900   113246203.21109  21550030.140    88243813.47948
  24589992.480   129221282.78806  24589992.300   100691913.57844
  20341949.000   106897746.23509  20341949.840    83296982.61348
 15 02 28 04 07  0.0000000  0 10G01G03G04G11G14G19G22G27G28G32
  21943654.000   115314696.00008  21943657.340    89855634.00048
  23281577.140   122345540.18107  23281581.300    95334223.48746
  20447085.940   107450189.66409  20447086.760    83727446.14348
  20938170.600   110030857.75109  20938170.360    85738354.00048
  23024295.360   120993489.47308  23024295.780    94280656.47746
  20552809.540   108005776.59909  20552807.620    84160353.37349
  22911483.920   120400754.11908  22911481.580    93818786.20647
  21563129.420   113315052.50509  21563131.800    88297462.27148
  24576998.820   129152999.94306  24576998.360   100638706.17644
  20333945.760   106855689.47409  20333946.700    83264211.12549
 15 02 28 04 07 30.0000000  0 10G01G03G04G11G14G19G22G27G28G32
  21933409.260   115260859.38408  21933412.500    89813683.41048
  23263048.820   122248173.05707  23263052.860    95258353.06746
  20443863.280   107433254.75809  20443864.180    83714250.12048
  20928389.000   109979454.98809  20928388.700    85698299.90148
  23019657.800   120969118.66307  23019658.180    94261666.24546
  20557011.280   108027857.01809  20557009.420    84177558.88849
  22927670.520   120485814.67708  22927668.240    93885067.15447
  21576301.920   113384275.19309  21576304.440    88351402.01948
  24564075.580   129085088.10806  24564074.980   100585787.89244
  20326048.020   106814187.12209  20326049.100    83231871.65349
