     2.11           OBSERVATION DATA    G                   RINEX VERSION / TYPE
SPIDER V4,0,0,3554                      2015 03 24 05:02    PGM / RUN BY / DATE 
OJGS                                                        MARKER NAME         
OJGS                                                        MARKER NUMBER       
                                                            OBSERVER / AGENCY   
496552              LEICA GRX1200+GNSS  8.20/4.007          REC # / TYPE / VERS 
10401003            LEIAR25         NONE                    ANT # / TYPE        
  5198100.9450    88691.2920  3684205.7148                  APPROX POSITION XYZ 
        0.1200        0.0000        0.0000                  ANTENNA: DELTA H/E/N
     1     1                                                WAVELENGTH FACT L1/2
     4    C1    L1    P2    L2                              # / TYPES OF OBSERV 
    30.000                                                  INTERVAL            
  2015    02    28    07    49    0.0000000     GPS         TIME OF FIRST OBS   
  2015    02    28    23    59   30.0000000     GPS         TIME OF LAST OBS    
    16                                                      LEAP SECONDS        
    29                                                      # OF SATELLITES     
   G 1   186   186   186   186                              PRN / # OF OBS      
   G 2   924   924   924   924                              PRN / # OF OBS      
   G 3   323   323   323   323                              PRN / # OF OBS      
   G 4    47    47    47    47                              PRN / # OF OBS      
   G 5   674   674   674   674                              PRN / # OF OBS      
   G 6   663   662   662   662                              PRN / # OF OBS      
   G 7   646   646   646   646                              PRN / # OF OBS      
   G 9   602   602   602   602                              PRN / # OF OBS      
   G10   771   771   771   771                              PRN / # OF OBS      
   G11    89    89    89    89                              PRN / # OF OBS      
   G12   811   811   811   811                              PRN / # OF OBS      
   G13   822   822   822   822                              PRN / # OF OBS      
   G14   518   516   513   512                              PRN / # OF OBS      
   G15   733   733   733   733                              PRN / # OF OBS      
   G16   203   203   203   203                              PRN / # OF OBS      
   G17   645   645   645   645                              PRN / # OF OBS      
   G18   518   518   518   518                              PRN / # OF OBS      
   G20   711   711   711   711                              PRN / # OF OBS      
   G21   388   382   379   377                              PRN / # OF OBS      
   G22   208   206   206   205                              PRN / # OF OBS      
   G23   418   418   418   418                              PRN / # OF OBS      
   G24   841   841   841   841                              PRN / # OF OBS      
   G25   822   822   822   822                              PRN / # OF OBS      
   G27   158   158   158   158                              PRN / # OF OBS      
   G28   573   573   572   572                              PRN / # OF OBS      
   G29   699   699   698   698                              PRN / # OF OBS      
   G30   691   691   691   691                              PRN / # OF OBS      
   G31   508   508   508   508                              PRN / # OF OBS      
   G32    53    53    53    53                              PRN / # OF OBS      
BIT 2 OF LLI FLAGS DATA COLLECTED UNDER A/S CONDITION       COMMENT             
SNR is mapped to RINEX snr flag value [2-9]                 COMMENT             
Lx:     = 25dBHz -> 1; 26-27dBHz -> 2; 28-31dBHz -> 3       COMMENT             
       32-35dBHz -> 4; 36-38dBHz -> 5; 39-41dBHz -> 6       COMMENT             
       42-44dBHz -> 7; 45-48dBHz -> 8; >=49dBHz -> 9        COMMENT             
                                                            END OF HEADER       
 15 02 28 07 49  0.0000000  0 11G01G03G04G06G09G10G11G17G20G23G32
  21596866.780   113492301.05509  21596869.680    88435570.17848
  20973438.040   110216160.59809  20973439.500    85882727.58948
  24046547.760   126365459.08708  24046549.420    98466598.94745
  23392870.920   122930363.70008  23392875.000    95789911.52147
  21344899.460   112168203.27809  21344900.600    87403799.12548
  24200261.620   127173233.43507  24200262.420    99096029.33144
  23323940.040   122568130.79508  23323939.700    95507633.52846
  21720560.860   114142317.53309  21720559.660    88942060.52848
  23200140.040   121917558.52608  23200140.060    95000694.91245
  20514520.880   107804533.40509  20514516.480    84003514.88148
  24231952.860   127339768.38108  24231954.720    99225801.57445
 15 02 28 07 49 30.0000000  0 11G01G03G04G06G09G10G11G17G20G23G32
  21609238.060   113557312.41209  21609240.940    88486228.41448
  20979855.300   110249883.08609  20979856.740    85909004.90148
  24065088.620   126462892.03208  24065090.480    98542520.67345
  23374840.480   122835614.90608  23374844.580    95716081.41947
  21331415.300   112097343.55209  21331416.500    87348583.84748
  24184280.700   127089252.90808  24184281.160    99030589.99244
  23343886.840   122672951.87909  23343886.620    95589312.28046
  21722261.200   114151252.94809  21722260.040    88949023.24548
  23186108.100   121843819.28008  23186108.020    94943235.83746
  20512007.800   107791326.48409  20512003.280    83993223.86248
  24247222.640   127420008.60308  24247224.720    99288326.36045
 15 02 28 07 50  0.0000000  0 11G01G03G04G06G09G10G11G17G20G23G32
  21621676.260   113622675.51009  21621679.160    88537160.71248
  20986304.960   110283775.73909  20986306.320    85935414.79648
  24083659.500   126560482.89108  24083661.500    98618565.43145
  23356826.520   122740951.48108  23356830.820    95642317.80347
  21318009.320   112026894.86209  21318010.580    87293688.84548
  24168317.960   127005366.17008  24168318.420    98965223.76244
  23363866.860   122777947.10408  23363866.600    95671126.71446
  21724071.060   114160763.84009  21724069.980    88956434.36648
  23172094.860   121770178.34708  23172094.620    94885853.37445
  20509586.660   107778603.32309  20509582.060    83983309.77848
  24262488.440   127500227.80208  24262490.520    99350834.73346
 15 02 28 07 50 30.0000000  0 11G01G03G04G06G09G10G11G17G20G23G32
  21634182.940   113688398.40509  21634185.820    88588373.37448
  20992788.540   110317846.82509  20992789.820    85961963.73748
  24102261.900   126658239.14208  24102264.020    98694739.06746
  23338830.860   122646384.09008  23338834.980    95568629.00347
  21304683.440   111956867.19709  21304684.800    87239121.90149
  24152374.500   126921582.15408  24152375.180    98899937.57844
  23383881.260   122883123.19908  23383880.940    95753082.09146
  21725991.960   114170858.06609  21725990.900    88964300.03848
  23158102.060   121696644.45508  23158101.520    94828554.29445
  20507259.040   107766372.28109  20507254.500    83973779.16749
  24277751.320   127580434.52307  24277753.840    99413333.30245
 15 02 28 07 51  0.0000000  0 11G01G03G04G06G09G10G11G17G20G23G32
  21646755.680   113754468.38109  21646758.560    88639856.46648
  20999303.660   110352083.88509  20999304.860    85988641.98248
  24120893.360   126756147.55808  24120895.480    98771031.25546
  23320851.800   122551902.58908  23320855.800    95495007.12947
  21291435.620   111887249.87209  21291437.020    87184874.69248
  24136448.440   126837888.92208  24136448.920    98834722.10144
  23403927.420   122988465.98708  23403927.000    95835167.33546
  21728021.440   114181522.88509  21728020.380    88972610.30348
  23144127.420   121623206.41108  23144126.580    94771329.90045
  20505022.640   107754620.96809  20505018.300    83964622.35349
  24293009.500   127660616.26608  24293011.720    99475812.48745
 15 02 28 07 51 30.0000000  0 11G01G03G04G06G09G10G11G17G20G23G32
  21659395.260   113820889.47609  21659398.140    88691613.16748
  21005851.180   110386491.19309  21005852.360    86015452.89248
  24139554.400   126854211.53808  24139556.620    98847444.65245
  23302890.400   122457513.71208  23302893.960    95421457.39847
  21278267.080   111818048.90109  21278268.500    87130951.93548
  24120540.440   126754291.52608  24120540.700    98769581.32244
  23424005.880   123093978.52308  23424005.400    95917384.85746
  21730160.340   114192762.69609  21730159.260    88981368.61648
  23130171.780   121549868.72108  23130170.760    94714183.68546
  20502878.500   107743353.87009  20502874.400    83955842.84149
  24308263.980   127740777.43608  24308265.420    99538275.73044
 15 02 28 07 52  0.0000000  0 11G01G03G04G06G09G10G11G17G20G23G32
  21672101.800   113887662.40309  21672104.600    88743643.99948
  21012431.300   110421069.69509  21012432.480    86042397.19948
  24158245.080   126952431.24608  24158247.340    98923979.39445
  23284947.280   122363220.81308  23284950.680    95347982.47247
  21265178.260   111749266.92109  21265179.720    87077355.64148
  24104650.840   126670791.56108  24104651.160    98704516.43545
  23444116.480   123199659.95608  23444115.960    95999733.97246
  21732408.740   114204577.80009  21732407.680    88990575.20748
  23116235.380   121476632.67008  23116234.540    94657116.69245
  20500826.760   107732571.80609  20500822.800    83947441.27849
  24323514.760   127820919.12908  24323516.200    99600723.69445
 15 02 28 07 52 30.0000000  0 11G01G03G04G06G09G10G11G17G20G23G32
  21684875.020   113954785.80609  21684877.720    88795947.94848
  21019043.740   110455818.41709  21019045.040    86069474.13848
  24176965.140   127050804.92708  24176967.360    99000634.11345
  23267022.460   122269025.29608  23267025.880    95274583.42848
  21252169.380   111680904.61409  21252170.800    87024086.37049
  24088779.580   126587388.57807  24088780.320    98639527.12645
  23464258.740   123305507.82308  23464258.300    96082212.77546
  21734766.380   114216967.01109  21734765.340    89000229.15248
  23102318.320   121403497.81608  23102317.640    94600128.53146
  20498867.100   107722273.76809  20498863.200    83939416.87449
  24338761.360   127901040.61608  24338763.520    99663155.84146
 15 02 28 07 53  0.0000000  0 11G01G03G04G06G09G10G11G17G20G23G32
  21697715.160   114022260.65909  21697717.760    88848525.73048
  21025688.800   110490738.55309  21025690.180    86096684.64248
  24195714.500   127149332.72408  24195716.720    99077408.90045
  23249116.820   122174930.79308  23249120.440    95201263.11347
  21239240.940   111612964.86509  21239242.280    86971146.35049
  24072927.080   126504084.51607  24072927.960    98574614.91244
  23484432.520   123411521.51408  23484432.220    96164820.78446
  21737233.420   114229931.02909  21737232.340    89010330.98648
  23088421.000   121330466.59908  23088420.400    94543221.12645
  20496999.780   107712461.18009  20496995.860    83931770.72449
  24354004.380   127981142.99308  24354007.000    99725573.10446
 15 02 28 07 53 30.0000000  0 11G01G03G04G06G09G10G11G17G20G23G32
  21710621.420   114090083.14009  21710623.960    88901374.38848
  21032365.800   110525826.63009  21032367.300    86124025.99848
  24214492.360   127248010.28308  24214494.620    99154300.37345
  23231230.420   122080936.28308  23231233.660    95128020.67447
  21226392.520   111545445.84109  21226393.840    86918534.15949
  24057092.840   126420876.38708  24057093.780    98509777.39744
  23504636.960   123517696.08408  23504636.620    96247554.15046
  21739809.120   114243466.29009  21739808.040    89020877.94448
  23074542.640   121257535.81408  23074542.320    94486391.98646
  20495224.220   107703130.25209  20495220.140    83924499.89348
  24369243.340   128061222.97508  24369245.840    99787972.96345
 15 02 28 07 54  0.0000000  0 11G01G03G04G06G09G10G11G17G20G23G32
  21723593.340   114158250.64309  21723595.820    88954491.89648
  21039074.340   110561080.39309  21039075.960    86151496.47148
  24233298.080   127346834.55408  24233300.520    99231306.16545
  23213363.240   121987041.96308  23213366.280    95054856.31848
  21213624.060   111478346.94709  21213625.360    86866249.34949
  24041276.680   126337762.60608  24041277.900    98445013.44944
  23524871.320   123624027.83808  23524870.960    96330409.99646
  21742493.020   114257569.97509  21742491.880    89031867.82748
  23060683.020   121184703.36108  23060682.740    94429639.48446
  20493539.920   107694278.70909  20493535.700    83917602.62249
  24384477.680   128141278.53508  24384479.620    99850353.84745
 15 02 28 07 54 30.0000000  0 11G01G03G04G06G09G10G11G17G20G23G32
  21736631.420   114226765.77709  21736633.880    89007880.27548
  21045815.020   110596502.77109  21045816.700    86179098.31048
  24252132.140   127445807.47108  24252134.620    99308427.79645
  23195515.960   121893253.10408  23195518.640    94981774.11147
  21200936.400   111411672.66709  21200937.720    86814295.40248
  24025479.340   126254746.86908  24025480.520    98380325.83544
  23545135.740   123730517.80008  23545135.440    96413389.10846
  21745285.520   114272244.34109  21745284.360    89043302.39148
  23046842.880   121111973.02908  23046842.620    94372966.53146
  20491947.380   107685909.59009  20491943.140    83911081.24949
  24399707.700   128221312.67808  24399709.800    99912717.95545
 15 02 28 07 55  0.0000000  0 11G01G03G04G06G09G10G11G17G20G23G32
  21749735.540   114295627.85909  21749737.960    89061539.00848
  21052587.740   110632093.47609  21052589.400    86206831.32148
  24270994.300   127544928.01408  24270996.780    99385664.42945
  23177689.000   121799571.85708  23177691.800    94908775.80447
  21188329.800   111345424.34809  21188331.100    86762673.36449
  24009700.820   126171829.28608  24009701.800    98315714.73944
  23565429.860   123837163.49008  23565429.580    96496489.56345
  21748186.540   114287488.81509  21748185.320    89055181.18848
  23033022.300   121039345.34108  23033021.940    94316373.55046
  20490446.480   107678022.42309  20490442.320    83904935.41749
  24414933.620   128301325.18608  24414936.060    99975065.17746
 15 02 28 07 55 30.0000000  0 11G01G03G04G06G09G10G11G17G20G23G32
  21762905.220   114364834.35009  21762907.580    89115466.11348
  21059392.080   110667850.34309  21059393.680    86234693.80448
  24289883.920   127644192.85608  24289886.340    99463013.52645
  23159882.580   121705998.52308  23159885.360    94835861.53647
  21175804.160   111279601.34009  21175805.440    86711382.73949
  23993940.740   126089008.20908  23993941.440    98251178.84744
  23585753.120   123943962.33808  23585752.860    96579709.36146
  21751195.500   114303300.67809  21751194.260    89067502.10848
  23019220.900   120966818.45008  23019220.500    94259859.12046
  20489036.860   107670615.01209  20489032.720    83899163.42048
  24430155.180   128381314.07008  24430157.760   100037394.01845
 15 02 28 07 56  0.0000000  0 11G01G03G04G06G09G10G11G17G20G23G32
  21776140.900   114434387.75909  21776143.200    89169663.54248
  21066228.620   110703776.31709  21066230.140    86262688.05148
  24308801.380   127743603.96808  24308803.720    99540476.57845
  23142097.520   121612538.41308  23142100.760    94763035.55648
  21163360.300   111214208.16509  21163361.520    86660427.05749
  23978199.560   126006287.37408  23978200.160    98186721.03344
  23606105.660   124050915.16408  23606105.380    96663049.14546
  21754312.820   114319682.20809  21754311.560    89080266.92448
  23005439.400   120894395.83908  23005438.920    94203425.95246
  20487719.000   107663689.80809  20487714.800    83893767.17449
  24445372.700   128461282.39108  24445375.220   100099706.85845
 15 02 28 07 56 30.0000000  0 11G01G03G04G06G09G10G11G17G20G23G32
  21789441.340   114504281.47009  21789443.600    89224126.13948
  21073096.160   110739865.18109  21073097.580    86290809.23848
  24327745.340   127843154.54808  24327747.800    99618048.32145
  23124333.540   121519187.87408  23124336.540    94690294.89147
  21150997.340   111149240.11609  21150998.480    86609802.63649
  23962476.420   125923661.30808  23962477.080    98122337.14145
  23626485.980   124158014.08708  23626485.740    96746502.76645
  21757537.340   114336626.79109  21757536.040    89093470.47548
  22991676.680   120822071.97608  22991675.980    94147069.73246
  20486491.760   107657240.85209  20486487.540    83888742.03248
  24460585.200   128541224.02408  24460587.720   100161998.90045
 15 02 28 07 57  0.0000000  0 11G01G03G04G06G09G10G11G17G20G23G32
  21802807.340   114574519.97209  21802809.640    89278857.39648
  21079995.620   110776121.86509  21079997.040    86319061.17648
  24346716.620   127942848.29109  24346719.020    99695731.60045
  23106591.900   121425954.19909  23106594.860    94617645.30647
  21138716.480   111084703.59909  21138717.580    86559514.47649
  23946772.240   125841135.51908  23946773.120    98058031.33045
  23646894.720   124265262.10408  23646894.440    96830072.55146
  21760869.740   114354138.38309  21760868.440    89107115.84648
  22977933.840   120749852.26608  22977932.780    94090794.66346
  20485355.980   107651272.62109  20485351.860    83884091.46549
  24475793.720   128621144.03508  24475796.200   100224274.08946
 15 02 28 07 57 30.0000000  0 11G01G03G04G06G09G10G11G17G20G23G32
  21816238.260   114645099.64109  21816240.560    89333854.49648
  21086926.460   110812543.19109  21086927.840    86347441.41948
  24365714.400   128042681.08708  24365716.840    99773523.24845
  23088872.200   121332836.60408  23088875.020    94545086.17947
  21126517.400   111020596.96609  21126518.500    86509561.28649
  23931086.500   125758707.07908  23931087.400    97993801.41445
  23667330.960   124372654.51108  23667330.700    96913754.84945
  21764309.340   114372213.31309  21764308.000    89121200.18648
  22964210.340   120677734.03808  22964209.220    94034598.67446
  20484311.040   107645781.84709  20484307.120    83879812.94849
  24490997.540   128701039.38508  24491000.000   100286530.05845
 15 02 28 07 58  0.0000000  0 11G01G03G04G06G09G10G11G17G20G23G32
  21829734.380   114716022.22809  21829736.720    89389118.80048
  21093889.060   110849131.42009  21093890.480    86375951.70048
  24384738.820   128142654.28809  24384741.260    99851424.26345
  23071175.500   121239839.89408  23071178.520    94472621.24348
  21114400.820   110956923.90109  21114401.900    86459945.92949
  23915419.900   125676379.12908  23915420.540    97929649.79344
  23687794.860   124480192.14008  23687794.540    96997550.30446
  21767856.480   114390853.49409  21767855.140    89135724.96948
  22950506.760   120605720.26108  22950505.620    93978484.05146
  20483357.400   107640770.48009  20483353.600    83875907.98449
  24506196.840   128780912.52707  24506199.560   100348768.65445
 15 02 28 07 58 30.0000000  0 11G01G03G04G06G09G10G11G17G20G23G32
  21843295.460   114787286.06309  21843297.860    89444649.01648
  21100883.220   110885885.32009  21100884.620    86404591.08248
  24403789.520   128242765.67208  24403792.020    99929432.98645
  23053501.940   121146965.21709  23053504.880    94400251.39347
  21102366.780   110893684.61209  21102367.840    86410668.58449
  23899772.480   125594151.11108  23899772.740    97865576.02344
  23708285.760   124587871.91308  23708285.480    97081456.51746
  21771510.740   114410056.66609  21771509.440    89150688.45148
  22936822.700   120533809.94308  22936821.620    93922450.08046
  20482494.680   107636236.96909  20482490.940    83872375.39049
  24521391.680   128860762.25708  24521394.680   100410989.06245
 15 02 28 07 59  0.0000000  0 11G01G03G04G06G09G10G11G17G20G23G32
  21856920.900   114858887.93709  21856923.340    89500442.63548
  21107908.380   110922802.22209  21107909.740    86433357.46748
  24422865.760   128343011.54008  24422868.360   100007546.49044
  23035851.660   121054212.38309  23035854.580    94327976.47348
  21090415.060   110830877.88709  21090416.100    86361728.29449
  23884143.740   125512020.63808  23884143.740    97801578.23144
  23728802.880   124695689.29508  23728802.480    97165469.95645
  21775271.480   114429819.49609  21775270.260    89166088.04048
  22923157.860   120462001.09208  22923156.860    93866495.15846
  20481722.380   107632178.65509  20481718.640    83869213.07649
  24536581.760   128940585.99408  24536584.680   100473189.25345
 15 02 28 07 59 30.0000000  0 11G01G03G04G06G09G10G11G17G20G23G32
  21870611.080   114930830.10809  21870613.580    89556501.41248
  21114965.040   110959884.93509  21114966.360    86462253.05648
  24441967.940   128443393.81608  24441970.680   100085766.30045
  23018225.600   120961586.66808  23018228.580    94255800.61447
  21078546.440   110768507.89409  21078547.460    86313128.31049
  23868534.120   125429990.98708  23868533.740    97737659.02744
  23749346.340   124803645.26208  23749345.900    97249591.37945
  21779139.060   114450143.96609  21779137.980    89181925.25248
  22909512.900   120390297.15508  22909512.020    93810621.96946
  20481040.980   107628597.87909  20481037.200    83866422.86349
  24551767.460   129020386.81808  24551770.600   100535371.53445
 15 02 28 08 00  0.0000000  0 11G01G03G04G06G09G10G11G17G20G23G32
  21884365.660   115003110.65909  21884368.200    89612823.86848
  21122052.920   110997132.04509  21122054.260    86491276.75448
  24461095.560   128543909.85108  24461098.380   100164090.32445
  23000623.880   120869089.05709  23000626.980    94183724.59348
  21066760.900   110706574.61809  21066761.900    86264868.62949
  23852943.540   125348061.51108  23852943.220    97673817.87644
  23769915.660   124911737.22408  23769915.180    97333818.78145
  21783113.080   114471027.80509  21783112.080    89198198.34348
  22895887.640   120318697.17908  22895887.080    93754829.80246
  20480450.140   107625492.83909  20480446.380    83864003.35749
  24566948.560   129100163.34308  24566951.700   100597534.86345
 15 02 28 08 00 30.0000000  0 11G01G03G04G06G09G10G11G17G20G23G32
  21898183.900   115075725.88709  21898186.500    89669407.11248
  21129171.480   111034540.42309  21129172.940    86520426.10848
  24480247.860   128644555.64408  24480250.840   100242515.44945
  22983046.440   120776718.93708  22983049.340    94111747.88648
  21055058.120   110645076.27009  21055059.120    86216947.85949
  23837371.380   125266229.73808  23837371.220    97610052.85044
  23790509.940   125019960.17908  23790509.440    97418148.24846
  21787192.800   114492466.80709  21787191.820    89214904.01048
  22882281.860   120247198.68008  22882281.300    93699116.70446
  20479949.180   107622859.99809  20479945.420    83861951.79949
  24582124.520   129179912.52208  24582127.500   100659676.91245
 15 02 28 08 01  0.0000000  0 11G01G03G04G06G09G10G11G17G20G23G32
  21912065.920   115148676.18209  21912068.540    89726251.43248
  21136320.960   111072111.01809  21136322.500    86549701.84348
  24499424.940   128745330.97608  24499427.900   100321041.53045
  22965494.020   120684479.66909  22965496.840    94039873.14648
  21043438.500   110584015.12309  21043439.560    86169367.75749
  23821818.120   125184497.08608  23821817.860    97546365.07844
  23811128.920   125128313.19508  23811128.500    97502579.04346
  21791378.280   114514461.56109  21791377.360    89232042.73448
  22868695.840   120175803.00908  22868694.960    93643483.73446
  20479538.180   107620699.89409  20479534.400    83860268.59949
  24597295.520   129259635.50608  24597298.140   100721798.61045
 15 02 28 08 01 30.0000000  0 11G01G03G04G06G09G10G11G17G20G23G32
  21926012.320   115221964.95309  21926015.000    89783359.51048
  21143502.120   111109847.83709  21143503.620    86579107.12048
  24518627.260   128846238.85308  24518630.100   100399670.86645
  22947967.600   120592377.78109  22947970.360    93968105.46648
  21031903.140   110523396.54409  21031904.240    86122132.50949
  23806284.480   125102867.91408  23806284.800    97482757.95945
  23831773.160   125236798.65208  23831772.720    97587113.05245
  21795670.000   114537015.01709  21795669.300    89249616.81948
  22855130.300   120104514.59008  22855129.320    93587934.33146
  20479217.860   107619016.59609  20479214.020    83858956.92849
  24612462.280   129339336.49507  24612465.020   100783903.14845
 15 02 28 08 02  0.0000000  0 11G01G03G04G06G09G10G11G17G20G23G32
  21940022.320   115295588.04709  21940025.100    89840728.09048
  21150714.140   111147747.30809  21150715.680    86608639.14748
  24537854.000   128947274.76808  24537856.820   100478399.98344
  22930467.080   120500412.16709  22930469.960    93896443.98848
  21020451.560   110463218.22409  21020452.720    86075240.32049
  23790770.120   125021339.55208  23790770.720    97419229.34745
  23852441.580   125345411.26508  23852441.180    97671746.13645
  21800067.260   114560122.68309  21800066.640    89267622.75748
  22841584.640   120033330.62608  22841583.320    93532466.32446
  20478987.520   107617805.90209  20478983.560    83858013.53449
  24627623.940   129419012.04207  24627627.060   100845987.69745
 15 02 28 08 02 30.0000000  0 11G01G03G04G06G09G10G11G17G20G23G32
  21954095.520   115369543.33309  21954098.400    89898355.51848
  21157956.820   111185807.92709  21157958.360    86638296.73748
  24557104.500   129048436.06708  24557107.220   100557226.78545
  22912992.740   120408583.74109  22912995.620    93824889.38448
  21009083.720   110403479.90609  21009084.920    86028690.99149
  23775274.680   124939910.57308  23775275.520    97355778.19045
  23873133.600   125454148.01708  23873133.100    97756475.95945
  21804569.600   114583782.03509  21804568.940    89286058.57148
  22828058.600   119962250.04908  22828057.020    93477078.87146
  20478846.740   107617065.71909  20478842.720    83857436.75849
  24642780.700   129498660.63408  24642784.120   100908051.35245
 15 02 28 08 03  0.0000000  0 11G01G03G04G06G09G10G11G17G20G23G32
  21968232.060   115443831.32409  21968235.080    89956242.21048
  21165230.380   111224030.89009  21165231.920    86668080.84248
  24576378.880   129149722.86608  24576381.640   100636151.37945
  22895545.060   120316896.17109  22895548.060    93753444.56548
  20997800.080   110344184.05909  20997801.300    85982486.45549
  23759798.500   124858583.14708  23759799.620    97292406.23245
  23893849.020   125563007.79008  23893848.560    97841301.62945
  21809176.960   114607993.23109  21809176.240    89304924.41448
  22814552.480   119891274.57308  22814550.840    93421773.33447
  20478795.660   107616796.87209  20478791.640    83857227.27349
  24657932.820   129578283.55208  24657936.120   100970095.04945
 15 02 28 08 03 30.0000000  0 11G01G03G04G06G09G10G11G17G20G23G32
  21982432.100   115518452.77509  21982435.180    90014388.73048
  21172535.100   111262417.59709  21172536.560    86697992.52348
  24595677.180   129251135.53908  24595680.120   100715174.06344
  22878125.020   120225353.35009  22878127.900    93682112.50548
  20986601.160   110285333.30009  20986602.340    85936628.72149
  23744342.100   124777358.96008  23744343.260    97229114.66145
  23914587.940   125671990.80408  23914587.540    97926223.34545
  21813889.460   114632757.05509  21813888.680    89324220.85548
  22801066.540   119820405.88708  22801065.000    93366550.98846
  20478834.420   107617000.22009  20478830.400    83857385.71849
  24673080.300   129657882.52007  24673083.300   101032120.06845
 15 02 28 08 04  0.0000000  0 11G01G03G04G06G09G10G11G17G20G23G32
  21996694.860   115593403.73209  21996697.960    90072792.00648
  21179870.340   111300964.77509  21179871.800    86728029.23648
  24614998.580   129352669.52908  24615001.520   100794291.29245
  22860732.360   120133954.46309  22860735.320    93610892.62648
  20975486.540   110226925.56209  20975487.660    85891116.21049
  23728904.840   124696235.13808  23728905.940    97165901.29044
  23935349.280   125781091.75708  23935348.880    98011236.94245
  21818706.180   114658068.51409  21818705.380    89343944.04148
  22787600.460   119749641.36408  22787598.940    93311409.82446
  20478962.320   107617671.99809  20478958.300    83857909.17749
  24688222.300   129737454.28007  24688225.540   101094123.81444
 15 02 28 08 04 30.0000000  0 11G01G03G04G06G09G10G11G17G20G23G32
  22011020.640   115668685.74909  22011023.720    90131453.25248
  21187236.540   111339674.61209  21187238.020    86758192.70048
  24634343.200   129454326.07308  24634346.280   100873503.99944
  22843368.020   120042704.17709  22843370.800    93539788.52148
  20964456.900   110168964.22609  20964457.960    85845951.53949
  23713487.180   124615214.56208  23713488.080    97102768.39144
  23956133.160   125890311.33108  23956132.740    98096342.96445
  21823627.420   114683929.19509  21823626.560    89364095.17048
  22774154.800   119678983.88408  22774153.180    93256352.04546
  20479179.700   107618814.14609  20479175.660    83858799.15649
  24703359.620   129817001.18708  24703362.940   101156108.19945
 15 02 28 08 05  0.0000000  0 11G01G03G04G06G09G10G11G17G20G23G32
  22025408.280   115744292.86609  22025411.360    90190367.82148
  21194632.740   111378541.88909  21194634.280    86788478.84948
  24653709.980   129556098.85008  24653713.160   100952807.28145
  22826031.460   119951599.80309  22826034.200    93468798.11648
  20953511.440   110111445.26409  20953512.460    85801131.57149
  23698088.380   124534292.52308  23698089.140    97039712.24344
  23976938.200   125999641.99808  23976937.840    98181535.55645
  21828652.040   114710332.86309  21828651.120    89384669.41448
  22760728.580   119608428.71608  22760727.080    93201374.01246
  20479485.440   107620420.92309  20479481.440    83860051.18649
  24718491.440   129896518.13208  24718494.760   101218069.25045
 15 02 28 08 05 30.0000000  0 11G01G03G04G06G09G10G11G17G20G23G32
  22039858.480   115820229.05109  22039861.580    90249538.79948
  21202059.800   111417571.28709  21202061.340    86818891.32648
  24673099.660   129657991.41508  24673102.960   101032203.90545
  22808724.000   119860648.45509  22808726.720    93397926.96548
  20942651.280   110054374.44209  20942652.240    85756660.81049
  23682709.200   124453474.13708  23682709.620    96976736.87744
  23997765.000   126109087.02908  23997764.680    98266817.26246
  21833780.600   114737282.71609  21833779.600    89405669.25048
  22747322.720   119537980.88808  22747321.380    93146479.61746
  20479880.360   107622496.41509  20479876.400    83861668.44349
  24733618.480   129976009.93708  24733621.700   101280010.72444
 15 02 28 08 06  0.0000000  0 11G01G03G04G06G09G10G11G17G20G23G32
  22054371.220   115896493.86509  22054374.320    90308965.84648
  21209517.820   111456763.13109  21209519.280    86849430.38948
  24692512.000   129760002.98308  24692515.280   101111693.26144
  22791446.220   119769852.94009  22791448.980    93327177.23148
  20931876.620   109997753.21809  20931877.620    85712540.37449
  23667349.820   124372760.34408  23667350.400    96913843.01345
  24018613.260   126218644.91008  24018613.020    98352186.90045
  21839012.900   114764777.90809  21839011.820    89427094.03048
  22733937.440   119467641.18708  22733936.220    93091669.47146
  20480364.360   107625039.83109  20480360.420    83863650.31549
  24748740.740   130055477.07908  24748743.760   101341933.00344
 15 02 28 08 06 30.0000000  0 11G01G03G04G06G09G10G11G17G20G23G32
  22068945.720   115973083.30009  22068948.820    90368645.85948
  21217006.120   111496114.13809  21217007.540    86880093.47348
  24711946.080   129862129.01908  24711949.380   101191271.78044
  22774197.920   119679212.48309  22774200.580    93256548.32448
  20921187.100   109941579.42209  20921188.100    85668768.59549
  23652009.740   124292148.23208  23652010.780    96851028.39645
  24039482.140   126328311.05708  24039482.000    98437640.89545
  21844348.140   114792814.43409  21844347.020    89448940.63148
  22720572.240   119397407.06008  22720571.140    93036941.60046
  20480936.800   107628047.85809  20480932.840    83865994.22249
  24763857.600   130134916.32908  24763860.520   101403833.55745
 15 02 28 08 07  0.0000000  0 11G01G03G04G06G09G10G11G17G20G23G32
  22083582.340   116049999.05009  22083585.440    90428580.13747
  21224525.180   111535626.76509  21224526.600    86910882.49748
  24731402.160   129964370.82408  24731405.460   101270940.54644
  22756980.040   119588732.00709  22756982.700    93186044.08648
  20910583.360   109885856.62909  20910584.420    85625348.24149
  23636689.540   124211640.91508  23636690.760    96788295.43845
  24060371.640   126438085.40308  24060371.500    98523179.20545
  21849786.540   114821393.24309  21849785.440    89471209.79548
  22707227.780   119327281.36208  22707226.600    92982298.19946
  20481597.980   107631522.35309  20481594.020    83868701.61349
  24778969.780   130214330.34908  24778972.860   101465714.44145
 15 02 28 08 07 30.0000000  0 11G01G03G04G06G09G10G11G17G20G23G32
  22098280.100   116127236.06609  22098283.200    90488764.74748
  21232074.140   111575296.75209  21232075.620    86941794.13248
  24750879.260   130066723.09208  24750882.440   101350695.35644
  22739792.200   119498409.74809  22739794.940    93115663.12548
  20900064.820   109830581.59109  20900065.920    85582276.79549
  23621388.440   124131234.47108  23621389.840    96725641.07945
  24081280.580   126547962.01008  24081280.420    98608797.18145
  21855327.040   114850508.67709  21855325.980    89493897.10048
  22693903.340   119257260.27408  22693901.880    92927736.32146
  20482346.880   107635457.96809  20482342.940    83871768.30749
  24794076.320   130293714.94308  24794079.620   101527572.36445
 15 02 28 08 08  0.0000000  0 11G01G03G04G06G09G10G11G17G20G23G32
  22113039.840   116204798.80309  22113042.900    90549203.16847
  21239654.080   111615129.35309  21239655.580    86972832.47648
  24770378.160   130169189.79108  24770381.440   101430539.35044
  22722636.040   119408253.45609  22722638.880    93045411.50048
  20889632.680   109775760.61409  20889633.800    85539559.15549
  23606107.660   124050934.60708  23606109.060    96663069.78745
  24102209.720   126657944.67608  24102209.580    98694497.81045
  21860970.400   114880164.77609  21860969.380    89517005.70848
  22680599.840   119187349.45808  22680598.400    92873260.35846
  20483184.480   107639859.69809  20483180.600    83875198.21749
  24809178.260   130373075.52408  24809181.960   101589411.55545
 15 02 28 08 08 30.0000000  0 11G01G03G04G06G09G10G11G17G20G23G32
  22127860.560   116282681.77909  22127863.540    90609891.12748
  21247264.120   111655119.90509  21247265.660    87003993.90648
  24789897.760   130271765.30308  24789900.960   101510468.14344
  22705511.080   119318260.96309  22705513.760    92975287.49848
  20879286.300   109721390.01009  20879287.360    85497192.45949
  23590846.580   123970737.41108  23590848.080    96600578.50245
  24123157.800   126768026.89608  24123157.700    98780276.01445
  21866715.520   114910355.90409  21866714.520    89540531.22548
  22667316.440   119117545.12508  22667315.280    92818867.37746
  20484109.700   107644721.93609  20484105.900    83878986.96149
  24824274.860   130452407.58108  24824278.580   101651228.53745
 15 02 28 08 09  0.0000000  0 11G01G03G04G06G09G10G11G17G20G23G32
  22142742.200   116360884.96509  22142745.120    90670828.60747
  21254904.420   111695269.22209  21254905.940    87035279.04748
  24809437.940   130374449.16408  24809441.220   101590481.34044
  22688417.940   119228435.57209  22688420.500    92905293.71148
  20869025.980   109667471.60409  20869026.980    85455178.12449
  23575605.540   123890644.27008  23575606.840    96538168.27945
  24144124.620   126878207.37808  24144124.580    98866130.78945
  21872562.280   114941081.28209  21872561.320    89564473.03248
  22654053.400   119047848.14408  22654052.460    92764558.05847
  20485122.660   107650045.24509  20485118.900    83883134.98549
  24839366.220   130531712.01808  24839369.780   101713024.04344
 15 02 28 08 09 30.0000000  0 11G01G03G04G06G09G10G11G17G20G23G32
  22157684.460   116439406.62209  22157687.320    90732014.23047
  21262574.740   111735576.39809  21262576.300    87066687.19548
  24828998.400   130477239.10008  24829001.760   101670577.23744
  22671356.760   119138778.83109  22671359.340    92835431.33848
  20858851.740   109614005.48309  20858852.680    85413516.21049
  23560384.200   123810654.35408  23560385.200    96475838.48045
  24165109.600   126988483.56708  24165109.580    98952060.12145
  21878510.260   114972338.72909  21878509.420    89588829.44248
  22640810.820   118978258.26008  22640810.000    92710332.17946
  20486223.120   107655828.18309  20486219.360    83887641.15649
  24854452.020   130610988.00908  24854455.480   101774797.37445
 15 02 28 08 10  0.0000000  0 11G01G03G04G06G09G10G11G17G20G23G32
  22172687.480   116518247.51909  22172690.280    90793448.63048
  21270275.340   111776043.06709  21270277.000    87098219.62148
  24848579.120   130580135.69308  24848582.660   101750756.18344
  22654328.540   119049294.95009  22654331.060    92765703.66148
  20848764.000   109560994.20409  20848764.960    85372208.73649
  23545183.000   123730769.75608  23545183.920    96413590.75845
  24186112.740   127098855.35008  24186112.680    99038063.96945
  21884559.500   115004128.48608  21884558.880    89613600.64048
  22627589.120   118908777.77408  22627588.300    92656191.55847
  20487411.100   107662070.70209  20487407.280    83892505.45149
  24869532.700   130690237.42807  24869536.380   101836549.97844
 15 02 28 08 10 30.0000000  0 11G01G03G04G06G09G10G11G17G20G23G32
  22187751.260   116597407.84709  22187754.020    90855131.92747
  21278006.400   111816670.32909  21278008.200    87129877.18148
  24868180.100   130683138.71608  24868183.380   101831018.08644
  22637333.880   118959987.45609  22637336.300    92696113.43148
  20838763.180   109508439.79809  20838764.200    85331257.25349
  23530001.960   123650991.91708  23530002.840    96351426.22445
  24207133.920   127209321.86308  24207133.980    99124141.60845
  21890710.000   115036450.26209  21890709.620    89638786.38448
  22614388.600   118839408.16608  22614387.720    92602137.31046
  20488686.740   107668773.87309  20488682.880    83897728.68749
  24884608.460   130769461.44908  24884612.220   101898282.75645
 15 02 28 08 11  0.0000000  0 11G01G03G04G06G09G10G11G17G20G23G32
  22202874.360   116676880.04509  22202877.160    90917058.23748
  21285766.720   111857451.47009  21285768.660    87161654.64648
  24887799.920   130786240.45708  24887803.280   101911356.87644
  22620371.900   118870852.15909  22620374.440    92626657.40048
  20828848.240   109456336.47809  20828849.280    85290657.27049
  23514839.920   123571314.92408  23514840.260    96289340.24645
  24228171.520   127319874.62408  24228171.680    99210286.45745
  21896960.220   115069295.67108  21896959.940    89664380.18348
  22601207.980   118770143.05908  22601206.960    92548164.52647
  20490048.580   107675929.99609  20490044.680    83903304.88349
  24899678.260   130848653.52208  24899682.200   101959990.70644
 15 02 28 08 11 30.0000000  0 11G01G03G04G06G09G10G11G17G20G23G32
  22218058.580   116756673.20609  22218061.400    90979234.64848
  21293558.180   111898396.53009  21293560.260    87193559.84348
  24907440.140   130889449.61909  24907443.240   101991779.39044
  22603445.160   118781901.64009  22603447.640    92557345.32648
  20819021.200   109404695.14209  20819022.260    85250417.28049
  23499698.880   123491749.37608  23499699.280    96227341.09944
  24249227.120   127430521.82408  24249227.280    99296504.89645
  21903311.780   115102673.45209  21903311.500    89690388.79448
  22588049.140   118700992.76208  22588047.880    92494281.18846
  20491498.280   107683548.01409  20491494.380    83909240.98849
  24914744.000   130927823.68008  24914747.960   102021681.55944
 15 02 28 08 12  0.0000000  0 11G01G03G04G06G09G10G11G17G20G23G32
  22233302.100   116836778.10509  22233304.980    91041653.96448
  21301379.340   111939497.18709  21301381.420    87225586.27648
  24927098.880   130992756.47408  24927102.100   102072278.05144
  22586552.480   118693130.01809  22586554.940    92488172.65848
  20809280.720   109353508.32709  20809281.780    85210531.45249
  23484577.500   123412287.30408  23484578.080    96165422.59744
  24270298.740   127541253.24108  24270298.800    99382788.95545
  21909762.900   115136573.90309  21909762.500    89716804.69048
  22574910.600   118631949.94108  22574909.380    92440481.61046
  20493034.200   107691619.21209  20493030.320    83915530.21349
  24929804.100   131006963.90708  24929807.920   102083349.08644
 15 02 28 08 12 30.0000000  0 10G01G03G06G09G10G11G17G20G23G32
  22248604.740   116917193.74009  22248607.680    91104315.41547
  21309230.080   111980753.41208  21309232.160    87257733.94648
  22569694.240   118604539.78609  22569696.720    92419141.34848
  20799626.860   109302776.83809  20799627.920    85171000.43249
  23469475.880   123332929.05608  23469476.480    96103584.99945
  24291386.060   127652067.12808  24291386.220    99469137.29345
  21916313.180   115170995.39509  21916312.720    89743626.58648
  22561792.620   118563014.95808  22561791.580    92386766.05147
  20494656.240   107700142.89609  20494652.400    83922172.03249
  24944858.460   131086074.15408  24944862.200   102144993.24244
 15 02 28 08 13  0.0000000  0 10G01G03G06G09G10G11G17G20G23G32
  22263966.340   116997919.14309  22263969.340    91167218.23947
  21317110.500   112022165.13309  21317112.500    87290002.77148
  22552871.060   118516133.40209  22552873.500    92350253.27948
  20790059.780   109252501.45609  20790060.880    85131824.81449
  23454394.280   123253674.87808  23454394.900    96041828.48545
  24312488.660   127762961.56108  24312488.900    99555548.37844
  21922962.300   115205936.14409  21922961.760    89770853.09448
  22548695.300   118494188.17508  22548694.240    92333134.80847
  20496364.100   107709117.68709  20496360.260    83929165.35349
  24959907.180   131165154.60308  24959910.880   102206614.23644
 15 02 28 08 13 30.0000000  0 10G01G03G06G09G10G11G17G20G23G32
  22279387.980   117078959.80709  22279390.980    91230366.72247
  21325021.760   112063738.86408  21325023.720    87322397.84748
  22536084.540   118427919.87609  22536087.040    92281515.49448
  20780580.860   109202689.43009  20780582.000    85093010.24849
  23439334.040   123174531.91108  23439334.600    95980158.63245
  24333607.460   127873940.93908  24333607.700    99642025.65044
  21929711.220   115241401.36109  21929710.620    89798488.28048
  22535619.900   118425476.57108  22535618.640    92279593.31247
  20498158.920   107718549.51409  20498155.040    83936514.81749
  24974951.420   131244211.82108  24974955.220   102268217.07545
 15 02 28 08 14  0.0000000  0 10G01G03G06G09G10G11G17G20G23G32
  22294868.060   117160307.63509  22294871.080    91293754.54048
  21332962.540   112105467.49009  21332964.420    87354913.61548
  22519333.860   118339894.58409  22519336.260    92212924.37748
  20771188.900   109153334.49409  20771190.080    85054551.85049
  23424293.640   123095493.38408  23424294.660    95918570.14145
  24354740.740   127984996.41608  24354741.000    99728562.22945
  21936558.260   115277382.20009  21936557.560    89826525.23848
  22522565.060   118356873.28908  22522563.720    92226136.23047
  20500039.180   107728430.47309  20500035.280    83944214.23749
  24989989.880   131323238.80008  24989993.820   102329796.33844
 15 02 28 08 14 30.0000000  0 10G01G03G06G09G10G11G17G20G23G32
  22310406.960   117241964.49609  22310409.960    91357383.17348
  21340933.340   112147353.86509  21340935.120    87387552.30948
  22502620.000   118252062.88009  22502622.520    92144484.13148
  20761884.620   109104440.17809  20761885.780    85016452.38549
  23409273.760   123016562.87208  23409274.820    95857065.85046
  24375888.780   128096129.12808  24375889.040    99815158.97645
  21943503.660   115313879.87009  21943502.840    89854964.93748
  22509531.500   118288381.79708  22509530.180    92172766.26947
  20502005.240   107738762.43509  20502001.400    83952265.10249
  25005023.100   131402238.56508  25005027.140   102391354.45044
 15 02 28 08 15  0.0000000  0 11G01G03G06G07G09G10G11G17G20G23G32
  22326004.220   117323928.09309  22326007.200    91421250.81747
  21348933.940   112189396.72309  21348935.600    87420312.93548
  22485943.260   118164426.04909  22485945.640    92076195.71348
  24662370.600   129601631.18808  24662373.180   100988280.44645
  20752667.920   109056006.00509  20752669.040    84978711.46949
  23394274.200   122937739.36908  23394275.240    95795644.93445
  24397050.860   128207335.84408  24397051.120    99901813.40045
  21950546.840   115350891.45709  21950545.880    89883805.08248
  22496519.160   118220001.50208  22496517.960    92119482.94146
  20504056.640   107749542.94609  20504052.880    83960665.47949
  25020050.960   131481210.02708  25020055.160   102452890.49644
 15 02 28 08 15 30.0000000  0 10G01G03G06G07G09G10G11G17G20G23
  22341661.360   117406206.46709  22341664.360    91485363.75248
  21356966.020   112231605.09209  21356967.640    87453202.52648
  22469305.820   118076995.60109  22469308.040    92008068.11248
  24643621.140   129503101.51708  24643623.620   100911504.15445
  20743540.640   109008041.69909  20743541.680    84941336.68749
  23379296.660   122859032.05908  23379297.700    95734314.57945
  24418228.400   128318623.65408  24418228.600    99988531.01845
  21957689.180   115388424.48409  21957688.220    89913051.55348
  22483529.780   118151741.72608  22483528.620    92066293.52547
  20506194.980   107760780.19509  20506191.280    83969421.75949
 15 02 28 08 16  0.0000000  0 10G01G03G06G07G09G10G11G17G20G23
  22357374.800   117488781.07809  22357377.840    91549707.50448
  21365026.280   112273961.50009  21365027.960    87486207.46448
  22452704.780   117989756.59509  22452706.860    91940089.68448
  24624853.860   129404479.49208  24624856.260   100834655.86345
  20734499.620   108960530.50109  20734500.560    84904314.97449
  23364338.060   122780424.36408  23364339.100    95673061.83045
  24439417.680   128429973.48308  24439418.060   100075296.93744
  21964927.080   115426459.58009  21964926.080    89942689.23348
  22470560.120   118083585.57908  22470558.940    92013184.86647
  20508416.820   107772455.99309  20508413.140    83978519.75149
 15 02 28 08 16 30.0000000  0 10G01G03G06G07G09G10G11G17G20G23
  22373145.960   117571658.81309  22373149.080    91614287.46947
  21373116.200   112316473.88809  21373118.000    87519333.94748
  22436142.100   117902719.44409  22436144.260    91872268.55548
  24606071.000   129305775.62108  24606073.360   100757743.82645
  20725546.420   108913480.97209  20725547.320    84867653.01049
  23349399.880   122701924.34208  23349401.200    95611893.00645
  24460619.860   128541391.03708  24460620.260   100162115.64645
  21972261.660   115465002.98409  21972260.640    89972722.99548
  22457611.820   118015541.46408  22457610.440    91960163.48847
  20510723.440   107784577.26909  20510719.780    83987964.88049
 15 02 28 08 17  0.0000000  0 10G01G03G06G07G09G10G11G17G20G23
  22388974.660   117654838.90109  22388977.880    91679103.03048
  21381235.860   112359142.58309  21381237.640    87552582.23148
  22419618.340   117815887.04609  22419620.700    91804606.97448
  24587273.160   129206992.81808  24587275.500   100680770.27345
  20716681.260   108866894.13209  20716682.180    84831351.58449
  23334482.420   122623533.01508  23334483.820    95550808.86245
  24481834.620   128652874.91708  24481835.180   100248986.00845
  21979692.700   115504053.34409  21979691.700    90003151.78848
  22444684.980   117947610.20108  22444683.400    91907230.06347
  20513114.740   107797143.46209  20513111.080    83997756.70548
 15 02 28 08 17 30.0000000  0 10G01G03G06G07G09G10G11G17G20G23
  22404860.720   117738320.39709  22404864.080    91744153.45048
  21389385.260   112401967.69009  21389387.080    87585952.38548
  22403134.100   117729261.98509  22403136.520    91737106.94348
  24568460.940   129108134.18908  24568463.380   100603737.63845
  20707904.300   108820770.68009  20707905.220    84795411.22849
  23319585.800   122545250.54908  23319586.940    95489809.55045
  24503061.700   128764423.29708  24503062.220   100335906.65144
  21987219.860   115543608.82409  21987218.880    90033974.18248
  22431779.680   117879792.19008  22431777.960    91854384.87647
  20515590.400   107810153.19009  20515586.780    84007894.12748
 15 02 28 08 18  0.0000000  0 10G01G03G06G07G09G10G11G17G20G23
  22420803.500   117822099.69609  22420806.900    91809435.93348
  21397563.960   112444946.78309  21397565.780    87619442.53748
  22386689.420   117642844.32509  22386691.640    91669768.51948
  24549634.340   129009199.90908  24549636.680   100526646.03145
  20699215.140   108775108.73909  20699216.080    84759830.50149
  23304709.540   122467075.22308  23304710.700    95428893.73745
  24524300.140   128876031.74508  24524300.620   100422874.09944
  21994842.300   115583665.23709  21994841.420    90065186.91648
  22418895.440   117812085.09108  22418893.900    91801626.12447
  20518149.900   107823603.70309  20518146.380    84018375.01549
 15 02 28 08 18 30.0000000  0 10G01G03G06G07G09G10G11G17G20G23
  22436803.400   117906179.24909  22436806.860    91874952.37348
  21405772.620   112488083.36709  21405774.500    87653055.39848
  22370285.340   117556640.13709  22370287.540    91602596.45748
  24530794.460   128910195.93408  24530796.880   100449500.13645
  20690614.620   108729912.49409  20690615.520    84724612.65649
  23289854.280   122389010.80608  23289855.480    95368064.33945
  24545550.400   128987702.04008  24545551.000   100509889.73745
  22002560.400   115624224.42109  22002559.600    90096791.41248
  22406033.220   117744493.71308  22406031.760    91748957.54147
  20520793.620   107837496.66609  20520790.180    84029200.67849
 15 02 28 08 19  0.0000000  0 10G01G03G06G07G09G10G11G17G20G23
  22452859.780   117990555.87809  22452863.300    91940700.29748
  21414010.920   112531375.40809  21414012.820    87686789.41148
  22353921.900   117470649.84809  22353924.140    91535591.05548
  24511941.480   128811122.97408  24511943.820   100372300.45745
  20682102.420   108685180.40809  20682103.240    84689756.49949
  23275019.840   122311055.78408  23275021.100    95307320.20245
  24566811.700   129099430.23508  24566812.240   100596950.49044
  22010373.480   115665282.47809  22010372.760    90128784.63748
  22393192.620   117677016.33308  22393191.180    91696377.78447
  20523521.040   107851829.51309  20523517.700    84040369.09949
 15 02 28 08 19 30.0000000  0 10G01G03G06G07G09G10G11G17G20G23
  22468972.220   118075227.01409  22468975.800    92006677.72648
  21422278.540   112574821.51409  21422280.420    87720643.46848
  22337599.340   117384874.58609  22337601.520    91468753.22048
  24493075.780   128711983.03008  24493077.980   100295048.58345
  20673678.340   108640911.60809  20673679.100    84655261.35949
  23260206.060   122233209.11308  23260207.280    95246660.47145
  24588083.380   129211213.08408  24588084.080   100684053.84345
  22018280.880   115706836.03809  22018280.300    90161163.98348
  22380373.500   117609651.66008  22380372.020    91643885.86447
  20526331.740   107866599.98009  20526328.480    84051878.54049
 15 02 28 08 20  0.0000000  0 10G01G03G06G07G09G10G11G17G20G23
  22485141.100   118160194.75809  22485144.700    92072886.26148
  21430576.100   112618424.89009  21430577.900    87754620.07748
  22321318.800   117299320.12309  22321321.060    91402087.43348
  24474198.280   128612781.10608  24474200.440   100217748.39145
  20665343.120   108597109.87009  20665343.840    84621130.14349
  23245413.660   122155474.45808  23245414.960    95186088.04345
  24609365.720   129323051.71807  24609366.400   100771200.66945
  22026282.840   115748886.45609  22026282.340    90193930.47347
  22367576.520   117542403.38108  22367575.060    91591484.62947
  20529226.040   107881809.69209  20529222.840    84063730.23748
 15 02 28 08 20 30.0000000  0 10G01G03G06G07G09G10G11G17G20G23
  22501365.480   118245454.12209  22501369.080    92139322.03548
  21438902.800   112662181.78109  21438904.580    87788716.30748
  22305080.060   117213985.17609  22305082.360    91335592.69448
  24455308.860   128513516.49708  24455311.060   100140399.35746
  20657096.080   108553771.88709  20657096.880    84587360.30349
  23230641.980   122077848.45108  23230643.120    95125600.27445
  24630657.660   129434940.52508  24630658.300   100858386.55845
  22034378.320   115791428.05409  22034377.780    90227079.71848
  22354801.180   117475268.54008  22354799.640    91539171.79047
  20532203.020   107897453.71809  20532199.800    84075920.36849
 15 02 28 08 21  0.0000000  0 10G01G03G06G07G09G10G11G17G20G23
  22517645.480   118331005.86809  22517649.140    92205985.64848
  21447259.060   112706094.10509  21447260.820    87822933.65948
  22288884.020   117128874.21209  22288886.280    91269272.47248
  24436408.360   128414193.83308  24436410.360   100063005.07245
  20648937.820   108510900.07509  20648938.660    84553953.71049
  23215891.300   122000333.31208  23215892.300    95065198.90646
  24651959.060   129546879.39208  24651959.940   100945611.47144
  22042567.260   115834460.52509  22042566.640    90260611.45048
  22342047.780   117408249.20208  22342046.160    91486948.96247
  20535262.840   107913533.09609  20535259.600    84088449.73449
 15 02 28 08 21 30.0000000  0 10G01G03G06G07G09G10G11G17G20G23
  22533981.140   118416849.99609  22533984.820    92272877.08048
  21455645.120   112750163.06909  21455646.860    87857273.07548
  22272731.300   117043990.94009  22272733.580    91203129.68848
  24417497.560   128314817.21108  24417499.540    99985568.73445
  20640868.620   108468496.08309  20640869.500    84520911.65949
  23201162.060   121922930.86408  23201163.200    95004885.35945
  24673269.840   129658867.76008  24673270.900   101032874.96545
  22050849.540   115877983.39109  22050848.840    90294525.31648
  22329316.680   117341347.19608  22329315.080    91434817.55147
  20538405.600   107930048.26909  20538402.300    84101318.68448
 15 02 28 08 22  0.0000000  0 10G01G03G06G07G09G10G11G17G20G23
  22550371.660   118502982.41109  22550375.400    92339993.15148
  21464060.460   112794385.81909  21464062.200    87891732.31548
  22256621.760   116959334.97309  22256624.100    91137164.02548
  24398576.500   128215386.23008  24398578.440    99908090.03245
  20632888.000   108426557.45009  20632888.880    84488232.21549
  23186453.780   121845638.43908  23186455.040    94944657.54145
  24694589.140   129770900.88107  24694590.240   101120173.30245
  22059224.060   115921991.12409  22059223.380    90328816.99248
  22316607.540   117274560.25108  22316605.960    91382775.79647
  20541630.460   107946994.72109  20541627.080    84114523.70349
 15 02 28 08 22 30.0000000  0 10G01G03G06G07G09G10G11G17G20G23
  22566816.660   118589401.19109  22566820.420    92407332.36647
  21472504.900   112838761.59509  21472506.700    87926310.78948
  22240555.800   116874908.15109  22240558.260    91071376.92048
  24379645.520   128115903.00908  24379647.460    99830570.61245
  20624995.860   108385083.90309  20624996.680    84455915.16949
  23171766.500   121768455.93308  23171767.560    94884515.38845
  24715916.380   129882976.11508  24715917.440   101207504.48144
  22067690.560   115966482.09809  22067689.960    90363485.21448
  22303920.300   117207888.05509  22303918.600    91330823.43847
  20544937.080   107964370.74009  20544933.620    84128063.44748
 15 02 28 08 23  0.0000000  0 10G01G03G06G07G09G10G11G17G20G23
  22583316.620   118676108.76309  22583320.440    92474896.60847
  21480979.180   112883294.11109  21480981.000    87961011.40448
  22224534.660   116790716.67109  22224537.040    91005773.18148
  24360705.820   128016374.16708  24360707.820    99753015.61546
  20617192.920   108344079.47109  20617193.700    84423963.67249
  23157100.820   121691387.13808  23157101.760    94824461.81845
  24737252.000   129995095.03808  24737253.220   101294869.67844
  22076249.260   116011457.65809  22076248.660    90398531.04648
  22291255.620   117141334.16909  22291253.800    91278963.27147
  20548325.880   107982178.67609  20548322.360    84141939.75548
 15 02 28 08 23 30.0000000  0 10G01G03G06G07G09G10G11G17G20G23
  22599870.580   118763100.02109  22599874.420    92542681.90348
  21489482.580   112927979.53309  21489484.400    87995831.16048
  22208558.160   116706759.21309  22208560.400    90940351.80848
  24341757.180   127916798.19208  24341759.160    99675423.91545
  20609478.560   108303540.70909  20609479.340    84392375.03449
  23142456.100   121614428.74708  23142456.980    94764494.30445
  24758594.900   130107251.98808  24758596.260   101382264.53545
  22084898.920   116056911.45309  22084898.360    90433949.52648
  22278612.960   117074896.19509  22278611.080    91227193.44847
  20551795.900   108000413.58909  20551792.340    84156148.75948
 15 02 28 08 24  0.0000000  0 10G01G03G06G07G09G10G11G17G20G23
  22616478.660   118850375.56909  22616482.480    92610688.71948
  21498015.480   112972819.70709  21498017.300    88030771.51348
  22192627.060   116623040.15209  22192629.260    90875116.19348
  24322800.480   127817180.02708  24322802.560    99597799.32445
  20601853.200   108263469.81509  20601854.060    84361150.97449
  23127832.860   121537583.07008  23127833.480    94704614.61545
  24779945.000   130219446.80608  24779946.420   101469688.90544
  22093639.540   116102843.40309  22093639.000    90469740.59448
  22265992.820   117008576.27909  22265990.780    91175515.60347
  20555347.320   108019076.29009  20555343.720    84170691.11448
 15 02 28 08 24 30.0000000  0 10G01G03G06G07G09G10G11G17G20G23
  22633140.520   118937933.70409  22633144.320    92678915.73747
  21506577.660   113017814.22209  21506579.620    88065832.11648
  22176741.600   116539561.56509  22176743.800    90810067.97448
  24303836.220   127717521.76308  24303838.340    99520143.47545
  20594316.900   108223866.69909  20594317.820    84330291.40449
  23113230.980   121460849.88608  23113231.440    94644822.56445
  24801301.800   130331677.20308  24801303.260   101557140.97644
  22102470.680   116149251.19709  22102470.200    90505902.45248
  22253395.020   116942374.04409  22253392.840    91123929.46047
  20558979.820   108038165.02009  20558976.160    84185565.44148
 15 02 28 08 25  0.0000000  0 10G01G03G06G07G09G10G11G17G20G23
  22649856.260   119025775.11909  22649860.060    92747363.49047
  21515169.560   113062965.08809  21515171.700    88101014.55548
  22160902.660   116456327.97809  22160904.980    90745210.65848
  24284865.220   127617828.13808  24284867.380    99442460.08445
  20586870.120   108184733.62909  20586871.100    84299798.09949
  23098651.020   121384231.64508  23098651.560    94585120.10945
  24822665.380   130443942.99608  24822666.760   101644620.63844
  22111392.200   116196134.14009  22111391.820    90542434.55248
  22240820.100   116876292.10109  22240817.940    91072437.05047
  20562693.500   108057680.41109  20562689.780    84200772.22948
 15 02 28 08 25 30.0000000  0 10G01G03G06G07G09G10G11G17G20G23
  22666625.200   119113895.92009  22666628.920    92816028.95047
  21523790.760   113108269.71509  21523793.020    88136316.81448
  22145110.320   116373339.31709  22145112.840    90680544.20648
  24265887.560   127518099.21608  24265889.620    99364749.19846
  20579512.400   108146068.34209  20579513.420    84269669.30649
  23084092.480   121307726.52608  23084092.940    94525505.75545
  24844034.840   130556239.83807  24844036.340   101732124.48545
  22120403.400   116243488.30809  22120403.080    90579333.83848
  22228267.600   116810327.84809  22228265.360    91021036.35547
  20566487.640   108077618.76209  20566483.880    84216308.60048
 15 02 28 08 26  0.0000000  0 10G01G03G06G07G09G10G11G17G20G23
  22683446.960   119202294.35309  22683450.600    92884910.75148
  21532441.140   113153727.65909  21532443.500    88171738.53248
  22129365.140   116290597.67009  22129367.680    90616070.21148
  24246903.640   127418337.50108  24246905.620    99287012.77745
  20572243.680   108107870.65109  20572244.700    84239904.87549
  23069555.380   121231334.27808  23069555.920    94465979.37946
  24865409.840   130668565.73207  24865411.540   101819650.96744
  22129503.700   116291310.69909  22129503.400    90616597.97448
  22215737.640   116744481.97309  22215735.260    90969727.90847
  20570361.920   108097978.28309  20570358.200    84232173.15348
 15 02 28 08 26 30.0000000  0 10G01G03G06G07G09G10G11G17G20G23
  22700321.200   119290968.46309  22700324.760    92954007.36047
  21541120.580   113199338.31609  21541122.900    88207279.26148
  22113667.380   116208104.93509  22113669.740    90551790.17048
  24227913.800   127318545.01408  24227915.720    99209252.38945
  20565063.820   108070140.17409  20565064.860    84210504.51449
  23055039.760   121155054.48508  23055040.440    94406540.60845
  24886789.780   130780917.48708  24886791.420   101907197.62344
  22138692.560   116339598.35609  22138692.280    90654224.64548
  22203230.160   116678754.53509  22203227.700    90918511.73947
  20574315.980   108118756.85309  20574312.280    84248364.24148
 15 02 28 08 27  0.0000000  0 10G01G03G06G07G09G10G11G17G20G23
  22717248.120   119379919.51309  22717251.660    93023319.77248
  21549829.600   113245104.27309  21549831.800    88242940.99948
  22098017.920   116125866.22309  22098020.200    90487708.07848
  24208919.180   127218727.23108  24208921.020    99131472.29046
  20557973.320   108032879.74909  20557974.400    84181470.41949
  23040546.180   121078890.21308  23040546.840    94347191.88046
  24908174.840   130893295.91308  24908176.400   101994765.06444
  22147970.040   116388351.77709  22147969.720    90692214.26048
  22190745.660   116613148.13409  22190743.140    90867389.88447
  20578350.100   108139956.20009  20578346.420    84264883.20248
 15 02 28 08 27 30.0000000  0 10G01G03G06G07G09G10G11G17G20G23
  22734227.360   119469145.63309  22734230.960    93092846.51047
  21558567.980   113291025.04609  21558570.140    88278723.37248
  22082417.160   116043883.54209  22082419.420    90423825.47748
  24189920.080   127118886.20508  24189921.920    99053674.10246
  20550972.200   107996089.07009  20550973.300    84152802.36649
  23026074.560   121002841.39508  23026075.220    94287933.12046
  24929564.380   131005698.51007  24929566.240   102082351.30144
  22157335.580   116437568.18209  22157335.320    90730564.63447
  22178284.280   116547662.93809  22178281.680    90816362.46747
  20582463.900   108161574.18909  20582460.180    84281728.37448
 15 02 28 08 28  0.0000000  0 10G01G03G06G07G09G10G11G17G20G23
  22751258.600   119558644.87709  22751262.220    93162586.07748
  21567335.680   113337100.05609  21567337.860    88314625.92848
  22066865.280   115962158.79909  22066867.680    90360143.89248
  24170916.980   127019024.30908  24170918.820    98975859.67946
  20544060.460   107959767.73409  20544061.540    84124500.03649
  23011624.860   120926907.89208  23011625.720    94228764.19046
  24950958.160   131118122.96307  24950960.220   102169954.61345
  22166788.700   116487244.70209  22166788.580    90769273.54848
  22165845.960   116482298.91009  22165843.400    90765429.47247
  20586657.040   108183609.08809  20586653.320    84298898.40748
 15 02 28 08 28 30.0000000  0 10G01G03G06G07G09G10G11G17G20G23
  22768341.460   119648415.56609  22768345.160    93232537.15647
  21576132.720   113383329.02609  21576134.900    88350648.44548
  22051363.020   115880694.24909  22051365.520    90296665.04448
  24151910.380   126919143.83608  24151912.240    98898030.77846
  20537238.080   107923915.55909  20537239.040    84096563.29549
  22997197.160   120851089.58108  22997197.860    94169685.02746
  24972355.620   131230566.78807  24972357.780   102257572.97345
  22176328.880   116537378.58909  22176328.820    90808338.84347
  22153430.560   116417055.83909  22153428.120    90714590.73747
  20590929.240   108206059.25409  20590925.480    84316392.02248
 15 02 28 08 29  0.0000000  0 10G01G03G06G07G09G10G11G17G20G23
  22785475.620   119738455.73209  22785479.400    93302698.22247
  21584959.060   113429711.35109  21584961.200    88386790.46348
  22035910.760   115799491.86909  22035913.260    90233390.47348
  24132900.620   126819246.97808  24132902.480    98820189.13246
  20530504.940   107888532.19109  20530505.820    84068991.85249
  22982791.380   120775386.49108  22982792.000    94110695.64346
  24993756.300   131343027.78207  24993758.620   102345204.77145
  22185955.720   116587967.43309  22185955.620    90847758.65047
  22141038.100   116351933.84509  22141035.760    90663846.34647
  20595280.100   108228922.78409  20595276.320    84334207.74148
 15 02 28 08 29 30.0000000  0 10G01G03G06G07G09G10G11G17G20G23
  22802661.160   119828765.80309  22802664.960    93373069.60647
  21593815.000   113476248.86809  21593817.020    88423053.41248
  22020509.260   115718555.96009  22020511.620    90170323.53748
  24113888.600   126719338.23308  24113890.440    98742338.22346
  20523861.300   107853619.52809  20523862.240    84041787.19349
  22968407.800   120699800.61208  22968408.700    94051797.60746
  25015160.200   131455505.52307  25015162.520   102432849.57344
  22195669.020   116639010.60209  22195668.800    90887532.47647
  22128669.120   116286935.29609  22128667.040    90613198.15347
  20599709.680   108252200.07109  20599705.860    84352345.86948
 15 02 28 08 30  0.0000000  0 10G01G03G06G07G09G10G11G17G20G23
  22819896.900   119919339.95209  22819900.700    93443646.75847
  21602699.580   113522937.26009  21602701.580    88459433.91648
  22005157.960   115637884.62509  22005160.380    90107462.77148
  24094874.000   126619416.04308  24094875.800    98664476.85646
  20517306.320   107819173.28509  20517307.440    84014945.97149
  22954045.800   120624328.08408  22954046.760    93992987.86346
  25036566.100   131567993.71107  25036568.700   102520502.51145
  22205467.480   116690501.26309  22205467.080    90927655.00147
  22116322.860   116222056.42109  22116321.180    90562643.19547
  20604216.860   108275885.16709  20604213.020    84370801.76248
 15 02 28 08 30 30.0000000  0 10G01G03G06G07G09G10G11G17G20G23
  22837183.660   120010181.98709  22837187.400    93514432.64747
  21611613.820   113569781.65209  21611615.920    88495935.98748
  21989858.440   115557485.61209  21989860.900    90044814.19848
  24075858.340   126519488.18608  24075860.080    98586611.06546
  20510841.060   107785198.75009  20510842.320    83988472.31849
  22939706.360   120548974.40408  22939707.480    93934270.76546
  25057974.660   131680495.61807  25057977.220   102608166.17844
  22215351.580   116742442.01209  22215351.060    90968128.24347
  22104000.440   116157302.81509  22103999.100    90512185.86947
  20608802.360   108299981.95109  20608798.460    84389578.44848
 15 02 28 08 31  0.0000000  0 10G01G03G06G07G09G10G11G17G20G23
  22854520.360   120101286.49509  22854524.060    93585423.07347
  21620556.960   113616778.17309  21620559.140    88532556.60948
  21974610.500   115477357.45909  21974613.000    89982376.69448
  24056841.400   126419553.75208  24056843.100    98508740.14746
  20504464.920   107751692.02109  20504466.160    83962363.20549
  22925389.140   120473736.12508  22925389.980    93875643.56346
  25079384.740   131793005.51707  25079387.100   102695836.03743
  22225320.140   116794826.92509  22225319.620    91008947.58447
  22091701.220   116092671.04409  22091700.180    90461823.47547
  20613465.220   108324485.30709  20613461.280    84408671.95748
 15 02 28 08 31 30.0000000  0 10G01G03G06G07G09G10G11G17G20G23
  22871907.160   120192654.39409  22871910.920    93656618.73547
  21629529.480   113663929.16209  21629531.760    88569297.57448
  21959415.140   115397505.09909  21959417.600    89920154.08448
  24037824.160   126319617.70708  24037825.780    98430867.98046
  20498178.380   107718655.54509  20498179.440    83936620.52149
  22911094.460   120398616.13908  22911094.940    93817108.55946
  25100796.460   131905523.66207  25100798.900   102783512.31544
  22235373.200   116847655.78709  22235372.720    91050112.86347
  22079425.720   116028163.74509  22079424.920    90411558.06047
  20618205.640   108349396.44809  20618201.700    84428083.21548
 15 02 28 08 32  0.0000000  0 10G01G03G06G07G09G10G11G17G20G23
  22889343.540   120284282.99509  22889347.380    93728017.53547
  21638531.240   113711233.38409  21638533.600    88606157.93948
  21944272.540   115317929.73909  21944274.920    89858147.31248
  24018806.860   126219681.40008  24018808.300    98352995.61146
  20491981.140   107686088.04609  20491981.940    83911243.27149
  22896821.880   120323613.16508  22896822.080    93758664.71146
  25122209.060   132018046.69107  25122211.480   102871192.43245
  22245510.020   116900925.01209  22245509.620    91091621.27647
  22067173.860   115963780.14609  22067173.120    90361389.02947
  20623023.040   108374712.14709  20623019.160    84447809.70448
 15 02 28 08 32 30.0000000  0 10G01G03G06G07G09G10G11G17G20G23
  22906829.420   120376171.39209  22906833.300    93799618.77447
  21647562.360   113758691.43809  21647564.640    88643138.18448
  21929183.100   115238634.50909  21929185.500    89796358.85248
  23999790.300   126119748.84708  23999791.720    98275126.16546
  20485873.200   107653990.14709  20485873.880    83886231.95749
  22882571.720   120248728.25208  22882571.940    93700312.89146
  25143622.460   132130573.40407  25143624.920   102958875.37244
  22255730.260   116954632.66209  22255729.980    91133471.33447
  22054945.800   115899521.56709  22054945.060    90311317.43147
  20627917.220   108400431.48409  20627913.400    84467850.73348
 15 02 28 08 33  0.0000000  0 10G01G03G06G07G09G10G11G17G20G23
  22924364.340   120468317.60809  22924368.260    93871420.91247
  21656622.660   113806302.86909  21656624.800    88680237.93648
  21914147.340   115159621.40609  21914149.720    89734790.20548
  23980774.780   126019821.82808  23980776.240    98197261.01446
  20479854.380   107622361.31309  20479855.120    83861586.12649
  22868343.800   120173961.34708  22868344.240    93642052.98546
  25165036.000   132243101.27008  25165038.480   103046559.21944
  22266033.360   117008775.52909  22266033.160    91175660.51147
  22042741.440   115835387.84709  22042740.740    90261343.11347
  20632887.940   108426553.08009  20632884.220    84488205.20148
 15 02 28 08 33 30.0000000  0  9G01G03G06G07G09G10G17G20G23
  22941949.500   120560727.79809  22941953.500    93943428.74247
  21665713.560   113854075.31609  21665715.540    88717463.16748
  21899167.240   115080900.61509  21899169.540    89673449.33948
  23961762.180   125919910.50308  23961763.600    98119408.10346
  20473926.220   107591209.17909  20473927.140    83837311.76549
  22854139.960   120099320.66308  22854140.620    93583891.47246
  22276420.400   117063359.31709  22276420.160    91218193.27547
  22030562.360   115771387.18309  22030561.880    90211472.46347
  20637936.300   108453082.57509  20637932.660    84508877.52048
 15 02 28 08 34  0.0000000  0  9G01G03G06G07G09G10G17G20G23
  22959581.780   120653385.83409  22959585.840    94015629.69547
  21674832.240   113901994.18209  21674834.120    88754802.48648
  21884240.480   115002460.01209  21884242.660    89612326.80148
  23942750.380   125820003.16608  23942751.800    98041558.29046
  20468086.000   107560519.02309  20468087.080    83813397.36849
  22839957.580   120024791.88908  22839958.060    93525817.11846
  22286888.080   117118366.77109  22286887.740    91261056.17247
  22018405.880   115707505.34009  22018405.620    90161694.40647
  20643059.260   108480004.08009  20643055.680    84529855.29648
 15 02 28 08 34 30.0000000  0  9G01G03G06G07G09G10G17G20G23
  22977262.160   120746296.40109  22977266.260    94088027.42847
  21683979.960   113950065.68109  21683981.900    88792260.73548
  21869368.740   114924308.27509  21869370.900    89551429.35248
  23923741.060   125720109.09608  23923742.500    97963718.82246
  20462334.920   107530296.98809  20462336.000    83789847.74749
  22825797.780   119950381.51708  22825798.300    93467835.03446
  22297437.040   117173801.22109  22297436.580    91304251.78747
  22006273.380   115643749.27909  22006273.240    90112014.35847
  20648257.720   108507322.38709  20648254.220    84551142.27248
 15 02 28 08 35  0.0000000  0  9G01G03G06G07G09G10G17G20G23
  22994990.960   120839461.48509  22994995.100    94160623.48747
  21693157.400   113998293.34309  21693159.400    88829840.66648
  21854553.100   114846451.43809  21854555.200    89490761.68948
  23904735.420   125620234.21508  23904736.900    97885894.29946
  20456673.680   107500546.49609  20456674.580    83766665.56749
  22811661.360   119876093.79808  22811661.780    93409948.51646
  22308067.520   117229664.16809  22308067.040    91347781.30147
  21994165.660   115580122.95509  21994165.600    90062435.42047
  20653532.040   108535039.43309  20653528.600    84572739.95648
 15 02 28 08 35 30.0000000  0  9G01G03G06G07G09G10G17G20G23
  23012766.840   120932874.12309  23012771.100    94233412.43947
  21702363.540   114046671.69609  21702365.620    88867538.02748
  21839793.000   114768886.55009  21839795.180    89430321.52648
  23885732.960   125520375.91008  23885734.460    97808082.70946
  20451101.100   107471261.99309  20451101.800    83743846.49749
  22797547.220   119801923.23908  22797547.640    93352153.29846
  22318777.900   117285947.42209  22318777.540    91391638.33147
  21982081.700   115516621.27109  21982081.620    90012953.59348
  20658880.900   108563148.28909  20658877.560    84594642.93448
 15 02 28 08 36  0.0000000  0  9G01G03G06G07G09G10G17G20G23
  23030590.240   121026536.24709  23030594.560    94306395.79347
  21711599.120   114095204.37109  21711601.140    88905355.62048
  21825089.580   114691619.67409  21825091.840    89370113.57748
  23866734.900   125420540.77508  23866736.360    97730289.14646
  20445617.760   107442446.87909  20445618.400    83721393.17149
  22783456.120   119727873.89908  22783456.500    93294452.50746
  22329568.400   117342651.84009  22329568.160    91435823.53047
  21970022.180   115453248.44209  21970022.180    89963572.18647
  20664304.780   108591651.12309  20664301.520    84616852.91248
 15 02 28 08 36 30.0000000  0  9G01G03G06G07G09G10G17G20G23
  23048460.680   121120445.32309  23048464.980    94379571.57047
  21720863.800   114143890.26809  21720865.920    88943292.61448
  21810443.100   114614652.24109  21810445.320    89310138.96048
  23847741.540   125320730.37308  23847742.920    97652514.85246
  20440223.440   107414099.93509  20440224.140    83699304.65049
  22769387.820   119653944.95308  22769388.340    93236845.56346
  22340438.320   117399773.61309  22340438.180    91480333.94647
  21957987.020   115390003.79009  21957987.180    89914290.64648
  20669803.100   108620545.15509  20669799.960    84639367.71648
 15 02 28 08 37  0.0000000  0  9G01G03G06G07G09G10G17G20G23
  23066378.200   121214602.00908  23066382.540    94452940.30747
  21730158.000   114192731.70009  21730160.300    88981350.81648
  21795854.560   114537989.04309  21795856.700    89250401.41648
  23828753.820   125220949.72008  23828755.240    97574763.75346
  20434918.580   107386223.26209  20434919.460    83677582.57149
  22755342.920   119580139.08608  22755343.560    93179334.50046
  22351387.640   117457312.41309  22351387.440    91525169.32147
  21945976.840   115326890.26309  21945977.120    89865111.30448
  20675376.000   108649831.03709  20675372.960    84662187.86748
 15 02 28 08 37 30.0000000  0  9G01G03G06G07G09G10G17G20G23
  23084342.120   121309002.38809  23084346.400    94526498.92247
  21739481.360   114241726.34809  21739483.720    89019528.39848
  21781324.020   114461630.20909  21781326.060    89190901.03248
  23809771.820   125121199.16708  23809773.380    97497036.09146
  20429702.760   107358814.34509  20429703.820    83656224.97149
  22741321.120   119506454.57908  22741321.940    93121918.01746
  22362415.560   117515264.02909  22362415.280    91570326.36347
  21933991.340   115263906.05909  21933991.620    89816032.72448
  20681022.800   108679505.08709  20681019.780    84685310.47348
 15 02 28 08 38  0.0000000  0  9G01G03G06G07G09G10G17G20G23
  23102352.000   121403644.32409  23102356.220    94600245.76647
  21748833.760   114290873.68309  21748836.180    89057824.95848
  21766851.740   114385577.67309  21766853.780    89131639.32348
  23790796.060   125021481.12508  23790797.620    97419333.76346
  20424575.880   107331872.39609  20424576.980    83635231.24049
  22727322.460   119432891.33208  22727323.300    93064596.03146
  22373521.320   117573624.96909  22373521.060    91615802.36247
  21922030.460   115201050.86309  21922030.580    89767054.67447
  20686743.040   108709564.86509  20686739.980    84708733.65048
 15 02 28 08 38 30.0000000  0  9G01G03G06G07G09G10G17G20G23
  23120407.500   121498525.94709  23120411.740    94674179.36947
  21758215.240   114340173.47309  21758217.600    89096240.31048
  21752438.100   114309833.69109  21752440.140    89072618.05748
  23771827.000   124921798.14708  23771828.500    97341658.73246
  20419537.820   107305396.95209  20419538.840    83614601.02449
  22713346.980   119359449.47908  22713347.520    93007368.61146
  22384704.380   117632392.01209  22384704.160    91661594.79447
  21910094.360   115138325.38009  21910094.300    89718177.69147
  20692536.360   108740008.76509  20692533.220    84732456.13848
 15 02 28 08 39  0.0000000  0  9G01G03G06G07G09G10G17G20G23
  23138508.420   121593646.36108  23138512.720    94748299.05247
  21767625.900   114389626.41009  21767628.180    89134775.00748
  21738083.680   114234401.41109  21738085.880    89013839.67648
  23752865.140   124822153.42808  23752866.720    97264013.52346
  20414588.560   107279388.41709  20414589.500    83594334.63249
  22699394.760   119286130.07008  22699395.180    92950236.61246
  22395964.380   117691563.38309  22395964.200    91707702.29447
  21898183.120   115075730.35109  21898182.840    89669402.37247
  20698402.660   108770836.23809  20698399.520    84756477.51348
 15 02 28 08 39 30.0000000  0  9G01G03G06G07G09G10G17G20G23
  23156654.800   121689005.67208  23156659.140    94822604.88147
  21777066.040   114439234.23109  21777068.280    89173430.39348
  21723789.520   114159285.10409  21723791.800    88955307.50348
  23733911.440   124722551.59308  23733913.140    97186401.71646
  20409728.320   107253848.30409  20409729.240    83574433.23249
  22685466.240   119212934.91708  22685466.580    92893201.43946
  22407301.120   117751138.09609  22407300.920    91754124.08847
  21886297.100   115013268.03509  21886296.540    89620730.45847
  20704341.960   108802047.22009  20704338.780    84780797.73248
 15 02 28 08 40  0.0000000  0  9G01G03G06G07G09G10G17G20G23
  23174846.000   121784600.41608  23174850.380    94897094.16347
  21786535.260   114488995.16809  21786537.500    89212205.08348
  21709555.660   114084485.39709  21709557.880    88897022.02348
  23714966.080   124622993.60608  23714967.900    97108824.06846
  20404956.820   107228774.47009  20404957.740    83554895.16349
  22671561.160   119139862.93508  22671561.580    92836262.27246
  22418713.700   117811111.48509  22418713.480    91800856.52947
  21874436.080   114950937.31609  21874435.280    89572161.08547
  20710353.560   108833638.28109  20710350.320    84805414.10648
 15 02 28 08 40 30.0000000  0  9G01G03G06G07G09G10G17G20G23
  23193082.100   121880430.91709  23193086.480    94971767.16047
  21796033.960   114538911.19709  21796036.320    89251100.63348
  21695382.960   114010006.71209  21695384.980    88838986.69848
  23696030.020   124523484.23908  23696031.940    97031284.31346
  20400274.480   107204168.59609  20400275.360    83535721.73949
  22657679.860   119066916.32908  22657680.400    92779420.80246
  22430201.960   117871482.80209  22430201.720    91847899.04847
  21862600.560   114888740.81609  21862599.680    89523696.30648
  20716437.540   108865609.59609  20716434.240    84830326.78748
 15 02 28 08 41  0.0000000  0  9G01G03G06G07G09G10G17G20G23
  23211362.320   121976493.63309  23211366.760    95046621.07947
  21805561.800   114588980.37909  21805564.320    89290115.51948
  21681271.380   113935849.62709  21681273.280    88781201.97148
  23677103.380   124424024.42708  23677105.440    96953783.14646
  20395680.880   107180028.41609  20395681.700    83516911.18749
  22643822.200   118994093.65008  22643822.740    92722675.88446
  22441765.140   117932247.74109  22441764.960    91895248.28347
  21850790.320   114826676.98109  21850789.320    89475334.88348
  20722593.240   108897957.62409  20722589.860    84855533.00548
 15 02 28 08 41 30.0000000  0  9G01G03G06G07G09G10G17G20G23
  23229687.260   122072791.21708  23229691.700    95121658.02947
  21815119.600   114639207.13009  21815122.240    89329253.17548
  21667222.220   113862020.98809  21667224.100    88723673.18048
  23658187.520   124324621.30308  23658189.640    96876326.16346
  20391176.720   107156357.96309  20391177.500    83498466.65949
  22629989.020   118921399.40408  22629989.260    92666031.04046
  22453403.500   117993407.80709  22453403.380    91942905.42247
  21839006.200   114764750.47109  21839005.060    89427080.46848
  20728821.180   108930685.09909  20728817.680    84881034.89748
 15 02 28 08 42  0.0000000  0  9G01G03G06G07G09G10G17G20G23
  23248054.840   122169312.91108  23248059.240    95196869.60147
  21824705.700   114689582.37809  21824708.360    89368506.54048
  21653234.280   113788514.13509  21653236.240    88666395.13948
  23639281.300   124225268.72008  23639283.480    96798908.56147
  20386760.080   107133147.77209  20386760.860    83480380.77449
  22616178.740   118848824.96308  22616178.540    92609479.54846
  22465114.820   118054951.13509  22465114.740    91990861.19347
  21827246.600   114702953.11509  21827245.360    89378926.69647
  20735119.300   108963781.37609  20735115.700    84906824.17148
 15 02 28 08 42 30.0000000  0  9G01G03G06G07G09G10G17G20G23
  23266465.720   122266062.39409  23266470.140    95272258.66347
  21834321.160   114740111.42009  21834323.700    89407879.75648
  21639309.160   113715336.89909  21639311.180    88609373.92648
  23620386.260   124125974.71908  23620388.460    96721536.60546
  20382431.840   107110402.80409  20382432.680    83462657.39149
  22602392.380   118776376.30108  22602391.940    92553026.05946
  22476899.560   118116880.23809  22476899.520    92039117.57547
  21815512.600   114641290.77809  21815511.340    89330878.12448
  20741488.340   108997250.38909  20741484.600    84932903.88748
 15 02 28 08 43  0.0000000  0  9G01G03G06G07G09G10G17G20G23
  23284919.860   122363038.95508  23284924.280    95347824.68747
  21843966.080   114790795.33109  21843968.520    89447373.64548
  21625447.420   113642492.70309  21625449.440    88552612.23648
  23601503.020   124026742.84908  23601505.320    96644213.09446
  20378192.220   107088123.67109  20378193.040    83445297.00849
  22588630.120   118704054.57408  22588629.760    92496671.49846
  22488757.340   118179193.18509  22488757.400    92087673.05347
  21803804.520   114579764.72809  21803803.260    89282935.76447
  20747928.120   109031091.30709  20747924.300    84959273.40048
 15 02 28 08 43 30.0000000  0  9G01G03G06G07G09G10G17G20G23
  23303417.060   122460241.82209  23303421.460    95423567.03247
  21853640.660   114841635.00909  21853642.980    89486988.90648
  21611649.680   113569984.91709  21611651.700    88496112.67948
  23582632.260   123927576.82708  23582634.660    96566940.87846
  20374041.380   107066310.83109  20374042.100    83428299.97349
  22574892.100   118631861.23608  22574892.020    92440416.97147
  22500687.800   118241888.17009  22500687.920    92136526.22347
  21792122.640   114518376.48909  21792121.420    89235100.77448
  20754438.360   109065302.83809  20754434.600    84985931.71048
 15 02 28 08 44  0.0000000  0  9G01G03G06G07G09G10G17G20G23
  23321956.660   122557667.32608  23321961.080    95499482.86747
  21863344.520   114892628.58309  21863346.740    89526724.09548
  21597916.000   113497814.08109  21597917.960    88439875.68448
  23563774.260   123828477.68708  23563776.660    96489720.79746
  20369978.900   107044961.92909  20369979.480    83411664.44849
  22561178.220   118559794.57808  22561178.200    92384261.15847
  22512690.060   118304960.73509  22512690.320    92185673.60447
  21780466.800   114457125.06209  21780465.600    89187372.39148
  20761018.620   109099882.20909  20761014.900    85012876.65448
 15 02 28 08 44 30.0000000  0  9G01G03G06G07G09G10G17G20G23
  23340538.020   122655312.34809  23340542.500    95575569.74947
  21873077.340   114943774.59009  21873079.660    89566578.06348
  21584246.580   113425981.19109  21584248.580    88383902.02648
  23544929.300   123729446.84308  23544931.720    96412553.92846
  20366004.340   107024075.08609  20366004.840    83395388.98249
  22547488.340   118487853.78408  22547488.300    92328203.41546
  22524763.300   118368406.34709  22524763.700    92235111.67347
  21768836.780   114396009.18309  21768835.500    89139749.64147
  20767668.220   109134826.01409  20767664.540    85040105.57048
 15 02 28 08 45  0.0000000  0  9G01G03G06G07G09G10G17G20G23
  23359161.380   122753178.13208  23359165.880    95651828.66647
  21882839.760   114995076.06209  21882842.120    89606553.16848
  21570642.520   113354491.68509  21570644.520    88328195.94448
  23526098.340   123630489.82208  23526100.840    96335444.61046
  20362118.160   107003652.86209  20362118.700    83379475.56949
  22533823.000   118416042.22408  22533822.880    92272246.37146
  22536907.640   118432225.18209  22536908.080    92284840.57847
  21757233.280   114335032.39509  21757231.920    89092235.26947
  20774387.360   109170135.36009  20774383.720    85067619.33448
 15 02 28 08 45 30.0000000  0  9G01G03G06G07G09G10G17G20G23
  23377825.940   122851260.51909  23377830.440    95728256.34047
  21892631.320   115046530.56809  21892633.660    89646647.52348
  21557103.860   113283345.59209  21557105.880    88272757.44448
  23507281.580   123531607.29308  23507284.120    96258393.32846
  20358319.740   106983692.30609  20358320.400    83363921.89348
  22520181.900   118344357.85708  22520181.840    92216388.45646
  22549122.040   118496411.91609  22549122.500    92334856.14247
  21745655.960   114274193.17309  21745654.640    89044828.08347
  20781175.380   109205806.53809  20781171.720    85095415.04948
 15 02 28 08 46  0.0000000  0  9G01G03G06G07G09G10G17G20G23
  23396531.380   122949557.69409  23396535.860    95804851.39247
  21902451.980   115098138.08509  21902454.340    89686861.09748
  21543631.020   113212545.27409  21543633.080    88217588.37648
  23488479.560   123432801.95108  23488482.100    96181402.20746
  20354609.040   106964192.83809  20354609.780    83348727.52149
  22506565.100   118272800.78008  22506564.960    92160629.71347
  22561406.000   118560963.86009  22561406.340    92385156.29347
  21734104.880   114213491.63609  21734103.600    88997528.18847
  20788031.880   109241837.69109  20788028.220    85123491.26248
 15 02 28 08 46 30.0000000  0  9G01G03G06G07G09G10G17G20G23
  23415277.980   123048071.13509  23415282.400    95881614.97346
  21912302.340   115149901.87409  21912304.800    89727196.45448
  21530225.040   113142096.28409  21530227.140    88162693.07548
  23469693.300   123334079.44908  23469695.780    96104475.64246
  20350986.660   106945157.16009  20350987.380    83333894.54849
  22492973.320   118201375.03908  22492972.960    92104973.31046
  22573759.440   118625881.02409  22573759.700    92435741.02047
  21722580.660   114152931.56409  21722579.360    88950338.52647
  20794957.040   109278229.92109  20794953.420    85151848.83748
 15 02 28 08 47  0.0000000  0  9G01G03G06G07G09G10G17G20G23
  23434065.020   123146797.14708  23434069.480    95958544.18447
  21922182.040   115201819.99009  21922184.560    89767652.05748
  21516885.920   113071999.28709  21516888.120    88108072.04748
  23450922.960   123235440.71508  23450925.400    96027614.34246
  20347452.140   106926582.78009  20347452.720    83319421.03849
  22479406.200   118130078.72508  22479405.660    92049417.75346
  22586181.480   118691158.80709  22586181.680    92486606.75747
  21711083.040   114092511.58909  21711081.800    88903258.03348
  20801950.240   109314979.69509  20801946.660    85180485.01748
 15 02 28 08 47 30.0000000  0  9G01G03G06G07G09G10G17G20G23
  23452892.360   123245734.98209  23452896.780    96035638.44947
  21932091.340   115253893.48209  21932093.880    89808228.72648
  21503614.420   113002257.63309  21503616.600    88053727.90948
  23432169.300   123136889.72608  23432171.760    95950821.42746
  20344005.500   106908470.18909  20344005.900    83305307.36149
  22465863.960   118058913.56308  22465863.320    91993964.38646
  22598671.900   118756795.71309  22598671.940    92537752.33347
  21699612.360   114032233.43409  21699611.240    88856288.04547
  20809011.380   109352086.38309  20809007.840    85209399.31948
 15 02 28 08 48  0.0000000  0  9G01G03G06G07G09G10G17G20G23
  23471759.380   123344881.10609  23471763.700    96112895.01747
  21942029.900   115306120.58609  21942032.520    89848925.09948
  21490410.700   112932872.02909  21490412.880    87999661.20448
  23413432.520   123038427.58808  23413435.020    95874097.72046
  20340646.220   106890817.03009  20340646.560    83291551.68349
  22452346.360   117987878.03508  22452345.760    91938612.04346
  22611229.620   118822786.41509  22611229.560    92589173.58147
  21688168.460   113972096.04009  21688167.460    88809427.73847
  20816139.820   109389546.61209  20816136.300    85238589.10648
 15 02 28 08 48 30.0000000  0  9G01G03G06G07G09G10G17G20G23
  23490665.540   123444232.99009  23490669.800    96190311.92146
  21951997.540   115358500.64409  21952000.280    89889740.65748
  21477275.120   112863844.13509  21477277.220    87945873.23948
  23394713.060   122940056.44508  23394715.580    95797444.94547
  20337374.060   106873621.96809  20337374.460    83278152.96649
  22438853.300   117916971.86008  22438852.820    91883360.49247
  22623853.960   118889127.36209  22623853.920    92640867.75647
  21676751.320   113912098.96909  21676750.380    88762676.77648
  20823335.000   109427357.89509  20823331.620    85268052.44348
 15 02 28 08 49  0.0000000  0  9G01G03G06G07G09G10G17G20G23
  23509610.980   123543791.30609  23509615.280    96267889.67547
  21961994.760   115411036.10009  21961997.520    89930677.29248
  21464208.460   112795178.78509  21464210.620    87892367.77048
  23376011.900   122841781.22008  23376014.280    95720866.88446
  20334189.380   106856886.85509  20334189.900    83265112.65049
  22425385.440   117846198.03608  22425385.020    91828212.07247
  22636544.980   118955818.66809  22636544.900    92692834.93547
  21665361.560   113852245.53709  21665360.680    88716037.74548
  20830597.120   109465520.88509  20830593.900    85297789.83448
 15 02 28 08 49 30.0000000  0  9G01G03G06G07G09G10G17G20G23
  23528595.360   123643554.19709  23528599.760    96345626.83546
  21972021.600   115463726.92709  21972024.300    89971735.01448
  21451211.260   112726878.38209  21451213.620    87839146.68148
  23357329.620   122743604.88208  23357331.900    95644365.88746
  20331092.120   106840611.03009  20331092.740    83252430.21549
  22411942.780   117775556.79308  22411942.540    91773166.96047
  22649301.920   119022856.73509  22649301.860    92745072.31447
  21653999.260   113792536.35209  21653998.360    88669511.11047
  20837925.880   109504033.80009  20837922.740    85327799.89148
 15 02 28 08 50  0.0000000  0  9G01G03G06G07G09G10G17G20G23
  23547618.280   123743519.50409  23547622.720    96423521.72747
  21982077.920   115516572.81709  21982080.620    90012913.54848
  21438283.840   112658944.94909  21438286.420    87786211.53648
  23338666.560   122645529.69808  23338668.800    95567943.71446
  20328082.140   106824793.47609  20328082.760    83240104.87549
  22398525.340   117705048.11708  22398525.200    91718225.15347
  22662124.180   119090238.12909  22662124.200    92797577.21547
  21642664.380   113732971.23709  21642663.560    88623096.74148
  20845320.840   109542894.69509  20845317.760    85358081.09248
 15 02 28 08 50 30.0000000  0  9G01G03G06G07G09G10G17G20G23
  23566679.040   123843683.75709  23566683.520    96501571.62846
  21992163.400   115569572.12609  21992166.080    90054211.63048
  21425426.420   112591379.22409  21425429.160    87733562.92548
  23320022.940   122547556.90008  23320025.100    95491601.32446
  20325158.940   106809431.88609  20325159.500    83228134.82949
  22385133.020   117634671.01608  22385132.720    91663385.87447
  22675010.960   119157958.52309  22675011.080    92850346.26947
  21631356.740   113673549.13809  21631355.960    88576793.81748
  20852781.400   109582100.06109  20852778.280    85388630.70548
 15 02 28 08 51  0.0000000  0  9G01G03G06G07G09G10G17G20G23
  23585778.120   123944049.54509  23585782.700    96579778.57246
  22002278.880   115622729.23409  22002281.620    90095632.67248
  21412640.340   112524187.98609  21412643.040    87681206.11048
  23301400.240   122449693.87808  23301402.300    95415344.47046
  20322323.180   106794529.95309  20322323.700    83216522.95449
  22371766.500   117564430.13808  22371766.260    91608652.73747
  22687962.540   119226019.32809  22687962.700    92903380.58547
  21620077.320   113614275.07809  21620076.480    88530606.23848
  20860307.980   109621652.13009  20860304.800    85419450.48548
 15 02 28 08 51 30.0000000  0  9G01G03G06G07G09G10G17G20G23
  23604914.300   124044610.33009  23604918.880    96658137.46546
  22012423.480   115676039.53609  22012426.320    90137173.08748
  21399925.100   112457368.95709  21399927.720    87629139.33448
  23282798.060   122351938.52308  23282800.020    95339171.52246
  20319573.800   106780082.33909  20319574.400    83205265.08149
  22358425.040   117494321.10808  22358424.920    91554022.34047
  22700977.480   119294413.03109  22700977.660    92956674.29247
  21608825.440   113555145.47509  21608824.520    88484531.22048
  20867899.420   109661544.86709  20867896.140    85450535.71448
 15 02 28 08 52  0.0000000  0  9G01G03G06G07G09G10G17G20G23
  23624087.640   124145366.54409  23624092.220    96736648.62446
  22022597.740   115729505.31709  22022600.580    90178834.65148
  21387281.560   112390926.77409  21387284.080    87577366.18848
  23264217.320   122254295.83608  23264219.180    95263086.34846
  20316911.200   106766090.60209  20316911.860    83194362.42949
  22345109.280   117424347.01808  22345109.160    91499497.09447
  22714055.580   119363138.70509  22714055.800    93010226.68347
  21597601.520   113496162.83809  21597600.580    88438570.73048
  20875555.740   109701778.69609  20875552.400    85481886.71948
 15 02 28 08 52 30.0000000  0  9G01G03G06G07G09G10G17G20G23
  23643297.520   124246314.78208  23643302.200    96815309.41547
  22032801.320   115783125.04309  22032804.140    90220616.19048
  21374709.840   112324862.23109  21374712.420    87525887.32248
  23245658.320   122156767.49308  23245660.060    95187090.29247
  20314334.960   106752552.44809  20314335.720    83183813.23349
  22331819.020   117354506.53208  22331818.960    91445075.95147
  22727195.960   119432191.62909  22727196.160    93064034.06647
  21586405.340   113437326.09209  21586404.320    88392723.92348
  20883276.280   109742350.05009  20883272.920    85513500.72648
 15 02 28 08 53  0.0000000  0  9G01G03G06G07G09G10G17G20G23
  23662544.360   124347457.18808  23662549.140    96894121.50046
  22043034.920   115836902.71609  22043037.660    90262520.79148
  21362211.200   112259181.69209  21362213.940    87474707.68348
  23227122.320   122059360.05608  23227123.940    95111188.45646
  20311845.680   106739471.11509  20311846.460    83173619.98449
  22318555.000   117284803.99908  22318555.120    91390762.31547
  22740398.800   119501573.07209  22740399.060    93118097.44647
  21575237.860   113378639.95309  21575236.720    88346994.46048
  20891061.500   109783261.53409  20891058.180    85545379.76748
 15 02 28 08 53 30.0000000  0  9G01G03G06G07G09G10G17G20G23
  23681826.960   124448787.38608  23681831.780    96973079.90946
  22053297.700   115890833.84509  22053300.480    90304544.95848
  21349785.200   112193883.04409  21349788.060    87423825.60148
  23208608.960   121962071.64008  23208610.440    95035379.35646
  20309442.340   106726841.36509  20309443.120    83163778.60849
  22305316.560   117215235.49908  22305316.740    91336553.09847
  22753662.740   119571275.39409  22753663.040    93172410.85047
  21564098.280   113320100.52909  21564097.080    88301379.31648
  20898910.260   109824506.61009  20898906.860    85577518.74348
 15 02 28 08 54  0.0000000  0  9G01G03G06G07G09G10G17G20G23
  23701145.480   124550306.17408  23701150.340    97052185.27646
  22063590.140   115944921.14809  22063593.020    90346690.83948
  21337432.920   112128971.27209  21337435.840    87373244.99848
  23190119.220   121864907.68408  23190120.680    94959667.24746
  20307125.300   106714665.09309  20307126.040    83154290.60049
  22292104.160   117145804.17608  22292104.360    91282450.80147
  22766987.740   119641298.22409  22766988.080    93226974.01947
  21552987.180   113261710.98609  21552985.980    88255880.97348
  20906822.700   109866086.35509  20906819.200    85609918.51048
 15 02 28 08 54 30.0000000  0  9G01G03G06G07G09G10G17G20G23
  23720499.420   124652010.89808  23720504.300    97131435.53446
  22073912.180   115999163.78909  22073915.040    90388957.75748
  21325154.620   112064447.94209  21325157.520    87322967.07248
  23171653.560   121767870.33008  23171655.000    94884053.79646
  20304894.260   106702940.69909  20304894.940    83145154.70649
  22278917.740   117076509.68808  22278917.980    91228455.13147
  22780373.040   119711637.67009  22780373.300    93281783.90147
  21541904.620   113203471.50709  21541903.400    88210499.56548
  20914798.300   109907997.94609  20914794.700    85642576.85748
 15 02 28 08 55  0.0000000  0  9G01G03G06G07G09G10G17G20G23
  23739888.400   124753899.84808  23739893.340    97210829.32646
  22084263.860   116053562.08009  22084266.800    90431345.95548
  21312950.660   112000315.58109  21312953.540    87272993.80448
  23153212.640   121670962.54708  23153213.900    94808541.29946
  20302749.080   106691667.59209  20302749.660    83136370.45649
  22265757.500   117007352.53608  22265757.920    91174566.46647
  22793818.000   119782290.82109  22793818.320    93336838.21847
  21530850.780   113145382.84109  21530849.440    88165235.66848
  20922836.640   109950239.73109  20922833.100    85675492.48548
 15 02 28 08 55 30.0000000  0  9G01G03G06G07G09G10G17G20G23
  23759312.120   124855971.40008  23759317.040    97290365.41646
  22094645.220   116108116.20809  22094648.240    90473855.59848
  21300821.600   111936576.75909  21300824.360    87223327.18748
  23134796.940   121574187.34308  23134798.080    94733132.12746
  20300689.680   106680845.17209  20300690.200    83127937.39849
  22252623.560   116938333.49908  22252624.140    91120785.42747
  22807322.140   119853255.08809  22807322.500    93392134.97147
  21519825.660   113087445.59709  21519824.280    88120089.78348
  20930937.500   109992810.33509  20930934.060    85708664.34948
 15 02 28 08 56  0.0000000  0  9G01G03G06G07G09G10G17G20G23
  23778770.120   124958222.98408  23778775.100    97370041.77946
  22105056.160   116162825.57309  22105059.100    90516486.19948
  21288767.720   111873233.15609  21288770.380    87173968.52948
  23116406.820   121477546.71808  23116407.920    94657827.80746
  20298715.740   106670471.97109  20298716.240    83119854.37449
  22239515.940   116869452.29208  22239516.400    91067111.77747
  22820884.760   119924526.60409  22820885.060    93447671.13347
  21508829.380   113029659.98709  21508828.020    88075062.03348
  20939100.420   110035707.07609  20939097.160    85742090.33048
 15 02 28 08 56 30.0000000  0  9G01G03G06G07G09G10G17G20G23
  23798262.140   125060653.55008  23798267.120    97449857.62246
  22115496.760   116217690.97909  22115499.740    90559238.40148
  21276789.640   111810287.86509  21276792.300    87124920.25548
  23098043.000   121381044.27408  23098044.080    94582631.16347
  20296827.220   106660547.91809  20296827.800    83112121.34649
  22226434.740   116800710.00309  22226435.000    91013546.38447
  22834505.460   119996103.16909  22834505.680    93503445.00947
  21497862.180   112972027.20109  21497860.900    88030153.38747
  20947325.180   110078929.04109  20947322.140    85775769.75348
 15 02 28 08 57  0.0000000  0  9G01G03G06G07G09G10G17G20G23
  23817787.640   125163260.02708  23817792.680    97529810.52546
  22125966.820   116272711.36309  22125969.920    90602111.35448
  21264887.640   111747742.13109  21264890.260    87076183.31148
  23079705.780   121284681.83708  23079706.800    94507543.60746
  20295023.800   106651071.06809  20295024.480    83104736.77349
  22213379.900   116732106.47408  22213380.100    90960089.09547
  22848183.340   120067980.17509  22848183.500    93559452.96947
  21486923.960   112914546.91109  21486922.760    87985363.56148
  20955611.320   110122473.49009  20955608.420    85809700.44948
 15 02 28 08 57 30.0000000  0  9G01G03G06G07G09G10G17G20G23
  23837346.940   125266044.01008  23837352.080    97609901.74946
  22136467.000   116327890.23109  22136470.180    90645107.80148
  21253062.760   111685601.73609  21253065.340    87027762.22048
  23061396.520   121188466.16108  23061397.500    94432570.40647
  20293305.960   106642044.06609  20293306.700    83097702.72349
  22200352.080   116663645.45108  22200352.540    90906742.86247
  22861918.500   120140158.41609  22861918.640    93615695.66647
  21476015.520   112857223.25209  21476014.360    87940695.78848
  20963959.120   110166341.92109  20963956.380    85843883.60848
 15 02 28 08 58  0.0000000  0  9G01G03G06G07G09G10G17G20G23
  23856939.440   125369002.40108  23856944.580    97690128.87746
  22146997.140   116383226.41709  22147000.380    90688226.84548
  21241315.240   111623867.79109  21241317.820    86979657.85448
  23043115.340   121092398.14008  23043116.300    94357712.27547
  20291673.340   106633464.74209  20291674.100    83091017.52749
  22187351.080   116595326.01808  22187351.860    90853506.96847
  22875710.160   120212633.50009  22875710.260    93672169.67447
  21465136.780   112800055.76009  21465135.640    87896149.71348
  20972368.040   110210531.12609  20972365.360    85878316.72148
 15 02 28 08 58 30.0000000  0  9G01G03G06G07G09G10G17G20G23
  23876564.420   125472131.59508  23876569.580    97770489.10546
  22157556.920   116438718.29909  22157560.200    90731467.20348
  21229645.160   111562540.92809  21229647.680    86931870.67948
  23024862.460   120996479.03408  23024863.420    94282970.17847
  20290125.460   106625330.60709  20290126.220    83084679.22649
  22174376.760   116527147.08808  22174377.840    90800380.54547
  22889557.360   120285400.53909  22889557.480    93728871.16447
  21454287.600   112743043.64709  21454286.460    87851724.70548
  20980837.380   110255037.84209  20980834.760    85912997.24848
 15 02 28 08 59  0.0000000  0  9G01G03G06G07G09G10G17G20G23
  23896221.940   125575431.91808  23896227.140    97850982.67446
  22168146.800   116494368.08609  22168150.080    90774830.61748
  21218053.360   111501625.61609  21218055.820    86884404.21048
  23006639.000   120900714.37808  23006639.900    94208348.43647
  20288662.540   106617642.90209  20288663.260    83078688.79249
  22161429.660   116459111.37808  22161431.020    90747365.71747
  22903459.960   120358458.79309  22903460.100    93785799.58847
  21443468.500   112686189.47309  21443467.300    87807422.77047
  20989367.220   110299862.49909  20989364.620    85947925.52848
 15 02 28 08 59 30.0000000  0  9G01G03G06G07G09G10G17G20G23
  23915911.220   125678899.12108  23915916.500    97931606.27746
  22178766.340   116550173.57009  22178769.580    90818315.33448
  21206539.840   111441121.88609  21206542.300    86837258.44348
  22988444.920   120805104.05508  22988445.780    94133846.94747
  20287283.980   106610398.48709  20287284.720    83073043.77949
  22148509.560   116391217.08708  22148511.260    90694461.07347
  22917416.940   120431802.81009  22917417.060    93842950.67247
  21432679.180   112629491.55809  21432677.900    87763242.58547
  20997956.740   110345000.72309  20997954.180    85983098.13548
 15 02 28 09 00  0.0000000  0  9G01G03G06G07G09G10G17G20G23
  23935631.520   125782529.44308  23935636.880    98012356.98546
  22189415.100   116606132.89609  22189418.340    90861919.93548
  21195104.720   111381030.18509  21195107.200    86790433.74148
  22970280.420   120709649.06408  22970281.300    94059466.51847
  20285989.240   106603594.52709  20285990.020    83067741.98649
  22135616.220   116323462.87708  22135618.000    90641665.59747
  22931427.340   120505427.56209  22931427.480    93900320.51747
  21421919.440   112572948.96309  21421918.180    87719183.43948
  21006605.280   110390449.04209  21006602.740    86018512.39148
 15 02 28 09 00 30.0000000  0  9G01G03G06G07G09G10G17G20G23
  23955383.540   125886326.28808  23955389.000    98093237.45146
  22200094.220   116662251.48009  22200097.480    90905648.63848
  21183749.520   111321358.11709  21183752.020    86743936.02948
  22952147.060   120614357.80808  22952147.920    93985213.66347
  20284779.120   106597235.44809  20284779.960    83062786.84349
  22122750.740   116255854.56808  22122752.500    90588983.80347
  22945491.540   120579335.23809  22945491.660    93957910.81947
  21411190.380   112516567.49309  21411189.080    87675249.84448
  21015313.500   110436210.93609  21015311.000    86054170.98048
 15 02 28 09 01  0.0000000  0  9G01G03G06G07G09G10G17G20G23
  23975165.980   125990283.11608  23975171.620    98174242.58346
  22210802.780   116718524.75909  22210806.060    90949497.87548
  21172473.740   111262103.33809  21172476.240    86697763.47448
  22934044.480   120519228.44408  22934045.340    93911086.97147
  20283652.640   106591315.67709  20283653.500    83058174.02449
  22109912.420   116188388.39408  22109914.140    90536412.75547
  22959608.120   120653518.35909  22959608.340    94015715.74647
  21400491.220   112460343.26209  21400489.960    87631438.76748
  21024080.240   110482280.03009  21024077.660    86090068.94448
 15 02 28 09 01 30.0000000  0  9G01G03G06G07G09G10G17G20G23
  23994979.140   126094401.42308  23994984.860    98255373.52046
  22221541.420   116774956.24409  22221544.700    90993470.38748
  21161278.440   111203271.59009  21161280.960    86651920.55348
  22915973.940   120424267.46009  22915974.740    93837091.47447
  20282610.220   106585837.69409  20282611.060    83053905.44749
  22097101.900   116121068.13708  22097103.660    90483955.41347
  22973777.140   120727977.05909  22973777.500    94073735.40147
  21389822.880   112404280.61009  21389821.640    87587753.59648
  21032905.720   110528657.83309  21032903.020    86126207.46348
 15 02 28 09 02  0.0000000  0  9G01G03G06G07G09G10G17G20G23
  24014822.380   126198677.73508  24014828.120    98336627.58545
  22232309.880   116831544.40209  22232313.140    91037564.99548
  21150163.820   111144863.55709  21150166.300    86606407.80748
  22897935.580   120329475.71909  22897936.400    93763227.86246
  20281651.360   106580798.98209  20281652.220    83049979.16848
  22084319.000   116053892.67709  22084320.640    90431610.90347
  22987997.700   120802706.62209  22987998.200    94131966.13346
  21379185.120   112348378.73509  21379184.000    87544193.70847
  21041789.340   110575341.08809  21041786.540    86162584.00147
 15 02 28 09 02 30.0000000  0 10G01G02G03G06G07G09G10G17G20G23
  24034694.920   126303107.83408  24034700.620    98418001.48346
  24853496.680   130605997.70108  24853495.240   101770907.34246
  22243107.780   116888287.02209  22243110.920    91081779.95548
  21139129.720   111086879.22309  21139132.220    86561225.21148
  22879929.580   120234853.88209  22879930.320    93689496.62947
  20280775.460   106576196.25109  20280776.360    83046392.61649
  22071563.280   115986860.17508  22071564.680    90379377.78547
  23002268.820   120877701.72408  23002269.420    94190403.76947
  21368577.700   112292636.04109  21368576.600    87500757.84948
  21050730.300   110622325.56409  21050727.460    86199195.24848
 15 02 28 09 03  0.0000000  0 10G01G02G03G06G07G09G10G17G20G23
  24054595.660   126407686.52308  24054601.500    98499491.14646
  24833866.500   130502836.73508  24833864.500   101690522.14646
  22253934.400   116945180.86809  22253937.580    91126112.76348
  21128176.020   111029317.56109  21128178.620    86516371.98448
  22861955.800   120140401.41908  22861956.580    93615897.40647
  20279981.760   106572025.25609  20279982.640    83043142.49449
  22058834.120   115919968.12908  22058835.540    90327254.13847
  23016589.280   120952955.89708  23016589.940    94249043.28247
  21358000.080   112237049.82409  21357999.020    87457443.92748
  21059727.660   110669606.50209  21059724.740    86236037.52348
 15 02 28 09 03 30.0000000  0 10G01G02G03G06G07G09G10G17G20G23
  24074526.640   126512423.71308  24074532.460    98581104.33046
  24814247.780   130399737.27208  24814245.360   101610184.89446
  22264792.120   117002237.93609  22264795.240    91170572.74548
  21117305.460   110972192.73709  21117308.120    86471859.13748
  22844017.080   120046133.14009  22844017.880    93542441.68647
  20279272.300   106568296.90509  20279273.160    83040237.28249
  22046134.020   115853228.83708  22046135.440    90275249.49747
  23030960.740   121028478.07209  23030961.480    94307891.62647
  21347454.600   112181632.56909  21347453.560    87414261.65948
  21068783.220   110717193.20509  21068780.220    86273118.04748
 15 02 28 09 04  0.0000000  0 10G01G02G03G06G07G09G10G17G20G23
  24094487.080   126617316.03708  24094493.040    98662838.38346
  24794640.400   130296699.68207  24794637.900   101529895.88544
  22275680.600   117059456.77509  22275683.640    91215158.79148
  21106518.200   110915505.47209  21106520.860    86427687.26448
  22826113.700   119952050.51709  22826114.500    93469130.63347
  20278646.620   106565008.66409  20278647.440    83037675.02449
  22033462.800   115786641.44508  22033464.280    90223363.23547
  23045382.320   121104263.55009  23045383.120    94366945.14747
  21336941.240   112126384.02909  21336940.160    87371210.86548
  21077896.460   110765083.17109  21077893.360    86310434.88348
 15 02 28 09 04 30.0000000  0 10G01G02G03G06G07G09G10G17G20G23
  24114476.080   126722358.29208  24114482.060    98744689.25546
  24775044.180   130193722.68807  24775040.940   101449653.96944
  22286599.200   117116834.26309  22286602.240    91259868.44148
  21095814.060   110859254.82809  21095816.620    86383855.59248
  22808245.620   119858153.30409  22808246.360    93395964.04947
  20278103.880   106562156.31209  20278104.680    83035452.40949
  22020819.980   115720203.06909  22020821.420    90171593.09547
  23059852.780   121180305.92309  23059853.640    94426198.84847
  21326459.440   112071301.50709  21326458.300    87328289.42148
  21087066.360   110813271.10609  21087063.140    86347983.89248
 15 02 28 09 05  0.0000000  0 10G01G02G03G06G07G09G10G17G20G23
  24134492.840   126827546.52108  24134499.060    98826653.86545
  24755459.680   130090807.21408  24755456.980   101369460.09346
  22297547.600   117174368.42009  22297550.720    91304700.17548
  21085193.040   110803440.96009  21085195.580    86340364.28048
  22790412.880   119764441.89609  22790413.580    93322942.25147
  20277643.500   106559736.74709  20277644.260    83033567.03749
  22008205.420   115653912.54109  22008206.720    90119938.15447
  23074371.140   121256599.91608  23074371.960    94485648.61447
  21316008.980   112016383.57509  21316007.780    87285496.23948
  21096292.160   110861753.02509  21096288.900    86385761.98448
 15 02 28 09 05 30.0000000  0 10G01G02G03G06G07G09G10G17G20G23
  24154537.600   126932881.73608  24154543.980    98908733.01645
  24735887.880   129987957.52808  24735885.860   101289317.49747
  22308526.400   117232062.27209  22308529.500    91349656.36048
  21074656.120   110748069.07409  21074658.680    86297217.36448
  22772616.600   119670922.06509  22772617.240    93250069.74047
  20277265.840   106557751.93109  20277266.600    83032020.43149
  21995619.660   115587773.26909  21995620.860    90068401.08647
  23088937.300   121333145.49809  23088938.260    94545294.43047
  21305590.620   111961634.41309  21305589.340    87242834.55748
  21105574.140   110910530.29609  21105570.880    86423770.23548
 15 02 28 09 06  0.0000000  0 10G01G02G03G06G07G09G10G17G20G23
  24174609.180   127038358.31708  24174615.740    98990922.31246
  24716328.340   129885172.28208  24716326.800   101209225.11146
  22319534.980   117289912.24609  22319538.040    91394734.18248
  21064203.020   110693137.71809  21064205.620    86254413.71848
  22754856.600   119577592.85109  22754857.220    93177345.75047
  20276970.000   106556197.13109  20276970.740    83030808.90149
  21983062.080   115521782.28909  21983063.080    90016979.56147
  23103550.080   121409936.06208  23103551.100    94605131.14947
  21295203.680   111907050.84909  21295202.380    87200301.91448
  21114911.220   110959597.38409  21114908.000    86462004.29948
 15 02 28 09 06 30.0000000  0 10G01G02G03G06G07G09G10G17G20G23
  24194707.620   127143975.35208  24194714.300    99073221.05145
  24696781.760   129782455.12508  24696780.460   101129185.75846
  22330573.460   117347919.47909  22330576.620    91439934.54848
  21053834.320   110638650.10809  21053837.000    86211955.86148
  22737133.660   119484458.43509  22737134.260    93104773.55047
  20276755.960   106555072.33309  20276756.680    83029932.43149
  21970533.060   115455941.30909  21970533.920    89965674.92647
  23118208.980   121486968.89909  23118210.100    94665156.63847
  21284848.580   111852634.75409  21284847.320    87157899.77048
  21124303.260   111008953.31909  21124300.080    86500463.45047
 15 02 28 09 07  0.0000000  0 10G01G02G03G06G07G09G10G17G20G23
  24214832.760   127249732.92308  24214839.580    99155629.28346
  24677248.920   129679809.91208  24677247.520   101049202.42745
  22341642.240   117406086.08809  22341645.480    91485259.11048
  21043550.920   110584610.55809  21043553.600    86169847.13348
  22719448.740   119391523.64009  22719449.300    93032356.89047
  20276623.920   106554378.52409  20276624.660    83029391.80849
  21958032.980   115390252.72409  21958033.900    89914489.04247
  23132913.880   121564243.17409  23132915.040    94725370.26247
  21274525.860   111798388.98309  21274524.700    87115630.34248
  21133750.320   111058598.60009  21133747.280    86539148.06747
 15 02 28 09 07 30.0000000  0 10G01G02G03G06G07G09G10G17G20G23
  24234984.400   127355629.88808  24234991.280    99238146.15345
  24657730.140   129577239.27107  24657728.760   100969277.27645
  22352741.500   117464412.89809  22352744.760    91530708.49348
  21033353.300   110531021.96009  21033356.020    86128089.78648
  22701802.520   119298792.25409  22701803.040    92960098.72547
  20276573.800   106554115.35709  20276574.560    83029186.73349
  21945562.180   115324718.16709  21945563.040    89863423.17447
  23147664.280   121641756.62908  23147665.440    94785770.25547
  21264235.780   111744315.04109  21264234.780    87073494.79948
  21143252.180   111108532.01309  21143249.280    86578057.18747
 15 02 28 09 08  0.0000000  0 10G01G02G03G06G07G09G10G17G20G23
  24255161.520   127461660.62108  24255168.500    99320767.22745
  24638225.480   129474742.05408  24638224.060   100889409.29645
  22363870.540   117522896.40109  22363873.780    91576279.97448
  21023241.240   110477882.87409  21023244.000    86086682.72248
  22684194.800   119206263.19509  22684195.300    92887998.22347
  20276604.740   106554278.10809  20276605.520    83029313.55849
  21933120.040   115259334.44809  21933120.760    89812474.84947
  23162458.900   121719502.46109  23162460.000    94846351.33347
  21253977.840   111690410.24809  21253977.080    87031491.06948
  21152807.900   111158748.18609  21152805.140    86617186.64647
 15 02 28 09 08 30.0000000  0 10G01G02G03G06G07G09G10G17G20G23
  24275363.720   127567822.80808  24275370.820    99403490.74146
  24618735.320   129372320.33807  24618733.580   100809600.10345
  22375029.360   117581536.27209  22375032.660    91621973.30448
  21013215.100   110425195.12609  21013217.860    86045627.34848
  22666626.000   119113938.71709  22666626.500    92816057.12447
  20276716.540   106554865.33709  20276717.320    83029771.13949
  21920706.740   115194101.73009  21920707.340    89761644.19247
  23177297.040   121797477.04509  23177298.160    94907110.65146
  21243752.260   111636674.84109  21243751.560    86989619.32548
  21162417.060   111209244.84709  21162414.320    86656534.67747
 15 02 28 09 09  0.0000000  0 10G01G02G03G06G07G09G10G17G20G23
  24295591.800   127674121.01908  24295598.900    99486320.23745
  24599260.800   129269982.30308  24599259.460   100729856.24646
  22386219.260   117640339.21009  22386222.540    91667793.69148
  21003276.500   110372967.46709  21003279.200    86004930.48048
  22649098.000   119021828.63409  22649098.520    92744283.08548
  20276910.180   106555882.50209  20276910.920    83030563.74749
  21908323.640   115129027.17109  21908323.980    89710936.76547
  23192179.440   121875684.02008  23192180.460    94968051.04847
  21233560.460   111583116.43109  21233559.680    86947885.49948
  21172080.560   111260026.88209  21172077.800    86696105.06747
 15 02 28 09 09 30.0000000  0 10G01G02G03G06G07G09G10G17G20G23
  24315843.740   127780544.76008  24315850.900    99569247.53345
  24579801.520   129167722.13208  24579800.460   100650172.95747
  22397438.560   117699296.67509  22397441.860    91713734.48948
  20993424.200   110321193.41009  20993426.880    85964587.06148
  22631609.680   118929927.09209  22631610.200    92672671.54047
  20277183.740   106557319.84309  20277184.460    83031683.76249
  21895969.160   115064102.97609  21895969.160    89660346.50648
  23207103.760   121954111.25708  23207104.740    95029163.07047
  21223400.920   111529727.17609  21223399.960    86906283.46948
  21181796.440   111311083.85309  21181793.640    86735889.69948
 15 02 28 09 10  0.0000000  0 10G01G02G03G06G07G09G10G17G20G23
  24336120.140   127887096.87607  24336127.520    99652274.87546
  24560358.460   129065546.55107  24560357.380   100570555.58245
  22408688.180   117758413.55609  22408691.540    91759799.50948
  20983659.560   110269879.93309  20983662.240    85924602.54348
  22614162.500   118838241.69709  22614163.000    92601228.41347
  20277537.920   106559181.08209  20277538.600    83033134.08449
  21883644.320   114999334.68509  21883644.120    89609877.72647
  23222070.360   122032760.94008  23222071.340    95090448.43147
  21213274.580   111476512.47709  21213273.460    86864817.46648
  21191565.320   111362418.89909  21191562.380    86775891.01547
 15 02 28 09 10 30.0000000  0 10G01G02G03G06G07G09G10G17G20G23
  24356421.340   127993779.29307  24356428.840    99735403.74546
  24540932.020   128963461.56808  24540931.140   100491008.91345
  22419968.920   117817693.97409  22419972.280    91805991.96348
  20973983.780   110219033.14509  20973986.480    85884981.67048
  22596757.740   118746779.10809  22596758.240    92529958.91047
  20277973.240   106561469.03009  20277973.880    83034916.90949
  21871349.920   114934726.66409  21871349.680    89559533.84347
  23237079.360   122111633.44208  23237080.380    95151907.42147
  21203182.320   111423477.57109  21203181.180    86823491.57247
  21201387.560   111414034.16509  21201384.520    86816110.68147
 15 02 28 09 11  0.0000000  0 10G01G02G03G06G07G09G10G17G20G23
  24376745.400   128100581.67207  24376752.920    99818626.09545
  24521522.000   128861461.42608  24521521.120   100411528.24946
  22431279.240   117877129.52609  22431282.560    91852305.30348
  20964395.560   110168646.71409  20964398.300    85845719.51848
  22579394.420   118655533.97809  22579394.840    92458858.83747
  20278487.960   106564174.11509  20278488.580    83037024.77349
  21859084.480   114870271.13709  21859084.020    89509308.78147
  23252128.540   122190717.13008  23252129.620    95213530.96846
  21193122.740   111370614.83909  21193121.680    86782299.84448
  21211261.120   111465919.18209  21211258.020    86856540.54448
 15 02 28 09 11 30.0000000  0 11G01G02G03G06G07G09G10G17G20G23G30
  24397092.860   128207507.10908  24397100.580    99901944.29045
  24502129.460   128759553.11408  24502128.660   100332119.27346
  22442620.040   117936725.44109  22442623.380    91898743.58648
  20954896.320   110118727.89809  20954899.140    85806821.73648
  22562073.860   118564513.83109  22562074.320    92387934.07048
  20279082.820   106567300.26409  20279083.420    83039460.73249
  21846849.240   114805974.26509  21846848.700    89459207.34747
  23267218.260   122270013.82308  23267219.340    95275320.49647
  21183097.080   111317930.05009  21183096.060    86741246.75048
  21221186.660   111518077.64209  21221183.480    86897183.47348
  24720712.840   129908230.62608  24720719.360   101227211.08345
 15 02 28 09 12  0.0000000  0 11G01G02G03G06G07G09G10G17G20G23G30
  24417462.780   128314550.46807  24417470.540    99985354.41746
  24482754.480   128657735.75908  24482752.560   100252780.95345
  22453990.660   117996478.59709  22453994.100    91945304.40448
  20945485.960   110069275.58109  20945488.700    85768287.46849
  22544796.100   118473718.54509  22544796.580    92317184.53348
  20279757.000   106570843.11509  20279757.560    83042221.40549
  21834643.560   114741833.25109  21834643.080    89409227.36347
  23282347.500   122349517.90108  23282348.580    95337271.61347
  21173104.760   111265420.57909  21173103.900    86700330.28548
  21231163.200   111570504.24109  21231159.980    86938035.35248
  24700132.700   129800081.10008  24700139.300   101142938.77045
 15 02 28 09 12 30.0000000  0 11G01G02G03G06G07G09G10G17G20G23G30
  24437855.320   128421712.70708  24437863.080   100068857.16145
  24463397.760   128556014.65207  24463395.780   100173517.74746
  22465391.800   118056392.04209  22465395.320    91991990.12248
  20936165.340   110020294.80909  20936168.000    85730120.62848
  22527562.180   118383153.80209  22527562.700    92246614.63047
  20280510.760   106574804.42909  20280511.380    83045308.15749
  21822468.240   114677851.89409  21822467.820    89359371.77647
  23297516.080   122429228.59708  23297517.200    95399383.71947
  21163146.640   111213090.66009  21163145.900    86659553.72348
  21241191.040   111623200.43909  21241187.800    86979097.29847
  24679542.400   129691878.14308  24679548.960   101058624.82545
 15 02 28 09 13  0.0000000  0 11G01G02G03G06G07G09G10G17G20G23G30
  24458270.560   128528994.35308  24458278.440   100152452.94845
  24444059.980   128454394.46808  24444058.680   100094333.26847
  22476824.020   118116468.34609  22476827.620    92038802.74648
  20926935.240   109971790.15909  20926937.820    85692324.79348
  22510373.140   118292825.04809  22510373.680    92176228.62248
  20281344.420   106579185.55709  20281345.100    83048722.03249
  21810323.800   114614033.13209  21810323.500    89309642.88847
  23312723.860   122509145.28408  23312724.960    95461656.34847
  21153223.380   111160943.63209  21153222.740    86618919.67348
  21251270.180   111676166.66609  21251266.940    87020369.64047
  24658942.880   129583626.83508  24658949.460   100974273.19045
 15 02 28 09 13 30.0000000  0 11G01G02G03G06G07G09G10G17G20G23G30
  24478707.060   128636387.96608  24478715.120   100236135.98845
  24424740.840   128352872.13908  24424739.780   100015224.98046
  22488286.220   118176702.18809  22488290.060    92085738.09948
  20917795.100   109923758.28809  20917797.640    85654897.35748
  22493228.480   118202729.52209  22493229.060    92106024.34347
  20282256.680   106583979.85209  20282257.440    83052457.85249
  21798209.460   114550372.40309  21798209.380    89260037.13947
  23327969.220   122589259.50308  23327970.340    95524082.90347
  21143334.120   111108975.15709  21143333.600    86578424.76448
  21261399.300   111729395.57009  21261396.140    87061846.67048
  24638333.540   129475324.24107  24638339.960   100889881.58845
 15 02 28 09 14  0.0000000  0 11G01G02G03G06G07G09G10G17G20G23G30
  24499165.100   128743894.39107  24499173.180   100319906.93046
  24405441.220   128251452.37408  24405440.260    99936196.58846
  22499778.920   118237096.48909  22499782.780    92132798.50248
  20908745.860   109876204.05609  20908748.320    85617842.10748
  22476129.320   118112873.02909  22476129.880    92036006.32648
  20283247.880   106589188.90109  20283248.680    83056516.86149
  21786125.840   114486873.09809  21786125.820    89210557.15747
  23343252.020   122669570.71808  23343253.200    95586662.95447
  21133479.520   111057188.66109  21133478.980    86538071.65448
  21271578.700   111782888.55209  21271575.600    87103529.47947
  24617715.520   129366975.77508  24617721.860   100805454.27145
 15 02 28 09 14 30.0000000  0 11G01G02G03G06G07G09G10G17G20G23G30
  24519644.460   128851512.73307  24519652.640   100403765.05845
  24386161.800   128150138.92208  24386161.040    99857251.11246
  22511302.400   118297652.43409  22511306.300    92179984.86148
  20899788.140   109829130.62809  20899790.520    85581161.50648
  22459076.360   118023259.28009  22459076.980    91966177.46748
  20284317.980   106594812.58709  20284318.800    83060898.96749
  21774073.200   114423536.69109  21774073.240    89161204.11947
  23358571.920   122750076.96808  23358573.180    95649394.99046
  21123660.000   111005586.19909  21123659.360    86497861.94848
  21281808.180   111836644.75809  21281805.160    87145417.39347
  24597089.480   129258585.05108  24597095.800   100720994.02445
 15 02 28 09 15  0.0000000  0 11G01G02G03G06G07G09G10G17G20G23G30
  24540143.460   128959234.03407  24540151.560   100487703.42745
  24366902.040   128048927.17208  24366900.860    99778384.76945
  22522855.320   118358363.18009  22522859.180    92227291.84548
  20890920.940   109782533.11509  20890923.320    85544851.75348
  22442068.800   117933884.17009  22442069.440    91896534.55448
  20285465.480   106600842.76909  20285466.240    83065597.82549
  21762050.420   114360357.18109  21762050.600    89111973.34047
  23373927.020   122830768.08508  23373928.280    95712271.05647
  21113874.340   110954161.72509  21113873.580    86457790.92948
  21292086.080   111890655.72109  21292083.120    87187503.81747
  24576454.560   129150147.83308  24576460.800   100636497.56845
 15 02 28 09 15 30.0000000  0 11G01G02G03G06G07G09G10G17G20G23G30
  24560663.280   129067065.13307  24560671.400   100571727.32145
  24347663.620   127947827.92808  24347662.160    99699606.12246
  22534439.360   118419237.48009  22534443.320    92274726.26148
  20882146.380   109736422.16009  20882148.700    85508921.12948
  22425108.740   117844758.91309  22425109.400    91827086.33948
  20286691.720   106607286.87009  20286692.460    83070619.20849
  21750059.280   114297344.18509  21750059.620    89062872.30247
  23389318.260   122911649.20308  23389319.640    95775295.17946
  21104124.300   110902924.70709  21104123.420    86417865.98148
  21302413.700   111944927.95109  21302410.760    87229793.81547
  24555812.880   129041675.25308  24555819.120   100551973.58345
 15 02 28 09 16  0.0000000  0 11G01G02G03G06G07G09G10G17G20G23G30
  24581203.340   129175002.68108  24581211.560   100655834.15145
  24328446.700   127846842.38707  24328445.360    99620916.13346
  22546054.320   118480274.36709  22546058.180    92322287.38048
  20873464.600   109690798.70109  20873466.840    85473370.37148
  22408196.620   117755885.50809  22408197.300    91757834.38548
  20287996.280   106614142.55009  20287997.060    83075961.30449
  21738099.680   114234496.82709  21738100.080    89013900.34947
  23404744.960   122992716.50408  23404746.320    95838464.40447
  21094409.880   110851875.08209  21094408.920    86378087.05948
  21312790.480   111999458.57409  21312787.620    87272285.16647
  24535164.760   128933168.79508  24535171.000   100467423.23945
 15 02 28 09 16 30.0000000  0 11G01G02G03G06G07G09G10G17G20G23G30
  24601762.560   129283040.92208  24601770.960   100740019.45145
  24309250.960   127745968.91208  24309249.740    99542313.48946
  22557699.440   118541469.92809  22557703.360    92369972.14348
  20864875.180   109645660.79209  20864877.340    85438197.96048
  22391332.260   117667263.01909  22391332.940    91688777.94148
  20289378.140   106621404.60909  20289378.980    83081620.06049
  21726171.100   114171812.20009  21726171.560    88965055.18948
  23420205.780   123073963.19608  23420207.140    95901773.38247
  21084730.540   110801009.82609  21084729.580    86338451.80148
  21323215.400   112054242.06109  21323212.640    87314973.54347
  24514509.840   128824627.15908  24514516.120   100382845.49745
 15 02 28 09 17  0.0000000  0 11G01G02G03G06G07G09G10G17G20G23G30
  24622340.920   129391179.61407  24622349.400   100824283.04445
  24290077.500   127645211.70808  24290076.440    99463801.40046
  22569375.160   118602826.04009  22569378.920    92417782.01948
  20856378.800   109601012.17409  20856380.980    85403406.82348
  22374516.480   117578896.09209  22374517.220    91619920.65748
  20290837.420   106629073.54309  20290838.360    83087595.85449
  21714273.980   114109292.65609  21714274.460    88916338.68047
  23435700.440   123155387.74008  23435701.900    95965220.94647
  21075086.900   110750331.86909  21075085.900    86298962.50048
  21333688.520   112109278.42909  21333685.840    87357858.98147
  24493849.040   128716054.65808  24493855.340   100298243.71645
 15 02 28 09 17 30.0000000  0 11G01G02G03G06G07G09G10G17G20G23G30
  24642937.640   129499414.81607  24642946.200   100908621.79546
  24270926.320   127544571.44108  24270925.460    99385380.46947
  22581081.140   118664340.97109  22581084.960    92465715.63848
  20847975.600   109556852.98109  20847977.780    85368997.04449
  22357749.440   117490785.30409  22357750.220    91551262.95148
  20292373.540   106637146.22009  20292374.580    83093886.24649
  21702408.180   114046937.38309  21702408.700    88867750.15948
  23451227.880   123236984.85708  23451229.480    96028802.99447
  21065478.720   110699840.00609  21065477.600    86259618.19648
  21344209.080   112164563.99509  21344206.400    87400938.59448
  24473182.540   128607452.01408  24473188.660   100213618.45345
 15 02 28 09 18  0.0000000  0 11G01G02G03G06G07G09G10G17G20G23G30
  24663553.220   129607748.71707  24663561.740   100993037.47246
  24251798.540   127444053.91908  24251797.520    99307055.13146
  22592818.240   118726018.95409  22592822.100    92513776.32748
  20839666.680   109513189.32009  20839668.840    85334973.40648
  22341032.480   117402937.45709  22341033.300    91482810.15048
  20293987.080   106645625.52509  20293988.200    83100493.48449
  21690574.560   113984751.08809  21690575.080    88819293.33548
  23466788.400   123318755.54708  23466789.980    96092520.29247
  21055906.880   110649539.20909  21055905.660    86220422.77948
  21354777.460   112220101.12009  21354774.760    87444214.21447
  24452511.580   128498826.03808  24452517.620   100128975.02045
 15 02 28 09 18 30.0000000  0 11G01G02G03G06G07G09G10G17G20G23G30
  24684186.500   129716175.75407  24684195.000   101077525.70245
  24232693.860   127343657.97708  24232692.580    99228824.53346
  22604585.640   118787856.46708  22604589.480    92561961.32048
  20831451.760   109470019.54209  20831453.900    85301334.61648
  22324365.400   117315351.91509  22324366.260    91414561.75248
  20295677.080   106654506.56109  20295678.220    83107413.76049
  21678772.560   113922730.80709  21678772.960    88770965.87048
  23482380.620   123400692.85908  23482382.180    96156367.42147
  21046370.820   110599426.81509  21046369.640    86181374.18748
  21365392.700   112275884.56209  21365389.960    87487681.77847
  24431835.980   128390175.70208  24431842.020   100044312.62945
 15 02 28 09 19  0.0000000  0 11G01G02G03G06G07G09G10G17G20G23G30
  24704837.560   129824696.41907  24704846.200   101162086.86846
  24213613.300   127243388.85008  24213611.920    99150692.77446
  22616383.840   118849856.07709  22616387.600    92610272.61947
  20823331.680   109427348.07909  20823333.740    85268084.11348
  22307749.280   117228033.88009  22307750.180    91346521.79248
  20297443.760   106663790.53509  20297444.880    83114648.00549
  21667002.740   113860879.72309  21667003.200    88722770.24448
  23498004.440   123482796.34608  23498006.060    96220344.03546
  21036871.220   110549505.96209  21036870.000    86142474.83648
  21376054.920   112331914.88509  21376052.120    87531341.71947
  24411156.620   128281506.11408  24411162.700    99959635.25745
 15 02 28 09 19 30.0000000  0 11G01G02G03G06G07G09G10G17G20G23G30
  24725506.240   129933309.43907  24725515.000   101246720.00945
  24194557.240   127143249.61407  24194555.980    99072662.23346
  22628213.100   118912018.71209  22628216.820    92658710.95547
  20815306.960   109385177.64109  20815308.920    85235224.02148
  22291184.800   117140987.10309  22291185.700    91278693.20848
  20299287.080   106673476.94209  20299288.080    83122195.83049
  21655265.480   113799199.73209  21655265.880    88674707.94047
  23513659.380   123565063.57908  23513661.120    96284448.25446
  21027408.480   110499779.21609  21027407.240    86103726.74148
  21386763.960   112388191.24909  21386761.220    87575193.37247
  24390474.260   128172820.70008  24390480.420    99874945.55445
 15 02 28 09 20  0.0000000  0 11G01G02G03G06G07G09G10G17G20G23G30
  24746191.400   130042008.60207  24746200.140   101331420.28745
  24175525.620   127043238.32708  24175524.500    98994731.39146
  22640072.560   118974340.20309  22640076.160    92707273.07247
  20807377.080   109343505.86709  20807379.020    85202752.50948
  22274671.680   117054210.27909  22274672.540    91211074.99048
  20301205.940   106683560.23609  20301206.880    83130052.92049
  21643560.100   113737687.16909  21643560.320    88626776.10447
  23529344.080   123647487.25008  23529346.020    96348674.35946
  21017981.900   110450242.63209  21017980.660    86065126.83248
  21397518.720   112444707.85809  21397515.980    87619232.23447
  24369788.680   128064117.91108  24369794.820    99790242.34245
 15 02 28 09 20 30.0000000  0 11G01G02G03G06G07G09G10G17G20G23G30
  24766892.920   130150794.08507  24766901.740   101416187.79045
  24156519.320   126943359.54908  24156518.140    98916903.78946
  22651962.740   119036822.80609  22651966.320    92755960.74347
  20799542.880   109302336.84909  20799544.820    85170672.74948
  22258210.720   116967707.66809  22258211.540    91143670.43048
  20303200.520   106694041.25409  20303201.400    83138219.92049
  21631887.160   113676345.03209  21631887.320    88578977.06148
  23545058.360   123730066.14108  23545060.440    96413021.40846
  21008592.200   110400899.83609  21008591.000    86026677.91248
  21408319.180   112501464.47709  21408316.480    87663458.12047
  24349100.600   127955402.43408  24349106.600    99705529.22645
 15 02 28 09 21  0.0000000  0 11G01G02G03G06G07G09G10G17G20G23G30
  24787610.600   130259664.37607  24787619.500   101501021.40745
  24137538.880   126843616.11708  24137537.760    98839181.65446
  22663883.640   119099467.08009  22663887.200    92804774.37947
  20791804.800   109261672.95409  20791806.720    85138986.60148
  22241802.600   116881482.86009  22241803.440    91076482.35848
  20305270.660   106704919.20909  20305271.480    83146696.21849
  21620246.880   113615174.38609  21620246.960    88531311.64747
  23560801.760   123812797.83508  23560803.840    96477487.53746
  20999239.680   110351752.25309  20999238.440    85988381.10048
  21419165.160   112558460.28409  21419162.540    87707870.38247
  24328410.680   127846677.47608  24328416.700    99620808.73445
 15 02 28 09 21 30.0000000  0 11G01G02G03G06G07G09G10G17G20G23G30
  24808343.560   130368615.08707  24808352.520   101585917.65945
  24118584.060   126744008.05008  24118583.020    98761564.99945
  22675834.880   119162270.78709  22675838.360    92853712.25347
  20784162.720   109221513.65809  20784164.660    85107693.64548
  22225447.460   116795536.23209  22225448.240    91009511.03548
  20307415.560   106716190.33009  20307416.360    83155478.88149
  21608638.920   113554173.61909  21608638.940    88483778.61047
  23576573.280   123895676.85508  23576575.160    96542068.47046
  20989923.940   110302798.26409  20989922.820    85950235.16748
  21430055.920   112615691.19409  21430053.240    87752465.85747
  24307719.040   127737943.22208  24307725.100    99536081.00245
 15 02 28 09 22  0.0000000  0 10G02G03G06G07G09G10G17G20G23G30
  24099656.100   126644542.11008  24099655.080    98684059.09846
  22687817.300   119225238.52709  22687820.860    92902777.93847
  20776617.900   109181865.36609  20776619.840    85076798.86448
  22209146.620   116709874.98109  22209147.400    90942762.07448
  20309635.860   106727857.87309  20309636.640    83164570.43649
  21597064.320   113493348.21209  21597064.240    88436382.20847
  23592373.040   123978704.24708  23592374.740    96606765.00046
  20980646.140   110254043.36609  20980645.040    85912244.34448
  21440992.020   112673160.14609  21440989.280    87797246.81047
  24287027.060   127629206.92708  24287032.960    99451351.66145
 15 02 28 09 22 30.0000000  0 10G02G03G06G07G09G10G17G20G23G30
  24080755.160   126545217.87807  24080754.040    98606663.61746
  22699830.360   119288367.29908  22699833.860    92951969.11047
  20769170.080   109142726.82109  20769172.080    85046301.29448
  22192900.120   116624498.91609  22192900.800    90876235.34248
  20311930.740   106739917.41709  20311931.520    83173967.44749
  21585522.620   113432695.92809  21585522.480    88389120.70447
  23608199.860   124061873.75708  23608201.480    96671572.26746
  20971405.780   110205485.44309  20971404.760    85874407.01048
  21451972.480   112730862.14309  21451969.740    87842209.36047
  24266334.560   127520468.12808  24266340.320    99366620.34445
 15 02 28 09 23  0.0000000  0 10G02G03G06G07G09G10G17G20G23G30
  24061882.200   126446039.85608  24061881.160    98529382.05047
  22711874.540   119351659.49808  22711878.080    93001287.62647
  20761820.060   109104102.11309  20761822.060    85016204.11148
  22176708.780   116539412.97609  22176709.400    90809934.66548
  20314300.380   106752369.86509  20314301.140    83183670.62049
  21574014.380   113372219.70509  21574014.280    88341996.38748
  23624053.600   124145184.91708  23624055.160    96736489.92546
  20962203.560   110157127.91309  20962202.640    85836725.83448
  21462997.460   112788797.69309  21462994.600    87887353.90947
  24245642.480   127411731.77708  24245648.340    99281890.94345
 15 02 28 09 23 30.0000000  0 10G02G03G06G07G09G10G17G20G23G30
  24043036.880   126347006.45308  24043035.860    98452213.20546
  22723949.040   119415111.29508  22723952.640    93050730.48147
  20754567.360   109065989.12209  20754569.420    84986505.67048
  22160572.460   116454616.20309  22160573.040    90743859.31048
  20316743.800   106765209.92909  20316744.560    83193675.83649
  21562538.920   113311916.12609  21562538.880    88295006.59548
  23639932.840   124228630.18408  23639934.460    96801512.07446
  20953038.960   110108967.78809  20953038.100    85799198.47048
  21474065.840   112846961.26609  21474062.800    87932676.13147
  24224950.640   127302996.58008  24224956.580    99197162.39345
 15 02 28 09 24  0.0000000  0 10G02G03G06G07G09G10G17G20G23G30
  24024220.260   126248123.79808  24024219.120    98375161.75847
  22736054.560   119478726.42708  22736058.280    93100300.62747
  20747413.140   109028393.35109  20747415.220    84957210.25649
  22144492.280   116370114.59909  22144492.900    90678013.96248
  20319261.440   106778439.97009  20319262.160    83203984.93049
  21551097.260   113251790.29409  21551097.180    88248155.31048
  23655837.800   124312210.67008  23655839.460    96866639.58246
  20943912.900   110061009.90109  20943912.080    85761828.69048
  21485177.820   112905354.59809  21485174.700    87978177.39247
  24204260.300   127194268.92708  24204266.200    99112439.70146
 15 02 28 09 24 30.0000000  0 10G02G03G06G07G09G10G17G20G23G30
  24005432.680   126149395.11108  24005431.860    98298230.40947
  22748191.400   119542505.72308  22748195.260    93149998.69447
  20740357.860   108991317.27309  20740359.920    84928319.79948
  22128469.000   116285911.95409  22128469.620    90612401.56348
  20321853.140   106792059.30609  20321853.860    83214597.38349
  21539689.620   113191843.50309  21539689.620    88201443.53948
  23671767.980   124395923.53708  23671769.600    96931870.25046
  20934825.660   110013255.73909  20934824.800    85724617.67248
  21496333.300   112963976.84909  21496330.160    88023857.03547
  24183572.060   127085552.20908  24183577.880    99027725.51145
 15 02 28 09 25  0.0000000  0 10G02G03G06G07G09G10G17G20G23G30
  23986674.360   126050820.78008  23986673.520    98221419.28547
  22760359.100   119606447.34208  22760363.200    93199823.22347
  20733401.460   108954760.74209  20733403.420    84899834.18549
  22112502.740   116202008.88609  22112503.320    90547022.59548
  20324518.320   106806064.64509  20324519.020    83225510.61249
  21528315.800   113132074.29609  21528315.880    88154870.13947
  23687722.380   124479763.68708  23687724.100    96997200.10447
  20925777.060   109965704.56709  20925776.040    85687564.81648
  21507531.580   113022824.32609  21507528.480    88069712.16747
  24162886.060   126976847.23708  24162891.740    98943020.45246
 15 02 28 09 25 30.0000000  0 10G02G03G06G07G09G10G17G20G23G30
  23967945.480   125952399.57608  23967944.780    98144727.47246
  22772556.960   119670547.45208  22772561.240    93249771.26747
  20726543.480   108918721.56209  20726545.400    84871751.69848
  22096593.240   116118404.23309  22096593.800    90481876.15348
  20327256.000   106820450.71209  20327256.600    83236720.52049
  21516975.160   113072479.96809  21516975.340    88108433.01347
  23703699.720   124563724.30508  23703701.460    97062623.80346
  20916766.520   109918353.47909  20916765.320    85650667.86848
  21518771.660   113081891.38409  21518768.620    88115738.40947
  24142202.080   126868152.74508  24142207.760    98858323.55246
 15 02 28 09 26  0.0000000  0 10G02G03G06G07G09G10G17G20G23G30
  23949247.240   125854139.64309  23949245.920    98068161.26046
  22784786.180   119734812.15608  22784790.400    93299847.55147
  20719785.400   108883207.50409  20719787.340    84844078.38448
  22080742.160   116035106.59009  22080742.740    90416968.93248
  20330066.980   106835222.07609  20330067.460    83248230.66349
  21505669.100   113013067.50609  21505669.460    88062137.60047
  23719700.460   124647808.08608  23719702.320    97128143.49146
  20907795.400   109871209.45209  20907794.000    85613932.26348
  21530054.340   113141182.32309  21530051.380    88161939.10047
  24121521.800   126759477.44808  24121527.440    98773641.57045
 15 02 28 09 26 30.0000000  0 10G02G03G06G07G09G10G17G20G23G30
  23930579.760   125756039.87608  23930578.540    97991719.93447
  22797046.100   119799237.84808  22797050.200    93350049.29748
  20713126.800   108848216.58809  20713128.840    84816812.72149
  22064949.360   115952115.19409  22064949.980    90352300.35348
  20332950.300   106850373.73309  20332950.720    83260037.14149
  21494397.140   112953833.76309  21494397.600    88015981.44548
  23735723.280   124732008.24808  23735725.280    97193753.85947
  20898863.220   109824269.95409  20898861.560    85577356.02248
  21541378.480   113200691.68709  21541375.700    88208309.99248
  24100845.000   126650820.45908  24100850.640    98688973.85246
 15 02 28 09 27  0.0000000  0 10G02G03G06G07G09G10G17G20G23G30
  23911943.320   125658104.86708  23911941.760    97915406.95347
  22809337.060   119863826.86608  22809341.180    93400378.30447
  20706568.480   108813752.71409  20706570.660    84789957.74848
  22049215.740   115869434.83609  22049216.460    90287874.15148
  20335906.080   106865906.44309  20335906.540    83272140.55649
  21483159.820   112894781.65809  21483160.180    87969966.82848
  23751768.100   124816323.93108  23751770.220    97259454.24047
  20889970.540   109777538.11709  20889968.700    85540941.61248
  21552744.320   113260420.12109  21552741.580    88254851.60047
  24080172.600   126542186.62108  24080178.200    98604324.18445
 15 02 28 09 27 30.0000000  0 10G02G03G06G07G09G10G17G20G23G30
  23893338.660   125560337.61708  23893337.620    97839224.78947
  22821659.260   119928579.72308  22821663.240    93450834.96747
  20700110.880   108779818.06509  20700113.140    84763515.15048
  22033541.920   115787068.79509  22033542.680    90223692.86148
  20338934.180   106881819.31109  20338934.720    83284540.18749
  21471957.380   112835912.70409  21471957.840    87924094.93247
  23767834.400   124900752.60808  23767836.600    97325242.65846
  20881117.640   109731015.42209  20881115.720    85504690.15948
  21564151.680   113320366.54709  21564148.980    88301563.07047
  24059505.280   126433579.15808  24059510.900    98519695.01945
 15 02 28 09 28  0.0000000  0 10G02G03G06G07G09G10G17G20G23G30
  23874766.020   125462738.23508  23874765.040    97763173.34647
  22834012.200   119993494.12508  22834016.020    93501417.52447
  20693753.880   108746411.91309  20693756.180    84737484.36448
  22017927.980   115705017.32309  22017928.740    90159756.69448
  20342033.920   106898108.54609  20342034.540    83297233.10249
  21460789.540   112777225.30609  21460790.100    87878364.51748
  23783921.120   124985288.32408  23783923.260    97391114.49746
  20872304.320   109684700.85009  20872302.460    85468600.89048
  21575599.820   113380526.93109  21575597.160    88348441.26547
  24038843.100   126324998.43008  24038848.640    98435086.69846
 15 02 28 09 28 30.0000000  0 10G02G03G06G07G09G10G17G20G23G30
  23856226.180   125365310.43708  23856225.260    97687255.63947
  22846396.160   120058571.39708  22846399.920    93552126.97547
  20687498.020   108713537.14909  20687500.320    84711867.64449
  22002374.620   115623284.33409  22002375.420    90096068.69848
  20345205.240   106914773.94009  20345205.860    83310219.12749
  21449656.720   112718721.65809  21449657.280    87832777.26947
  23800027.960   125069929.64608  23800030.080    97457068.62446
  20863530.920   109638596.46109  20863529.080    85432675.40548
  21587088.580   113440900.67009  21587085.940    88395485.70447
  24018186.720   126216448.40708  24018192.280    98350502.30646
 15 02 28 09 29  0.0000000  0 10G02G03G06G07G09G10G17G20G23G30
  23837719.360   125268056.11308  23837718.000    97611473.07047
  22858810.920   120123811.23808  22858814.840    93602963.10547
  20681343.500   108681194.96209  20681345.820    84686665.92849
  21986882.280   115541872.02709  21986883.140    90032630.59048
  20348447.780   106931813.65809  20348448.400    83323496.83849
  21438559.040   112660402.11809  21438559.360    87787333.48447
  23816154.180   125154672.76108  23816156.300    97523102.06046
  20854797.660   109592703.06409  20854795.840    85396914.32548
  21598617.440   113501485.17509  21598614.860    88442694.38047
  23997536.620   126107931.34908  23997542.140    98265943.58046
 15 02 28 09 29 30.0000000  0 10G02G03G06G07G09G10G17G20G23G30
  23819246.020   125170977.36508  23819244.600    97535827.32746
  22871256.600   120189213.04708  22871260.700    93653925.44547
  20675290.560   108649386.34809  20675292.880    84661879.97748
  21971451.380   115460782.58609  21971452.280    89969444.06648
  20351761.160   106949225.63509  20351761.800    83337064.61649
  21427496.440   112602266.95309  21427496.500    87742033.37447
  23832299.120   125239514.03108  23832301.180    97589211.98446
  20846104.620   109547020.88309  20846102.760    85361317.82248
  21610186.080   113562278.92509  21610183.620    88490066.11147
  23976893.180   125999449.42908  23976898.620    98181412.24646
 15 02 28 09 30  0.0000000  0 10G02G03G06G07G09G10G17G20G23G30
  23800806.540   125074077.24308  23800804.700    97460320.71646
  22883733.280   120254777.81008  22883737.340    93705014.76847
  20669339.540   108618113.78509  20669341.940    84637511.72949
  21956082.540   115380019.10709  21956083.480    89906511.53248
  20355145.240   106967009.30309  20355145.900    83350922.02849
  21416469.220   112544318.03509  21416469.100    87696878.38347
  23848462.300   125324451.30908  23848464.440    97655396.70146
  20837452.100   109501551.85409  20837450.280    85325887.41048
  21621794.420   113623280.89809  21621791.960    88537600.08647
  23956257.100   125891006.23408  23956262.460    98096911.06146
 15 02 28 09 30 30.0000000  0 10G02G03G06G07G09G10G17G20G23G30
  23782401.960   124977362.17808  23782400.660    97384958.42246
  22896241.780   120320509.73008  22896245.900    93756234.34647
  20663491.620   108587383.02809  20663494.100    84613565.67548
  21940777.160   115299589.07109  21940778.120    89843838.84248
  20358600.600   106985167.44209  20358601.320    83365071.22948
  21405478.320   112486560.50309  21405478.220    87651872.53447
  23864643.880   125409485.37608  23864646.100    97721656.85846
  20828841.120   109456301.30409  20828839.400    85290627.24948
  21633442.820   113684493.43009  21633440.380    88585298.13647
  23935629.780   125782608.67308  23935635.060    98012445.45246
 15 02 28 09 31  0.0000000  0 10G02G03G06G07G09G10G17G20G23G30
  23764031.560   124880825.62108  23764030.440    97309735.14347
  22908780.280   120386399.43808  22908784.540    93807576.87148
  20657745.300   108557186.16509  20657747.860    84590035.64149
  21925533.840   115219485.16209  21925534.820    89781420.26748
  20362125.140   107003689.06409  20362125.900    83379503.66449
  21394522.240   112428985.59309  21394522.160    87607008.97448
  23880841.520   125494603.97108  23880843.840    97787982.88846
  20820270.120   109411260.87309  20820268.600    85255530.81148
  21645129.180   113745905.46909  21645126.700    88633151.63847
  23915009.840   125674250.07508  23915015.060    97928010.19746
 15 02 28 09 31 30.0000000  0 10G02G03G06G07G09G10G17G20G23G30
  23745697.440   124784478.78108  23745696.220    97234659.71846
  22921350.500   120452455.77808  22921354.720    93859049.23347
  20652102.520   108527533.48409  20652105.180    84566929.64249
  21910354.840   115139719.17409  21910355.800    89719265.00848
  20365720.280   107022581.52909  20365721.060    83394225.06149
  21383602.840   112371602.94209  21383602.740    87562295.23648
  23897056.360   125579812.75808  23897058.720    97854379.17846
  20811741.020   109366440.34409  20811739.620    85220605.72048
  21656854.920   113807524.34709  21656852.360    88681166.32347
  23894399.460   125565941.92608  23894404.700    97843614.25946
 15 02 28 09 32  0.0000000  0 10G02G03G06G07G09G10G17G20G23G30
  23727399.120   124688319.74108  23727397.660    97159730.59847
  22933951.580   120518674.41909  22933955.780    93910648.05847
  20646562.760   108498422.18809  20646565.520    84544245.50349
  21895239.700   115060288.78409  21895240.580    89657371.26048
  20369384.940   107041839.00809  20369385.640    83409230.88749
  21372719.360   112314409.14309  21372719.180    87517728.64848
  23913286.920   125665104.00108  23913289.360    97920839.73746
  20803253.180   109321836.54109  20803251.920    85185849.50648
  21668618.780   113869343.64309  21668616.160    88729337.15947
  23873798.380   125457682.61708  23873803.680    97759256.36946
 15 02 28 09 32 30.0000000  0 10G02G03G06G07G09G10G17G20G23G30
  23709137.300   124592352.83708  23709135.680    97084951.23547
  22946583.900   120585057.36208  22946588.040    93962374.92847
  20641126.720   108469855.62909  20641129.500    84521985.85048
  21880189.360   114981198.84809  21880190.160    89595742.79348
  20373119.080   107061461.93609  20373119.740    83424521.47849
  21361872.320   112257407.00309  21361872.120    87473311.40648
  23929532.980   125750476.64508  23929535.480    97987363.71846
  20794807.180   109277452.45409  20794805.960    85151264.50048
  21680420.820   113931363.77409  21680418.280    88777664.50347
  23853207.520   125349476.83308  23853212.800    97674940.19646
 15 02 28 09 33  0.0000000  0 10G02G03G06G07G09G10G17G20G23G30
  23690912.000   124496578.81208  23690910.240    97010322.16447
  22959247.200   120651602.79808  22959251.240    94014228.40847
  20635794.280   108441833.43309  20635797.040    84500150.36949
  21865203.960   114902450.18109  21865204.720    89534380.25148
  20376922.120   107081446.98809  20376922.740    83440094.23849
  21351061.480   112200595.38009  21351061.260    87429042.61147
  23945793.580   125835925.76108  23945796.080    98053947.29946
  20786402.880   109233287.19409  20786401.640    85116850.01248
  21692260.460   113993581.21309  21692257.860    88826145.57947
  23832627.020   125241325.39208  23832632.180    97590666.36846
 15 02 28 09 33 30.0000000  0 10G02G03G06G07G09G10G17G20G23G30
  23672723.720   124400999.07608  23672721.980    96935844.47646
  22971941.220   120718309.71108  22971945.200    94066207.72347
  20630565.520   108414356.01709  20630568.280    84478739.39148
  21850283.760   114824044.24309  21850284.500    89473284.76848
  20380793.560   107101791.63009  20380794.180    83455947.19349
  21340286.840   112143974.37709  21340286.620    87384922.35947
  23962067.940   125921447.33508  23962070.400    98120587.32146
  20778040.320   109189340.94009  20778038.980    85082606.16048
  21704137.140   114055993.38309  21704134.600    88874778.38747
  23812057.200   125133230.10608  23812062.360    97506436.28346
 15 02 28 09 34  0.0000000  0 10G02G03G06G07G09G10G17G20G23G30
  23654574.280   124305623.79808  23654572.620    96861526.11847
  22984667.440   120785185.91008  22984671.480    94118318.93847
  20625442.220   108387432.55509  20625444.900    84457760.07048
  21835430.760   114745991.31109  21835431.440    89412464.35348
  20384734.620   107122502.12409  20384735.300    83472085.23649
  21329549.940   112087552.46009  21329549.820    87340957.23147
  23978356.880   126007045.80708  23978359.440    98187287.28346
  20769721.080   109145622.42709  20769719.600    85048539.77148
  21716052.040   114118606.24209  21716049.400    88923567.56947
  23791500.000   125025201.44308  23791505.200    97422258.12946
 15 02 28 09 34 30.0000000  0 10G02G03G06G07G09G10G17G20G23G30
  23636462.460   124210445.29708  23636460.820    96787361.09247
  22997423.880   120852221.16908  22997428.160    94170554.08547
  20620422.660   108361054.21309  20620425.220    84437205.50649
  21820643.460   114668283.66709  21820644.120    89351912.99148
  20388743.080   107143566.73609  20388743.800    83488499.20649
  21318849.060   112031320.31709  21318849.100    87297139.98748
  23994657.880   126092707.80308  23994660.560    98254036.73146
  20761443.320   109102122.61809  20761441.800    85014643.81248
  21728002.860   114181407.96009  21728000.300    88972503.91147
  23770954.080   124917231.93408  23770959.240    97338126.07046
 15 02 28 09 35  0.0000000  0 10G02G03G06G07G09G10G17G20G23G30
  23618389.600   124115471.20108  23618387.820    96713355.34247
  23010211.600   120919420.63908  23010215.940    94222917.20047
  20615508.060   108335227.46109  20615510.560    84417080.76648
  21805923.360   114590929.14809  21805924.020    89291636.79848
  20392819.620   107164989.05409  20392820.380    83505191.90849
  21308185.500   111975284.01809  21308185.740    87253475.34547
  24010971.400   126178435.46508  24010974.100    98320837.35746
  20753208.360   109058847.85209  20753206.880    84980923.20548
  21739990.280   114244402.06409  21739987.660    89021590.16947
  23750420.920   124809329.44508  23750426.080    97254046.25646
 15 02 28 09 35 30.0000000  0 10G02G03G06G07G09G10G17G20G23G30
  23600356.140   124020705.20208  23600354.480    96639511.77447
  23023030.820   120986785.53508  23023035.140    94275409.22147
  20610698.880   108309954.87309  20610701.340    84397387.83448
  21791271.200   114513931.53009  21791271.840    89231638.70348
  20396964.200   107186768.74609  20396964.980    83522163.08249
  21297559.760   111919445.70909  21297560.040    87209964.97648
  24027297.000   126264226.72508  24027299.740    98387687.52846
  20745016.640   109015800.47309  20745015.220    84947379.78248
  21752014.200   114307587.88609  21752011.620    89070825.79847
  23729901.240   124701497.83508  23729906.340    97170021.67046
 15 02 28 09 36  0.0000000  0 10G02G03G06G07G09G10G17G20G23G30
  23582362.420   123926148.31708  23582360.740    96565831.14747
  23035881.280   121054314.67708  23035885.740    94328029.22547
  20605995.180   108285236.65809  20605997.620    84378126.88948
  21776687.180   114437292.05909  21776687.800    89171919.69048
  20401176.260   107208903.16009  20401177.060    83539410.65749
  21286971.720   111863805.08609  21286971.900    87166608.65247
  24043633.880   126350077.33008  24043636.760    98454583.94846
  20736868.120   108972979.96309  20736866.700    84914013.14648
  21764074.060   114370962.86509  21764071.520    89120208.82747
  23709395.360   124593738.86108  23709400.500    97086053.70846
 15 02 28 09 36 30.0000000  0 10G02G03G06G07G09G10G17G20G23G30
  23564408.440   123831799.70708  23564406.620    96492312.78747
  23048762.180   121122004.31908  23048766.760    94380774.27647
  20601396.480   108261070.22409  20601398.940    84359295.90649
  21762171.000   114361009.01809  21762171.540    89112478.41548
  20405454.760   107231386.91309  20405455.580    83556930.44749
  21276420.780   111808359.29109  21276420.840    87123404.13948
  24059980.780   126435980.69908  24059983.800    98521521.47646
  20728762.300   108930383.77309  20728760.840    84880821.30748
  21776168.840   114434521.38409  21776166.480    89169734.85947
  23688903.080   124486051.35008  23688908.160    97002141.42346
 15 02 28 09 37  0.0000000  0 10G02G03G06G07G09G10G17G20G23G30
  23546495.700   123737667.63108  23546493.680    96418963.15247
  23061674.780   121189860.40608  23061679.160    94433649.05447
  20596904.180   108237462.88609  20596906.640    84340900.57448
  21747724.300   114285091.37609  21747724.800    89053321.87048
  20409800.560   107254224.44409  20409801.420    83574725.90249
  21265908.240   111753115.16309  21265908.240    87080356.76248
  24076338.200   126521939.26608  24076341.240    98588502.00646
  20720700.520   108888018.81009  20720699.060    84847809.64148
  21788299.380   114498267.70409  21788297.080    89219407.23947
  23668426.080   124378443.98608  23668431.080    96918291.61346
 15 02 28 09 37 30.0000000  0 10G02G03G06G07G09G10G17G20G23G30
  23528624.000   123643750.52308  23528621.940    96345781.03047
  23074618.340   121257879.09108  23074622.700    94486650.51747
  20592517.740   108214412.06209  20592520.220    84322938.89048
  21733346.840   114209537.65809  21733347.340    88994448.91048
  20414212.660   107277410.36409  20414213.580    83592792.83749
  21255433.440   111698069.49109  21255433.500    87037464.04847
  24092704.820   126607946.02708  24092707.880    98655520.11245
  20712682.220   108845882.62709  20712680.900    84814976.24148
  21800464.640   114562196.51909  21800462.280    89269221.81447
  23647964.100   124270915.79708  23647969.020    96834503.50246
 15 02 28 09 38  0.0000000  0 10G02G03G06G07G09G10G17G20G23G30
  23510793.700   123550051.71608  23510791.580    96272769.00247
  23087593.060   121326060.95408  23087597.600    94539779.11047
  20588237.540   108191919.55909  20588239.980    84305412.25249
  21719039.240   114134351.10409  21719039.720    88935862.04048
  20418690.880   107300943.72209  20418691.840    83611130.48549
  21244996.660   111643224.18409  21244996.720    86994727.44847
  24109080.280   126693999.16408  24109083.340    98722574.30646
  20704707.740   108803976.83809  20704706.560    84782322.36848
  21812664.460   114626306.77709  21812662.080    89319177.77247
  23627517.820   124163470.05708  23627522.680    96750779.63846
 15 02 28 09 38 30.0000000  0 10G02G03G06G07G09G10G17G20G23G30
  23493006.060   123456577.75708  23493004.300    96199932.21247
  23100599.480   121394409.92108  23100604.000    94593037.94146
  20584064.520   108169990.52509  20584067.000    84288324.69348
  21704802.720   114059537.87009  21704803.160    88877566.07848
  20423235.680   107324826.82509  20423236.700    83629740.67149
  21234598.940   111588583.92509  21234598.940    86952150.63647
  24125464.640   126780098.89008  24125467.780    98789664.81946
  20696778.060   108762306.54809  20696776.980    84749852.00248
  21824899.240   114690600.60509  21824896.840    89369276.77647
  23607088.420   124056113.42908  23607093.320    96667125.23446
 15 02 28 09 39  0.0000000  0 10G02G03G06G07G09G10G17G20G23G30
  23475260.440   123363325.01608  23475258.820    96127267.80147
  23113636.540   121462920.22808  23113641.180    94646422.48347
  20579997.880   108148620.42109  20580000.380    84271672.64849
  21690636.620   113985094.64909  21690637.000    88819558.43448
  20427845.620   107349052.41009  20427846.700    83648617.72049
  21224239.400   111534144.05709  21224239.400    86909729.97148
  24141856.240   126866236.62508  24141859.380    98856784.95246
  20688892.320   108720866.88309  20688891.240    84717561.33948
  21837167.620   114755070.78809  21837165.240    89419513.18647
  23586675.420   123948842.90008  23586680.320    96583537.92146
 15 02 28 09 39 30.0000000  0 10G02G03G06G07G09G10G17G20G23G30
  23457557.940   123270297.59608  23457556.320    96054778.93047
  23126704.720   121531593.18908  23126709.520    94699933.77747
  20576038.100   108127811.73109  20576040.620    84255458.08949
  21676541.640   113911025.27609  21676542.020    88761842.10948
  20432520.660   107373620.24209  20432521.860    83667761.45449
  21213918.520   111479906.93609  21213918.340    86867467.28848
  24158254.720   126952410.50208  24158257.820    98923933.24346
  20681051.000   108679660.51609  20681049.980    84685452.48848
  21849469.480   114819717.01809  21849467.140    89469886.79447
  23566279.600   123841662.59908  23566284.420    96500020.93346
 15 02 28 09 40  0.0000000  0 10G02G03G06G07G09G10G17G20G23G30
  23439899.520   123177502.28309  23439897.820    95982470.93347
  23139804.740   121600433.31808  23139809.580    94753575.32647
  20572186.220   108107570.18309  20572188.780    84239685.45248
  21662519.120   113837336.68309  21662519.520    88704422.49448
  20437261.340   107398533.31409  20437262.700    83687174.19949
  21203637.160   111425877.69609  21203636.820    86825366.58848
  24174660.360   127038622.02008  24174663.520    98991110.85545
  20673255.160   108638693.15809  20673254.160    84653529.86548
  21861805.440   114884542.23909  21861802.980    89520399.87647
  23545902.320   123734579.85908  23545907.080    96416579.96146
 15 02 28 09 40 30.0000000  0 10G02G03G06G07G09G10G17G20G23G30
  23422284.820   123084936.48008  23422283.220    95910341.79347
  23152935.540   121669435.47608  23152940.320    94807343.11847
  20568441.500   108087891.77809  20568444.100    84224351.61748
  21648568.520   113764026.04809  21648568.940    88647297.38548
  20442066.480   107423784.89509  20442067.920    83706850.72449
  21193394.480   111372052.27809  21193394.160    86783424.72248
  24191071.620   127124862.94608  24191074.760    99058311.39846
  20665504.040   108597960.28209  20665502.940    84621789.95448
  21874174.100   114949539.61309  21874171.680    89571047.09447
  23525543.160   123627592.25308  23525547.940    96333213.13746
 15 02 28 09 41  0.0000000  0 10G02G03G06G07G09G10G17G20G23G30
  23404714.840   122992606.16708  23404713.340    95838396.14447
  23166097.800   121738602.91208  23166102.220    94861239.72746
  20564804.820   108068780.93809  20564807.420    84209460.03949
  21634690.980   113691099.33509  21634691.380    88590471.44348
  20446936.400   107449376.73909  20446937.880    83726792.38649
  21183191.380   111318434.82509  21183191.180    86741644.90947
  24207488.540   127211133.55008  24207491.760    99125535.06946
  20657798.440   108557466.55309  20657797.220    84590236.40048
  21886575.860   115014710.95009  21886573.360    89621829.89647
  23505203.220   123520705.90908  23505208.000    96249925.21646
 15 02 28 09 41 30.0000000  0 10G02G03G06G07G09G10G17G20G23G30
  23387189.700   122900511.11308  23387188.160    95766633.77647
  23179290.920   121807932.74008  23179295.380    94915262.84947
  20561275.860   108050235.86209  20561278.420    84195009.32148
  21620886.380   113618555.80409  21620886.740    88533944.07848
  20451870.280   107475304.36109  20451871.740    83746995.70049
  21173027.520   111265023.65609  21173027.540    86700025.83147
  24223910.020   127297428.04308  24223913.260    99192777.35146
  20650138.040   108517210.38009  20650136.780    84558867.95648
  21899009.840   115080051.77209  21899007.340    89672744.75546
  23484882.500   123413920.66308  23484887.220    96166716.08546
 15 02 28 09 42  0.0000000  0 10G02G03G06G07G09G10G17G20G23G30
  23369710.620   122808658.82108  23369709.480    95695060.65847
  23192515.900   121877430.12108  23192520.620    94969416.51547
  20557855.760   108032262.82409  20557858.260    84181004.33748
  21607156.200   113546403.25509  21607156.520    88477721.36148
  20456868.760   107501571.40409  20456870.200    83767463.48249
  21162904.020   111211824.76209  21162904.300    86658572.17148
  24240336.480   127383748.55608  24240339.720    99260039.90245
  20642524.040   108477198.22409  20642522.820    84527689.64548
  21911476.720   115145565.47909  21911474.200    89723794.33046
  23464582.560   123307244.49208  23464587.320    96083591.94146
 15 02 28 09 42 30.0000000  0 10G02G03G06G07G09G10G17G20G23G30
  23352277.300   122717046.55309  23352276.180    95623674.51647
  23205771.820   121947089.80508  23205776.380    95023696.67546
  20554543.720   108014857.63709  20554546.160    84167441.84148
  21593499.820   113474638.63609  21593500.100    88421800.93848
  20461930.540   107528171.05309  20461931.960    83788190.45948
  21152820.140   111158833.77009  21152820.460    86617280.51048
  24256766.200   127470086.37108  24256769.420    99327315.94445
  20634955.660   108437425.86209  20634954.500    84496698.20048
  21923975.340   115211245.40609  21923972.800    89774973.43647
  23444302.940   123200674.96108  23444307.640    96000550.88746
 15 02 28 09 43  0.0000000  0 10G02G03G06G07G09G10G17G20G23G30
  23334890.160   122625676.11308  23334888.860    95552476.80047
  23219058.480   122016911.08608  23219062.980    95078102.75246
  20551339.800   107998020.67909  20551342.160    84154322.11649
  21579917.560   113403263.66409  21579917.800    88366184.12648
  20467055.160   107555101.04709  20467056.600    83809174.83549
  21142775.920   111106051.11609  21142776.280    86576151.18148
  24273198.580   127556438.08408  24273201.740    99394602.79645
  20627432.980   108397893.70609  20627431.860    84465893.92548
  21936505.120   115277089.25809  21936502.760    89826280.27147
  23424043.920   123094214.12208  23424048.760    95917594.53546
 15 02 28 09 43 30.0000000  0 10G02G03G06G07G09G10G17G20G23G30
  23317550.340   122534554.49708  23317548.860    95481472.98247
  23232376.660   122086898.37608  23232381.520    95132638.16747
  20548245.040   107981757.39009  20548247.380    84141649.41549
  21566410.760   113332285.08809  21566410.980    88310876.19448
  20472243.200   107582364.24509  20472244.640    83830418.85949
  21132772.400   111053482.14509  21132772.680    86535188.36848
  24289633.880   127642805.51608  24289637.100    99461901.89745
  20619957.020   108358607.33509  20619955.920    84435281.17048
  21949066.560   115343099.97709  21949064.280    89877717.13047
  23403807.020   122987869.26708  23403811.860    95834728.55946
 15 02 28 09 44  0.0000000  0 10G02G03G06G07G09G10G17G20G23G30
  23300257.720   122443681.74108  23300256.260    95410663.09547
  23245726.100   122157049.06108  23245730.920    95187300.92646
  20545259.120   107966066.25409  20545261.500    84129422.53349
  21552979.420   113261703.09309  21552979.600    88255877.27648
  20477493.900   107609956.56309  20477495.300    83851919.33849
  21122809.240   111001125.20509  21122809.400    86494390.76448
  24306071.040   127729182.59208  24306074.380    99529208.51746
  20612527.540   108319565.16709  20612526.380    84404858.70348
  21961659.060   115409273.54309  21961656.780    89929280.89547
  23383592.240   122881640.61208  23383596.980    95751953.11146
 15 02 28 09 44 30.0000000  0 10G02G03G06G07G09G10G17G20G23G30
  23283013.520   122353063.41008  23283012.180    95340051.47047
  23259107.140   122227366.29908  23259111.940    95242093.45846
  20542382.840   107950951.34509  20542385.300    84117644.67449
  21539624.540   113191522.88809  21539624.700    88201191.44348
  20482807.520   107637879.53009  20482808.880    83873677.46549
  21112887.260   110948984.55609  21112887.220    86453761.70248
  24322510.020   127815569.52908  24322513.500    99596522.82946
  20605145.280   108280771.55709  20605144.200    84374629.92748
  21974282.720   115475611.27409  21974280.420    89980972.57847
  23363400.680   122775534.04708  23363405.420    95669272.80546
 15 02 28 09 45  0.0000000  0 10G02G03G06G07G09G10G17G20G23G30
  23265817.360   122262696.80908  23265815.960    95269635.98047
  23272518.800   122297844.54608  23272523.600    95297011.45046
  20539615.420   107936408.15209  20539617.900    84106312.29549
  21526345.520   113121741.24609  21526345.680    88146816.17648
  20488182.740   107666126.11009  20488184.060    83895687.76549
  21103005.560   110897055.65709  21103005.380    86413297.64047
  24338949.280   127901957.75108  24338952.760    99663838.12445
  20597809.580   108242222.43009  20597808.480    84344591.65048
  21986936.400   115542106.60609  21986934.140    90032787.06846
  23343231.840   122669546.99108  23343236.640    95586685.60646
 15 02 28 09 45 30.0000000  0 10G02G03G06G07G09G10G17G20G23G30
  23248670.440   122172588.56609  23248669.000    95199421.81847
  23285961.840   122368487.91208  23285966.640    95352058.10047
  20536957.760   107922441.73209  20536960.240    84095429.35649
  21513143.600   113052364.82709  21513143.740    88092756.66648
  20493620.020   107694698.83909  20493621.300    83917952.21348
  21093165.140   110845343.83809  21093164.920    86373002.73747
  24355389.040   127988348.71008  24355392.660    99731155.54445
  20590521.360   108203922.76409  20590520.260    84314747.76748
  21999620.500   115608761.66009  21999618.220    90084726.01547
  23323087.100   122563686.30708  23323091.940    95504196.88646
 15 02 28 09 46  0.0000000  0 10G02G03G06G07G09G10G17G20G23G30
  23231573.100   122082741.21508  23231571.400    95129410.93548
  23299436.260   122439296.50108  23299441.220    95407233.48747
  20534410.100   107909053.14709  20534412.480    84084996.66449
  21500019.200   112983395.85509  21500019.360    88039014.63848
  20499119.120   107723596.24809  20499120.320    83940469.65349
  21083366.280   110793850.08909  21083365.980    86332877.74848
  24371828.780   128074739.29408  24371832.520    99798472.66546
  20583280.900   108165874.22609  20583279.820    84285099.56248
  22012334.600   115675574.89309  22012332.520    90136788.19547
  23302966.960   122457954.95108  23302971.840    95421808.92346
 15 02 28 09 46 30.0000000  0 10G02G03G06G07G09G10G17G20G23G30
  23214525.280   121993154.56809  23214523.620    95059603.23347
  23312941.680   122510267.60708  23312946.680    95462535.51646
  20531972.000   107896240.65309  20531974.420    84075012.88449
  21486972.300   112914834.08009  21486972.400    87985589.91148
  20504679.200   107752814.15309  20504680.300    83963236.83049
  21073608.540   110742572.68609  21073608.280    86292921.34848
  24388267.440   128161124.08208  24388271.280    99865785.27845
  20576087.980   108128075.34209  20576086.960    84255645.89248
  22025078.060   115742542.60609  22025076.300    90188970.75747
  23282871.440   122352353.09308  23282876.340    95339521.86546
 15 02 28 09 47  0.0000000  0 10G02G03G06G07G09G10G17G20G23G30
  23197528.020   121903833.67408  23197526.440    94990002.57947
  23326478.340   122581403.42508  23326483.560    95517965.88646
  20529644.080   107884007.33209  20529646.560    84065480.41249
  21474003.740   112846684.15309  21474003.840    87932486.10048
  20510300.380   107782353.17509  20510301.380    83986254.23149
  21063892.560   110691514.89209  21063892.320    86253136.07348
  24404704.860   128247502.23008  24404708.620    99933092.71045
  20568943.200   108090529.27809  20568942.200    84226389.22948
  22037851.100   115809665.33409  22037849.420    90241274.10347
  23262801.580   122246885.77308  23262806.440    95257339.65546
 15 02 28 09 47 30.0000000  0 10G02G03G06G07G09G10G17G20G23G30
  23180581.760   121814780.53208  23180579.900    94920610.55747
  23340046.380   122652703.94608  23340051.700    95573524.60146
  20527426.540   107872354.05209  20527429.040    84056399.91349
  21461113.940   112778948.19009  21461114.040    87879704.86048
  20515982.360   107812211.77909  20515983.260    84009520.66249
  21054218.520   110640677.72709  21054218.320    86213522.71448
  24421140.440   128333870.65608  24421144.180   100000392.56445
  20561846.780   108053237.26509  20561845.740    84197330.52048
  22050653.420   115876941.65409  22050651.740    90293697.13847
  23242757.880   122141555.81608  23242762.680    95175264.46446
 15 02 28 09 48  0.0000000  0 10G02G03G06G07G09G10G17G20G23G30
  23163686.480   121725995.17609  23163684.700    94851427.22247
  23353645.220   122724165.71508  23353650.420    95629208.96746
  20525318.860   107861278.22909  20525321.420    84047769.38649
  21448302.720   112711624.98509  21448302.820    87827245.25048
  20521724.200   107842385.00009  20521725.020    84033032.23848
  21044586.000   110590058.89409  21044585.820    86174079.48447
  24437572.980   128420223.09908  24437576.700   100067679.94245
  20554798.260   108016197.15609  20554797.140    84168468.10148
  22063484.040   115944366.70209  22063482.220    90346236.06547
  23222740.200   122036362.68108  23222744.920    95093295.88846
 15 02 28 09 48 30.0000000  0 10G02G03G06G07G09G10G17G20G23G30
  23146843.060   121637482.13309  23146841.180    94782456.06747
  23367275.320   122795791.36008  23367280.400    95685021.03146
  20523321.700   107850783.38509  20523324.340    84039591.56049
  21435571.020   112644719.72309  21435571.160    87775111.31048
  20527526.120   107872873.90909  20527526.860    84056789.81349
  21034995.740   110539662.32409  21034995.500    86134809.44248
  24454002.480   128506559.29808  24454006.020   100134954.65345
  20547798.440   107979412.90909  20547797.280    84139805.05548
  22076343.160   116011941.48409  22076341.120    90398891.65346
  23202749.600   121931311.81808  23202754.240    95011438.17146
 15 02 28 09 49  0.0000000  0 10G02G03G06G07G09G10G17G20G23G30
  23130051.960   121549244.56208  23130049.940    94713699.55347
  23380936.660   122867581.27108  23380941.900    95740961.08346
  20521435.320   107840870.72009  20521438.020    84031867.38348
  21422919.320   112578234.72809  21422919.460    87723304.85548
  20533387.920   107903677.37209  20533388.540    84080792.49248
  21025448.080   110489489.45509  21025447.800    86095713.71647
  24470428.340   128592876.74808  24470431.840   100202214.75745
  20540847.640   107942886.13509  20540846.500    84111342.64848
  22089230.620   116079665.15709  22089228.540    90451663.27146
  23182786.700   121826406.49908  23182791.380    94929693.86546
 15 02 28 09 49 30.0000000  0 10G02G03G06G07G09G10G17G20G23G30
  23113313.840   121461285.73608  23113312.040    94645160.26948
  23394629.440   122939536.09408  23394634.640    95797029.63747
  20519660.040   107831541.70709  20519662.760    84024598.00649
  21410348.200   112512173.17009  21410348.340    87671828.34548
  20539309.420   107934794.52609  20539309.880    84105039.61149
  21015943.360   110439542.03509  21015943.120    86056793.64848
  24486850.140   128679173.12708  24486853.720   100269458.44045
  20533946.240   107906618.64109  20533945.060    84083082.25848
  22102146.300   116147536.88909  22102144.140    90504550.25447
  23162852.120   121721650.29108  23162856.860    94848065.73946
 15 02 28 09 50  0.0000000  0 10G02G03G06G07G09G10G17G20G23G30
  23096629.160   121373607.35008  23096627.280    94576839.47247
  23408353.340   123011654.71608  23408358.440    95853225.82646
  20517995.780   107822795.98609  20517998.540    84017783.14449
  21397857.940   112446536.44509  21397858.040    87620682.87848
  20545290.060   107966222.71209  20545290.460    84129529.09549
  21006481.600   110389820.20809  21006481.420    86018049.38047
  24503267.260   128765444.61108  24503270.940   100336682.69045
  20527094.120   107870610.60009  20527092.980    84055024.05848
  22115089.660   116215554.07909  22115087.700    90557550.58347
  23142946.260   121617044.85108  23142951.040    94766555.12146
 15 02 28 09 50 30.0000000  0 10G02G03G06G07G09G10G17G20G23G30
  23079998.100   121286210.97108  23079996.120    94508738.43447
  23422108.140   123083936.36308  23422113.240    95909549.05447
  20516442.560   107814633.59709  20516445.300    84011422.81849
  21385448.720   112381325.76609  21385448.860    87569869.40348
  20551329.440   107997959.66009  20551329.780    84154259.16849
  20997062.760   110340324.06709  20997062.760    85979480.97148
  24519678.900   128851687.59407  24519682.720   100403884.76546
  20520291.480   107834862.65109  20520290.360    84027168.52348
  22128060.220   116283714.79809  22128058.300    90610662.73546
  23123069.560   121512592.38108  23123074.200    94685163.67246
 15 02 28 09 51  0.0000000  0  9G02G03G06G07G09G10G20G23G30
  23063421.620   121199101.58808  23063419.820    94440861.04847
  23435894.400   123156383.30108  23435899.740    95966001.06547
  20515000.940   107807057.55409  20515003.660    84005519.38449
  21373121.420   112316545.42809  21373121.560    87519391.24648
  20557427.680   108030006.08809  20557427.980    84179230.40548
  20987687.440   110291056.82009  20987687.560    85941090.91048
  20513539.000   107799378.16809  20513537.920    83999518.27948
  22141058.280   116352019.78009  22141056.320    90663887.29447
  23103222.960   121408298.05208  23103227.520    94603895.45146
 15 02 28 09 51 30.0000000  0  9G02G03G06G07G09G10G20G23G30
  23046899.700   121112279.25509  23046897.860    94373207.31947
  23449711.680   123228992.99108  23449717.220    96022579.90447
  20513670.540   107800066.04209  20513673.200    84000071.43249
  21360876.020   112252195.49509  21360876.120    87469248.48548
  20563584.040   108062358.00209  20563584.360    84204439.67248
  20978355.480   110242017.27309  20978355.620    85902878.28047
  20506836.460   107764156.06209  20506835.440    83972072.49248
  22154083.120   116420464.90709  22154080.940    90717221.07946
  23083406.500   121304162.17808  23083411.060    94522750.70646
 15 02 28 09 52  0.0000000  0  9G02G03G06G07G09G10G20G23G30
  23030433.000   121025746.75108  23030431.260    94305779.43547
  23463559.900   123301765.41108  23463565.440    96079285.55347
  20512451.520   107793659.72809  20512454.120    83995079.48049
  21348712.920   112188278.07109  21348713.020    87419442.73248
  20569798.220   108095013.80209  20569798.580    84229885.72948
  20969067.080   110193206.56709  20969067.280    85864843.96847
  20500184.060   107729197.35109  20500183.000    83944831.93248
  22167134.340   116489048.98209  22167132.080    90770663.11946
  23063620.700   121200187.62008  23063625.300    94441731.66146
 15 02 28 09 52 30.0000000  0  9G02G03G06G07G09G10G20G23G30
  23014022.440   120939509.80908  23014020.880    94238581.86147
  23477439.820   123374703.73408  23477445.240    96136120.48747
  20511344.600   107787842.57709  20511347.140    83990546.61149
  21336633.180   112124798.50609  21336633.300    87369978.17148
  20576070.520   108127975.21809  20576070.920    84255569.93148
  20959823.000   110144628.97209  20959823.260    85826991.31247
  20493582.620   107694506.49709  20493581.560    83917800.09648
  22180212.340   116557773.77809  22180210.120    90824214.80646
  23043866.760   121096380.47108  23043871.360    94360843.07246
 15 02 28 09 53  0.0000000  0  9G02G03G06G07G09G10G20G23G30
  22997667.540   120853564.85709  22997665.960    94171611.80547
  23491350.220   123447802.07608  23491355.480    96193080.09946
  20510348.780   107782609.25009  20510351.280    83986468.67149
  21324636.060   112061753.21509  21324636.180    87320852.00748
  20582399.540   108161234.80509  20582400.040    84281486.47448
  20950622.460   110096279.64709  20950622.720    85789316.51647
  20487031.240   107660079.02309  20487030.260    83890973.49048
  22193315.700   116626631.93209  22193313.500    90877870.42346
  23024144.080   120992737.77708  23024148.760    94280082.62546
 15 02 28 09 53 30.0000000  0  9G02G03G06G07G09G10G20G23G30
  22981369.580   120767918.95908  22981368.100    94104874.78747
  23505291.660   123521064.56208  23505297.040    96250167.60346
  20509464.980   107777964.61109  20509467.440    83982849.45149
  21312722.720   111999148.27009  21312722.840    87272068.95948
  20588785.800   108194795.36409  20588786.440    84307637.54248
  20941466.520   110048164.11409  20941466.600    85751823.89347
  20480531.020   107625920.16809  20480530.040    83864356.19548
  22206445.080   116695626.54609  22206442.980    90931632.38246
  23004454.060   120889266.54608  23004458.880    94199455.79446
 15 02 28 09 54  0.0000000  0  9G02G03G06G07G09G10G20G23G30
  22965129.180   120682575.63608  22965127.800    94038373.54947
  23519264.420   123594492.29308  23519270.080    96307383.86946
  20508693.500   107773910.36109  20508695.940    83979690.27849
  21300893.820   111936987.13009  21300893.920    87223631.73848
  20595229.200   108228656.21409  20595230.000    84334022.59648
  20932355.460   110000284.51609  20932355.380    85714515.11848
  20474082.400   107592032.51209  20474081.400    83837950.21548
  22219600.280   116764757.29209  22219598.280    90985500.38946
  22984797.440   120785970.79708  22984802.360    94118965.69646
 15 02 28 09 54 30.0000000  0  9G02G03G06G07G09G10G20G23G30
  22948946.080   120597533.30509  22948944.760    93972106.83447
  23533267.900   123668080.75308  23533273.540    96364725.40246
  20508033.640   107770442.62409  20508036.040    83976988.11849
  21289148.900   111875267.36409  21289149.040    87175538.44948
  20601728.660   108262811.49009  20601729.620    84360637.06848
  20923288.600   109952637.59309  20923288.360    85677387.65148
  20467684.760   107558412.89709  20467683.800    83811753.10848
  22232780.260   116834018.15509  22232778.160    91039469.81946
  22965173.960   120682848.95808  22965178.820    94038611.11946
 15 02 28 09 55  0.0000000  0  9G02G03G06G07G09G10G20G23G30
  22932821.180   120512796.21308  22932819.660    93906077.97447
  23547302.320   123741831.52408  23547307.940    96422193.39847
  20507485.780   107767563.55309  20507488.200    83974744.67149
  21277488.760   111813992.95909  21277488.920    87127792.18648
  20608284.160   108297261.30909  20608285.320    84387481.05648
  20914266.560   109905226.20109  20914266.220    85640443.71548
  20461338.680   107525064.23209  20461337.720    83785767.13148
  22245985.100   116903409.62909  22245983.100    91093541.01147
  22945584.420   120579905.54108  22945589.240    93958395.57547
 15 02 28 09 55 30.0000000  0  9G02G03G06G07G09G10G20G23G30
  22916754.860   120428367.25708  22916753.260    93840289.22147
  23561367.760   123815745.30808  23561373.560    96479788.40747
  20507050.180   107765274.45209  20507052.620    83972960.92349
  21265913.900   111753166.61009  21265914.060    87080395.05548
  20614895.580   108332004.86609  20614896.900    84414553.92048
  20905289.700   109858052.26009  20905289.300    85603684.79848
  20455044.640   107491989.18009  20455043.720    83759994.34548
  22259214.680   116972931.07109  22259212.720    91147713.48046
  22926029.500   120477144.10808  22926034.280    93878321.84047
 15 02 28 09 56  0.0000000  0  9G02G03G06G07G09G10G20G23G30
  22900747.840   120344249.15608  22900746.000    93774742.67347
  23575464.160   123889821.84408  23575469.880    96537510.22746
  20506726.880   107763575.57709  20506729.340    83971637.10549
  21254424.680   111692790.23509  21254424.780    87033348.55448
  20621562.560   108367040.44209  20621564.000    84441854.33948
  20896358.120   109811116.70009  20896357.780    85567111.64548
  20448802.720   107459187.78009  20448801.780    83734434.81048
  22272468.680   117042580.92809  22272466.680    91201986.02346
  22906509.700   120374567.40808  22906514.540    93798392.05446
 15 02 28 09 56 30.0000000  0  9G02G03G06G07G09G10G20G23G30
  22884800.560   120260445.11309  22884798.760    93709440.86747
  23589591.720   123964061.55908  23589597.340    96595359.21846
  20506516.060   107762467.94509  20506518.560    83970773.99249
  21243021.560   111632866.34609  21243021.580    86986654.63348
  20628284.900   108402367.02909  20628286.500    84469381.51248
  20887472.220   109764421.14409  20887471.920    85530725.49348
  20442613.260   107426661.99009  20442612.340    83709090.02148
  22285746.900   117112358.27909  22285744.940    91256357.89346
  22887025.660   120272178.76408  22887030.440    93718608.82547
 15 02 28 09 57  0.0000000  0  9G02G03G06G07G09G10G20G23G30
  22868913.420   120176957.38009  22868911.620    93644385.54547
  23603750.260   124038464.22908  23603756.020    96653335.16846
  20506417.820   107761951.78509  20506420.360    83970371.76749
  21231704.940   111573396.97509  21231704.880    86940314.89048
  20635062.340   108437982.85909  20635064.040    84497134.08048
  20878632.180   109717966.19109  20878631.780    85494526.82948
  20436476.520   107394413.18209  20436475.560    83683961.08048
  22299049.080   117182261.85109  22299047.260    91310828.14046
  22867578.000   120169980.97308  22867582.780    93638974.31047
 15 02 28 09 57 30.0000000  0  9G02G03G06G07G09G10G20G23G30
  22853086.560   120093786.37709  22853084.760    93579577.00747
  23617939.420   124113027.76708  23617945.240    96711436.46446
  20506431.840   107762025.49709  20506434.420    83970429.18249
  21220474.760   111514382.02809  21220474.620    86894329.24248
  20641894.160   108473884.37509  20641895.960    84525109.24948
  20869837.800   109671751.18909  20869837.320    85458515.13347
  20430392.260   107362440.56109  20430391.340    83659047.33748
  22312374.620   117252288.08409  22312372.820    91365393.96446
  22848166.780   120067974.69908  22848171.540    93559489.01847
 15 02 28 09 58  0.0000000  0  9G02G03G06G07G09G10G20G23G30
  22837321.100   120010937.63009  22837319.220    93515019.59047
  23632159.620   124187754.47708  23632165.300    96769664.91146
  20506558.700   107762691.92709  20506561.280    83970948.45049
  21209331.860   111455825.94109  21209331.700    86848701.13648
  20648780.540   108510072.52309  20648782.440    84553307.75048
  20861089.700   109625779.67109  20861089.240    85422693.16247
  20424361.360   107330747.80809  20424360.400    83634351.66248
  22325723.760   117322438.13009  22325721.840    91420056.27246
  22828793.020   119966165.34508  22828797.780    93480157.17447
 15 02 28 09 58 30.0000000  0  9G02G03G06G07G09G10G20G23G30
  22821617.520   119928414.14209  22821615.520    93450715.61147
  23646410.980   124262645.40108  23646416.800    96828021.33046
  20506798.600   107763952.49709  20506801.180    83971930.69249
  21198276.840   111397731.66309  21198276.700    86803432.88848
  20655721.480   108546546.83909  20655723.360    84581729.24849
  20852388.320   109580053.99409  20852387.960    85387062.75948
  20418384.180   107299337.26209  20418383.180    83609875.91348
  22339096.340   117392711.73609  22339094.640    91474814.84646
  22809457.480   119864556.80108  22809462.180    93400981.80847
 15 02 28 09 59  0.0000000  0  9G02G03G06G07G09G10G20G23G30
  22805975.860   119846216.52709  22805973.780    93386665.56048
  23660693.080   124337698.24608  23660699.020    96886503.92146
  20507151.220   107765805.34909  20507153.760    83973374.44449
  21187309.740   111340099.33909  21187309.620    86758524.59848
  20662716.200   108583303.55209  20662717.980    84610370.80049
  20843733.500   109534573.28609  20843733.340    85351623.23848
  20412460.540   107268208.10309  20412459.500    83585619.40248
  22352491.760   117463105.75309  22352490.380    91529667.23647
  22790160.320   119763149.74608  22790164.960    93321963.44347
 15 02 28 09 59 30.0000000  0  9G02G03G06G07G09G10G20G23G30
  22790396.880   119764348.51409  22790394.680    93322872.35647
  23675006.180   124412914.21008  23675012.260    96945113.61846
  20507616.880   107768252.12009  20507619.380    83975280.99449
  21176431.100   111282931.95509  21176431.000    86713978.61548
  20669764.660   108620342.46109  20669766.280    84639232.25349
  20835125.820   109489339.94309  20835125.800    85316376.47348
  20406590.940   107237362.79809  20406589.840    83561584.09548
  22365910.100   117533619.78909  22365908.820    91584613.17847
  22770902.260   119661948.32508  22770906.820    93243105.31447
 15 02 28 10 00  0.0000000  0  9G02G03G06G07G09G10G20G23G30
  22774880.540   119682809.25009  22774878.140    93259335.30047
  23689349.680   124488289.59308  23689355.980    97003847.51646
  20508194.920   107771289.48609  20508197.420    83977647.74649
  21165640.600   111226227.89209  21165640.540    86669793.64948
  20676865.820   108657658.42009  20676867.340    84668309.58149
  20826564.820   109444351.40609  20826564.840    85281320.46848
  20400774.900   107206799.20109  20400773.860    83537768.29848
  22379350.440   117604249.10009  22379349.200    91639648.92446
  22751683.160   119560951.82208  22751687.620    93164406.86147
 15 02 28 10 00 30.0000000  0  9G02G03G06G07G09G10G20G23G30
  22759427.860   119601604.73709  22759425.480    93196059.10648
  23703724.220   124563827.58308  23703730.420    97062708.14046
  20508886.000   107774921.00209  20508888.540    83980477.46449
  21154939.280   111169992.44309  21154939.260    86625973.83648
  20684019.980   108695253.22009  20684021.400    84697604.17948
  20818051.300   109399612.35409  20818051.320    85246458.85848
  20395013.320   107176521.71609  20395012.320    83514175.43748
  22392813.100   117674995.43009  22392811.840    91694775.84146
  22732504.260   119460166.36908  22732508.600    93085872.84647
 15 02 28 10 01  0.0000000  0  9G02G03G06G07G09G10G20G23G30
  22744039.080   119520736.10009  22744036.640    93133044.61847
  23718129.320   124639526.64408  23718135.440    97121694.26246
  20509689.880   107779145.42009  20509692.460    83983769.18349
  21144327.240   111114226.11509  21144327.240    86582519.57848
  20691226.600   108733123.84109  20691227.960    84727113.70649
  20809585.180   109355122.56409  20809585.120    85211791.48048
  20389306.120   107146530.27709  20389305.120    83490805.47748
  22406297.580   117745856.26009  22406296.340    91749991.98146
  22713365.800   119359593.38808  22713370.120    93007504.38547
 15 02 28 10 01 30.0000000  0  9G02G03G06G07G09G10G20G23G30
  22728714.560   119440205.25409  22728712.200    93070293.35248
  23732565.100   124715386.33708  23732571.100    97180805.55646
  20510606.600   107783962.75809  20510609.180    83987522.92149
  21133804.740   111058930.45309  21133804.760    86539432.06448
  20698485.340   108771268.48009  20698486.660    84756836.75948
  20801166.640   109310882.61209  20801166.460    85177318.78748
  20383653.560   107116825.68709  20383652.520    83467659.03548
  22419803.640   117816830.14909  22419802.280    91805296.23947
  22694268.240   119259235.39508  22694272.560    92929303.46147
 15 02 28 10 02  0.0000000  0  9G02G03G06G07G09G10G20G23G30
  22713455.260   119360017.66909  22713452.980    93007809.56347
  23747032.020   124791409.49208  23747037.980    97240044.21446
  20511636.720   107789376.05409  20511639.320    83991741.03349
  21123372.760   111004110.26509  21123372.820    86496715.04848
  20705796.500   108809688.54409  20705797.800    84786774.41948
  20792796.460   109266896.95609  20792796.200    85143044.25048
  20378056.420   107087412.17609  20378055.360    83444739.40248
  22433331.460   117887918.78408  22433329.960    91860689.88946
  22675212.700   119159098.20908  22675216.960    92851274.57447
 15 02 28 10 02 30.0000000  0  9G02G03G06G07G09G10G20G23G30
  22698261.240   119280173.53209  22698259.080    92945593.39647
  23761529.600   124867593.31808  23761535.540    97299408.08346
  20512779.780   107795382.82009  20512782.420    83996421.59249
  21113031.100   110949764.56109  21113031.180    86454367.76848
  20713159.280   108848379.81909  20713160.500    84816923.42048
  20784474.380   109223164.10109  20784474.140    85108966.70148
  20372514.460   107058288.72009  20372513.400    83422045.78948
  22446880.340   117959118.30108  22446878.800    91916169.93546
  22656199.220   119059181.95208  22656203.440    92773417.84947
 15 02 28 10 03  0.0000000  0  9G02G03G06G07G09G10G20G23G30
  22683133.280   119200676.55109  22683131.160    92883647.73347
  23776057.840   124943938.96208  23776063.860    97358898.03346
  20514036.040   107801984.51109  20514038.780    84001565.72449
  21102780.400   110895896.63509  21102780.420    86412392.77048
  20720573.640   108887342.11109  20720574.780    84847283.60048
  20776200.860   109179686.42109  20776200.660    85075087.99148
  20367028.080   107029457.36209  20367027.020    83399579.78448
  22460450.360   118030428.55409  22460448.760    91971736.26246
  22637228.580   118959490.81508  22637232.760    92695736.52847
 15 02 28 10 03 30.0000000  0  9G02G03G06G07G09G10G20G23G30
  22668071.500   119121526.79709  22668069.300    92821972.62047
  23790616.340   125020443.92608  23790622.620    97418512.13346
  20515405.140   107809178.85709  20515407.900    84007171.66549
  21092620.560   110842506.11109  21092620.520    86370789.78548
  20728038.780   108926571.52609  20728039.860    84877851.93748
  20767975.660   109136462.66109  20767975.520    85041407.13848
  20361597.120   107000917.34809  20361596.100    83377340.80248
  22474040.800   118101845.78709  22474039.100    92027385.96746
  22618300.900   118860025.29308  22618304.940    92618231.01047
 15 02 28 10 04  0.0000000  0  9G02G03G06G07G09G10G20G23G30
  22653076.600   119042728.70409  22653074.400    92760571.53947
  23805205.420   125097109.86108  23805211.760    97478251.64346
  20516887.380   107816967.70509  20516890.120    84013240.85849
  21082552.220   110789596.44009  21082552.120    86329561.47848
  20735554.760   108966068.29609  20735555.820    84908628.61048
  20759799.320   109093495.83109  20759799.260    85007926.48848
  20356222.200   106972671.93209  20356221.240    83355331.37448
  22487651.740   118173370.80509  22487650.100    92083119.64246
  22599417.020   118760789.93908  22599420.920    92540904.85647
 15 02 28 10 04 30.0000000  0  9G02G03G06G07G09G10G20G23G30
  22638149.060   118964284.48209  22638146.920    92699446.20348
  23819825.060   125173936.42308  23819831.460    97538116.32846
  20518482.700   107825350.93409  20518485.400    84019773.20249
  21072575.640   110737169.24309  21072575.540    86288709.12548
  20743121.300   109005830.71409  20743122.280    84939612.28848
  20751672.080   109050786.84909  20751672.000    84974646.75648
  20350903.540   106944721.93009  20350902.520    83333552.13248
  22501282.860   118245001.98109  22501281.140    92138936.02646
  22580577.460   118661787.46008  22580581.260    92463760.15147
 15 02 28 10 05  0.0000000  0  9G02G03G06G07G09G10G20G23G30
  22623289.340   118886196.80209  22623287.340    92638598.69447
  23834475.380   125250923.35408  23834481.600    97598105.98346
  20520191.080   107834328.46609  20520193.780    84026768.63849
  21062691.180   110685226.19209  21062691.080    86248234.03048
  20750738.060   109045857.15009  20750739.020    84970801.69648
  20743594.060   109008336.63009  20743593.980    84941568.66048
  20345641.320   106917068.43109  20345640.240    83312003.93848
  22514933.900   118316738.23109  22514932.180    92194834.30646
  22561782.680   118563020.52608  22561786.480    92386799.00247
 15 02 28 10 05 30.0000000  0  9G02G03G06G07G09G10G20G23G30
  22608497.580   118808466.27009  22608495.680    92578029.48148
  23849155.960   125328068.77008  23849161.920    97658219.13546
  20522012.220   107843898.57409  20522015.000    84034225.82049
  21052898.860   110633767.29709  21052898.740    86208136.20148
  20758404.440   109086144.35909  20758405.400    85002194.29448
  20735565.200   108966144.86209  20735565.100    84908691.95548
  20340435.460   106889711.23609  20340434.360    83290686.62948
  22528604.380   118388576.47309  22528602.760    92250812.05347
  22543032.940   118464490.25308  22543036.780    92310022.27147
 15 02 28 10 06  0.0000000  0  9G02G03G06G07G09G10G20G23G30
  22593775.080   118731099.62009  22593773.160    92517743.80448
  23863867.440   125405376.79208  23863873.220    97718458.99246
  20523946.960   107854065.54309  20523949.800    84042148.08949
  21043199.880   110582798.60009  21043199.700    86168420.33948
  20766120.940   109126695.09009  20766121.940    85033792.24948
  20727586.680   108924217.29609  20727586.500    84876021.11748
  20335287.000   106862655.75409  20335285.880    83269604.41548
  22542294.860   118460519.86409  22542293.120    92306871.73346
  22524329.560   118366203.73808  22524333.400    92233435.47647
 15 02 28 10 06 30.0000000  0  9G02G03G06G07G09G10G20G23G30
  22579121.420   118654094.19809  22579119.400    92457739.60848
  23878608.700   125482841.93208  23878614.620    97778821.24946
  20525994.240   107864823.95409  20525997.100    84050531.22549
  21033593.480   110532316.36009  21033593.300    86129083.53248
  20773886.300   109167502.54809  20773887.360    85065590.24648
  20719657.540   108882549.43209  20719657.260    84843552.64948
  20330195.180   106835897.92809  20330193.980    83248754.15348
  22556004.140   118532561.94409  22556002.320    92363008.31046
  22505672.120   118268158.49209  22505675.800    92157036.68147
 15 02 28 10 07  0.0000000  0  9G02G03G06G07G09G10G20G23G30
  22564537.460   118577454.78209  22564535.380    92398020.61147
  23893380.140   125560466.34708  23893386.280    97839307.62346
  20528154.520   107876176.13709  20528157.360    84059377.04349
  21024080.420   110482324.75309  21024080.280    86090129.04448
  20781700.600   109208567.52309  20781701.760    85097588.90948
  20711778.560   108841144.99409  20711778.200    84811289.44848
  20325160.640   106809441.35509  20325159.420    83228138.63548
  22569732.280   118604703.71709  22569730.620    92419222.57946
  22487061.600   118170359.65908  22487065.120    92080829.89547
 15 02 28 10 07 30.0000000  0  9G02G03G06G07G09G10G20G23G30
  22550023.640   118501183.79909  22550021.620    92338588.70148
  23908181.960   125638249.74308  23908188.180    97899917.89846
  20530427.720   107888121.86209  20530430.620    84068685.35649
  21014661.000   110432825.36409  21014660.880    86051558.10048
  20789563.580   109249888.43409  20789564.860    85129786.99448
  20703949.980   108800005.21609  20703949.580    84779232.46848
  20320183.680   106783287.34809  20320182.500    83207758.87348
  22583479.240   118676944.08009  22583477.600    92475513.67546
  22468498.460   118072809.95809  22468501.900    92004817.23747
 15 02 28 10 08  0.0000000  0  9G02G03G06G07G09G10G20G23G30
  22535580.920   118425286.68009  22535578.940    92279448.10548
  23923014.580   125716195.11708  23923020.900    97960654.36846
  20532814.460   107900664.11109  20532817.400    84078458.49149
  21005336.160   110383823.14309  21005336.080    86013374.56148
  20797475.600   109291466.84509  20797476.980    85162185.73348
  20696172.480   108759134.47409  20696172.220    84747385.13948
  20315265.120   106757440.28609  20315263.940    83187618.29548
  22597245.220   118749284.79609  22597243.740    92531882.95346
  22449983.800   117975515.29109  22449987.240    91929003.30947
 15 02 28 10 08 30.0000000  0  9G02G03G06G07G09G10G20G23G30
  22521208.860   118349760.44609  22521206.780    92220596.51748
  23937876.920   125794296.67308  23937883.560    98021512.52946
  20535313.620   107913797.23809  20535316.600    84088692.04949
  20996105.080   110335313.78209  20996105.060    85975575.07648
  20805435.320   109333295.72709  20805436.860    85194779.63848
  20688445.380   108718528.22909  20688445.140    84715743.90548
  20310404.140   106731895.73409  20310402.980    83167713.43748
  22611029.000   118821719.08309  22611027.580    92588325.14446
  22431517.100   117878472.91608  22431520.620    91853385.97047
 15 02 28 10 09  0.0000000  0  9G02G03G06G07G09G10G20G23G30
  22506908.620   118274611.31009  22506906.500    92162038.77348
  23952769.800   125872557.96108  23952776.300    98082495.17146
  20537925.900   107927524.73309  20537928.880    84099388.76049
  20986968.840   110287302.84609  20986968.880    85938163.97248
  20813443.220   109375377.27309  20813444.820    85227570.42448
  20680769.580   108678191.50709  20680769.400    84684312.69548
  20305601.720   106706658.79209  20305600.620    83148048.27948
  22624831.200   118894249.81809  22624829.900    92644842.50246
  22413099.680   117781689.37208  22413103.280    91777970.31248
 15 02 28 10 09 30.0000000  0  9G02G03G06G07G09G10G20G23G30
  22492680.080   118199838.95309  22492677.860    92103774.62148
  23967692.360   125950975.88908  23967698.660    98143599.86246
  20540650.740   107941843.51409  20540653.660    84110546.21349
  20977927.180   110239788.99309  20977927.240    85901140.20848
  20821498.380   109417707.10109  20821499.980    85260554.67548
  20673144.680   108638122.52409  20673144.620    84653090.11548
  20300857.440   106681727.79209  20300856.460    83128621.52448
  22638650.880   118966872.47709  22638649.620    92701431.48046
  22394731.520   117685164.55209  22394735.140    91702756.25247
 15 02 28 10 10  0.0000000  0  9G02G03G06G07G09G10G20G23G30
  22478524.540   118125450.58109  22478522.300    92045809.67548
  23982645.440   126029555.19908  23982651.840    98204830.28846
  20543489.000   107956758.30109  20543491.860    84122168.08449
  20968981.420   110192778.86209  20968981.500    85864508.95548
  20829601.440   109460288.65109  20829603.040    85293735.06348
  20665571.900   108598327.28909  20665571.980    84622080.83648
  20296172.560   106657109.01009  20296171.700    83109438.04948
  22652488.700   119039591.20608  22652487.720    92758095.32446
  22376414.120   117588906.17309  22376417.720    91627749.79947
 15 02 28 10 10 30.0000000  0  9G02G03G06G07G09G10G20G23G30
  22464441.460   118051443.25209  22464439.140    91988141.63048
  23997628.300   126108290.21108  23997634.860    98266182.03846
  20546439.580   107972263.43809  20546442.420    84134249.96249
  20960130.800   110146268.58709  20960130.920    85828267.19548
  20837751.140   109503115.05409  20837752.780    85327106.24148
  20658050.480   108558801.84909  20658050.600    84591281.78348
  20291546.320   106632798.22809  20291545.500    83090494.56648
  22666343.620   119112399.43609  22666342.860    92814828.89946
  22358146.940   117492911.62309  22358150.520    91552948.91447
 15 02 28 10 11  0.0000000  0  9G02G03G06G07G09G10G20G23G30
  22450432.140   117977823.37109  22450429.800    91930775.50148
  24012641.520   126187184.62608  24012648.160    98327658.02246
  20549503.140   107988362.47809  20549506.020    84146794.63649
  20951376.320   110100263.38209  20951376.440    85792419.00748
  20845947.860   109546188.62509  20845949.520    85360670.01548
  20650581.380   108519551.54309  20650581.520    84560697.12848
  20286979.660   106608800.57509  20286978.880    83071795.08448
  22680216.000   119185299.77609  22680215.400    92871634.24146
  22339931.160   117397187.52109  22339934.720    91478358.76447
 15 02 28 10 11 30.0000000  0  9G02G03G06G07G09G10G20G23G30
  22436496.640   117904591.93209  22436494.420    91873712.06748
  24027684.740   126266236.78608  24027691.480    98389256.89746
  20552679.400   108005053.74309  20552682.340    84159800.78549
  20942718.040   110054763.51109  20942718.060    85756964.58148
  20854191.120   109589506.50209  20854192.740    85394424.16548
  20643164.520   108480575.93509  20643164.680    84530326.53548
  20282472.640   106585116.11909  20282471.920    83053339.66848
  22694105.600   119258289.80209  22694104.780    92928509.50146
  22321767.080   117301735.24808  22321770.680    91403980.42547
 15 02 28 10 12  0.0000000  0  9G02G03G06G07G09G10G20G23G30
  22422635.540   117831751.49909  22422633.420    91816953.30348
  24042757.960   126345446.55608  24042764.840    98450978.58346
  20555968.320   108022336.95309  20555971.260    84173268.18549
  20934156.180   110009770.50709  20934156.160    85721905.11048
  20862480.560   109633067.25709  20862482.180    85428367.55948
  20635800.180   108441876.30109  20635800.320    84500170.97448
  20278025.500   106561746.09109  20278024.760    83035129.23848
  22708012.080   119331368.46109  22708011.260    92985453.81546
  22303655.280   117206557.66708  22303658.940    91329816.11747
 15 02 28 10 12 30.0000000  0  9G02G03G06G07G09G10G20G23G30
  22408849.260   117759304.64509  22408847.320    91760501.22548
  24057861.180   126424813.62208  24057868.120    98512822.85545
  20559369.800   108040211.66909  20559372.700    84187196.49449
  20925691.080   109965285.90109  20925690.980    85687241.79948
  20870815.920   109676869.33909  20870817.540    85462498.99448
  20628488.660   108403453.86009  20628488.780    84470231.40948
  20273638.500   106538691.84909  20273637.700    83017164.88348
  22721935.180   119404534.46709  22721934.380    93042466.16646
  22285596.300   117111657.43109  22285600.040    91255867.92247
 15 02 28 10 13  0.0000000  0  9G02G03G06G07G09G10G20G23G30
  22395137.700   117687250.31509  22395135.860    91704355.00048
  24072993.680   126504334.66308  24073000.660    98574787.05946
  20562883.140   108058674.42509  20562886.100    84201583.01649
  20917322.340   109921307.87109  20917322.260    85652973.22248
  20879196.320   109720908.19109  20879197.900    85496814.92548
  20621229.460   108365306.50109  20621229.560    84440506.19348
  20269311.220   106515951.40009  20269310.340    82999445.03548
  22735874.140   119477783.64209  22735873.440    93099543.31846
  22267590.080   117017034.25808  22267593.840    91182135.59647
 15 02 28 10 13 30.0000000  0  9G02G03G06G07G09G10G20G23G30
  22381502.660   117615598.00909  22381500.860    91648522.04848
  24088156.780   126584016.63007  24088163.840    98636876.68646
  20566509.640   108077732.03209  20566512.700    84216433.07049
  20909051.720   109877845.26409  20909051.620    85619106.26848
  20887622.900   109765189.51409  20887624.420    85531319.81348
  20614024.160   108327442.74309  20614024.300    84411001.97248
  20265045.220   106493533.05609  20265044.300    82981976.18748
  22749830.120   119551122.04409  22749829.500    93156690.02146
  22249638.460   116922698.10608  22249642.260    91108626.93548
 15 02 28 10 14  0.0000000  0  9G02G03G06G07G09G10G20G23G30
  22367943.200   117544342.88109  22367941.520    91592998.59548
  24103348.940   126663851.66707  24103356.080    98699085.59346
  20570247.860   108097376.40509  20570250.940    84231740.34249
  20900878.000   109834891.77409  20900877.860    85585636.02248
  20896093.920   109809704.26509  20896095.420    85566006.57348
  20606871.660   108289856.41009  20606871.820    84381713.92048
  20260839.340   106471430.60509  20260838.340    82964753.48248
  22763801.520   119624541.27509  22763800.920    93213899.69246
  22231740.500   116828644.08508  22231744.380    91035338.10447
 15 02 28 10 14 30.0000000  0  9G02G03G06G07G09G10G20G23G30
  22354460.460   117473491.29809  22354458.820    91537789.58548
  24118571.060   126743843.65708  24118578.300    98761416.78846
  20574098.500   108117611.25809  20574101.540    84247507.72349
  20892802.160   109792452.88509  20892802.000    85552566.76648
  20904609.820   109854455.05109  20904611.300    85600877.26448
  20599773.080   108252552.89409  20599773.180    84352646.24948
  20256694.540   106449649.48209  20256693.540    82947781.16548
  22777788.780   119698044.13909  22777788.220    93271174.53146
  22213897.540   116734879.07608  22213901.520    90962274.47248
 15 02 28 10 15  0.0000000  0  9G02G03G06G07G09G10G20G23G30
  22341054.680   117403044.12409  22341053.080    91482895.70448
  24133822.800   126823990.71207  24133829.980    98823868.82246
  20578061.080   108138434.43909  20578064.080    84263733.54149
  20884824.180   109750528.46109  20884824.000    85519898.38448
  20913170.000   109899438.80909  20913171.460    85635929.49448
  20592728.240   108215531.77909  20592728.380    84323798.62948
  20252610.720   106428189.21209  20252609.820    82931058.86948
  22791791.380   119771627.79209  22791790.760    93328512.32946
  22196109.820   116641404.20508  22196113.800    90889436.92148
 15 02 28 10 15 30.0000000  0  9G02G03G06G07G09G10G20G23G30
  22327726.000   117333002.34409  22327724.520    91428317.69648
  24149103.680   126904291.05607  24149110.880    98886440.28646
  20582135.160   108159843.97909  20582138.180    84280416.25949
  20876944.080   109709118.50109  20876943.880    85487630.87948
  20921773.920   109944652.64009  20921775.360    85671160.99148
  20585736.980   108178792.67809  20585737.140    84295170.76848
  20248587.980   106407049.71508  20248587.160    82914586.51448
  22805809.000   119845289.98309  22805808.380    93385911.31946
  22178377.640   116548220.76208  22178381.540    90816826.43648
 15 02 28 10 16  0.0000000  0  9G02G03G06G07G09G10G20G23G30
  22314475.420   117263370.88809  22314474.000    91374059.43748
  24164414.120   126984747.21007  24164421.240    98949133.18246
  20586321.260   108181842.06209  20586324.320    84297557.58549
  20869162.640   109668226.75009  20869162.380    85455767.18048
  20930421.840   109990097.73509  20930423.240    85706572.70848
  20578800.160   108142339.55309  20578800.300    84266765.74048
  20244627.060   106386234.98508  20244626.320    82898367.23148
  22819841.880   119919032.09909  22819841.140    93443372.58346
  22160701.940   116455334.13008  22160705.820    90744447.24648
 15 02 28 10 16 30.0000000  0  9G02G03G06G07G09G10G20G23G30
  22301303.240   117194150.88009  22301301.860    91320121.77948
  24179754.020   127065357.73107  24179761.000    99011946.34946
  20590619.080   108204427.05809  20590622.140    84315156.24549
  20861479.840   109627853.63109  20861479.640    85424307.60448
  20939113.260   110035771.59509  20939114.680    85742162.67248
  20571917.900   108106172.72509  20571917.920    84238583.78848
  20240727.940   106365745.00509  20240727.240    82882400.99748
  22833889.560   119992852.34409  22833888.920    93500894.70646
  22143083.060   116362746.03808  22143086.940    90672300.68748
 15 02 28 10 17  0.0000000  0  9G02G03G06G07G09G10G20G23G30
  22288209.780   117125344.19209  22288208.280    91266506.18548
  24195123.080   127146121.42707  24195130.100    99074878.88546
  20595028.300   108227597.38709  20595031.340    84333211.00449
  20853895.780   109587999.47409  20853895.660    85393252.41448
  20947847.760   110081671.83109  20947849.220    85777929.04248
  20565090.140   108070292.35209  20565090.080    84210625.05848
  20236890.700   106345580.10708  20236890.060    82866688.07348
  22847951.660   120066748.51609  22847950.880    93558476.00846
  22125521.280   116270458.19308  22125525.180    90600388.09548
 15 02 28 10 17 30.0000000  0  9G02G03G06G07G09G10G20G23G30
  22275195.780   117056955.57009  22275194.200    91213216.35848
  24210521.660   127227041.06207  24210528.920    99137932.88045
  20599549.320   108251355.49509  20599552.360    84351723.77249
  20846411.280   109548668.42609  20846411.220    85362604.82848
  20956625.600   110127799.97009  20956627.160    85813872.99748
  20558317.660   108034702.55009  20558317.580    84182892.75148
  20233116.100   106325744.72109  20233115.580    82851231.91148
  22862028.620   120140722.50209  22862027.760    93616117.94446
  22108017.780   116178476.37209  22108021.620    90528713.95348
 15 02 28 10 18  0.0000000  0  9G02G03G06G07G09G10G20G23G30
  22262261.740   116988987.13309  22262260.160    91160253.95448
  24225949.780   127308115.62308  24225957.180    99201107.62145
  20604181.940   108275700.07509  20604185.000    84370693.53749
  20839026.420   109509861.20809  20839026.460    85332365.43348
  20965446.440   110174154.01509  20965448.020    85849992.98448
  20551600.640   107999404.18609  20551600.520    84155387.53848
  20229404.400   106306239.44609  20229403.840    82836032.98348
  22876120.000   120214772.95609  22876119.080    93673819.45546
  22090572.940   116086802.60409  22090576.620    90457279.86048
 15 02 28 10 18 30.0000000  0  9G02G03G06G07G09G10G20G23G30
  22249407.660   116921438.81509  22249406.020    91107618.91848
  24241406.980   127389342.43107  24241414.420    99264401.00346
  20608925.640   108300628.08209  20608928.700    84390117.92149
  20831741.100   109471576.79609  20831741.180    85302533.42148
  20974309.560   110220730.04409  20974311.180    85886285.96048
  20544938.780   107964395.89909  20544938.720    84128108.35848
  20225755.340   106287062.95209  20225754.680    82821090.24448
  22890225.240   120288896.25609  22890224.320    93731577.75046
  22073186.820   115995437.19408  22073190.360    90386086.05048
 15 02 28 10 19  0.0000000  0  9G02G03G06G07G09G10G20G23G30
  22236633.920   116854312.83909  22236632.240    91055312.97348
  24256892.980   127470721.26407  24256900.480    99327812.83145
  20613780.280   108326138.89009  20613783.340    84409996.42949
  20824555.580   109433816.52309  20824555.620    85273109.81848
  20983214.680   110267526.73609  20983216.320    85922750.87248
  20538332.400   107929679.08709  20538332.360    84101056.29748
  20222169.060   106268216.39209  20222168.340    82806404.59748
  22904344.180   120363091.56109  22904343.480    93789392.12646
  22055859.900   115904382.90809  22055863.340    90315134.67748
 15 02 28 10 19 30.0000000  0  9G02G03G06G07G09G10G20G23G30
  22223941.560   116787614.55509  22223939.940    91003340.29448
  24272408.360   127552254.61807  24272415.940    99391345.05145
  20618746.180   108352234.56909  20618749.240    84430330.68949
  20817470.500   109396584.14509  20817470.560    85244097.57148
  20992162.100   110314545.43009  20992163.700    85959388.77748
  20531782.260   107895257.90109  20531782.260    84074234.60148
  20218646.360   106249704.09009  20218645.580    82791979.42048
  22918477.100   120437360.48908  22918476.440    93847263.87446
  22038593.160   115813645.23309  22038596.540    90244430.02848
 15 02 28 10 20  0.0000000  0  9G02G03G06G07G09G10G20G23G30
  22211330.520   116721343.60709  22211328.960    90951700.61748
  24287952.660   127633939.94807  24287960.460    99454995.70245
  20623822.800   108378912.21109  20623825.840    84451118.42349
  20810485.720   109359878.74109  20810485.780    85215495.94648
  21001151.060   110361782.55009  21001152.680    85996196.88748
  20525288.300   107861131.47709  20525288.240    84047642.56948
  20215187.140   106231525.42709  20215186.280    82777814.22048
  22932623.500   120511699.89409  22932622.860    93905190.54846
  22021386.740   115723224.63609  22021390.040    90173972.45548
 15 02 28 10 20 30.0000000  0  9G02G03G06G07G09G10G20G23G30
  22198801.300   116655502.28509  22198799.740    90900395.70548
  24303525.820   127715776.66007  24303533.760    99518764.29445
  20629009.980   108406170.73409  20629012.940    84472358.78449
  20803601.460   109323701.13609  20803601.380    85187305.59548
  21010181.300   110409236.35109  21010182.860    86033173.84048
  20518850.600   107827300.72309  20518850.520    84021280.95048
  20211791.500   106213681.02409  20211790.640    82763909.48248
  22946783.100   120586108.59008  22946782.640    93963171.19946
  22004241.060   115633123.48408  22004244.380    90103763.80448
 15 02 28 10 21  0.0000000  0  9G02G03G06G07G09G10G20G23G30
  22186354.860   116590095.74609  22186353.180    90849429.58748
  24319128.240   127797767.35307  24319136.260    99582652.86345
  20634308.120   108434012.20609  20634311.040    84494053.39249
  20796818.420   109288055.34209  20796818.180    85159529.64848
  21019253.020   110456908.26709  21019254.640    86070320.74648
  20512469.880   107793769.69009  20512469.800    83995152.87248
  20208460.200   106196174.68509  20208459.300    82750268.16548
  22960956.140   120660588.37308  22960955.800    94021207.23646
  21987157.260   115543347.32809  21987160.540    90033808.39148
 15 02 28 10 21 30.0000000  0  9G02G03G06G07G09G10G20G23G30
  22173990.140   116525118.52809  22173988.400    90798798.00948
  24334758.460   127879903.90107  24334766.720    99646655.10646
  20639715.520   108462428.16409  20639718.500    84516195.65849
  20790135.300   109252935.03309  20790135.020    85132163.17448
  21028364.520   110504789.22009  21028366.160    86107630.55248
  20506144.880   107760531.91909  20506144.800    83969253.32548
  20205192.040   106179000.28309  20205191.080    82736885.50448
  22975141.160   120735130.48109  22975140.740    94079291.86445
  21970134.400   115453891.16409  21970137.560    89964102.33648
 15 02 28 10 22  0.0000000  0  9G02G03G06G07G09G10G20G23G30
  22161709.360   116460582.31809  22161707.580    90748510.05748
  24350418.380   127962195.52308  24350426.660    99710778.15945
  20645233.880   108491427.21009  20645236.920    84538792.27749
  20783554.080   109218350.63909  20783553.820    85105214.30148
  21037517.360   110552887.31409  21037518.920    86145109.54948
  20499877.760   107727598.19409  20499877.720    83943590.68048
  20201989.040   106162168.32609  20201988.060    82723769.68548
  22989339.640   120809743.55508  22989339.240    94137431.76946
  21953174.700   115364767.05309  21953177.700    89894655.00948
 15 02 28 10 22 30.0000000  0  9G02G03G06G07G09G10G20G23G30
  22149511.600   116396482.34909  22149509.720    90698562.05048
  24366106.340   128044634.76707  24366114.560    99775016.24446
  20650861.660   108521001.42809  20650864.780    84561837.07649
  20777073.660   109184295.91709  20777073.420    85078678.15748
  21046709.880   110601194.02309  21046711.420    86182751.11048
  20493667.280   107694962.38709  20493667.280    83918160.18548
  20198850.040   106145672.75909  20198849.000    82710915.98648
  23003550.160   120884419.88208  23003549.780    94195620.98946
  21936277.300   115275970.62409  21936280.220    89825463.02848
 15 02 28 10 23  0.0000000  0  9G02G03G06G07G09G10G20G23G30
  22137398.140   116332825.21109  22137396.220    90648959.10648
  24381823.140   128127225.67208  24381831.460    99839372.49645
  20656599.600   108551154.33009  20656602.740    84585332.80549
  20770695.120   109150776.45009  20770694.900    85052559.10248
  21055942.660   110649712.40709  21055944.180    86220557.61648
  20487514.600   107662630.38209  20487514.680    83892966.42348
  20195776.240   106129519.70809  20195775.140    82698329.19148
  23017773.300   120959162.35409  23017773.060    94253861.74446
  21919443.580   115187508.90009  21919446.460    89756531.86748
 15 02 28 10 23 30.0000000  0  9G02G03G06G07G09G10G20G23G30
  22125369.060   116269611.42609  22125367.180    90599701.62948
  24397568.460   128209966.20507  24397576.760    99903845.33646
  20662447.180   108581883.35809  20662450.280    84609277.45949
  20764418.340   109117791.75109  20764418.160    85026856.74748
  21065215.100   110698439.41109  21065216.700    86258526.67348
  20481419.680   107630601.88109  20481419.860    83868009.15248
  20192767.520   106113708.64909  20192766.360    82686008.87348
  23032008.500   121033968.53008  23032008.360    94312152.13346
  21902673.720   115099382.82509  21902676.560    89687862.24748
 15 02 28 10 24  0.0000000  0  9G02G03G06G07G09G10G20G23G30
  22113424.520   116206841.85309  22113422.560    90550790.28848
  24413341.940   128292854.52607  24413350.140    99968433.33346
  20668403.900   108613186.04809  20668407.000    84633669.12549
  20758243.260   109085341.25009  20758243.040    85001570.65348
  21074526.620   110747372.11009  21074528.360    86296656.01648
  20475382.460   107598876.51809  20475382.660    83843288.10048
  20189823.820   106098239.18309  20189822.700    82673954.73748
  23046255.440   121108836.20108  23046255.380    94370490.45546
  21885967.960   115011593.53109  21885970.780    89619455.05348
 15 02 28 10 24 30.0000000  0  9G02G03G06G07G09G10G20G23G30
  22101565.540   116144521.90409  22101563.420    90502229.30148
  24429144.080   128375893.69207  24429152.280   100033138.85845
  20674470.200   108645064.84609  20674473.400    84658509.70649
  20752170.620   109053429.04409  20752170.320    84976704.00648
  21083877.660   110796512.53509  21083879.520    86334947.23048
  20469403.880   107567458.95709  20469404.100    83818806.88848
  20186946.000   106083115.89509  20186944.900    82662170.34548
  23060514.580   121183767.67309  23060514.560    94428878.48846
  21869327.400   114924146.99809  21869330.180    89551314.93648
 15 02 28 10 25  0.0000000  0  9G02G03G06G07G09G10G20G23G30
  22089792.120   116082651.68309  22089789.860    90454018.75048
  24444974.460   128459081.09608  24444982.680   100097959.86545
  20680645.540   108677516.54309  20680648.780    84683796.70149
  20746200.180   109022054.09909  20746199.880    84952256.00149
  21093267.580   110845857.11609  21093269.560    86373397.51448
  20463483.720   107536348.27509  20463483.860    83794564.80248
  20184133.840   106068337.79209  20184132.740    82650654.93449
  23074785.280   121258759.66709  23074785.320    94487313.67346
  21852752.120   114837043.66309  21852754.920    89483442.24748
 15 02 28 10 25 30.0000000  0  9G02G03G06G07G09G10G20G23G30
  22078104.720   116021233.39309  22078102.380    90406160.35648
  24460832.900   128542416.42607  24460841.140   100162896.15046
  20686929.780   108710540.19709  20686933.000    84709529.37249
  20740332.080   108991217.41709  20740331.860    84928227.42648
  21102696.120   110895404.54609  21102698.100    86412005.87048
  20457622.200   107505545.67409  20457622.240    83770562.77148
  20181387.620   106053906.13709  20181386.480    82639409.47649
  23089067.340   121333811.70808  23089067.400    94545795.66846
  21836242.580   114750286.13609  21836245.480    89415839.01748
 15 02 28 10 26  0.0000000  0  9G02G03G06G07G09G10G20G23G30
  22066503.900   115960270.06009  22066501.340    90358656.47348
  24476719.620   128625900.19407  24476727.880   100227948.11445
  20693322.880   108744135.70709  20693326.020    84735707.64849
  20734566.740   108960920.80509  20734566.640    84904619.69548
  21112163.200   110945154.35009  21112165.180    86450771.92348
  20451819.720   107475053.28309  20451819.700    83746802.47348
  20178707.720   106039823.01309  20178706.520    82628435.60948
  23103360.840   121408923.69309  23103360.820    94604324.37146
  21819799.480   114663877.91609  21819802.500    89348507.97448
 15 02 28 10 26 30.0000000  0  9G02G03G06G07G09G10G20G23G30
  22054989.740   115899762.59709  22054987.040    90311507.81048
  24492634.280   128709530.73607  24492642.580   100293114.42445
  20699824.300   108778300.65609  20699827.440    84762329.64149
  20728904.120   108931163.98009  20728904.080    84881432.56148
  21121668.300   110995103.86409  21121670.220    86489693.59648
  20446076.300   107444871.23909  20446076.240    83723283.99948
  20176094.140   106026088.47309  20176092.940    82617733.35848
  23117665.260   121484093.31509  23117665.180    94662897.99046
  21803423.100   114577820.30209  21803426.240    89281450.12148
 15 02 28 10 27  0.0000000  0  9G02G03G06G07G09G10G20G23G30
  22043563.300   115839716.34109  22043560.580    90264718.52448
  24508577.260   128793310.68707  24508585.840   100358397.14045
  20706434.460   108813037.09209  20706437.620    84789396.94349
  20723345.040   108901950.95209  20723344.960    84858669.16848
  21131211.720   111045254.84609  21131213.620    86528772.25048
  20440392.760   107415003.77209  20440392.700    83700010.64448
  20173547.660   106012706.60409  20173546.480    82607305.92348
  23131981.120   121559322.98709  23131981.040    94721518.37846
  21787114.520   114492118.95509  21787117.800    89214669.88648
 15 02 28 10 27 30.0000000  0  9G02G03G06G07G09G10G20G23G30
  22032224.220   115780129.00309  22032221.520    90218286.85248
  24524547.760   128877235.26707  24524556.420   100423792.56245
  20713152.320   108848339.43709  20713155.500    84816905.22149
  20717888.780   108873278.14309  20717888.680    84836326.73048
  21140792.440   111095601.47309  21140794.260    86568003.36748
  20434768.480   107385447.88709  20434768.380    83676980.08648
  20171067.700   105999674.18709  20171066.540    82597150.78948
  23146307.320   121634607.10308  23146307.100    94780181.23246
  21770873.360   114406771.95309  21770876.780    89148165.75948
 15 02 28 10 28  0.0000000  0 10G02G03G05G06G07G09G10G20G23G30
  22020973.620   115721006.40409  22020970.940    90172217.29948
  24540546.460   128961308.08307  24540555.120   100489303.51045
  24675463.920   129670435.45407  24675467.320   101041908.20546
  20719978.440   108884210.64309  20719981.580    84844856.75949
  20712536.180   108845149.93809  20712536.120    84814408.64448
  21150410.940   111146146.46409  21150412.560    86607389.05048
  20429204.420   107356208.63009  20429204.340    83654196.25248
  20168655.240   105986996.34809  20168654.040    82587271.94448
  23160644.360   121709948.50208  23160644.140    94838888.69246
  21754700.880   114321785.92209  21754704.420    89081942.91148
 15 02 28 10 28 30.0000000  0 10G02G03G05G06G07G09G10G20G23G30
  22009813.720   115662360.46509  22009810.960    90126519.17548
  24556575.240   129045538.48507  24556583.980   100554937.21646
  24658330.640   129580399.86008  24658334.300   100971750.70346
  20726914.400   108920659.22509  20726917.540    84873258.20249
  20707289.280   108817577.29009  20707289.220    84792923.46449
  21160068.800   111196898.20609  21160070.280    86646935.82748
  20423702.720   107327297.08609  20423702.660    83631667.77848
  20166312.340   105974684.12309  20166311.060    82577678.00049
  23174993.940   121785356.61308  23174994.080    94897648.10646
  21738599.480   114237173.10609  21738603.060    89016010.87948
 15 02 28 10 29  0.0000000  0 10G02G03G05G06G07G09G10G20G23G30
  21998739.180   115604163.22309  21998736.440    90081170.68948
  24572628.260   129129895.75607  24572637.000   100620669.77445
  24641189.540   129490322.89007  24641192.980   100901560.88345
  20733954.280   108957653.88409  20733957.420    84902085.15549
  20702142.560   108790530.83909  20702142.420    84771848.30748
  21169759.980   111247825.15509  21169761.320    86686619.14148
  20418257.880   107298684.30909  20418257.820    83609372.10948
  20164033.440   105962708.35009  20164032.080    82568346.22648
  23189350.480   121860800.42208  23189350.700    94956435.36946
  21722563.860   114152905.85409  21722567.420    88950348.11848
 15 02 28 10 29 30.0000000  0 10G02G03G05G06G07G09G10G20G23G30
  21987755.400   115546443.56409  21987752.780    90036194.34548
  24588710.480   129214406.33807  24588719.180   100686521.80345
  24624044.980   129400232.04907  24624048.980   100831360.44645
  20741102.920   108995220.11409  20741106.080    84931357.49049
  20697101.160   108764037.71109  20697100.940    84751204.30448
  21179489.280   111298952.76109  21179490.740    86726458.78948
  20412875.200   107270398.18909  20412875.140    83587330.96348
  20161823.940   105951097.30709  20161822.460    82559298.65048
  23203718.680   121936305.61508  23203719.000    95015270.43946
  21706599.620   114069013.45609  21706603.160    88884977.44148
 15 02 28 10 30  0.0000000  0 10G02G03G05G06G07G09G10G20G23G30
  21976860.820   115489192.41109  21976858.220    89991583.07048
  24604819.620   129299058.64307  24604828.540   100752484.27445
  24606896.260   129310116.94308  24606900.300   100761140.94146
  20748358.040   109033345.60709  20748361.180    84961065.61949
  20692163.040   108738087.63409  20692162.860    84730983.46449
  21189254.380   111350268.59709  21189255.940    86766445.12348
  20407552.860   107242429.11409  20407552.800    83565536.88248
  20159681.900   105939840.75509  20159680.400    82550527.30548
  23218096.420   122011860.21109  23218096.680    95074144.03546
  21690705.100   113985487.31009  21690708.620    88819892.17948
 15 02 28 10 30 30.0000000  0  9G02G05G06G07G09G10G20G23G30
  21966056.640   115432416.34109  21966054.100    89947341.99548
  24589744.420   129219983.01808  24589748.280   100690906.80046
  20755720.200   109072033.65109  20755723.340    84991212.09149
  20687329.260   108712686.05709  20687329.160    84711190.02748
  21199055.840   111401775.91709  21199057.480    86806580.65148
  20402291.940   107214782.68009  20402291.940    83543994.20248
  20157608.400   105928944.48109  20157606.900    82542036.69848
  23232484.400   122087467.94809  23232484.720    95133059.03446
  21674881.620   113902334.46909  21674885.140    88755097.79548
 15 02 28 10 31  0.0000000  0  9G02G05G06G07G09G10G20G23G30
  21955342.740   115376114.52409  21955340.160    89903470.46148
  24572588.380   129129828.45506  24572592.260   100620656.59745
  20763188.580   109111280.17609  20763191.800    85021793.74649
  20682599.460   108687830.76609  20682599.340    84691822.26648
  21208893.000   111453470.58409  21208894.680    86846862.17348
  20397092.120   107187457.42609  20397092.140    83522701.79448
  20155603.080   105918406.77909  20155601.680    82533825.49548
  23246881.580   122163125.29308  23246882.060    95192012.66246
  21659129.120   113819554.59209  21659132.600    88690594.03548
 15 02 28 10 31 30.0000000  0  9G02G05G06G07G09G10G20G23G30
  21944719.420   115320288.62409  21944716.840    89859969.77748
  24555428.380   129039653.71508  24555431.960   100550390.65845
  20770762.900   109151083.60209  20770766.220    85052809.34349
  20677973.700   108663522.36009  20677973.560    84672880.64748
  21218765.520   111505351.00809  21218767.240    86887288.42048
  20391953.580   107160454.29709  20391953.620    83501660.39648
  20153666.200   105908228.64809  20153664.840    82525894.48448
  23261287.980   122238830.99208  23261288.540    95251003.95846
  21643448.020   113737149.89209  21643451.500    88626382.62348
 15 02 28 10 32  0.0000000  0  9G02G05G06G07G09G10G20G23G30
  21934186.480   115264937.23309  21934183.800    89816838.83348
  24538264.620   128949456.76908  24538267.960   100480107.36345
  20778442.340   109191439.17409  20778445.660    85084255.17849
  20673451.420   108639757.83609  20673451.320    84654362.83248
  21228672.540   111557412.45009  21228674.280    86927855.73148
  20386875.980   107133771.08209  20386876.000    83480868.26848
  20151797.320   105898407.71509  20151795.980    82518241.79448
  23275702.860   122314580.99909  23275703.340    95310029.79646
  21627838.180   113655119.41609  21627841.600    88562462.81148
 15 02 28 10 32 30.0000000  0  9G02G05G06G07G09G10G20G23G30
  21923745.900   115210071.07109  21923743.020    89774085.99048
  24521098.160   128859246.37907  24521101.640   100409813.68545
  20786228.240   109232354.12609  20786231.540    85116136.89549
  20669034.400   108616546.54109  20669034.400    84636276.10948
  21238615.400   111609662.21409  21238617.220    86968569.77548
  20381861.080   107107417.46309  20381861.140    83460332.97648
  20149998.240   105888953.64609  20149996.920    82510874.97548
  23290127.600   122390383.09108  23290128.040    95369096.19546
  21612301.660   113573474.20009  21612305.000    88498843.20748
 15 02 28 10 33  0.0000000  0  9G02G05G06G07G09G10G20G23G30
  21913396.600   115155684.52309  21913393.580    89731706.87348
  24503928.160   128769016.66608  24503931.400   100339504.88146
  20794118.900   109273819.56109  20794122.180    85148447.56549
  20664721.340   108593881.37409  20664721.400    84618614.94948
  21248592.380   111662091.48209  21248594.240    87009423.69348
  20376907.740   107081387.15209  20376907.740    83440049.62148
  20148267.720   105879860.03509  20148266.480    82503789.04148
  23304560.560   122466228.62909  23304560.900    95428196.46346
  21596837.520   113492209.15209  21596840.760    88435519.84048
 15 02 28 10 33 30.0000000  0  9G02G05G06G07G09G10G20G23G30
  21903139.720   115101783.92409  21903136.560    89689706.41948
  24486755.420   128678772.79607  24486758.520   100269185.06946
  20802114.880   109315838.47509  20802118.200    85181189.51249
  20660513.140   108571767.05709  20660513.120    84601383.02348
  21258604.080   111714703.36809  21258606.020    87050419.89648
  20372017.020   107055686.00309  20372017.020    83420022.74748
  20146606.900   105871132.46509  20146605.700    82496988.32848
  23319002.620   122542121.33809  23319002.880    95487333.49445
  21581447.020   113411331.09509  21581450.160    88372498.02548
 15 02 28 10 34  0.0000000  0  9G02G05G06G07G09G10G20G23G30
  21892976.380   115048375.50909  21892973.220    89648089.48248
  24469580.340   128588519.61607  24469584.240   100198858.09446
  20810216.680   109358413.70109  20810220.060    85214364.94149
  20656410.740   108550208.93909  20656410.620    84584584.49548
  21268651.080   111767500.81509  21268653.080    87091560.69448
  20367189.940   107030319.30909  20367189.900    83400256.48848
  20145016.780   105862776.29309  20145015.600    82490477.01248
  23333454.380   122618064.83008  23333454.680    95546510.08646
  21566131.400   113330846.68509  21566134.460    88309782.95148
 15 02 28 10 34 30.0000000  0  9G02G05G06G07G09G10G20G23G30
  21882905.120   114995451.15309  21882902.040    89606849.72448
  24452402.360   128498249.02708  24452406.240   100128517.48745
  20818422.260   109401534.12809  20818425.680    85247965.20049
  20652412.360   108529197.52309  20652412.260    84568211.96949
  21278731.360   111820472.86009  21278733.300    87132837.54448
  20362424.920   107005278.79909  20362424.820    83380744.40448
  20143495.740   105854782.85909  20143494.560    82484248.35148
  23347913.740   122694048.53609  23347914.160    95605717.98846
  21550889.300   113250748.68509  21550892.320    88247368.97548
 15 02 28 10 35  0.0000000  0  9G02G05G06G07G09G10G20G23G30
  21872927.000   114943016.11709  21872924.020    89565991.25548
  24435222.060   128407964.71107  24435224.880   100058166.06745
  20826731.820   109445200.96409  20826735.300    85281991.23249
  20648518.740   108508736.26209  20648518.680    84552268.14048
  21288845.240   111873620.98809  21288847.120    87174251.59948
  20357722.740   106980568.36409  20357722.600    83361489.51448
  20142044.460   105847156.15509  20142043.260    82478305.45348
  23362381.080   122770074.20408  23362381.500    95664958.61045
  21535721.680   113171042.14709  21535724.640    88185260.03748
 15 02 28 10 35 30.0000000  0  9G02G05G06G07G09G10G20G23G30
  21863042.740   114891074.28809  21863039.900    89525517.10848
  24418039.680   128317670.00708  24418042.220    99987806.69446
  20835145.640   109489415.25009  20835149.060    85316443.85949
  20644730.360   108488827.98309  20644730.360    84536755.20848
  21298992.900   111926946.40809  21298994.780    87215803.79848
  20353083.980   106956191.37409  20353083.800    83342494.44848
  20140663.640   105839899.72109  20140662.400    82472651.07848
  23376856.720   122846143.71408  23376857.100    95724233.41045
  21520629.460   113091731.99809  21520632.340    88123459.97048
 15 02 28 10 36  0.0000000  0  9G02G05G06G07G09G10G20G23G30
  21853252.240   114839625.53309  21853249.500    89485427.17048
  24400855.300   128227363.68608  24400857.440    99917438.18345
  20843662.920   109534173.41209  20843666.300    85351320.27749
  20641046.840   108469471.06009  20641046.920    84521671.90549
  21309173.640   111980445.77409  21309175.520    87257491.54948
  20348508.520   106932147.18509  20348508.300    83323758.70448
  20139353.020   105833012.54809  20139351.840    82467284.43948
  23391340.200   122922254.55808  23391340.780    95783540.37946
  21505612.720   113012818.52309  21505615.520    88061969.00048
 15 02 28 10 36 30.0000000  0  9G02G05G06G07G09G10G20G23G30
  21843556.340   114788674.13309  21843553.760    89445724.78848
  24383669.080   128137049.17207  24383671.120    99847063.32745
  20852283.820   109579476.17409  20852287.220    85386621.07049
  20637468.680   108450667.75209  20637468.720    84507019.98949
  21319387.660   112034120.16009  21319389.480    87299315.67248
  20343997.040   106908439.34209  20343996.820    83305285.05248
  20138113.300   105826497.84309  20138112.160    82462208.02648
  23405831.880   122998407.97809  23405832.400    95842880.55546
  21490672.260   112934306.35909  21490675.100    88000790.74648
 15 02 28 10 37  0.0000000  0  9G02G05G06G07G09G10G20G23G30
  21833955.880   114738224.01709  21833953.480    89406413.00748
  24366481.600   128046729.49808  24366483.920    99776684.46546
  20861008.460   109625324.12009  20861011.840    85422346.67849
  20633996.540   108432421.36509  20633996.500    84492802.03249
  21329635.080   112087970.42709  21329636.900    87341276.84348
  20339550.220   106885071.21609  20339550.020    83287076.11348
  20136945.040   105820358.87409  20136943.960    82457424.39748
  23420331.880   123074605.45908  23420332.340    95902255.03945
  21475809.020   112856199.94209  21475811.880    87939928.65348
 15 02 28 10 37 30.0000000  0  9G02G05G06G07G09G10G20G23G30
  21824450.120   114688271.43109  21824447.800    89367488.92148
  24349292.300   127956399.82907  24349294.960    99706297.79247
  20869835.440   109671709.94009  20869838.820    85458491.41349
  20630629.300   108414726.25009  20630629.240    84479013.63649
  21339914.640   112141989.59309  21339916.380    87383369.63248
  20335167.160   106862038.11409  20335166.940    83269128.22948
  20135847.460   105814591.03109  20135846.420    82452929.95448
  23434839.000   123150840.39308  23434839.460    95961658.72446
  21461022.320   112778495.92409  21461025.200    87879380.11748
 15 02 28 10 38  0.0000000  0  9G02G05G06G07G09G10G20G23G30
  21815040.180   114638822.50909  21815037.980    89328957.30148
  24332101.920   127866066.08207  24332105.040    99635907.97645
  20878765.360   109718636.51809  20878768.740    85495057.52349
  20627367.880   108397587.33309  20627367.880    84465658.63648
  21350226.960   112196180.88509  21350228.620    87425596.55148
  20330848.920   106839345.77809  20330848.740    83251445.88348
  20134821.540   105809199.98508  20134820.540    82448729.11448
  23449353.980   123227116.42808  23449354.360    96021094.43245
  21446313.500   112701201.08109  21446316.440    87819150.42148
 15 02 28 10 38 30.0000000  0  9G02G05G06G07G09G10G20G23G30
  21805725.800   114589875.49509  21805723.680    89290816.77148
  24314910.720   127775726.17108  24314913.840    99565513.28546
  20887797.220   109766098.94009  20887800.620    85532041.16349
  20624211.660   108381001.36109  20624211.680    84452734.50449
  21360571.120   112250539.83109  21360572.780    87467954.11248
  20326595.200   106816992.28409  20326595.040    83234027.56848
  20133866.920   105804183.41509  20133865.940    82444820.07448
  23463876.120   123303429.64609  23463876.500    96080559.11945
  21431682.340   112624314.36309  21431685.360    87759238.74148
 15 02 28 10 39  0.0000000  0  9G02G05G06G07G09G10G20G23G30
  21796507.600   114541433.51209  21796505.560    89253069.77748
  24297718.480   127685381.42507  24297721.840    99495114.91346
  20896930.960   109814096.68609  20896934.320    85569441.94949
  20621160.980   108364969.99709  20621160.920    84440242.52649
  21370947.160   112305066.28409  21370948.940    87510442.19848
  20322406.420   106794979.94709  20322406.260    83216875.08948
  20132983.920   105799543.35809  20132982.980    82441204.41648
  23478405.360   123379780.54508  23478405.780    96140053.16145
  21417129.500   112547839.32909  21417132.600    87699647.84948
 15 02 28 10 39 30.0000000  0  9G02G05G06G07G09G10G20G23G30
  21787385.400   114493495.70409  21787383.280    89215715.64548
  24280525.360   127595030.75108  24280528.680    99424711.89546
  20906165.680   109862625.22809  20906169.000    85607256.33849
  20618215.340   108349490.59909  20618215.160    84428180.66449
  21381354.280   112359756.21309  21381356.200    87553057.65348
  20318282.160   106773307.09809  20318282.060    83199987.15148
  20132172.240   105795278.10108  20132171.340    82437880.80848
  23492941.140   123456165.55509  23492941.680    96199573.77546
  21402654.900   112471775.35509  21402658.060    87640377.26948
 15 02 28 10 40  0.0000000  0  9G02G05G06G07G09G10G20G23G30
  21778360.300   114446067.82409  21778358.060    89178758.84948
  24263332.380   127504679.48908  24263335.200    99354308.30045
  20915501.860   109911687.05409  20915505.200    85645486.27149
  20615375.560   108334567.64909  20615375.400    84416552.38749
  21391793.040   112414612.55609  21391795.080    87595802.79048
  20314223.520   106751979.08209  20314223.500    83183367.91148
  20131432.880   105791392.75309  20131432.040    82434853.23648
  23507484.020   123532588.06708  23507484.680    96259123.59046
  21388259.780   112396128.87809  21388262.960    87581432.00348
 15 02 28 10 40 30.0000000  0  9G02G05G06G07G09G10G20G23G30
  21769433.140   114399154.76409  21769430.720    89142203.21848
  24246139.440   127414331.90807  24246142.520    99283907.72646
  20924939.840   109961283.89009  20924943.200    85684133.11049
  20612642.360   108320204.73609  20612642.260    84405360.51349
  21402263.900   112469637.56709  21402266.100    87638679.35948
  20310231.340   106731000.40809  20310231.420    83167020.89248
  20130766.660   105787891.76508  20130765.880    82432125.17548
  23522034.540   123609050.80908  23522035.100    96318704.77845
  21373945.200   112320905.56809  21373948.380    87522816.48048
 15 02 28 10 41  0.0000000  0  9G02G05G06G07G09G10G20G23G30
  21760602.400   114352748.63309  21760599.900    89106042.60348
  24228945.680   127323979.39008  24228948.780    99213503.24946
  20934477.460   110011404.19509  20934480.860    85723187.83949
  20610014.020   108306392.70309  20610013.960    84394597.89049
  21412764.760   112524820.18209  21412767.060    87681678.74248
  20306304.000   106710362.39909  20306304.140    83150939.32148
  20130171.980   105784766.59008  20130171.180    82429689.94148
  23536590.680   123685543.19408  23536591.380    96378309.06846
  21359709.760   112246097.84709  21359712.860    87464524.79848
 15 02 28 10 41 30.0000000  0  9G02G05G06G07G09G10G20G23G30
  21751869.180   114306855.28909  21751866.720    89070281.55248
  24211752.160   127233626.60708  24211754.840    99143098.50546
  20944115.120   110062050.17009  20944118.560    85762652.18349
  20607491.120   108293134.97409  20607491.080    84384267.19349
  21423296.240   112580163.22109  21423298.540    87724803.13648
  20302442.500   106690070.22409  20302442.720    83135127.23448
  20129649.700   105782022.05608  20129648.920    82427551.31448
  23551153.240   123762068.88108  23551153.980    96437939.31046
  21345554.560   112171711.93409  21345557.600    87406561.79848
 15 02 28 10 42  0.0000000  0  9G02G05G06G07G09G10G20G23G30
  21743234.460   114261479.39509  21743231.980    89034923.70648
  24194559.580   127143278.37708  24194562.560    99072697.41047
  20953853.060   110113223.26909  20953856.540    85802527.27049
  20605074.420   108280435.33209  20605074.360    84374371.37149
  21433858.660   112635668.71309  21433860.860    87768054.11048
  20298647.760   106670128.46009  20298647.960    83119588.18748
  20129200.620   105779662.25609  20129199.860    82425712.48048
  23565722.500   123838630.04708  23565723.340    96497597.18346
  21331480.660   112097753.25109  21331483.660    87348931.70148
 15 02 28 10 42 30.0000000  0  9G02G05G06G07G09G10G20G23G30
  21734698.160   114216620.97309  21734695.740    88999969.09548
  24177367.760   127052934.15708  24177370.720    99002299.38046
  20963690.660   110164920.18209  20963694.180    85842810.53249
  20602763.700   108268292.39309  20602763.620    84364909.35249
  21444451.540   112691333.92209  21444453.700    87811429.53848
  20294919.620   106650536.77109  20294919.780    83104321.93248
  20128824.700   105777686.74608  20128823.960    82424173.09648
  23580298.020   123915224.40208  23580298.880    96557280.90546
  21317488.200   112024222.48509  21317491.160    87291635.05149
 15 02 28 10 43  0.0000000  0  9G02G05G06G07G09G10G20G23G30
  21726260.500   114172280.87309  21726258.080    88965418.35348
  24160176.600   126962594.01708  24160179.380    98931904.51346
  20973627.460   110217138.30809  20973631.020    85883499.93249
  20600558.840   108256705.38909  20600558.700    84355880.52949
  21455074.360   112747156.80209  21455076.540    87854927.81948
  20291258.160   106631295.40009  20291258.280    83089328.65048
  20128521.940   105776095.91808  20128521.240    82422933.46148
  23594879.700   123991850.52509  23594880.420    96616989.40546
  21303577.400   111951120.92109  21303580.360    87234672.83948
 15 02 28 10 43 30.0000000  0  9G02G05G06G07G09G10G20G23G30
  21717921.600   114128459.69709  21717919.220    88931271.97748
  24142986.220   126872258.28607  24142989.060    98861513.11047
  20983662.920   110269874.73109  20983666.440    85924593.18749
  20598459.580   108245673.35609  20598459.440    84347284.14249
  21465726.700   112803135.31409  21465728.980    87898547.36648
  20287663.440   106612404.63809  20287663.520    83074608.56248
  20128292.340   105774889.60608  20128291.700    82421993.44348
  23609467.200   124068507.06208  23609467.800    96676721.63046
  21289748.540   111878449.85309  21289751.500    87178046.07548
 15 02 28 10 44  0.0000000  0  9G02G05G06G07G09G10G20G23G30
  21709683.400   114085167.29009  21709681.020    88897537.62648
  24125798.000   126781935.99008  24125801.320    98791132.17746
  20993798.180   110323135.57709  20993801.700    85966095.08749
  20596467.460   108235204.45109  20596467.300    84339126.56549
  21476409.960   112859276.20309  21476412.340    87942293.44648
  20284137.160   106593873.51509  20284137.180    83060168.71548
  20128137.640   105774076.62308  20128137.020    82421359.92948
  23624061.560   124145201.25408  23624062.520    96736483.14046
  21276003.520   111806219.36909  21276006.500    87121762.62748
 15 02 28 10 44 30.0000000  0  9G02G05G06G07G09G10G20G23G30
  21701543.940   114042393.77409  21701541.560    88864207.61148
  24108610.580   126691617.26707  24108613.680    98720753.97246
  21004030.800   110376907.86409  21004034.300    86007995.52149
  20594580.460   108225287.92809  20594580.200    84331399.41749
  21487121.800   112915567.17309  21487124.280    87986156.47648
  20280677.340   106575692.09909  20280677.360    83046001.37648
  20128055.940   105773647.14808  20128055.300    82421025.24848
  23638660.820   124221921.43308  23638662.080    96796264.89646
  21262340.620   111734420.45309  21262343.620    87065815.47249
 15 02 28 10 45  0.0000000  0  9G02G05G06G07G09G10G20G23G30
  21693504.220   114000144.35309  21693501.780    88831285.97848
  24091424.980   126601306.87608  24091428.440    98650382.34346
  21014361.020   110431193.26809  21014364.540    86050295.77549
  20592799.140   108215926.81809  20592798.800    84324105.06049
  21497862.660   112972010.66809  21497865.180    88030138.34548
  20277284.880   106557864.78809  20277284.940    83032109.95048
  20128048.000   105773605.35708  20128047.360    82420992.65548
  23653265.700   124298670.12508  23653266.980    96856068.92045
  21248760.920   111663058.82709  21248763.900    87010209.05348
 15 02 28 10 45 30.0000000  0  9G02G05G06G07G09G10G20G23G30
  21685564.440   113958419.93109  21685561.900    88798773.43348
  24074241.240   126511004.93008  24074244.460    98580017.26446
  21024788.360   110485989.08409  21024791.900    86092993.75649
  20591123.340   108207120.74209  20591123.020    84317243.19149
  21508632.220   113028604.75209  21508634.820    88074237.56348
  20273959.900   106540392.09409  20273960.040    83018494.85448
  20128113.920   105773951.54008  20128113.260    82421262.38248
  23667875.760   124375445.89108  23667877.080    96915894.00846
  21235264.700   111592135.78809  21235267.640    86954944.38748
 15 02 28 10 46  0.0000000  0  9G02G05G06G07G09G10G20G23G30
  21677725.060   113917223.51709  21677722.460    88766672.32548
  24057059.780   126420714.77108  24057062.500    98509661.35347
  21035312.800   110541295.17909  21035316.340    86136089.35949
  20589553.460   108198871.21209  20589553.220    84310814.99749
  21519430.580   113085350.09409  21519433.040    88118454.64348
  20270703.000   106523277.25609  20270703.240    83005158.60848
  20128254.160   105774688.20409  20128253.460    82421836.37748
  23682491.180   124452250.25008  23682492.540    96975741.36245
  21221852.660   111521655.25209  21221855.600    86900024.53648
 15 02 28 10 46 30.0000000  0  9G02G05G06G07G09G10G20G23G30
  21669986.200   113876555.35709  21669983.520    88734982.84248
  24039880.620   126330436.02308  24039883.120    98439314.35546
  21045933.760   110597108.09909  21045937.240    86179579.88349
  20588089.260   108191176.71009  20588089.040    84304819.29049
  21530257.280   113142244.06109  21530259.620    88162787.53748
  20267514.140   106506519.78309  20267514.460    82992100.81748
  20128468.720   105775815.10209  20128467.980    82422714.44848
  23697111.660   124529080.94408  23697112.980    97035609.26545
  21208524.960   111451617.80809  21208527.880    86845449.94548
 15 02 28 10 47  0.0000000  0  9G02G05G06G07G09G10G20G23G30
  21662349.280   113836423.04809  21662346.560    88703710.90848
  24022704.480   126240175.99908  24022707.060    98368981.95546
  21056651.960   110653432.09409  21056655.420    86223468.65349
  20586731.920   108184043.54809  20586731.680    84299260.98449
  21541113.200   113199291.74309  21541115.360    88207240.20548
  20264394.640   106490127.03609  20264395.100    82979327.24648
  20128758.860   105777339.33609  20128758.080    82423902.13248
  23711738.200   124605943.63908  23711739.620    97095502.11545
  21195283.100   111382031.74809  21195286.080    86791227.07848
 15 02 28 10 47 30.0000000  0  9G02G05G06G07G09G10G20G23G30
  21654813.360   113796821.50009  21654810.580    88672852.54148
  24005530.900   126149929.08108  24005533.520    98298659.80646
  21067465.780   110710258.47709  21067469.200    86267748.88849
  20585480.060   108177464.84009  20585479.780    84294134.71649
  21551996.820   113256485.35809  21551999.000    88251806.58648
  20261343.580   106474093.53909  20261344.040    82966833.58748
  20129123.500   105779255.18209  20129122.680    82425394.96548
  23726369.360   124682830.97708  23726371.000    97155414.11845
  21182126.280   111312892.40709  21182129.300    86737352.30648
 15 02 28 10 48  0.0000000  0  9G02G05G06G07G09G10G20G23G30
  21647378.700   113757752.30809  21647375.920    88642409.00348
  23988360.220   126059696.92908  23988362.880    98228349.06346
  21078374.840   110767585.59809  21078378.280    86312419.30249
  20584333.760   108171440.94109  20584333.440    84289440.76249
  21562908.080   113313824.11909  21562910.380    88296486.06748
  20258361.200   106458420.59109  20258361.580    82954620.88848
  20129562.860   105781563.78509  20129562.080    82427193.84648
  23741005.340   124759742.76708  23741007.100    97215345.21345
  21169054.920   111244202.21209  21169058.000    86683827.51349
 15 02 28 10 48 30.0000000  0  9G02G05G06G07G09G10G20G23G30
  21640045.980   113719218.72509  21640043.320    88612382.81648
  23971192.920   125969482.16408  23971195.520    98158051.94647
  21089379.040   110825412.96509  21089382.560    86357479.51649
  20583293.300   108165973.18409  20583292.960    84285180.16449
  21573847.000   113371308.57908  21573849.500    88341279.07048
  20255448.000   106443111.04309  20255448.260    82942691.34648
  20130077.460   105784267.89509  20130076.720    82429300.90348
  23755646.140   124836679.62608  23755647.860    97275295.84245
  21156069.740   111175964.74909  21156072.840    86630655.49349
 15 02 28 10 49  0.0000000  0  9G02G05G06G07G09G10G20G23G30
  21632815.460   113681222.28109  21632812.900    88582775.18848
  23954029.380   125879286.85008  23954031.560    98087769.91246
  21100478.100   110883739.02909  21100481.720    86402928.32849
  20582358.680   108161061.84609  20582358.340    84281353.13449
  21584813.520   113428938.07309  21584816.200    88386185.10648
  20252604.200   106428166.37909  20252604.400    82931046.13648
  20130667.540   105787368.45809  20130666.800    82431716.89148
  23770291.800   124913642.00408  23770293.320    97335266.34645
  21143171.160   111108182.47709  21143174.240    86577838.17549
 15 02 28 10 49 30.0000000  0  9G02G05G06G07G09G10G20G23G30
  21625686.780   113643761.04309  21625684.360    88553584.60548
  23936869.120   125789108.57608  23936871.040    98017501.18847
  21111670.980   110942558.17909  21111674.700    86448761.36649
  20581529.160   108156703.19109  20581528.900    84277956.76949
  21595806.820   113486707.92309  21595809.580    88431200.51248
  20249829.440   106413584.38409  20249829.540    82919683.52648
  20131332.520   105790862.77308  20131331.760    82434439.70548
  23784941.540   124990625.63008  23784942.940    97395253.41545
  21130358.920   111040853.87209  21130362.000    86525374.36649
 15 02 28 10 50  0.0000000  0  9G02G05G06G07G09G10G20G23G30
  21618661.240   113606841.64909  21618658.960    88524816.23248
  23919713.300   125698954.14908  23919715.300    97947251.02846
  21122958.340   111001873.78509  21122962.160    86494981.24549
  20580805.840   108152902.54709  20580805.680    84274995.21449
  21606827.680   113544622.54209  21606830.380    88476328.71748
  20247124.860   106399371.31309  20247124.940    82908608.39648
  20132073.640   105794757.42408  20132072.900    82437474.46248
  23799596.200   125067635.38408  23799597.780    97455260.82345
  21117634.440   110973986.33609  21117637.480    86473269.82149
 15 02 28 10 50 30.0000000  0  9G02G05G06G07G09G10G20G23G30
  21611738.940   113570464.56209  21611736.700    88496470.43248
  23902561.600   125608823.40407  23902564.100    97877019.38347
  21134339.600   111061682.72509  21134343.500    86541585.53748
  20580188.540   108149658.69009  20580188.400    84272467.50649
  21617875.700   113602679.85109  21617878.240    88521568.10948
  20244490.480   106385527.31009  20244490.520    82897820.84148
  20132890.840   105799052.03909  20132890.160    82440820.87648
  23814255.520   125144669.66408  23814257.200    97515287.34245
  21104997.900   110907580.83909  21105000.860    86421525.29848
 15 02 28 10 51  0.0000000  0  9G02G05G06G07G09G10G20G23G30
  21604918.880   113534625.10509  21604916.720    88468543.57648
  23885413.880   125518711.95308  23885416.500    97806802.67647
  21145813.200   111121976.80609  21145817.140    86588567.86749
  20579676.000   108146965.29209  20579675.860    84270368.73249
  21628949.480   113660872.70809  21628952.020    88566913.12748
  20241925.420   106372047.62209  20241925.420    82887317.17548
  20133783.200   105803741.58208  20133782.560    82444475.03548
  23828918.260   125221721.67108  23828919.840    97575327.69345
  21092448.480   110841633.24709  21092451.400    86370137.59749
 15 02 28 10 51 30.0000000  0  9G02G05G06G07G09G10G20G23G30
  21598202.800   113499331.94509  21598200.660    88441042.40248
  23868271.360   125428628.25408  23868274.200    97736607.68447
  21157380.140   111182761.46509  21157384.100    86635932.45749
  20579269.660   108144829.68309  20579269.520    84268704.59849
  21640050.300   113719207.61409  21640052.920    88612368.84248
  20239431.280   106358940.67209  20239431.240    82877103.94748
  20134752.360   105808834.69209  20134751.740    82448443.66548
  23843585.760   125298798.55108  23843587.120    97635387.44245
  21079988.040   110776153.08009  21079990.900    86319114.11649
 15 02 28 10 52  0.0000000  0  9G02G05G06G07G09G10G20G23G30
  21591589.880   113464580.68709  21591587.640    88413963.48348
  23851133.380   125338568.15808  23851136.180    97666431.02947
  21169038.940   111244028.70409  21169042.920    86683673.08749
  20578968.280   108143245.69709  20578968.220    84267470.29749
  21651176.800   113777677.70509  21651179.540    88657929.87548
  20237007.140   106346201.80409  20237007.060    82867177.54248
  20135797.380   105814326.16709  20135796.760    82452722.70048
  23858256.680   125375893.89208  23858258.020    97695461.53345
  21067615.780   110711136.36509  21067618.620    86268451.76649
 15 02 28 10 52 30.0000000  0  9G02G05G06G07G09G10G20G23G30
  21585081.380   113430378.39909  21585079.080    88387312.33648
  23834001.520   125248538.67208  23834003.760    97596278.19346
  21180790.280   111305782.23709  21180794.300    86731792.64149
  20578772.960   108142219.08609  20578772.960    84266670.31849
  21662330.060   113836287.80909  21662332.760    88703600.03148
  20234654.380   106333837.89909  20234654.200    82857543.31648
  20136919.440   105820222.41108  20136918.800    82457317.13948
  23872931.960   125453013.10808  23872933.620    97755554.21445
  21055333.180   110646590.90809  21055335.960    86218156.63349
 15 02 28 10 53  0.0000000  0  9G02G05G06G07G09G10G20G23G30
  21578676.420   113396719.97609  21578673.960    88361084.98048
  23816874.460   125158534.85708  23816876.560    97526145.38547
  21192632.540   111368013.58609  21192636.620    86780284.52749
  20578682.380   108141743.01209  20578682.340    84266299.33749
  21673508.580   113895030.62409  21673511.080    88749373.59548
  20232372.060   106321843.96609  20232371.820    82848197.38848
  20138117.540   105826518.17008  20138116.840    82462222.90548
  23887610.680   125530149.51708  23887612.380    97815660.34045
  21043139.460   110582512.34809  21043142.160    86168225.32148
 15 02 28 10 53 30.0000000  0  9G02G05G06G07G09G10G20G23G30
  21572376.080   113363611.55009  21572373.500    88335286.19948
  23799753.200   125068562.31208  23799755.420    97456036.98047
  21204566.260   111430725.37109  21204570.360    86829150.77649
  20578697.440   108141822.02109  20578697.300    84266360.88649
  21684713.040   113953909.88409  21684715.320    88795253.47648
  20230161.260   106310225.89209  20230161.080    82839144.33348
  20139392.740   105833219.24108  20139392.000    82467444.49848
  23902293.520   125607307.19308  23902294.840    97875783.03945
  21031035.820   110518907.28309  21031038.460    86118662.96349
 15 02 28 10 54  0.0000000  0  9G02G05G06G07G09G10G20G23G30
  21566180.580   113331053.85909  21566177.940    88309916.55148
  23782638.060   124978622.40608  23782640.040    97385953.95747
  21216590.920   111493914.92409  21216595.020    86878389.30849
  20578818.040   108142455.36109  20578817.800    84266854.37749
  21695943.180   114012924.18709  21695945.440    88841238.57448
  20228022.080   106298984.21209  20228021.920    82830384.57548
  20140745.140   105840326.05408  20140744.400    82472982.24048
  23916980.060   125684485.24508  23916981.520    97935921.58845
  21019022.520   110455777.14609  21019025.160    86069470.68449
 15 02 28 10 54 30.0000000  0  9G02G05G06G07G09G10G20G23G30
  21560089.780   113299046.16609  21560087.060    88284975.48148
  23765529.000   124888715.31008  23765531.320    97315896.56247
  21228705.840   111557578.53509  21228709.860    86927997.24848
  20579043.680   108143640.77309  20579043.380    84267778.06149
  21707198.560   114072071.00909  21707200.800    88887326.95748
  20225954.400   106288118.36009  20225954.220    82821917.67448
  20142174.580   105847837.63609  20142173.840    82478835.40648
  23931670.160   125761681.67608  23931672.000    97996074.45545
  21007099.680   110393122.32309  21007102.320    86020648.78049
 15 02 28 10 55  0.0000000  0  9G02G05G06G07G09G10G20G23G30
  21554103.400   113267587.19309  21554100.640    88260461.97848
  23748426.020   124798838.83008  23748428.280    97245862.97047
  21240909.940   111621711.08809  21240913.960    86977970.58848
  20579373.780   108145375.39709  20579373.500    84269129.69349
  21718478.340   114131346.49809  21718480.580    88933515.58048
  20223957.920   106277626.87609  20223957.740    82813742.48848
  20143680.680   105855752.04209  20143679.940    82485002.46048
  23946363.320   125838893.26908  23946365.260    98056239.12845
  20995267.100   110330941.78509  20995269.780    85972196.44349
 15 02 28 10 55 30.0000000  0  9G02G05G06G07G09G10G20G23G30
  21548221.980   113236679.77009  21548219.160    88236378.25148
  23731329.640   124708996.32908  23731331.960    97175855.87147
  21253203.100   111686311.63109  21253207.120    87028308.59748
  20579808.520   108147659.96909  20579808.200    84270909.86949
  21729782.640   114190750.98709  21729784.940    88979804.73248
  20222033.120   106267512.01209  20222032.960    82805860.78548
  20145263.840   105864071.30009  20145263.040    82491484.97548
  23961059.580   125916120.75008  23961061.300    98116416.22445
  20983525.340   110269238.60109  20983528.060    85924116.07749
 15 02 28 10 56  0.0000000  0  9G02G05G06G07G09G10G20G23G30
  21542446.380   113206328.56409  21542443.560    88212727.94248
  23714240.760   124619192.96808  23714243.060    97105879.30247
  21265585.560   111751381.87109  21265589.640    87079012.59748
  20580348.620   108150498.15309  20580348.260    84273121.42649
  21741112.060   114250287.49109  21741114.380    89026196.74348
  20220180.960   106257778.76709  20220180.800    82798276.43148
  20146924.940   105872800.11609  20146924.120    82498286.62448
  23975759.340   125993367.64808  23975760.740    98176608.42244
  20971875.520   110208018.59609  20971878.260    85876412.21248
 15 02 28 10 56 30.0000000  0  9G02G05G06G07G09G10G20G23G30
  21536776.740   113176534.32609  21536774.000    88189511.63248
  23697159.440   124529429.67608  23697161.220    97035933.89446
  21278056.960   111816919.36009  21278061.040    87130080.68648
  20580993.900   108153889.29009  20580993.580    84275763.85949
  21752466.420   114309954.84309  21752468.720    89072690.71047
  20218401.540   106248427.84409  20218401.380    82790989.99648
  20148664.120   105881939.26109  20148663.280    82505408.00948
  23990462.560   126070633.22008  23990464.000    98236815.18145
  20960317.960   110147283.32909  20960320.660    85829086.07148
 15 02 28 10 57  0.0000000  0  9G02G05G06G07G09G10G20G23G30
  21531212.700   113147295.13509  21531210.040    88166727.83548
  23680085.300   124439704.90108  23680087.240    96966018.58547
  21290616.240   111882918.58509  21290620.340    87181508.57849
  20581743.660   108157829.46609  20581743.420    84278834.12049
  21763844.920   114369748.91509  21763847.300    89119283.41548
  20216694.580   106239457.38009  20216694.380    82784000.02448
  20150480.900   105891486.26309  20150480.060    82512847.21249
  24005168.780   126147913.99308  24005170.560    98297033.76846
  20948852.340   110087031.40709  20948855.000    85782136.56349
 15 02 28 10 57 30.0000000  0  9G02G05G06G07G09G10G20G23G30
  21525754.440   113118611.68609  21525751.860    88144377.07448
  23663018.500   124350019.51508  23663020.600    96896133.93047
  21303262.920   111949376.91709  21303267.020    87233294.21748
  20582597.800   108162318.00509  20582597.620    84282331.67849
  21775247.280   114429668.44209  21775249.800    89165973.87248
  20215060.100   106230868.00409  20215059.860    82777306.99748
  20152375.340   105901441.56209  20152374.520    82520604.56248
  24019877.800   126225209.05308  24019879.580    98357263.47745
  20937478.980   110027264.20509  20937481.600    85735564.75348
 15 02 28 10 58  0.0000000  0  9G02G05G06G07G09G10G20G23G30
  21520402.360   113090486.47809  21520399.920    88122461.31848
  23645959.840   124260376.48708  23645962.020    96826282.30847
  21315996.780   112016293.50609  21316000.900    87285436.93648
  20583556.500   108167355.84209  20583556.280    84286257.25349
  21786673.600   114489713.89909  21786676.160    89212762.46048
  20213498.640   106222662.25809  20213498.300    82770912.89748
  20154347.840   105911807.11209  20154347.040    82528681.59148
  24034589.640   126302519.49808  24034591.420    98417505.13845
  20926198.540   109967984.96609  20926201.060    85689373.17848
 15 02 28 10 58 30.0000000  0  9G02G05G06G07G09G10G20G23G30
  21515156.700   113062920.62509  21515154.380    88100981.42048
  23628909.820   124170777.10708  23628911.760    96756464.65748
  21328817.420   112083666.08509  21328821.560    87337934.97649
  20584619.580   108172942.26209  20584619.300    84290610.31449
  21798123.700   114549884.50208  21798126.300    89259648.55848
  20212010.360   106214841.22309  20212009.920    82764818.57848
  20156398.640   105922584.13309  20156397.860    82537079.24149
  24049304.360   126379845.16708  24049305.900    98477758.68345
  20915011.280   109909195.45509  20915013.760    85643563.21649
 15 02 28 10 59  0.0000000  0  9G02G05G06G07G09G10G20G23G30
  21510017.220   113035912.96909  21510015.020    88079936.47548
  23611868.020   124081220.71709  23611869.720    96686680.50147
  21341723.920   112151490.13709  21341728.140    87390784.81348
  20585786.600   108179074.95209  20585786.320    84295389.02949
  21809597.040   114610177.14208  21809599.760    89306629.75647
  20210595.120   106207403.87409  20210594.600    82759023.23348
  20158527.460   105933771.18909  20158526.740    82545796.39748
  24064021.520   126457183.22208  24064023.040    98538021.95745
  20903917.120   109850895.24809  20903919.580    85598134.52348
 15 02 28 10 59 30.0000000  0 10G02G05G06G07G09G10G13G20G23G30
  21504984.380   113009465.79409  21504982.380    88059328.26548
  23594834.900   123991710.61008  23594836.720    96616932.44847
  21354716.140   112219764.50609  21354720.400    87443985.54048
  20587057.720   108185754.35709  20587057.420    84300593.75249
  21821093.620   114670592.12808  21821096.240    89353706.27048
  20209253.260   106200352.31809  20209252.760    82753528.50248
  24774729.420   130192076.87308  24774733.820   101448377.33344
  20160734.640   105945370.12709  20160734.000    82554834.49448
  24078741.280   126534534.55108  24078742.960    98598295.53346
  20892916.560   109793087.18909  20892919.060    85553089.31248
 15 02 28 11 00  0.0000000  0 10G02G05G06G07G09G10G13G20G23G30
  21500058.520   112983580.60109  21500056.660    88039157.97848
  23577810.700   123902247.96608  23577812.460    96547221.35047
  21367793.720   112288487.35609  21367798.000    87497535.74348
  20588432.920   108192980.70309  20588432.580    84306224.67549
  21832613.420   114731129.10108  21832616.200    89400877.85648
  20207985.120   106193688.25509  20207984.680    82748335.71948
  24758983.600   130109332.27007  24758988.300   101383901.02444
  20163020.420   105957381.95309  20163019.820    82564194.33448
  24093463.360   126611899.40908  24093465.360    98658579.57845
  20882010.020   109735773.49409  20882012.640    85508429.33748
 15 02 28 11 00 30.0000000  0 10G02G05G06G07G09G10G13G20G23G30
  21495240.680   112958262.69409  21495238.760    88019429.71048
  23560796.420   123812839.27908  23560798.460    96477552.32347
  21380957.040   112357660.84609  21380961.360    87551437.09148
  20589912.800   108200757.32009  20589912.400    84312284.37748
  21844157.140   114791791.79908  21844160.140    89448147.38647
  20206791.740   106187417.20009  20206791.340    82743449.17548
  24743261.280   130026710.60508  24743266.020   101319520.52944
  20165385.840   105969812.13509  20165385.260    82573880.16848
  24108188.700   126689281.90008  24108191.080    98718877.35145
  20871198.760   109678960.42009  20871201.440    85464159.44248
 15 02 28 11 01  0.0000000  0 10G02G05G06G07G09G10G13G20G23G30
  21490529.660   112933505.91209  21490527.680    88000138.68848
  23543791.340   123723478.77508  23543793.640    96407920.80947
  21394204.300   112427275.46509  21394208.680    87605682.16448
  20591495.900   108209076.58509  20591495.500    84318766.91549
  21855723.320   114852572.09908  21855726.380    89495508.56247
  20205672.040   106181533.14009  20205671.620    82738864.17448
  24727560.940   129944205.07708  24727565.720   101255230.49544
  20167829.660   105982654.12309  20167829.020    82583886.88049
  24122916.140   126766674.17708  24122918.020    98779182.88044
  20860481.700   109622642.42509  20860484.380    85420275.32149
 15 02 28 11 01 30.0000000  0 10G02G05G06G07G09G10G13G20G23G30
  21485926.180   112909313.92009  21485924.040    87981287.75748
  23526796.500   123634170.50108  23526798.780    96338330.00547
  21407535.560   112497331.32809  21407539.940    87660271.07148
  20593182.680   108217940.61309  20593182.280    84325673.95249
  21867312.240   114913471.73309  21867315.220    89542962.74048
  20204626.580   106176039.36309  20204626.240    82734583.29948
  24711883.180   129861818.22608  24711887.880   101191032.97344
  20170352.480   105995911.26109  20170351.780    82594217.09549
  24137645.980   126844078.75508  24137647.720    98839497.97845
  20849859.700   109566823.70909  20849862.320    85376780.25748
 15 02 28 11 02  0.0000000  0 10G02G05G06G07G09G10G13G20G23G30
  21481430.020   112885685.68309  21481427.720    87962876.11748
  23509811.760   123544914.74608  23509813.480    96268780.08447
  21420950.040   112567824.40309  21420954.400    87715200.66148
  20594972.660   108227347.11609  20594972.320    84333003.69349
  21878923.420   114974488.24408  21878926.240    89590507.98048
  20203655.320   106170935.49409  20203655.060    82730606.23348
  24696227.820   129779549.03208  24696232.420   101126927.09244
  20172954.140   106009582.75909  20172953.420    82604870.18249
  24152377.720   126921493.96208  24152379.800    98899821.24545
  20839332.720   109511504.21909  20839335.340    85333674.18548
 15 02 28 11 02 30.0000000  0 10G02G05G06G07G09G10G13G20G23G30
  21477041.960   112862625.66509  21477039.520    87944907.24748
  23492837.980   123455716.06308  23492839.480    96199274.63947
  21434447.960   112638755.81809  21434452.260    87770471.81848
  20596866.380   108237298.79309  20596866.080    84340758.24349
  21890557.400   115035624.30409  21890560.160    89638146.38648
  20202759.080   106166225.93609  20202758.840    82726936.44048
  24680595.620   129697401.38808  24680599.920   101062915.96244
  20175635.380   106023672.54909  20175634.660    82615849.21549
  24167111.920   126998922.47108  24167114.480    98960154.84845
  20828901.760   109456689.14109  20828904.340    85290961.16048
 15 02 28 11 03  0.0000000  0 10G02G05G06G07G09G10G13G20G23G30
  21472761.140   112840129.29509  21472758.600    87927377.57948
  23475873.960   123366570.37108  23475875.780    96129810.55747
  21448027.780   112710117.53109  21448032.040    87826078.27648
  20598862.660   108247789.35409  20598862.380    84348932.70349
  21902212.920   115096873.50009  21902215.720    89685872.94948
  20201937.100   106161906.42609  20201936.840    82723570.57148
  24664985.660   129615369.78508  24664989.920   100998995.23744
  20178395.360   106038175.88009  20178394.600    82627150.49349
  24181847.700   127076358.38808  24181850.460    99020494.30245
  20818566.000   109402374.45009  20818568.600    85248638.05348
 15 02 28 11 03 30.0000000  0 10G02G05G06G07G09G10G13G20G23G30
  21468588.580   112818201.91809  21468585.900    87910291.29148
  23458921.220   123277484.02308  23458923.120    96060392.65747
  21461689.900   112781911.78109  21461694.120    87882021.76948
  20600962.300   108258822.89509  20600962.020    84357530.25749
  21913890.680   115158239.74209  21913893.460    89733690.70548
  20201190.440   106157982.69809  20201190.200    82720513.09948
  24649398.680   129533459.42607  24649402.840   100935168.99045
  20181235.040   106053098.19109  20181234.260    82638778.23749
  24196585.820   127153806.27308  24196588.240    99080843.15644
  20808326.600   109348566.39509  20808329.240    85206709.71848
 15 02 28 11 04  0.0000000  0 10G02G05G06G07G09G10G13G20G23G30
  21464524.280   112796843.69909  21464521.560    87893648.49748
  23441980.060   123188457.82308  23441981.960    95991021.64047
  21475433.660   112854135.22509  21475437.820    87938299.69048
  20603164.960   108270397.80409  20603164.680    84366549.65249
  21925590.300   115219721.32409  21925593.000    89781598.34748
  20200519.040   106154454.49409  20200518.840    82717763.82848
  24633834.640   129451669.76808  24633838.700   100871436.80944
  20184154.360   106068439.18509  20184153.580    82650732.23649
  24211325.800   127231265.06507  24211328.100    99141200.46644
  20798183.760   109295265.65009  20798186.440    85165176.68948
 15 02 28 11 04 30.0000000  0 10G02G05G06G07G09G10G13G20G23G30
  21460568.180   112776054.32409  21460565.500    87877448.95948
  23425050.440   123099492.25608  23425052.420    95921697.87947
  21489258.460   112926784.56409  21489262.600    87994909.48748
  20605470.340   108282512.47409  20605470.040    84375989.63849
  21937311.580   115281316.58209  21937314.260    89829594.57147
  20199922.920   106151321.94909  20199922.740    82715322.87048
  24618293.380   129370000.10808  24618297.540   100807798.16044
  20187153.320   106084198.62909  20187152.500    82663012.30248
  24226067.560   127308733.57108  24226070.300    99201565.26545
  20788137.620   109242472.91209  20788140.360    85124039.50548
 15 02 28 11 05  0.0000000  0 10G02G05G06G07G09G10G13G20G23G30
  21456720.220   112755833.48109  21456717.640    87861692.43548
  23408132.660   123010588.53809  23408134.540    95852422.31047
  21503163.680   112999856.45509  21503167.780    88051848.54348
  20607878.160   108295165.43809  20607877.800    84385849.07249
  21949054.140   115343023.86308  21949056.880    89877678.08248
  20199402.160   106148585.44409  20199401.960    82713190.51048
  24602774.840   129288449.76108  24602779.060   100744252.46844
  20190231.800   106100376.24009  20190230.980    82675618.20449
  24240811.060   127386210.17208  24240814.120    99261936.41246
  20778188.300   109190188.81409  20778191.060    85083298.66848
 15 02 28 11 05 30.0000000  0 10G02G05G06G07G09G10G13G20G23G30
  21452980.940   112736183.87609  21452978.500    87846381.02848
  23391227.100   122921749.30508  23391228.760    95783196.95647
  21517149.060   113073349.82109  21517153.220    88109116.01448
  20610388.400   108308356.70209  20610388.020    84396127.95749
  21960818.020   115404843.84008  21960820.920    89925849.41348
  20198957.220   106146247.34709  20198957.080    82711368.59648
  24587279.340   129207020.81408  24587283.520   100680801.38144
  20193390.260   106116974.19909  20193389.480    82688551.64949
  24255556.320   127463696.23808  24255559.620    99322314.91245
  20768336.320   109138416.28409  20768339.100    85042956.45448
 15 02 28 11 06  0.0000000  0 10G02G05G06G07G09G10G13G20G23G30
  21449350.520   112717106.38409  21449348.240    87831515.41748
  23374334.180   122832976.61308  23374336.020    95714023.49947
  21531214.260   113147262.67009  21531218.440    88166710.35648
  20613001.060   108322086.31709  20613000.720    84406826.33849
  21972603.300   115466776.23309  21972606.360    89974108.33047
  20198588.380   106144309.13509  20198588.340    82709858.27448
  24571807.120   129125713.96408  24571811.060   100617445.43744
  20196628.920   106133993.60809  20196628.200    82701813.49449
  24270303.360   127541192.25908  24270306.740    99382701.14645
  20758582.080   109087157.31409  20758584.860    85003014.40948
 15 02 28 11 06 30.0000000  0 10G02G05G06G07G09G10G13G20G23G30
  21445828.460   112698598.32509  21445826.320    87817093.53548
  23357453.440   122744268.86908  23357455.500    95644900.64547
  21545358.160   113221589.15009  21545362.380    88224627.00448
  20615715.360   108336349.95509  20615715.040    84417940.83649
  21984409.240   115528816.91908  21984412.380    90022451.63447
  20198295.160   106142768.32509  20198295.200    82708657.62248
  24556357.640   129044525.97308  24556361.400   100554182.10944
  20199947.300   106151431.74709  20199946.660    82715401.62649
  24285051.640   127618694.37608  24285055.040    99443092.24645
  20748925.220   109036410.01009  20748927.960    84963471.05948
 15 02 28 11 07  0.0000000  0 10G02G05G06G07G09G10G13G20G23G30
  21442415.440   112680663.02809  21442413.380    87803117.94848
  23340585.860   122655630.11808  23340588.120    95575831.56447
  21559580.760   113296329.19209  21559585.040    88282865.91648
  20618531.620   108351149.40909  20618531.300    84429472.86249
  21996236.080   115590967.61608  21996239.260    90070880.66147
  20198078.200   106141628.34209  20198078.340    82707769.30648
  24540931.260   128963459.58908  24540935.080   100491013.55744
  20203345.980   106169291.92109  20203345.420    82729318.62149
  24299801.740   127696204.86908  24299805.020    99503489.84145
  20739366.460   108986178.26109  20739369.180    84924329.45648
 15 02 28 11 07 30.0000000  0 10G02G05G06G07G09G10G13G20G23G30
  21439111.120   112663298.78009  21439109.080    87789587.34148
  23323731.340   122567059.77708  23323733.700    95506815.78148
  21573881.140   113371477.89909  21573885.440    88341423.26448
  20621449.180   108366481.36909  20621448.860    84441419.82049
  22008083.300   115653225.22008  22008086.620    90119392.98748
  20197937.300   106140887.78109  20197937.440    82707192.21548
  24525527.520   128882513.02508  24525531.260   100427938.36544
  20206824.560   106187571.91409  20206824.040    82743562.73349
  24314552.860   127773721.08807  24314556.100    99563891.84645
  20729905.660   108936461.16409  20729908.300    84885588.87448
 15 02 28 11 08  0.0000000  0 10G02G05G06G07G09G10G13G20G23G30
  21435917.220   112646514.69609  21435915.200    87776508.81848
  23306892.020   122478568.09008  23306894.140    95437861.24747
  21588260.460   113447041.34209  21588264.760    88400303.79548
  20624469.520   108382353.69209  20624469.300    84453787.85348
  22019952.460   115715597.62408  22019955.880    90167994.77148
  20197874.280   106140556.48809  20197874.400    82706934.04448
  24510148.240   128801694.98608  24510152.260   100364963.34044
  20210384.780   106206281.04909  20210384.260    82758141.24748
  24329306.240   127851251.58507  24329309.660    99624304.89644
  20720544.700   108887268.74309  20720547.260    84847257.13548
 15 02 28 11 08 30.0000000  0 10G02G05G06G07G09G10G13G20G23G30
  21432831.160   112630297.24709  21432829.140    87763871.81348
  23290065.220   122390142.39908  23290067.120    95368958.15747
  21602715.480   113523002.74309  21602719.780    88459494.39948
  20627589.780   108398751.18109  20627589.660    84466565.09949
  22031840.640   115778069.84908  22031844.000    90216674.32648
  20197886.560   106140621.02809  20197886.720    82706984.30848
  24494790.820   128720991.58507  24494795.120   100302077.61045
  20214024.060   106225405.63409  20214023.540    82773043.48449
  24344059.760   127928781.61708  24344063.020    99684717.69944
  20711281.120   108838588.10109  20711283.580    84809324.18548
 15 02 28 11 09  0.0000000  0 10G02G05G06G07G09G10G13G20G23G30
  21429854.560   112614654.90609  21429852.500    87751682.95048
  23273252.760   122301792.74108  23273254.860    95300114.32847
  21617247.260   113599367.86408  21617251.640    88518999.59848
  20630811.400   108415681.25509  20630811.340    84479757.34448
  22043749.300   115840649.52308  22043752.500    90265437.61047
  20197975.960   106141090.83309  20197976.200    82707350.36948
  24479456.920   128640411.48908  24479461.180   100239288.01644
  20217744.160   106244954.91709  20217743.680    82788276.65549
  24358815.040   128006319.14208  24358818.100    99745136.41344
  20702116.700   108790428.98609  20702119.140    84771797.61748
 15 02 28 11 09 30.0000000  0 10G02G05G06G07G09G10G13G20G23G30
  21426987.420   112599587.72409  21426985.320    87739942.26148
  23256454.820   122213519.34108  23256456.820    95231329.91447
  21631855.180   113676132.95809  21631859.640    88578816.47048
  20634133.900   108433141.74909  20634133.960    84493362.91349
  22055678.100   115903334.77508  22055681.240    90314283.16347
  20198142.400   106141965.38709  20198142.680    82708031.81148
  24464146.240   128559953.81408  24464150.420   100176593.79844
  20221544.920   106264927.91209  20221544.440    82803839.98748
  24373571.520   128083863.07608  24373574.800    99805560.02845
  20693051.560   108742791.57409  20693053.960    84734677.57348
 15 02 28 11 10  0.0000000  0 10G02G05G06G07G09G10G13G20G23G30
  21424229.980   112585096.83709  21424227.840    87728650.63348
  23239671.900   122125325.47308  23239674.120    95162607.47147
  21646538.980   113753296.53709  21646543.440    88638943.84048
  20637557.360   108451132.88909  20637557.580    84507381.97548
  22067627.060   115966126.01209  22067630.080    90363211.29947
  20198386.180   106143246.66709  20198386.540    82709030.19348
  24448859.080   128479619.64808  24448863.260   100113995.82244
  20225426.660   106285326.44109  20225426.180    82819734.90748
  24388329.240   128161414.12008  24388332.800    99865989.10446
  20684086.160   108695678.27409  20684088.580    84697965.93748
 15 02 28 11 10 30.0000000  0 10G02G05G06G07G09G10G13G20G23G30
  21421581.960   112571181.09609  21421579.800    87717807.17848
  23222904.160   122037210.74109  23222906.360    95093946.70047
  21661297.800   113830854.19509  21661302.280    88699378.29148
  20641081.300   108469651.85909  20641081.660    84521812.34049
  22079595.640   116029020.67308  22079598.660    90412220.03948
  20198707.280   106144934.07509  20198707.640    82710345.03548
  24433595.200   128399407.73508  24433599.260   100051493.13544
  20229389.080   106306149.00109  20229388.600    82835960.25349
  24403087.840   128238970.41408  24403091.620    99926422.28745
  20675220.380   108649088.59509  20675222.820    84661662.32448
 15 02 28 11 11  0.0000000  0 10G02G05G06G07G09G10G13G20G23G30
  21419043.640   112557841.60609  21419041.460    87707412.73348
  23206152.040   121949177.44909  23206154.160    95025349.37947
  21676131.260   113908803.94109  21676135.720    88760118.25248
  20644705.600   108488698.19709  20644706.060    84536653.63148
  22091583.820   116092018.81308  22091586.840    90461309.39147
  20199105.960   106147029.01309  20199106.300    82711977.43048
  24418354.780   128319318.92408  24418358.820    99989086.37444
  20233432.460   106327397.11209  20233431.980    82852517.18148
  24417847.520   128316532.26508  24417851.380    99986859.81344
  20666454.660   108603024.46309  20666457.080    84625768.21548
 15 02 28 11 11 30.0000000  0 10G02G05G06G07G09G10G13G20G23G30
  21416614.780   112545077.49009  21416612.500    87697466.64848
  23189415.500   121861226.14608  23189417.480    94956815.94748
  21691038.540   113987142.00309  21691043.040    88821160.80648
  20648429.820   108508269.57309  20648430.360    84551904.04648
  22103591.320   116155118.49908  22103594.380    90510477.89547
  20199582.140   106149531.10609  20199582.440    82713927.09348
  24403137.600   128239352.34808  24403141.620    99926774.84844
  20237556.660   106349069.87909  20237556.180    82869405.01548
  24432608.040   128394098.07108  24432611.620   100047300.50544
  20657788.920   108557485.94909  20657791.360    84590283.70048
 15 02 28 11 12  0.0000000  0 10G02G05G06G07G09G10G13G20G23G30
  21414295.700   112532890.31709  21414293.360    87687970.11348
  23172694.880   121773359.40408  23172697.020    94888348.41347
  21706019.340   114065866.49609  21706023.900    88882504.46348
  20652253.960   108528365.96109  20652254.560    84567563.57349
  22115618.220   116218319.81709  22115621.240    90559725.58247
  20200136.140   106152442.17209  20200136.400    82716195.43448
  24387943.820   128159508.93908  24387947.860    99864559.30944
  20241761.900   106371168.68509  20241761.460    82886624.82548
  24447369.380   128471668.75008  24447373.000   100107744.95944
  20649223.580   108512475.01709  20649226.080    84555210.28148
 15 02 28 11 12 30.0000000  0 10G02G05G06G07G09G10G13G20G23G30
  21412086.320   112521279.73609  21412084.020    87678922.88748
  23155990.500   121685578.28809  23155992.700    94819947.59747
  21721073.120   114144974.25009  21721077.680    88944146.77848
  20656177.720   108548985.73709  20656178.380    84583630.93148
  22127664.240   116281621.61208  22127667.260    90609051.56547
  20200768.020   106155762.63509  20200768.280    82718782.78448
  24372773.360   128079788.39508  24372777.560    99802439.49644
  20246048.140   106393693.12309  20246047.760    82904176.29648
  24462131.620   128549243.42308  24462135.340   100168192.49345
  20640758.780   108467992.44009  20640761.340    84520548.57248
 15 02 28 11 13  0.0000000  0 10G02G05G06G07G09G10G13G20G23G30
  21409986.760   112510246.35109  21409984.480    87670325.41348
  23139303.040   121597884.99108  23139305.180    94751615.18647
  21736199.400   114224462.92309  21736203.960    89006085.89948
  20660200.940   108570128.09009  20660201.620    84600105.48448
  22139729.300   116345023.52008  22139732.400    90658455.55247
  20201477.980   106159493.46609  20201478.240    82721689.89948
  24357626.380   128000191.24808  24357630.580    99740415.83744
  20250415.600   106416644.36209  20250415.280    82922060.33748
  24476894.660   128626822.12508  24476898.560   100228643.17945
  20632394.800   108424039.68609  20632397.380    84486299.71448
 15 02 28 11 13 30.0000000  0 10G02G05G06G07G09G10G13G20G23G30
  21407997.020   112499790.34109  21407994.820    87662177.85048
  23122632.580   121510281.20109  23122634.660    94683352.54247
  21751397.660   114304329.70909  21751402.220    89068319.66648
  20664323.380   108591791.62709  20664324.040    84616986.16048
  22151813.200   116408524.65208  22151816.380    90707936.87347
  20202266.180   106163635.37409  20202266.460    82724917.33748
  24342502.940   127920717.53608  24342507.140    99678488.34744
  20254864.320   106440022.56409  20254864.040    82940277.08948
  24491658.360   128704404.49408  24491662.240   100289096.71745
  20624131.840   108380617.71409  20624134.420    84452464.45848
 15 02 28 11 14  0.0000000  0 10G02G05G06G07G09G10G13G20G23G30
  21406117.380   112489912.97109  21406115.240    87654481.16748
  23105979.700   121422769.39509  23105981.860    94615161.57947
  21766667.500   114384572.67909  21766672.060    89130846.56448
  20668545.020   108613976.18509  20668545.620    84634272.82448
  22163916.000   116472125.22409  22163919.240    90757495.67647
  20203132.920   106168190.23709  20203133.300    82728466.55848
  24327403.240   127841368.39508  24327407.420    99616657.90744
  20259394.500   106463828.88909  20259394.280    82958827.43248
  24506422.720   128781991.36408  24506426.720   100349553.72644
  20615970.320   108337728.52209  20615972.880    84419044.34748
 15 02 28 11 14 30.0000000  0 10G02G05G06G07G09G10G13G20G23G30
  21404348.320   112480616.24609  21404346.180    87647236.93348
  23089344.840   121335352.67909  23089347.000    94547044.70147
  21782008.740   114465190.86609  21782013.300    89193665.83048
  20672865.960   108636682.38109  20672866.460    84651965.95648
  22176037.920   116535826.26708  22176041.320    90807132.76948
  20204078.640   106173160.26009  20204079.060    82732339.27748
  24312327.580   127762145.93508  24312331.900    99554926.17244
  20264006.560   106488065.40709  20264006.360    82977712.99348
  24521188.140   128859584.29908  24521192.380   100410015.48744
  20607910.700   108295374.95109  20607913.260    84386041.60148
 15 02 28 11 15  0.0000000  0 10G02G05G06G07G09G10G13G20G23G30
  21402688.320   112471892.61309  21402686.200    87640439.27548
  23072726.960   121248025.49809  23072729.060    94478997.59647
  21797419.420   114546174.04009  21797424.020    89256769.51648
  20677284.520   108659901.44609  20677284.860    84670058.72948
  22188177.380   116599619.65008  22188180.960    90856841.81648
  20205102.080   106178538.73109  20205102.580    82736530.26748
  24297274.520   127683042.53708  24297278.780    99493287.21144
  20268699.180   106512725.13409  20268699.000    82996928.33048
  24535953.480   128937175.37809  24535957.780   100470475.82345
  20599951.800   108253550.56809  20599954.280    84353451.21048
 15 02 28 11 15 30.0000000  0 10G02G05G06G07G09G10G13G20G23G30
  21401138.740   112463749.54209  21401136.680    87634093.99448
  23056127.920   121160796.80908  23056129.900    94411027.23047
  21812900.360   114627526.48209  21812904.980    89320160.93148
  20681801.760   108683638.89309  20681801.920    84688555.44448
  22200335.660   116663511.68208  22200339.400    90906627.71548
  20206204.740   106184333.48509  20206205.320    82741045.63748
  24282245.620   127604065.65508  24282249.880    99431746.83444
  20273473.720   106537815.44009  20273473.580    83016479.18349
  24550719.860   129014771.29008  24550724.020   100530939.90745
  20592095.080   108212263.39109  20592097.460    84321279.41648
 15 02 28 11 16  0.0000000  0 10G02G05G06G07G09G10G13G20G23G30
  21399698.900   112456183.00509  21399696.900    87628197.96348
  23039547.120   121073663.91009  23039548.920    94343131.49548
  21828450.200   114709241.15609  21828454.880    89383834.59648
  20686416.620   108707889.37109  20686416.600    84707451.91249
  22212511.900   116727497.42709  22212515.620    90956486.63148
  20207386.000   106190540.98209  20207386.600    82745882.61548
  24267240.020   127525211.13908  24267244.360    99370301.80845
  20278329.460   106563332.40809  20278329.340    83036362.48749
  24565486.320   129092367.71408  24565490.340   100591404.39145
  20584339.960   108171510.23109  20584342.280    84289523.73249
 15 02 28 11 16 30.0000000  0 10G02G05G06G07G09G10G13G20G23G30
  21398369.420   112449196.26209  21398367.460    87622753.72148
  23022985.460   120986631.92809  23022987.200    94275314.41547
  21844069.080   114791318.63509  21844073.780    89447790.98248
  20691129.640   108732655.52309  20691129.380    84726750.21048
  22224706.500   116791579.59208  22224710.020    91006420.71047
  20208646.660   106197165.58509  20208647.240    82751044.62548
  24252258.320   127446482.22108  24252262.740    99308954.65844
  20283267.080   106589279.52909  20283266.960    83056580.99048
  24580253.360   129169967.87708  24580257.360   100651871.78243
  20576687.260   108131295.38609  20576689.600    84258187.52648
 15 02 28 11 17  0.0000000  0 10G02G05G06G07G09G10G13G20G23G30
  21397150.040   112442788.04609  21397148.040    87617760.28148
  23006443.100   120899701.31309  23006444.880    94207576.31548
  21859756.220   114873754.94709  21859761.000    89512026.97048
  20695940.160   108757934.21609  20695939.760    84746447.87948
  22236918.980   116855756.31608  22236922.540    91056428.44047
  20209986.580   106204206.62609  20209987.160    82756531.12248
  24237300.480   127367878.21208  24237305.020    99247704.85944
  20288286.460   106615656.20209  20288286.260    83077134.20148
  24595020.740   129247570.34908  24595024.880   100712341.02044
  20569136.960   108091618.66009  20569139.400    84227270.62148
 15 02 28 11 17 30.0000000  0 10G02G05G06G07G09G10G13G20G23G30
  21396040.520   112436957.13809  21396038.500    87613216.68548
  22989919.960   120812872.02309  22989921.720    94139917.16947
  21875510.800   114956545.43209  21875515.580    89576538.95148
  20700847.600   108783722.49909  20700847.140    84766542.62448
  22249148.940   116920025.10808  22249152.540    91106507.93247
  20211405.500   106211663.00109  20211406.100    82762341.26248
  24222366.160   127289397.34508  24222370.600    99186551.01245
  20293387.240   106642460.52709  20293386.940    83098020.65848
  24609788.200   129325172.98708  24609792.280   100772810.36044
  20561688.940   108052479.15809  20561691.420    84196772.32848
 15 02 28 11 18  0.0000000  0  9G02G05G06G07G09G10G13G20G30
  21395043.800   112431719.07909  21395041.760    87609135.04848
  22973419.440   120726161.53809  22973421.300    94072350.59847
  21891335.160   115039702.91109  21891339.980    89641336.88648
  20705854.680   108810034.59809  20705854.240    84787045.53248
  22261399.260   116984400.93008  22261402.940    91156670.80147
  20212906.620   106219551.25609  20212907.180    82768487.93348
  24207458.180   127211055.36008  24207462.580    99125505.43044
  20298572.500   106669708.70309  20298572.120    83119252.97248
  20554346.280   108013893.41109  20554348.740    84166705.52548
 15 02 28 11 18 30.0000000  0  9G02G05G06G07G09G10G13G20G30
  21394154.540   112427045.97809  21394152.500    87605493.63248
  22956936.640   120639543.50609  22956938.320    94004856.05247
  21907223.560   115123196.74809  21907228.400    89706396.92348
  20710955.880   108836841.37009  20710955.460    84807933.89748
  22273664.660   117048855.31109  22273668.320    91206894.89947
  20214484.720   106227844.15109  20214485.240    82774949.90748
  24192571.220   127132824.61908  24192575.660    99064546.51844
  20303836.960   106697373.14409  20303836.540    83140809.64648
  20547103.920   107975834.48409  20547106.280    84137049.23148
 15 02 28 11 19  0.0000000  0  9G02G05G06G07G09G10G13G20G30
  21393375.880   112422954.21309  21393373.880    87602305.21348
  22940474.860   120553036.34709  22940476.460    93937447.92047
  21923178.520   115207040.50509  21923183.480    89771729.62248
  20716154.080   108864158.01609  20716153.680    84829219.56048
  22285947.980   117113404.00709  22285951.640    91257192.48247
  20216143.040   106236558.58709  20216143.540    82781740.35048
  24177708.500   127054721.74108  24177713.160    99003687.29445
  20309183.780   106725470.33409  20309183.320    83162703.52848
  20539965.120   107938319.65309  20539967.320    84107816.89748
 15 02 28 11 19 30.0000000  0  9G02G05G06G07G09G10G13G20G30
  21392707.040   112419439.27709  21392705.060    87599566.25948
  22924033.680   120466637.75209  22924035.380    93870124.38248
  21939198.700   115291227.02809  21939203.780    89837329.40948
  20721448.200   108891978.68409  20721447.840    84850897.95648
  22298248.320   117178042.05808  22298251.760    91307559.71647
  20217880.980   106245691.27609  20217881.480    82788856.70748
  24162869.280   126976742.32808  24162874.060    98942924.27945
  20314612.160   106753996.21409  20314611.660    83184931.45648
  20532929.240   107901345.44709  20532931.280    84079005.83748
 15 02 28 11 20  0.0000000  0  9G02G05G06G07G09G10G13G20G30
  21392148.180   112416502.44809  21392146.260    87597277.77448
  22907613.580   120380350.14809  22907615.500    93802887.33348
  21955283.820   115375754.63809  21955289.000    89903194.97348
  20726838.280   108920303.52709  20726837.900    84872969.21748
  22310565.680   117242770.04808  22310569.280    91357997.00047
  20219698.780   106255243.77709  20219699.280    82796300.18748
  24148053.880   126898887.75308  24148058.820    98882258.54844
  20320122.360   106782952.21909  20320121.820    83207494.53548
  20525996.600   107864913.89909  20525998.620    84050617.61648
 15 02 28 11 20 30.0000000  0  9G02G05G06G07G09G10G13G20G30
  21391699.460   112414144.51109  21391697.600    87595440.39148
  22891215.200   120294176.33709  22891217.020    93735738.94648
  21971433.460   115460621.31409  21971438.740    89969324.75348
  20732324.100   108949131.50409  20732323.740    84895432.53049
  22322900.180   117307588.13608  22322903.900    91408504.50948
  20221596.660   106265217.33309  20221597.220    82804071.77348
  24133262.500   126821159.11208  24133267.280    98821690.96745
  20325714.580   106812339.39409  20325714.080    83230393.60249
  20519167.500   107829026.58709  20519169.620    84022653.48749
 15 02 28 11 21  0.0000000  0  9G02G05G06G07G09G10G13G20G30
  21391360.580   112412363.93709  21391358.760    87594052.88848
  22874838.640   120208116.82909  22874840.480    93668679.62348
  21987646.860   115545822.92009  21987652.200    90035715.51048
  20737905.140   108978460.00609  20737904.840    84918285.86848
  22335251.480   117372494.46408  22335255.080    91459080.77247
  20223574.600   106275611.45909  20223575.180    82812171.06748
  24118494.840   126743555.00808  24118499.460    98761220.40644
  20331388.660   106842156.72309  20331388.200    83253627.85048
  20512441.860   107793683.10809  20512444.120    83995113.11548
 15 02 28 11 21 30.0000000  0  9G02G05G06G07G09G10G13G20G30
  21391131.460   112411159.93509  21391129.640    87593114.67048
  22858483.820   120122172.67309  22858485.720    93601710.20747
  22003923.300   115631355.71909  22003928.680    90102364.34848
  20743580.980   109008286.55009  20743580.680    84941527.28548
  22347619.340   117437487.56508  22347622.900    91509724.65348
  20225632.600   106286426.11509  20225633.160    82820598.04348
  24103750.840   126666074.75508  24103755.380    98700846.36545
  20337144.440   106872403.21709  20337143.940    83277196.51048
  20505819.700   107758883.32709  20505821.960    83967996.40548
 15 02 28 11 22  0.0000000  0  9G02G05G06G07G09G10G13G20G30
  21391012.600   112410535.15609  21391010.840    87592627.79048
  22842152.020   120036348.58009  22842153.780    93534834.30448
  22020262.760   115717219.71708  22020268.160    90169271.25148
  20749351.940   109038612.90009  20749351.620    84965158.16248
  22360004.160   117502569.68408  22360007.680    91560437.89147
  20227771.260   106297664.70709  20227771.800    82829355.36348
  24089031.000   126588721.50208  24089035.220    98640571.27544
  20342982.500   106903082.14309  20342981.940    83301102.12749
  20499301.640   107724630.78009  20499303.860    83941306.12348
