     2.11           OBSERVATION DATA    G                   RINEX VERSION / TYPE
SPIDER V4,0,0,3554                      2015 04 16 10:36    PGM / RUN BY / DATE 
CABS                                                        MARKER NAME         
CABS                                                        MARKER NUMBER       
                                                            OBSERVER / AGENCY   
462287              LEICA GRX1200PRO    8.10/2.127          REC # / TYPE / VERS 
103298              LEIAT504                                ANT # / TYPE        
  5116912.3402   671231.6412  3737143.4301                  APPROX POSITION XYZ 
        0.0600        0.0000        0.0000                  ANTENNA: DELTA H/E/N
     1     1                                                WAVELENGTH FACT L1/2
     4    C1    L1    P2    L2                              # / TYPES OF OBSERV 
    30.000                                                  INTERVAL            
  2015    02    18    00    00    0.0000000     GPS         TIME OF FIRST OBS   
  2015    02    18    23    59   30.0000000     GPS         TIME OF LAST OBS    
    16                                                      LEAP SECONDS        
    30                                                      # OF SATELLITES     
   G 1   803   803   803   803                              PRN / # OF OBS      
   G 2   938   938   938   938                              PRN / # OF OBS      
   G 3   847   847   847   847                              PRN / # OF OBS      
   G 4   831   831   831   831                              PRN / # OF OBS      
   G 5   643   643   643   643                              PRN / # OF OBS      
   G 6   830   830   830   830                              PRN / # OF OBS      
   G 7   673   673   673   673                              PRN / # OF OBS      
   G 9   806   806   806   806                              PRN / # OF OBS      
   G10   753   753   753   753                              PRN / # OF OBS      
   G11   769   769   769   769                              PRN / # OF OBS      
   G12   830   830   830   830                              PRN / # OF OBS      
   G13   791   791   791   791                              PRN / # OF OBS      
   G14   939   939   939   939                              PRN / # OF OBS      
   G15   701   701   701   701                              PRN / # OF OBS      
   G16   664   664   664   664                              PRN / # OF OBS      
   G17   941   941   941   941                              PRN / # OF OBS      
   G18   905   905   905   905                              PRN / # OF OBS      
   G19   750   750   750   750                              PRN / # OF OBS      
   G20   786   786   786   786                              PRN / # OF OBS      
   G21   742   742   742   742                              PRN / # OF OBS      
   G22   657   657   657   657                              PRN / # OF OBS      
   G23   755   755   755   755                              PRN / # OF OBS      
   G24   817   817   817   817                              PRN / # OF OBS      
   G25   855   855   855   855                              PRN / # OF OBS      
   G27   801   801   801   801                              PRN / # OF OBS      
   G28   876   876   876   876                              PRN / # OF OBS      
   G29   772   772   771   771                              PRN / # OF OBS      
   G30   719   719   719   719                              PRN / # OF OBS      
   G31   871   871   871   871                              PRN / # OF OBS      
   G32   769   769   769   769                              PRN / # OF OBS      
BIT 2 OF LLI FLAGS DATA COLLECTED UNDER A/S CONDITION       COMMENT             
SNR is mapped to RINEX snr flag value [2-9]                 COMMENT             
Lx:     = 25dBHz -> 1; 26-27dBHz -> 2; 28-31dBHz -> 3       COMMENT             
       32-35dBHz -> 4; 36-38dBHz -> 5; 39-41dBHz -> 6       COMMENT             
       42-44dBHz -> 7; 45-48dBHz -> 8; >=49dBHz -> 9        COMMENT             
                                                            END OF HEADER       
 15 02 18 00 00  0.0000000  0  7G16G18G21G25G27G29G31
  22989136.640   120808742.90007  22989138.720    94136692.11946
  23573576.760   123880012.50006  23573579.300    96529893.79745
  20897093.100   109815222.46208  20897094.100    85570407.09549
  23425936.520   123104380.12707  23425941.020    95925618.39945
  24186958.520   127103338.47805  24186964.200    99041582.69245
  22569030.640   118601502.15208  22569032.440    92416974.33747
  21878760.820   114973685.15908  21878762.480    89589902.12048
 15 02 18 00 00 30.0000000  0  7G16G18G21G25G27G29G31
  22972481.920   120721221.71107  22972483.980    94068493.80446
  23558630.180   123801466.92806  23558632.660    96468689.47544
  20897714.420   109818487.79408  20897715.460    85572951.52849
  23443059.860   123194363.15606  23443064.120    95995735.03445
  24172657.840   127028187.29105  24172663.240    98983023.40945
  22582066.280   118670005.07608  22582068.200    92470353.21547
  21891725.780   115041816.88508  21891727.520    89642991.75148
 15 02 18 00 01  0.0000000  0  7G16G18G21G25G27G29G31
  22955849.080   120633815.24407  22955851.100    94000384.89246
  23543701.720   123723016.61006  23543704.200    96407559.39745
  20898417.600   109822183.19308  20898418.680    85575831.07049
  23460226.080   123284571.79607  23460230.280    96066027.46345
  24158373.500   126953121.94705  24158378.600    98924530.99645
  22595114.240   118738572.86908  22595116.240    92523782.63447
  21904764.980   115110338.76408  21904766.800    89696385.40448
 15 02 18 00 01 30.0000000  0  7G16G18G21G25G27G29G31
  22939238.520   120546525.99407  22939240.480    93932367.31946
  23528792.040   123644664.71207  23528794.300    96346505.96345
  20899202.780   109826309.28408  20899203.840    85579046.22049
  23477435.100   123375005.70406  23477439.420    96136495.43146
  24144105.580   126878143.23206  24144110.520    98866106.09745
  22608174.560   118807206.11208  22608176.720    92577263.05547
  21917878.140   115179249.08008  21917880.000    89750081.73848
 15 02 18 00 02  0.0000000  0  7G16G18G21G25G27G29G31
  22922650.340   120459354.62507  22922652.300    93864441.59146
  23513901.260   123566412.93507  23513903.540    96285530.59045
  20900069.340   109830863.04308  20900070.400    85582594.61449
  23494686.440   123465662.44706  23494691.060    96207137.03446
  24129853.880   126803249.77506  24129858.920    98807747.62545
  22621247.040   118875902.76608  22621249.240    92630792.89347
  21931064.520   115248544.00608  21931066.400    89804077.76548
 15 02 18 00 02 30.0000000  0  7G16G18G21G25G27G29G31
  22906085.060   120372303.91907  22906087.080    93796609.89746
  23499030.120   123488264.64906  23499032.500    96224635.86645
  20901017.400   109835845.05008  20901018.440    85586476.70849
  23511980.020   123556541.70106  23511984.920    96277952.03145
  24115618.500   126728442.36706  24115623.700    98749456.19546
  22634331.700   118944663.26808  22634333.860    92684372.48447
  21944323.740   115318221.67208  21944325.660    89858372.03648
 15 02 18 00 03  0.0000000  0  7G16G18G21G25G27G29G31
  22889542.940   120285374.91007  22889544.940    93728873.02346
  23484179.100   123410221.68106  23484181.420    96163823.19445
  20902046.640   109841253.66408  20902047.680    85590691.22249
  23529315.540   123647641.65806  23529320.760    96348938.98446
  24101399.280   126653720.26305  24101404.660    98691231.21845
  22647428.260   119013486.51807  22647430.480    92738000.95847
  21957655.240   115388278.85708  21957657.140    89912962.02848
 15 02 18 00 03 30.0000000  0  7G16G18G21G25G27G29G31
  22873024.520   120198570.14207  22873026.440    93661232.95946
  23469348.520   123332287.22406  23469351.100    96103095.07345
  20903157.000   109847088.67108  20903158.080    85595237.98749
  23546693.020   123738961.90906  23546698.520    96420097.58446
  24087196.300   126579084.16105  24087201.860    98633073.28646
  22660536.780   119082372.08208  22660538.980    92791677.99047
  21971058.660   115458714.01808  21971060.540    89967846.54748
 15 02 18 00 04  0.0000000  0  7G16G18G21G25G27G29G31
  22856529.800   120111889.34907  22856531.500    93593689.48646
  23454538.700   123254461.84906  23454541.380    96042451.93845
  20904347.780   109853346.32308  20904348.840    85600114.08649
  23564111.920   123830499.00706  23564117.560    96491425.17446
  24073009.240   126504531.77205  24073015.100    98574980.54845
  22673656.800   119151318.12408  22673658.940    92845402.14847
  21984533.020   115529521.92608  21984534.820    90023021.52048
 15 02 18 00 04 30.0000000  0  7G16G18G21G25G27G29G31
  22840059.240   120025335.65907  22840060.800    93526245.06246
  23439750.280   123176749.59306  23439753.160    95981896.97244
  20905619.180   109860027.53808  20905620.220    85605320.24249
  23581572.240   123922253.07206  23581577.880    96562921.81646
  24058838.420   126430064.24305  24058844.300    98516953.94246
  22686788.540   119220325.51508  22686790.620    92899174.10847
  21998078.060   115600701.29808  21998079.760    90078485.94348
 15 02 18 00 05  0.0000000  0  7G16G18G21G25G27G29G31
  22823613.240   119938911.16007  22823614.780    93458901.31146
  23424983.940   123099153.17206  23424986.960    95921432.25945
  20906970.940   109867131.11408  20906971.980    85610855.50449
  23599073.820   124014223.02406  23599079.260    96634586.68746
  24044683.740   126355681.74405  24044689.600    98458993.59345
  22699931.820   119289393.59208  22699933.900    92952993.35647
  22011693.240   115672249.59108  22011694.960    90134237.84148
 15 02 18 00 05 30.0000000  0  7G16G18G21G25G27G29G31
  22807192.000   119852617.19207  22807193.660    93391659.27446
  23410240.220   123021674.78706  23410243.140    95861059.54546
  20908402.780   109874655.58608  20908403.840    85616718.73149
  23616616.100   124106407.14806  23616621.400    96706418.45146
  24030545.220   126281383.55405  24030551.100    98401098.94546
  22713086.400   119358521.25007  22713088.480    93006859.03147
  22025377.940   115744163.44308  22025379.760    90190274.59248
 15 02 18 00 06  0.0000000  0  7G16G18G21G25G27G29G31
  22790796.040   119766456.26907  22790797.900    93324520.91147
  23395519.640   122944317.59306  23395522.460    95800781.25545
  20909914.580   109882600.29408  20909915.660    85622909.41449
  23634198.900   124198804.90706  23634204.020    96778416.66845
  24016422.920   126207170.35305  24016428.680    98343270.53846
  22726252.380   119427708.88708  22726254.540    93060771.44347
  22039131.860   115816441.26908  22039133.840    90246594.96448
 15 02 18 00 06 30.0000000  0  7G16G18G21G25G27G29G31
  22774425.940   119680430.92607  22774427.800    93257488.19747
  23380822.880   122867084.91007  23380825.500    95740599.98245
  20911506.340   109890965.24608  20911507.440    85629427.56749
  23651822.120   124291415.75306  23651827.160    96850580.96245
  24002316.900   126133042.75505  24002322.560    98285508.80845
  22739429.700   119496956.48107  22739432.000    93114730.57447
  22052954.660   115889080.80708  22052956.760    90303197.18948
 15 02 18 00 07  0.0000000  0  7G16G18G21G25G27G29G31
  22758081.940   119594542.55007  22758083.760    93190562.20847
  23366150.320   122789978.78607  23366152.580    95680517.32745
  20913177.780   109899748.82208  20913178.900    85636271.92249
  23669485.440   124384237.96706  23669490.460    96922909.94144
  23988227.100   126059000.11706  23988232.740    98227813.30346
  22752618.380   119566263.29707  22752620.700    93168735.85847
  22066845.760   115962078.78108  22066847.860    90360078.71348
 15 02 18 00 07 30.0000000  0  7G16G18G21G25G27G29G31
  22741764.280   119508792.78407  22741766.060    93123744.21947
  23351502.300   122713001.76307  23351504.280    95620535.26445
  20914928.680   109908949.82208  20914929.800    85643441.53449
  23687188.620   124477270.07506  23687193.660    96995402.47945
  23974153.560   125985042.24006  23974159.100    98170183.83645
  22765818.220   119635628.87908  22765820.540    93222786.93947
  22080804.620   116035432.28608  22080806.600    90417237.27648
 15 02 18 00 08  0.0000000  0  7G16G18G21G25G27G29G31
  22725473.520   119423184.55607  22725475.320    93057036.52747
  23336879.340   122636157.56007  23336881.180    95560656.67545
  20916759.060   109918568.52608  20916760.180    85650936.63249
  23704931.840   124570512.16906  23704936.880    97068058.63545
  23960096.400   125911170.31506  23960101.680    98112621.34645
  22779029.360   119705053.93907  22779031.740    93276884.36647
  22094830.880   116109140.18108  22094832.740    90474671.97348
 15 02 18 00 08 30.0000000  0  7G16G18G21G25G27G29G31
  22709209.800   119337718.69607  22709211.700    92990439.77746
  23322281.780   122559447.29607  23322283.560    95500882.45145
  20918668.340   109928601.99408  20918669.480    85658754.92749
  23722714.520   124663961.18806  23722719.580    97140876.01345
  23946055.140   125837382.47805  23946060.260    98055124.38746
  22792251.440   119774536.23807  22792253.880    93331026.37647
  22108923.660   116183197.87708  22108925.380    90532379.24648
 15 02 18 00 09  0.0000000  0  7G16G18G21G25G27G29G31
  22692973.800   119252398.27607  22692975.760    92923956.36247
  23307710.440   122482875.18806  23307712.300    95441215.90445
  20920656.660   109939050.73908  20920657.820    85666896.81249
  23740536.780   124757617.53106  23740541.780    97213854.95145
  23932030.100   125763680.28706  23932035.020    97997694.16645
  22805484.640   119844076.89007  22805487.080    93385213.86647
  22123082.700   116257604.16108  22123084.300    90590358.14048
 15 02 18 00 09 30.0000000  0  7G16G18G21G25G27G29G31
  22676765.780   119167224.37207  22676767.700    92857587.11347
  23293165.700   122406442.76806  23293167.620    95381658.19145
  20922723.540   109949912.43208  20922724.720    85675360.48249
  23758398.220   124851479.11206  23758403.120    97286993.83544
  23918021.060   125690062.87605  23918025.900    97940330.01245
  22818728.660   119913674.52407  22818731.140    93439445.76547
  22137307.380   116332355.47408  22137308.920    90648605.90248
 15 02 18 00 10  0.0000000  0  7G16G18G21G25G27G29G31
  22660586.000   119082198.88407  22660587.860    92791333.51047
  23278648.020   122330152.82706  23278650.060    95322211.50845
  20924868.840   109961186.13308  20924870.020    85684145.19249
  23776298.360   124945544.44406  23776303.340    97360291.46645
  23904028.120   125616529.96105  23904033.020    97883031.68146
  22831983.540   119983328.93208  22831985.940    93493721.89247
  22151597.120   116407448.78808  22151598.700    90707120.15248
 15 02 18 00 10 30.0000000  0  7G16G18G21G25G27G29G31
  22644435.000   118997324.75907  22644436.800    92725197.84546
  23264158.160   122254008.63007  23264160.340    95262878.39445
  20927092.520   109972871.60808  20927093.660    85693250.76649
  23794237.220   125039813.32406  23794242.360    97433747.69646
  23890051.400   125543082.57205  23890056.420    97825799.99646
  22845249.400   120053040.97907  22845251.720    93548042.94947
  22165951.640   116482882.26308  22165953.320    90765899.46548
 15 02 18 00 11  0.0000000  0  7G16G18G21G25G27G29G31
  22628313.200   118912604.28807  22628314.980    92659181.91247
  23249696.700   122178013.27607  23249698.940    95203661.27244
  20929394.460   109984968.27208  20929395.560    85702676.74349
  23812214.600   125134284.66306  23812219.900    97507361.70746
  23876090.960   125469720.72605  23876096.160    97768634.95746
  22858526.060   120122810.06407  22858528.360    93602408.43347
  22180370.540   116558653.63408  22180372.300    90824942.07748
 15 02 18 00 11 30.0000000  0  7G16G18G21G25G27G29G31
  22612220.580   118828037.41707  22612222.440    92593285.66747
  23235263.860   122102167.52807  23235265.980    95144560.72246
  20931774.020   109997472.80708  20931775.060    85712420.53949
  23830229.980   125228955.29606  23830235.380    97581131.00146
  23862146.480   125396442.60705  23862151.880    97711535.14447
  22871813.000   120192633.65807  22871815.380    93656816.39947
  22194852.800   116634758.27408  22194854.700    90884244.37848
 15 02 18 00 12  0.0000000  0  7G16G18G21G25G27G29G31
  22596157.900   118743627.61108  22596159.820    92527511.81147
  23220860.280   122026475.28407  23220862.340    95085579.77145
  20934231.180   110010385.24608  20934232.200    85722482.18249
  23848283.340   125323825.27906  23848288.760    97655055.63046
  23848218.180   125323249.41705  23848223.740    97654501.50746
  22885110.560   120262513.13307  22885113.040    93711267.90847
  22209398.120   116711194.63608  22209400.220    90943805.16748
 15 02 18 00 12 30.0000000  0  7G16G18G21G25G27G29G31
  22580125.360   118659375.96808  22580127.300    92461861.20747
  23206486.260   121950938.43007  23206488.320    95026719.91345
  20936765.680   110023704.16308  20936766.660    85732860.56349
  23866374.240   125418892.73806  23866379.600    97729134.13345
  23834305.940   125250140.56405  23834311.580    97597533.61446
  22898418.580   120332447.65207  22898421.180    93765762.31447
  22224005.900   116787959.27208  22224008.120    91003621.75248
 15 02 18 00 13  0.0000000  0  7G16G18G21G25G27G29G31
  22564123.720   118575286.52308  22564125.580    92396336.98247
  23192142.460   121875561.17607  23192144.640    94967984.42746
  20939377.520   110037429.46908  20939378.460    85743555.60949
  23884502.640   125514157.87606  23884507.880    97803366.67645
  23820410.200   125177102.51305  23820415.600    97540619.60046
  22911737.200   120402437.95607  22911739.960    93820300.17847
  22238675.920   116865051.06508  22238678.200    91063693.26548
 15 02 18 00 13 30.0000000  0  7G16G18G21G25G27G29G31
  22548153.080   118491359.97008  22548154.840    92330939.69347
  23177829.380   121800345.96307  23177831.700    94909375.17346
  20942066.320   110051559.25308  20942067.240    85754565.83449
  23902668.180   125609618.56706  23902673.280    97877751.59945
  23806530.520   125104164.37306  23806535.860    97483784.72046
  22925066.360   120472483.17507  22925069.240    93874880.84447
  22253407.500   116942466.22508  22253409.780    91124016.75048
 15 02 18 00 14  0.0000000  0  7G16G18G21G25G27G29G31
  22532213.820   118407598.55908  22532215.540    92265671.07547
  23163547.480   121725294.90307  23163549.980    94850893.84745
  20944831.960   110066092.83408  20944832.880    85765890.70549
  23920870.560   125705273.65506  23920875.640    97952288.02945
  23792667.080   125031311.19506  23792672.320    97427016.06746
  22938405.940   120542583.21507  22938408.880    93929504.22646
  22268200.220   117020202.34108  22268202.420    91184590.32648
 15 02 18 00 14 30.0000000  0  7G16G18G21G25G27G29G31
  22516306.460   118324005.01808  22516308.200    92200533.26347
  23149297.360   121650410.85507  23149299.920    94792542.67045
  20947674.280   110081029.51808  20947675.240    85777529.67949
  23939109.680   125801122.38905  23939114.780    98026975.31745
  23778819.900   124958543.58106  23778825.040    97370314.08146
  22951755.940   120612737.90907  22951758.900    93984170.21047
  22283053.580   117098256.92708  22283055.680    91245412.06748
 15 02 18 00 15  0.0000000  0  7G16G18G21G25G27G29G31
  22500431.280   118240580.61008  22500433.080    92135527.25347
  23135079.580   121575696.19507  23135082.020    94734323.47945
  20950592.880   110096366.90708  20950593.860    85789480.89349
  23957385.220   125897162.48405  23957390.460    98101811.74544
  23764988.740   124885860.51006  23764993.840    97313677.97746
  22965116.220   120682946.64107  22965119.180    94038878.27647
  22297966.860   117176626.49308  22297968.940    91306479.24348
 15 02 18 00 15 30.0000000  0  7G16G18G21G25G27G29G31
  22484588.320   118157325.53208  22484590.120    92070653.18947
  23120894.280   121501152.01907  23120896.560    94676237.12545
  20953587.200   110112102.35408  20953588.240    85801742.28549
  23975696.880   125993391.22006  23975702.040    98176795.14244
  23751173.320   124813260.46906  23751178.420    97257106.58645
  22978486.480   120753207.05907  22978489.280    94093626.64346
  22312939.220   117255306.46608  22312941.260    91367788.30948
 15 02 18 00 16  0.0000000  0  7G16G18G21G25G27G29G31
  22468778.440   118074244.01208  22468780.180    92005914.35547
  23106742.380   121426782.93907  23106744.400    94618287.22945
  20956657.480   110128236.87908  20956658.560    85814314.65449
  23994044.720   126089809.23106  23994049.800    98251926.04245
  23737374.100   124740745.54606  23737379.200    97200601.53145
  22991866.880   120823521.00507  22991869.500    94148416.70746
  22327970.500   117334296.16008  22327972.560    91429338.70948
 15 02 18 00 16 30.0000000  0  7G16G18G21G25G27G29G31
  22453001.820   117991337.49608  22453003.520    91941311.90147
  23092624.080   121352590.69507  23092625.980    94560475.11445
  20959803.320   110144768.34808  20959804.420    85827196.32849
  24012428.460   126186414.60506  24012433.280    98327202.93845
  23723590.880   124668314.97106  23723595.960    97144162.21945
  23005257.220   120893887.62007  23005259.700    94203247.78646
  22343060.020   117413592.18108  22343062.120    91491127.80648
 15 02 18 00 17  0.0000000  0  7G16G18G21G25G27G29G31
  22437258.800   117908607.60108  22437260.420    91876847.07547
  23078539.920   121278578.01907  23078541.720    94502802.92345
  20963024.440   110161695.34308  20963025.520    85840386.19249
  24030847.620   126283205.70606  24030852.180    98402624.54645
  23709823.700   124595968.50406  23709828.720    97087788.41445
  23018657.500   120964306.49507  23018659.940    94258119.61046
  22358207.280   117493191.51108  22358209.360    91553153.24447
 15 02 18 00 17 30.0000000  0  7G16G18G21G25G27G29G31
  22421550.160   117826058.35608  22421551.720    91812523.00747
  23064490.680   121204749.02707  23064492.560    94445273.84946
  20966320.840   110179017.97608  20966321.880    85853884.35649
  24049302.120   126380182.86906  24049306.520    98478191.14045
  23696072.840   124523707.69905  23696077.800    97031481.36745
  23032067.940   121034778.99907  23032070.460    94313033.22946
  22373412.040   117573092.82008  22373413.980    91615413.98847
 15 02 18 00 18  0.0000000  0  7G16G18G21G25G27G29G31
  22405876.280   117743691.44808  22405877.780    91748341.02347
  23050476.840   121131105.89007  23050478.860    94387889.61545
  20969692.260   110196734.69208  20969693.240    85867689.59649
  24067791.560   126477344.38606  24067795.980    98553901.37244
  23682338.320   124451532.22005  23682343.140    96975240.77146
  23045488.380   121105303.70607  23045490.900    94367987.50746
  22388673.640   117653292.81508  22388675.440    91677907.47447
 15 02 18 00 18 30.0000000  0  7G16G18G21G25G27G29G31
  22390237.360   117661508.10108  22390238.800    91684302.06747
  23036498.660   121057650.10307  23036500.820    94330651.34945
  20973138.200   110214843.20308  20973139.160    85881800.12849
  24086315.380   126574687.92506  24086320.140    98629753.46445
  23668619.800   124379441.05506  23668624.580    96919065.87245
  23058918.740   121175880.21707  23058921.240    94422982.16846
  22403991.360   117733787.90008  22403993.080    91740630.89147
 15 02 18 00 19  0.0000000  0  7G16G18G21G25G27G29G31
  22374633.880   117579511.11308  22374635.340    91620408.33547
  23022556.960   120984385.84907  23022559.220    94273562.33446
  20976658.780   110233344.10208  20976659.740    85896216.42349
  24104873.640   126672213.52105  24104878.860    98705747.41545
  23654917.620   124307435.55306  23654922.360    96862957.74645
  23072359.160   121246509.75607  23072361.660    94478018.14947
  22419364.920   117814576.58008  22419366.680    91803583.08447
 15 02 18 00 19 30.0000000  0  7G16G18G21G25G27G29G31
  22359066.140   117497702.31008  22359067.660    91556661.24147
  23008652.100   120911315.02207  23008654.460    94216624.04846
  20980253.580   110252235.01408  20980254.560    85910936.62049
  24123466.020   126769918.93805  24123471.740    98781881.50645
  23641231.600   124235514.94806  23641236.360    96806915.75546
  23085809.400   121317190.91607  23085811.880    94533094.34246
  22434793.640   117895654.97208  22434795.440    91866761.03747
 15 02 18 00 20  0.0000000  0  7G16G18G21G25G27G29G31
  22343534.780   117416084.63908  22343536.360    91493063.08147
  22994784.720   120838441.04907  22994787.080    94159839.15545
  20983922.440   110271515.07408  20983923.420    85925960.05249
  24142092.400   126867803.38205  24142098.640    98858155.04646
  23627561.800   124163679.70906  23627566.660    96750940.29746
  23099269.440   121387923.88507  23099271.920    94588210.91346
  22450277.080   117977020.91408  22450278.980    91930163.04347
 15 02 18 00 20 30.0000000  0  7G16G18G21G25G27G29G31
  22328039.680   117334657.39108  22328041.240    91429613.31147
  22980954.820   120765764.18507  22980957.140    94103207.84645
  20987664.700   110291180.92508  20987665.700    85941284.09849
  24160752.380   126965863.30305  24160758.760    98934565.36646
  23613907.840   124091927.62006  23613912.720    96695029.62846
  23112738.900   121458706.24407  23112741.360    94643365.96946
  22465814.240   118058669.31208  22465816.280    91993785.15747
 15 02 18 00 21  0.0000000  0  7G16G18G21G25G27G29G31
  22312581.360   117253423.68108  22312582.940    91366314.33347
  22967163.060   120693287.76007  22967165.280    94046732.71845
  20991480.220   110311231.91208  20991481.280    85956908.24249
  24179445.860   127064098.14905  24179452.100    99011111.97445
  23600269.840   124020259.57006  23600274.800    96639184.44747
  23126217.880   121529538.82507  23126220.360    94698560.15946
  22481404.780   118140598.19208  22481406.900    92057625.82147
 15 02 18 00 21 30.0000000  0  7G16G18G21G25G27G29G31
  22297160.540   117172386.93808  22297162.140    91303168.85147
  22953409.880   120621014.91807  22953412.160    93990416.23746
  20995369.060   110331668.20708  20995370.220    85972832.63749
  24198172.720   127162507.61105  24198178.700    99087794.63145
  23586647.960   123948676.50706  23586653.020    96583405.47047
  23139706.640   121600422.55107  23139709.120    94753794.19446
  22497048.340   118222805.64908  22497050.460    92121683.55347
 15 02 18 00 22  0.0000000  0  7G16G18G21G25G27G29G31
  22281777.400   117091548.12108  22281779.040    91240177.59347
  22939695.780   120548947.78207  22939698.100    93934260.04945
  20999330.660   110352486.90508  20999331.900    85989054.99949
  24216932.420   127261089.18305  24216937.960    99164611.41645
  23573042.140   123877177.46106  23573047.180    96527691.97946
  23153204.840   121671355.92607  23153207.280    94809066.91146
  22512744.200   118305287.73208  22512746.240    92185955.28747
 15 02 18 00 22 30.0000000  0  7G16G18G21G25G27G29G31
  22266432.600   117010910.57908  22266434.220    91177343.16847
  22926021.600   120477090.52707  22926023.920    93878267.39946
  21003365.040   110373687.71208  21003366.280    86005575.11949
  24235724.800   127359842.76405  24235729.940    99241562.22145
  23559452.540   123805763.61306  23559457.520    96472044.85147
  23166712.640   121742339.88907  23166715.080    94864379.06246
  22528492.000   118388042.90308  22528493.920    92250439.81047
 15 02 18 00 23  0.0000000  0  7G16G18G21G25G27G29G31
  22251126.440   116930475.93408  22251128.000    91114666.84247
  22912387.680   120405444.57707  22912389.940    93822439.41346
  21007471.780   110395268.84708  21007473.020    86022391.59449
  24254549.520   127458766.14706  24254554.280    99318645.39544
  23545879.000   123734434.31006  23545883.840    96416463.62346
  23180229.920   121813373.48307  23180232.320    94919729.89146
  22544291.040   118471067.65008  22544292.940    92315134.39547
 15 02 18 00 23 30.0000000  0  7G16G18G21G25G27G29G31
  22235859.420   116850247.19408  22235860.920    91052150.96347
  22898794.820   120334013.91307  22898797.020    93766779.18545
  21011650.900   110417230.25308  21011652.120    86039504.38249
  24273406.480   127557859.14006  24273410.920    99395860.69645
  23532321.740   123663190.59906  23532326.440    96360949.08046
  23193756.760   121884457.62807  23193759.140    94975120.10146
  22560141.060   118554360.01508  22560142.920    92380037.50847
 15 02 18 00 24  0.0000000  0  8G16G18G21G22G25G27G29G31
  22220632.240   116770228.14608  22220633.720    90989798.47347
  22885243.780   120262802.44107  22885245.880    93711289.76245
  21015902.420   110439572.15708  21015903.620    86056913.66849
  24546636.600   128993437.16206  24546637.440   100514374.06844
  24292295.620   127657121.85406  24292299.900    99473208.26944
  23518781.040   123592034.08706  23518785.680    96305502.51446
  23207293.500   121955593.84707  23207295.840    95030550.89546
  22576041.720   118637918.58708  22576043.620    92445148.06347
 15 02 18 00 24 30.0000000  0  8G16G18G21G22G25G27G29G31
  22205442.960   116690408.43508  22205444.400    90927601.32247
  22871732.720   120191800.54307  22871734.740    93655963.62446
  21020223.620   110462280.06908  21020224.760    86074608.15349
  24528532.680   128898301.82406  24528533.300   100440242.93145
  24311214.220   127756540.36205  24311218.780    99550677.18145
  23505254.540   123520952.22506  23505259.080    96250114.09846
  23220837.680   122026769.48807  23220840.020    95086012.40546
  22591990.160   118721728.09708  22591992.120    92510454.15847
 15 02 18 00 25  0.0000000  0  8G16G18G21G22G25G27G29G31
  22190295.660   116610809.16508  22190297.100    90865575.93547
  22858265.560   120121029.30407  22858267.480    93600817.22646
  21024617.900   110485372.00308  21024619.000    86092601.88249
  24510416.420   128803102.95706  24510417.280   100366062.29244
  24330165.740   127856132.03405  24330170.560    99628281.05944
  23491745.840   123449963.91406  23491750.380    96194798.60646
  23234392.960   122098002.99107  23234395.340    95141519.00246
  22607989.340   118805804.41308  22607991.400    92575968.15747
 15 02 18 00 25 30.0000000  0  8G16G18G21G22G25G27G29G31
  22175189.300   116531424.68908  22175190.680    90803717.92847
  22844841.400   120050484.04207  22844843.340    93545846.90246
  21029083.480   110508838.62208  21029084.540    86110887.57149
  24492287.140   128707835.22806  24492288.340   100291827.99544
  24349148.400   127955887.75205  24349153.600    99706012.76545
  23478253.440   123379061.35206  23478257.960    96139549.91246
  23247957.720   122169286.38607  23247960.300    95197064.47246
  22624037.380   118890137.16708  22624039.460    92641681.96847
 15 02 18 00 26  0.0000000  0  8G16G18G21G22G25G27G29G31
  22160123.680   116452254.31608  22160125.100    90742026.75147
  22831459.960   119980163.85807  22831462.060    93491051.96246
  21033619.480   110532675.41308  21033620.520    86129461.70249
  24474144.720   128612498.02506  24474146.260   100217539.55944
  24368161.500   128055802.95305  24368167.060    99783868.71846
  23464776.840   123308241.48206  23464781.320    96084365.64546
  23261531.380   122240616.60007  23261534.140    95252646.41446
  22640133.000   118974719.90608  22640135.080    92707590.57347
 15 02 18 00 26 30.0000000  0  8G16G18G21G22G25G27G29G31
  22145099.680   116373302.79208  22145101.160    90680506.10847
  22818122.340   119910074.23407  22818124.680    93436436.68546
  21038226.180   110556884.01808  21038227.260    86148325.55949
  24455990.080   128517096.74205  24455991.820   100143201.12446
  24387205.320   128155879.07605  24387211.120    99861850.07444
  23451316.580   123237507.25207  23451320.960    96029248.12345
  23275114.480   122311996.29407  23275117.340    95308266.92346
  22656276.240   119059552.77308  22656278.240    92773694.08447
 15 02 18 00 27  0.0000000  0  8G16G18G21G22G25G27G29G31
  22130117.500   116294571.14708  22130119.040    90619156.79447
  22804828.800   119840216.65607  22804831.320    93382002.21146
  21042903.080   110581461.47808  21042904.180    86167476.83449
  24437823.520   128421632.31205  24437825.340   100068813.45145
  24406279.380   128256113.65105  24406285.260    99939954.91345
  23437872.320   123166857.43106  23437876.640    95974196.36146
  23288706.680   122383423.88607  23288709.680    95363924.76146
  22672466.300   119144631.82708  22672468.200    92839989.42247
 15 02 18 00 27 30.0000000  0  8G16G18G21G22G25G27G29G31
  22115177.980   116216063.64908  22115179.540    90557982.15147
  22791580.260   119770595.54807  22791582.880    93327752.01146
  21047650.300   110606408.39208  21047651.400    86186915.99749
  24419645.700   128326109.03706  24419647.700    99994379.96945
  24425383.480   128356506.63705  24425389.560   100018183.19144
  23424444.440   123096293.81506  23424448.820    95919211.77946
  23302308.360   122454901.06307  23302311.420    95419621.23246
  22688702.900   119229955.64108  22688704.760    92906475.49247
 15 02 18 00 28  0.0000000  0  8G16G18G21G22G25G27G29G31
  22100281.100   116137780.16108  22100282.660    90496982.05347
  22778376.760   119701211.27507  22778379.380    93273686.35646
  21052467.280   110631721.81108  21052468.380    86206640.74949
  24401456.840   128230527.74505  24401458.780    99919901.23946
  24444517.220   128457054.96205  24444523.400   100096532.51544
  23411032.600   123025814.49106  23411037.060    95864292.87446
  23315919.040   122526426.14806  23315922.180    95475355.01546
  22704985.140   119315519.48708  22704986.960    92973148.59247
 15 02 18 00 28 30.0000000  0  8G16G18G21G22G25G27G29G31
  22085427.160   116059722.16908  22085428.660    90436157.66447
  22765218.700   119632065.64007  22765221.160    93219806.66345
  21057353.400   110657398.61908  21057354.460    86226648.65949
  24383257.200   128134889.67806  24383259.260    99845378.27745
  24463680.000   128557756.00305  24463686.280   100175000.85545
  23397636.600   122955418.54606  23397641.160    95809438.92746
  23329538.480   122597997.71806  23329541.680    95531125.02145
  22721312.260   119401319.52808  22721314.160    93040005.74547
 15 02 18 00 29  0.0000000  0  8G16G18G21G22G25G27G29G31
  22070616.840   115981893.44108  22070618.340    90375511.93347
  22752106.920   119563162.88907  22752109.160    93166116.24246
  21062308.760   110683439.34808  21062309.840    86246940.14549
  24365047.640   128039199.14505  24365049.780    99770814.42846
  24482872.080   128658610.07606  24482878.200   100253588.47544
  23384256.940   122885107.70306  23384261.500    95754651.30746
  23343167.120   122669617.40906  23343170.400    95586932.55146
  22737684.040   119487354.44608  22737686.080    93107045.91247
 15 02 18 00 29 30.0000000  0  8G16G18G21G22G25G27G29G31
  22055850.760   115904297.21408  22055852.300    90315047.36947
  22739041.960   119494506.07408  22739043.960    93112617.46246
  21067333.220   110709843.11908  21067334.300    86267514.52049
  24346829.000   127943459.23606  24346830.840    99696212.06744
  24502093.100   128759616.39306  24502099.100   100332294.65744
  23370893.580   122814882.61706  23370898.120    95699930.49746
  23356804.940   122741285.54806  23356808.360    95642777.80846
  22754100.120   119573621.88908  22754102.300    93174267.28647
 15 02 18 00 30  0.0000000  0  8G16G18G21G22G25G27G29G31
  22041129.260   115826935.43808  22041130.880    90254765.49047
  22726024.420   119426098.15307  22726026.180    93059312.62246
  21072426.540   110736608.65408  21072427.600    86288370.78949
  24328601.300   127847672.46206  24328602.960    99621573.18445
  24521342.860   128860773.49206  24521348.600   100411118.35644
  23357546.480   122744743.42506  23357551.080    95645276.61047
  23370452.020   122813002.02906  23370455.560    95698660.73146
  22770560.080   119660119.40708  22770562.300    93241667.92347
 15 02 18 00 30 30.0000000  0  8G16G18G21G22G25G27G29G31
  22026452.360   115749808.23108  22026454.080    90194666.39547
  22713054.200   119357939.14507  22713055.840    93006201.72345
  21077588.040   110763732.51708  21077589.100    86309506.27549
  24310364.680   127751839.24906  24310366.380    99546898.14845
  24540620.680   128962077.88506  24540626.080   100490056.83645
  23344215.300   122674688.07906  23344219.960    95590688.07047
  23384108.080   122884764.49106  23384111.520    95754579.50246
  22787062.900   119746841.63108  22787065.080    93309243.65347
 15 02 18 00 31  0.0000000  0  8G16G18G21G22G25G27G29G31
  22011820.760   115672918.87008  22011822.480    90134752.62747
  22700132.040   119290032.87807  22700133.620    92953287.77146
  21082817.520   110791213.73008  21082818.600    86330920.21449
  24292119.860   127655962.98706  24292121.540    99472189.49345
  24559926.320   129063528.85205  24559931.540   100569109.50944
  23330900.280   122604717.38707  23330904.960    95536165.49646
  23397773.260   122956574.20107  23397776.540    95810535.07746
  22803608.100   119833786.35908  22803610.120    93376992.77147
 15 02 18 00 31 30.0000000  0  8G16G18G21G22G25G27G29G31
  21997235.140   115596270.75408  21997236.760    90075026.83547
  22687258.620   119222382.84107  22687260.260    92900573.45646
  21088115.060   110819052.62708  21088116.160    86352612.86549
  24273867.480   127560047.56206  24273869.440    99397450.33645
  24579259.680   129165126.22105  24579264.720   100648276.26543
  23317601.660   122534832.74907  23317606.300    95481709.98346
  23411447.660   123028432.00607  23411450.880    95866528.12046
  22820195.360   119920952.06008  22820197.200    93444914.06047
 15 02 18 00 32  0.0000000  0  8G16G18G21G22G25G27G29G31
  21982695.580   115519864.90308  21982697.160    90015489.83247
  22674434.220   119154990.42607  22674436.040    92848059.88746
  21093480.000   110847245.76408  21093481.140    86374581.55549
  24255607.720   127464093.99906  24255610.080    99322681.44545
  24598620.400   129266866.97905  24598625.260   100727554.75544
  23304319.120   122465032.74807  23304323.720    95427320.42146
  23425130.980   123100336.35107  23425134.080    95922557.42546
  22836823.780   120008334.46408  22836825.560    93513004.21647
 15 02 18 00 32 30.0000000  0  8G16G18G21G22G25G27G29G31
  21968202.720   115443704.33108  21968204.220    89956143.94247
  22661659.500   119087859.31608  22661661.620    92795749.96246
  21098912.440   110875793.31108  21098913.540    86396826.40149
  24237341.440   127368106.01305  24237344.160    99247885.76045
  24618008.280   129368751.01205  24618013.080   100806944.88744
  23291052.920   122395318.74607  23291057.540    95372997.87347
  23438823.380   123172288.39707  23438826.200    95978623.93146
  22853493.000   120095931.88208  22853494.780    93581261.91847
 15 02 18 00 33  0.0000000  0  8G16G18G21G22G25G27G29G31
  21953757.000   115367791.70908  21953758.480    89896991.26747
  22648935.080   119020992.18208  22648937.380    92743645.73246
  21104412.020   110904693.59608  21104413.080    86419346.11249
  24219069.160   127272086.02805  24219072.220    99173065.10845
  24637423.160   129470776.86405  24637428.080   100886445.48945
  23277803.120   122325690.86907  23277807.720    95318742.44446
  23452524.700   123244288.06607  23452527.300    96034727.53146
  22870202.480   120183741.17308  22870204.320    93649684.71347
 15 02 18 00 33 30.0000000  0  8G16G18G21G22G25G27G29G31
  21939358.920   115292129.52708  21939360.400    89838033.73947
  22636261.500   118954391.80208  22636263.780    92691749.34846
  21109978.500   110933945.28108  21109979.500    86442139.63449
  24200791.600   127176037.43506  24200794.560    99098222.14145
  24656864.720   129572943.30106  24656869.760   100966055.68745
  23264569.800   122256149.44207  23264574.500    95264554.38046
  23466235.000   123316335.75107  23466237.620    96090868.53546
  22886951.780   120271760.00108  22886953.760    93718270.79046
 15 02 18 00 34  0.0000000  0  8G16G18G21G22G25G27G29G31
  21925008.480   115216717.60908  21925009.960    89779271.21547
  22623638.660   118888057.80708  22623640.740    92640060.53746
  21115611.120   110963544.53608  21115612.060    86465203.99749
  24182508.620   127079959.44606  24182511.520    99023356.32245
  24676332.140   129675246.13705  24676337.380   101045772.15044
  23251352.440   122186691.88007  23251357.200    95210431.66646
  23479953.780   123388428.43907  23479956.380    96147044.60946
  22903739.880   120359982.62208  22903742.020    93787015.67347
 15 02 18 00 34 30.0000000  0  8G16G18G21G22G25G27G29G31
  21910706.500   115141560.34908  21910708.000    89720707.13147
  22611067.440   118821995.40808  22611069.380    92588583.38046
  21121310.040   110993492.35308  21121310.960    86488539.96449
  24164221.180   126983857.45406  24164223.520    98948471.73145
  24695825.560   129777686.24605  24695830.940   101125595.62244
  23238151.520   122117320.59307  23238156.320    95156376.17546
  23493681.580   123460568.65707  23493684.020    96203257.73546
  22920566.760   120448408.43908  22920568.940    93855918.88547
 15 02 18 00 35  0.0000000  0  8G16G18G21G22G25G27G29G31
  21896453.400   115066659.71608  21896454.900    89662343.00747
  22598548.240   118756206.45508  22598550.080    92537319.29446
  21127074.760   111023786.24208  21127075.700    86512145.59749
  24145929.720   126887733.34906  24145931.660    98873569.94045
  24715344.580   129880261.61904  24715350.460   101205524.46045
  23224966.900   122048035.18707  23224971.800    95102387.58847
  23507418.180   123532755.41306  23507420.440    96259507.12446
  22937431.740   120537034.02308  22937433.800    93924977.75547
 15 02 18 00 35 30.0000000  0  8G16G18G21G22G25G27G29G31
  21882249.140   114992015.95708  21882250.700    89604179.05647
  22586081.140   118690691.80508  22586082.960    92486268.96246
  21132904.720   111054422.97508  21132905.660    86536018.37649
  24127634.080   126791587.96606  24127635.740    98798651.54145
  24734888.900   129982969.12205  24734895.060   101285556.25444
  23211798.280   121978834.11307  23211803.260    95048464.71046
  23521163.540   123604987.52907  23521165.620    96315791.85345
  22954333.900   120625855.09808  22954335.820    93994188.95846
 15 02 18 00 36  0.0000000  0  8G16G18G21G22G25G27G29G31
  21868094.360   114917632.07308  21868095.920    89546217.60247
  22573666.740   118625454.30207  22573668.640    92435434.57746
  21138799.700   111085401.38908  21138800.640    86560157.40149
  24109334.900   126695424.29806  24109336.280    98723718.90645
  24754458.360   130085807.48605  24754464.660   101365690.02744
  23198645.780   121909717.73707  23198650.760    94994607.83146
  23534917.620   123677264.88207  23534919.480    96372111.78845
  22971272.640   120714868.48308  22971274.480    94063550.01246
 15 02 18 00 36 30.0000000  0  8G16G18G21G22G25G27G29G31
  21853989.600   114843510.81508  21853991.120    89488460.79047
  22561305.660   118560496.90608  22561307.640    92384818.43846
  21144759.620   111116721.13708  21144760.580    86584562.40249
  24091032.740   126599245.48306  24091033.900    98648774.47245
  24774052.800   130188775.80205  24774058.960   101445925.04845
  23185509.540   121840686.73207  23185514.500    94940817.46646
  23548680.440   123749588.18207  23548682.100    96428467.54846
  22988247.520   120804072.15008  22988249.340    94133059.34546
 15 02 18 00 37  0.0000000  0  8G16G18G21G22G25G27G29G31
  21839935.540   114769655.99508  21839937.000    89430911.58547
  22548998.640   118495823.73908  22549000.740    92334423.78546
  21150784.460   111148382.12208  21150785.440    86609233.30149
  24072728.340   126503055.90006  24072729.620    98573821.63945
  24793672.160   130291874.11705  24793677.680   101526261.37943
  23172389.820   121771742.82907  23172394.800    94887095.00146
  23562452.200   123821959.00706  23562453.840    96484860.35546
  23005258.340   120893464.73607  23005260.160    94202715.88146
 15 02 18 00 37 30.0000000  0  8G16G18G21G22G25G27G29G31
  21825932.340   114696068.73208  21825933.800    89373570.87547
  22536746.060   118431436.04108  22536748.240    92284251.56346
  21156873.740   111180381.59608  21156874.720    86634167.95849
  24054422.140   126406856.72406  24054423.240    98498861.29145
  24813315.740   130395099.85905  24813320.900   101606697.01144
  23159286.540   121702884.95907  23159291.480    94833439.55146
  23576232.640   123894376.05506  23576234.540    96541289.17046
  23022304.320   120983042.29407  23022306.260    94272516.55147
 15 02 18 00 38  0.0000000  0  7G16G18G21G22G27G29G31
  21811980.500   114622751.38908  21811982.000    89316440.49547
  22524548.400   118367336.40808  22524550.560    92234303.82846
  21163027.200   111212718.05708  21163028.160    86659365.20548
  24036114.540   126310650.82706  24036115.960    98423895.78645
  23146199.740   121634113.27407  23146204.540    94779851.26447
  23590021.720   123966839.18606  23590024.120    96597753.90546
  23039385.000   121072801.77407  23039387.020    94342458.97446
 15 02 18 00 38 30.0000000  0  7G16G18G21G22G27G29G31
  21798081.480   114549711.44308  21798082.960    89259526.25747
  22512407.000   118303532.09808  22512408.980    92184586.21146
  21169245.460   111245394.90308  21169246.360    86684827.68749
  24017807.160   126214445.86006  24017808.520    98348930.96745
  23133130.380   121565433.01607  23133134.980    94726334.22146
  23603820.540   124039353.69406  23603823.380    96654258.67546
  23056500.720   121162745.18508  23056502.780    94412544.73246
 15 02 18 00 39  0.0000000  0  7G16G18G21G22G27G29G31
  21784233.920   114476941.77508  21784235.320    89202822.63447
  22500320.580   118240016.97308  22500322.380    92135093.92046
  21175526.380   111278401.33908  21175527.260    86710546.99248
  23999498.760   126118234.77706  23999500.000    98273961.35745
  23120076.620   121496834.79807  23120081.080    94672881.11947
  23617627.340   124111909.88706  23617630.560    96710795.93247
  23073649.220   121252860.43008  23073651.220    94482764.38146
 15 02 18 00 39 30.0000000  0  7G16G18G21G22G27G29G31
  21770438.520   114404446.35608  21770439.860    89146332.70948
  22488289.800   118176794.96508  22488291.500    92085830.05346
  21181870.000   111311737.27708  21181870.880    86736523.05349
  23981190.160   126022022.14806  23981191.220    98198990.56545
  23107038.780   121428320.44107  23107043.200    94619493.34947
  23631442.560   124184509.66306  23631446.040    96767367.14946
  23090830.180   121343146.32708  23090832.140    94553116.99846
 15 02 18 00 40  0.0000000  0  7G16G18G21G22G27G29G31
  21756696.280   114332230.50708  21756697.600    89090060.63247
  22476315.760   118113871.55708  22476317.380    92036798.85846
  21188276.640   111345404.50208  21188277.500    86762757.25949
  23962882.420   125925813.67806  23962883.100    98124023.01145
  23094017.500   121359893.22407  23094021.900    94566173.47946
  23645266.760   124257156.12806  23645270.320    96823974.76346
  23108043.560   121433602.69808  23108045.460    94623602.45746
 15 02 18 00 40 30.0000000  0  7G16G18G21G22G27G29G31
  21743007.200   114260294.19008  21743008.560    89034006.36948
  22464398.340   118051246.27208  22464400.040    91987999.96546
  21194745.520   111379398.85708  21194746.380    86789246.37248
  23944575.440   125829609.35006  23944575.800    98049058.67945
  23081012.360   121291550.73907  23081016.700    94512919.63346
  23659099.540   124329846.65007  23659102.960    96880616.67546
  23125288.340   121524224.44407  23125290.220    94694216.77846
 15 02 18 00 41  0.0000000  0  7G16G18G21G22G27G29G31
  21729372.220   114188641.98908  21729373.620    88978173.49648
  22452538.640   117988924.14708  22452540.440    91939437.29946
  21201276.740   111413720.78108  21201277.580    86815990.73348
  23926270.100   125733413.95006  23926270.300    97974101.28745
  23068023.780   121223295.30907  23068028.120    94459733.62947
  23672941.160   124402583.20707  23672944.300    96937294.46746
  23142564.400   121615010.66608  23142566.260    94764959.26646
 15 02 18 00 41 30.0000000  0  7G16G18G21G22G27G29G31
  21715791.920   114117276.97308  21715793.340    88922564.40748
  22440737.300   117926908.37008  22440739.220    91891113.34646
  21207870.320   111448370.08308  21207871.100    86842990.19349
  23907967.040   125637231.39806  23907967.180    97899153.92745
  23055051.980   121155128.01107  23055056.300    94406616.30147
  23686791.760   124475367.02407  23686794.600    96994009.08946
  23159871.320   121705959.30207  23159873.200    94835828.30046
 15 02 18 00 42  0.0000000  0  7G16G18G21G22G27G29G31
  21702266.560   114046200.95508  21702268.000    88867180.50548
  22428994.620   117865200.39408  22428996.660    91843029.22946
  21214525.800   111483344.63508  21214526.520    86870243.09148
  23889666.540   125541063.27206  23889666.840    97824217.79245
  23042096.820   121087048.33207  23042101.140    94353567.23647
  23700651.180   124548197.38107  23700653.820    97050759.98546
  23177208.400   121797066.77907  23177210.340    94906821.11546
 15 02 18 00 42 30.0000000  0  7G16G18G21G22G27G29G31
  21688796.800   113975416.88408  21688798.200    88812024.09348
  22417311.320   117803803.51508  22417313.420    91795187.54046
  21221242.880   111518642.93508  21221243.540    86897748.25948
  23871369.400   125444913.23606  23871369.840    97749295.75745
  23029158.440   121019057.07307  23029162.780    94300587.07047
  23714519.380   124621074.59406  23714521.880    97107547.38746
  23194575.300   121888330.86507  23194577.320    94977935.96446
 15 02 18 00 43  0.0000000  0  7G16G18G21G22G27G29G31
  21675382.980   113904926.69708  21675384.300    88757096.68148
  22405687.700   117742720.13908  22405689.820    91747590.12946
  21228021.320   111554263.70108  21228021.960    86925504.70148
  23853075.860   125348783.06906  23853076.680    97674389.19145
  23016236.840   120951154.02707  23016241.200    94247675.64547
  23728396.340   124693998.37907  23728398.760    97164371.06345
  23211971.360   121979748.28107  23211973.540    95049170.31946
 15 02 18 00 43 30.0000000  0  7G16G18G21G22G27G29G31
  21662025.360   113834731.81708  21662026.620    88702399.37648
  22394124.000   117681951.91508  22394126.140    91700238.29746
  21234860.600   111590204.19208  21234861.240    86953510.28248
  23834786.600   125252675.13405  23834787.880    97599499.93645
  23003331.840   120883338.46407  23003336.280    94194832.38247
  23742282.000   124766968.56906  23742284.540    97221230.90846
  23229395.880   122071315.04907  23229398.200    95120521.04346
 15 02 18 00 44  0.0000000  0  7G16G18G21G22G27G29G31
  21648724.120   113764833.52408  21648725.400    88647933.18048
  22382620.340   117621499.45608  22382622.420    91653132.51346
  21241760.120   111626461.29608  21241760.760    86981762.57148
  23816502.060   125156590.75706  23816503.600    97524629.07146
  22990443.300   120815609.35207  22990447.840    94142056.47747
  23756175.980   124839983.41406  23756178.860    97278125.57046
  23246848.140   122163027.46507  23246850.580    95191985.24146
 15 02 18 00 44 30.0000000  0  7G16G18G21G22G27G29G31
  21635479.780   113695234.33608  21635481.120    88593700.05348
  22371177.280   117561365.72208  22371179.220    91606275.07546
  21248719.660   111663033.93908  21248720.340    87010260.74048
  23798222.740   125060532.78406  23798224.340    97449778.76645
  22977571.360   120747967.03507  22977575.900    94089348.20947
  23770078.360   124913043.02706  23770081.660    97335055.08546
  23264327.620   122254882.49807  23264330.140    95263560.57546
 15 02 18 00 45  0.0000000  0  7G16G18G21G22G27G29G31
  21622292.220   113625933.34308  21622293.620    88539699.28948
  22359794.640   117501549.91608  22359796.460    91559665.37846
  21255738.340   111699917.65808  21255739.100    87039001.30748
  23779948.700   124964500.99106  23779950.020    97374948.86545
  22964715.440   120680408.74307  22964720.020    94036705.42747
  23783989.000   124986144.64806  23783992.400    97392017.37345
  23281833.120   122346874.20307  23281835.700    95335242.38646
 15 02 18 00 45 30.0000000  0  7G16G18G21G22G27G29G31
  21609162.540   113556936.35408  21609163.960    88485935.41048
  22348473.560   117442057.58808  22348475.240    91513307.74346
  21262816.580   111737114.21308  21262817.380    87067985.62948
  23761680.760   124868500.96506  23761681.800    97300143.70745
  22951876.160   120612937.79507  22951880.740    93984130.68347
  23797908.480   125059291.24206  23797911.640    97449014.70746
  23299364.760   122439003.09607  23299367.340    95407031.10446
 15 02 18 00 46  0.0000000  0  7G16G18G21G22G27G29G31
  21596090.980   113488244.87108  21596092.420    88432409.59448
  22337214.440   117382890.35608  22337215.920    91467203.42646
  21269953.760   111774620.38708  21269954.560    87097211.22148
  23743419.260   124772534.72706  23743420.000    97225364.88445
  22939053.400   120545553.73607  22939058.020    93931623.66347
  23811836.620   125132482.34607  23811839.600    97506046.69146
  23316921.780   122531265.41507  23316924.280    95478923.77446
 15 02 18 00 46 30.0000000  0  7G16G18G21G22G27G29G31
  21583078.560   113419864.27708  21583080.000    88379126.02848
  22326018.260   117324053.56008  22326019.560    91421356.60146
  21277150.320   111812438.62508  21277151.140    87126679.98048
  23725165.220   124676608.05106  23725165.900    97150616.89445
  22926247.740   120478259.62307  22926252.360    93879186.72247
  23825773.780   125205721.05807  23825776.580    97563115.76845
  23334504.240   122623661.42207  23334506.620    95550920.61646
 15 02 18 00 47  0.0000000  0  7G16G18G21G22G27G29G31
  21570125.260   113351794.50408  21570126.740    88326084.66748
  22314885.020   117265547.55308  22314886.200    91375767.52746
  21284405.480   111850564.85608  21284406.340    87156388.73248
  23706918.700   124580721.46006  23706919.380    97075900.12346
  22913458.820   120411053.33707  22913463.420    93826818.21247
  23839719.620   125279005.06107  23839722.100    97620220.15946
  23352111.000   122716185.59707  23352113.240    95623017.36946
 15 02 18 00 47 30.0000000  0  7G16G18G21G22G27G29G31
  21557231.780   113284038.97208  21557233.280    88273288.15548
  22303815.160   117207375.02208  22303816.360    91330438.31146
  21291719.140   111888998.27508  21291720.000    87186336.85749
  23688680.400   124484878.61006  23688681.220    97001217.43646
  22900686.880   120343936.10807  22900691.400    93774519.09547
  23853674.100   125352335.19407  23853676.460    97677360.47845
  23369741.720   122808835.89707  23369743.780    95695212.37046
 15 02 18 00 48  0.0000000  0  7G16G18G21G22G27G29G31
  21544398.720   113216600.95808  21544400.220    88220739.06748
  22292809.380   117149539.77508  22292810.780    91285371.90946
  21299091.100   111927738.06308  21299091.940    87216523.70448
  23670451.160   124389083.11006  23670452.040    96926571.64746
  22887932.060   120276909.11907  22887936.520    93722290.29947
  23867637.300   125425712.55006  23867639.860    97734537.57445
  23387396.180   122901610.62907  23387398.120    95767504.34846
 15 02 18 00 48 30.0000000  0  7G16G18G21G22G27G29G31
  21531626.380   113149481.74808  21531627.820    88168438.39248
  22281867.920   117092042.80908  22281869.540    91240569.08447
  21306520.880   111966781.76308  21306521.720    87246947.37148
  23652231.120   124293336.20907  23652232.120    96851963.73246
  22875194.220   120209971.31007  22875198.600    93670131.01647
  23881609.080   125499136.00506  23881612.060    97791750.67746
  23405073.520   122994505.62307  23405075.400    95839890.01446
 15 02 18 00 49  0.0000000  0  7G16G18G21G22G27G29G31
  21518914.860   113082682.01008  21518916.200    88116386.65448
  22270990.880   117034884.91508  22270992.820    91196030.48647
  21314007.920   112006126.50708  21314008.760    87277605.61548
  23634020.540   124197639.32006  23634021.760    96777394.76846
  22862473.100   120143121.47007  22862477.420    93618040.26947
  23895589.260   125572604.19206  23895592.540    97848998.54546
  23422772.940   123087516.60007  23422774.840    95912366.05646
 15 02 18 00 49 30.0000000  0  7G16G18G21G22G27G29G31
  21506264.680   113016204.65008  21506265.960    88064586.13048
  22260178.980   116978069.03708  22260181.100    91151758.39646
  21321552.000   112045770.99708  21321552.860    87308497.42748
  23615820.180   124101995.81407  23615821.480    96702867.41646
  22849768.840   120076360.38007  22849773.120    93566018.65547
  23909578.120   125646117.62606  23909581.560    97906281.75346
  23440493.940   123180641.13907  23440496.020    95984930.60346
 15 02 18 00 50  0.0000000  0  7G16G18G21G22G27G29G31
  21493676.020   112950050.75508  21493677.300    88013037.65848
  22249432.440   116921595.98508  22249434.540    91107753.43746
  21329152.520   112085712.04608  21329153.400    87339620.32348
  23597630.260   124006407.04206  23597631.520    96628382.68846
  22837081.240   120009686.91307  22837085.520    93514065.32647
  23923575.620   125719675.04606  23923579.000    97963599.18445
  23458235.800   123273875.12407  23458238.060    96057580.41246
 15 02 18 00 50 30.0000000  0  7G16G18G21G22G27G29G31
  21481149.200   112884221.84808  21481150.500    87961742.41148
  22238751.560   116865467.24608  22238753.460    91064016.76946
  21336808.960   112125946.92608  21336809.860    87370972.17948
  23579451.220   123910875.05807  23579452.300    96553942.22846
  22824410.180   119943100.39007  22824414.480    93462179.74847
  23937581.700   125793275.89307  23937584.820    98020950.44446
  23475997.820   123367214.57607  23476000.080    96130312.42546
 15 02 18 00 51  0.0000000  0  7G16G18G21G22G27G29G31
  21468685.300   112818723.69808  21468686.660    87910704.90248
  22228137.400   116809688.63308  22228139.000    91020552.93846
  21344521.800   112166478.31008  21344522.740    87402555.07648
  23561284.040   123815405.85107  23561285.000    96479550.68546
  22811756.340   119876604.49307  22811760.680    93410364.78847
  23951596.760   125866923.20206  23951599.540    98078337.95846
  23493780.040   123460660.17907  23493782.280    96203127.14646
 15 02 18 00 51 30.0000000  0  7G16G18G21G22G27G29G31
  21456284.660   112753557.90609  21456286.040    87859926.37348
  22217590.140   116754261.60908  22217591.520    90977363.07246
  21352290.640   112207303.64008  21352291.560    87434367.03048
  23543129.120   123720001.54207  23543130.020    96405209.71245
  22799119.700   119810198.72707  22799124.020    93358620.06947
  23965620.540   125940616.71106  23965623.020    98135761.41846
  23511581.700   123554208.24407  23511583.940    96276021.71046
 15 02 18 00 52  0.0000000  0  7G16G18G21G22G27G29G31
  21443948.000   112688728.20408  21443949.320    87809409.73748
  22207110.380   116699189.68908  22207111.620    90934449.90347
  21360115.280   112248422.33508  21360116.200    87466407.57348
  23524987.140   123624665.93407  23524988.000    96330922.26045
  22786500.540   119743884.76208  22786504.840    93306946.88847
  23979653.140   126014357.65006  23979655.480    98193221.86146
  23529402.540   123647857.32807  23529404.800    96348994.97346
 15 02 18 00 52 30.0000000  0  7G16G18G21G22G27G29G31
  21431675.300   112624234.78608  21431676.560    87759155.13748
  22196698.100   116644473.02708  22196699.380    90891813.56247
  21367995.040   112289830.84308  21367995.980    87498673.93948
  23506858.360   123529399.68207  23506859.220    96256688.84346
  22773898.500   119677660.68408  22773902.800    93255343.74147
  23993694.200   126088143.98106  23993696.660    98250717.66145
  23547241.580   123741602.47807  23547243.960    96422043.10945
 15 02 18 00 53  0.0000000  0  7G16G18G21G22G27G29G31
  21419467.320   112560081.70408  21419468.580    87709165.73748
  22186354.080   116590115.50008  22186355.540    90849457.06647
  21375929.960   112331529.26808  21375930.920    87531166.22548
  23488743.680   123434207.35007  23488744.480    96182513.02145
  22761313.960   119611528.42808  22761318.280    93203812.16247
  24007743.960   126161977.60306  24007746.940    98308250.28945
  23565098.640   123835442.48207  23565101.060    96495165.14146
 15 02 18 00 53 30.0000000  0  7G16G18G21G22G27G29G31
  21407323.700   112496266.68209  21407324.960    87659439.76248
  22176077.960   116536114.58708  22176079.560    90807378.44347
  21383918.860   112373511.50708  21383919.840    87563879.65648
  23470642.880   123339087.47907  23470643.540    96108393.66646
  22748746.120   119545483.67308  22748750.380    93152348.75547
  24021801.980   126235854.15006  24021805.360    98365816.42045
  23582972.300   123929369.82507  23582974.780    96568355.24946
 15 02 18 00 54  0.0000000  0  7G16G18G21G22G27G29G31
  21395245.600   112432795.82709  21395246.840    87609981.96248
  22165870.980   116482476.39808  22165872.600    90765582.46347
  21391962.160   112415779.54708  21391963.160    87596815.79048
  23452557.260   123244046.29007  23452557.620    96034335.63345
  22736195.660   119479530.45508  22736199.880    93100956.67447
  24035868.860   126309777.08805  24035872.360    98423418.72846
  23600862.900   124023385.29107  23600865.280    96641614.01646
 15 02 18 00 54 30.0000000  0  7G16G18G21G22G27G29G31
  21383233.260   112369670.39409  21383234.460    87560793.32748
  22155733.360   116429202.48308  22155734.940    90724070.33847
  21400059.360   112458330.93008  21400060.420    87629972.71248
  23434486.940   123149085.13707  23434487.000    95960339.96846
  22723662.440   119413667.80808  22723666.620    93049635.17047
  24049944.300   126383745.52806  24049947.920    98481056.39945
  23618769.600   124117484.93607  23618771.840    96714938.36945
 15 02 18 00 55  0.0000000  0  7G16G18G21G22G27G29G31
  21371287.260   112306893.61709  21371288.400    87511876.36448
  22145665.560   116376295.34008  22145667.020    90682844.00947
  21408210.320   112501164.83708  21408211.420    87663349.78148
  23416432.560   123054207.82907  23416432.440    95886409.63946
  22711146.640   119347896.89008  22711150.820    92998385.13147
  24064028.640   126457760.25107  24064032.380    98538730.16444
  23636691.940   124211666.91407  23636694.140    96788326.88545
 15 02 18 00 55 30.0000000  0  7G16G18G21G22G27G29G31
  21359407.400   112244464.62109  21359408.520    87463230.39748
  22135667.380   116323754.26908  22135668.740    90641902.92947
  21416414.100   112544276.39208  21416415.260    87696943.19848
  23398393.920   122959413.93107  23398393.760    95812544.30746
  22698647.740   119282214.83808  22698651.940    92947204.33647
  24078121.460   126531818.33606  24078125.160    98596437.79244
  23654628.820   124305925.00607  23654630.900    96861774.71646
 15 02 18 00 56  0.0000000  0  7G16G18G21G22G27G29G31
  21347594.560   112182387.88809  21347595.700    87414858.92148
  22125739.560   116271583.43508  22125741.000    90601250.35047
  21424670.940   112587666.36008  21424672.080    87730753.56148
  23380372.040   122864708.76707  23380372.040    95738748.12546
  22686166.220   119216624.30207  22686170.440    92896094.84547
  24092223.080   126605922.16606  24092226.540    98654180.99145
  23672580.120   124400258.76007  23672582.080    96935281.49646
 15 02 18 00 56 30.0000000  0  7G16G18G21G22G27G29G31
  21335849.140   112120665.54209  21335850.320    87366763.59648
  22115882.500   116219784.71908  22115884.060    90560887.72647
  21432980.360   112631332.38908  21432981.440    87764779.03648
  23362367.400   122770094.50907  23362367.640    95665022.77046
  22673702.140   119151125.28207  22673706.380    92845056.67347
  24106333.480   126680071.77007  24106336.300    98711959.88145
  23690545.140   124494665.07307  23690547.100    97008844.82046
 15 02 18 00 57  0.0000000  0  7G16G18G21G22G27G29G31
  21324171.780   112059300.72909  21324173.020    87318946.85948
  22106096.820   116168361.17008  22106098.520    90520817.44947
  21441342.280   112675274.27308  21441343.260    87799019.46348
  23344380.780   122675574.88007  23344381.240    95591371.14646
  22661255.620   119085718.76707  22661259.860    92794090.59247
  24120452.760   126754267.44307  24120455.280    98769774.64344
  23708523.480   124589141.73507  23708525.460    97082462.95946
 15 02 18 00 57 30.0000000  0  7G16G18G21G22G27G29G31
  21312562.840   111998295.29809  21312564.080    87271410.16448
  22096382.960   116117314.62308  22096384.700    90481040.93047
  21449756.340   112719490.16508  21449757.260    87833473.40348
  23326412.620   122581152.06607  23326413.240    95517794.96446
  22648826.700   119020404.73307  22648830.960    92743196.56447
  24134580.920   126828509.78707  24134583.320    98827625.83545
  23726514.540   124683685.66406  23726516.660    97156133.51646
 15 02 18 00 58  0.0000000  0  7G16G18G21G22G27G29G31
  21301022.680   111937651.55109  21301023.980    87224155.30048
  22086741.180   116066646.72408  22086742.900    90441559.46747
  21458222.040   112763977.44808  21458222.920    87868138.82048
  23308463.340   122486828.57807  23308464.080    95444296.17146
  22636415.360   118955182.96307  22636419.580    92692374.42647
  24148717.660   126902798.03307  24148720.000    98885512.77845
  23744517.780   124778293.51006  23744519.980    97229853.87946
 15 02 18 00 58 30.0000000  0  7G16G18G21G22G27G29G31
  21289551.920   111877372.46309  21289553.220    87177184.58048
  22077171.980   116016360.27308  22077173.600    90402375.23847
  21466739.180   112808735.37108  21466740.100    87903015.12448
  23290533.820   122392608.16707  23290534.540    95370877.70246
  22624021.820   118890054.70508  22624026.000    92641625.15747
  24162863.120   126977132.74806  24162865.580    98943435.92446
  23762532.820   124872963.18107  23762535.100    97303622.39546
 15 02 18 00 59  0.0000000  0  7G16G18G21G22G27G29G31
  21278150.900   111817460.00809  21278152.260    87130499.55948
  22067675.660   115966456.74508  22067677.220    90363489.39547
  21475307.480   112853762.24908  21475308.460    87938101.00348
  23272624.360   122298493.15107  23272624.980    95297541.36146
  22611646.140   118825020.03308  22611650.260    92590948.82047
  24177017.260   127051514.22806  24177020.120    99001395.45346
  23780559.020   124967691.80406  23780561.400    97377436.86746
 15 02 18 00 59 30.0000000  0  7G16G18G21G22G27G29G31
  21266820.240   111757917.32709  21266821.640    87084102.66248
  22058252.860   115916939.50508  22058254.380    90324904.55347
  21483926.800   112899057.16008  21483927.800    87973395.73948
  23254735.580   122204487.27007  23254736.240    95224290.07146
  22599288.480   118760079.97108  22599292.600    92540346.19847
  24191180.360   127125943.32106  24191183.960    99059392.10246
  23798596.040   125062477.23606  23798598.540    97451295.60046
 15 02 18 01 00  0.0000000  0  7G16G18G21G22G27G29G31
  21255559.340   111698740.95409  21255560.760    87037991.20048
  22048902.900   115867805.32808  22048904.440    90286618.19847
  21492595.800   112944613.02308  21492596.820    88008893.81248
  23236866.900   122110587.53206  23236867.720    95151121.47546
  22586947.840   118695229.41008  22586951.960    92489813.32247
  24205351.680   127200414.64406  24205355.500    99117421.70445
  23816642.200   125157310.88806  23816644.920    97525191.91646
 15 02 18 01 00 30.0000000  0  7G16G18G21G22G27G29G31
  21244369.820   111639939.65308  21244371.280    86992172.01148
  22039627.280   115819061.88908  22039628.860    90248636.30847
  21501315.340   112990434.50508  21501316.360    88044598.86448
  23219020.060   122016802.97607  23219021.160    95078042.64646
  22574625.440   118630474.65808  22574629.540    92439355.10947
  24219532.280   127274934.52006  24219536.440    99175489.05345
  23834698.200   125252196.22106  23834701.100    97599128.50246
 15 02 18 01 01  0.0000000  0  7G16G18G21G22G27G29G31
  21233251.260   111581511.22809  21233252.740    86946643.36448
  22030425.600   115770706.81308  22030427.140    90210957.04447
  21510084.260   113036515.61908  21510085.300    88080506.22048
  23201194.900   121923131.95607  23201196.200    95005052.28946
  22562320.520   118565811.61708  22562324.600    92388968.34547
  24233721.360   127349498.36306  24233725.040    99233590.77545
  23852762.760   125347126.10106  23852765.680    97673099.79846
 15 02 18 01 01 30.0000000  0  7G16G18G21G22G27G29G31
  21222204.280   111523458.86408  21222205.760    86901407.75448
  22021298.420   115722743.06408  22021299.960    90173582.71147
  21518902.460   113082855.56008  21518903.500    88116615.26048
  23183392.200   121829578.14907  23183393.500    94932153.26046
  22550033.280   118501241.71208  22550037.360    92338654.15347
  24247919.240   127424107.17306  24247922.660    99291727.44645
  23870835.500   125442098.58906  23870838.420    97747104.26846
 15 02 18 01 02  0.0000000  0  7G16G18G21G22G27G29G31
  21211229.800   111465787.49908  21211231.280    86856469.03448
  22012246.740   115675175.78908  22012248.260    90136517.31447
  21527770.120   113129455.39108  21527771.160    88152926.81748
  23165613.040   121736147.04007  23165614.180    94859349.82146
  22537764.320   118436767.83708  22537768.360    92288414.79847
  24262126.220   127498763.80706  24262129.160    99349901.45544
  23888916.400   125537113.54006  23888919.140    97821141.84346
 15 02 18 01 02 30.0000000  0  7G16G18G21G22G27G29G31
  21200328.260   111408499.33508  21200329.740    86811828.91348
  22003270.800   115628006.54608  22003272.280    90099762.07047
  21536686.800   113176313.23108  21536687.920    88189439.41248
  23147857.780   121642841.31307  23147858.660    94786644.09446
  22525513.660   118372390.38608  22525517.680    92238250.57247
  24276342.160   127573468.42406  24276344.720    99408112.81044
  23907004.840   125632167.96906  23907007.320    97895210.17545
 15 02 18 01 03  0.0000000  0  7G16G18G21G22G27G29G31
  21189499.260   111351592.39608  21189500.720    86767485.84748
  21994370.120   115581232.94908  21994371.540    90063315.12347
  21545651.520   113223423.37108  21545652.660    88226148.60748
  23130126.080   121549659.44107  23130126.680    94714034.88146
  22513280.600   118308105.39008  22513284.600    92188158.40047
  24290566.340   127648217.05205  24290568.900    99466358.45146
  23925099.440   125727254.90406  23925101.740    97969303.84146
 15 02 18 01 03 30.0000000  0  7G16G18G21G22G27G29G31
  21178744.320   111295074.72109  21178745.740    86723446.10448
  21985546.140   115534862.77908  21985547.540    90027182.53547
  21554665.000   113270789.69908  21554666.160    88263057.43248
  23112419.560   121456610.07607  23112419.880    94641528.89846
  22501066.220   118243918.84708  22501070.260    92138142.94047
  24304800.020   127723014.66505  24304802.420    99524642.34144
  23943200.760   125822377.21806  23943202.900    98043425.07546
 15 02 18 01 04  0.0000000  0  7G16G18G21G22G27G29G31
  21168063.720   111238947.97008  21168065.160    86679710.98448
  21976799.160   115488897.44908  21976800.600    89991365.40947
  21563726.860   113318410.18408  21563728.040    88300164.30248
  23094738.580   121363695.34207  23094738.740    94569127.84946
  22488870.520   118179830.52907  22488874.620    92088204.01348
  24319042.860   127797861.73107  24319044.940    99582964.78744
  23961308.080   125917531.55906  23961310.280    98117571.25146
 15 02 18 01 04 30.0000000  0  7G16G18G21G22G27G29G31
  21157457.040   111183209.54308  21157458.460    86636278.44648
  21968128.600   115443333.93208  21968130.200    89955861.38747
  21572835.960   113366278.73508  21572837.140    88337464.47248
  23077082.700   121270913.09307  23077082.840    94496830.01346
  22476692.700   118115835.98108  22476696.840    92038338.16347
  24333293.960   127872753.55306  24333296.680    99641321.93045
  23979419.860   126012710.07806  23979422.240    98191736.27845
 15 02 18 01 05  0.0000000  0  7G16G18G21G22G27G29G31
  21146924.960   111127863.13108  21146926.360    86593151.37748
  21959535.100   115398175.40208  21959536.800    89920672.94447
  21581992.120   113414394.35208  21581993.260    88374957.15648
  23059452.700   121178267.55307  23059452.900    94424638.69246
  22464533.140   118051937.01008  22464537.260    91988546.79147
  24347553.960   127947691.02106  24347556.960    99699714.79744
  23997535.920   126107911.61206  23997538.600    98265919.22846
 15 02 18 01 05 30.0000000  0  7G16G18G21G22G27G29G31
  21136468.040   111072911.50409  21136469.440    86550331.93448
  21951019.260   115353424.82908  21951020.960    89885802.38247
  21591195.200   113462756.41708  21591196.300    88412641.88448
  23041849.340   121085762.08907  23041849.500    94352556.53146
  22452391.920   117988134.47608  22452396.020    91938830.56047
  24361822.840   128022675.02806  24361825.880    99758143.83044
  24015656.000   126203133.84206  24015658.900    98340118.32246
 15 02 18 01 06  0.0000000  0  7G16G18G21G22G27G29G31
  21126086.000   111018353.32109  21126087.360    86507819.07048
  21942580.660   115309079.63608  21942582.260    89851247.70947
  21600444.160   113511359.79908  21600445.220    88450514.64948
  23024272.520   120993395.85707  23024272.580    94280582.85446
  22440268.440   117924425.04808  22440272.520    91889186.87847
  24376100.300   128097702.18605  24376103.060    99816606.67346
  24033778.780   126298370.13806  24033781.880    98414328.37146
 15 02 18 01 06 30.0000000  0  7G16G18G21G22G27G29G31
  21115780.780   110964198.92709  21115782.120    86465620.84348
  21934221.340   115265150.81408  21934222.860    89817017.47247
  21609740.200   113560210.72708  21609741.240    88488580.30548
  23006724.320   120901179.88507  23006724.280    94208726.28746
  22428164.360   117860817.48108  22428168.340    91839622.55947
  24390387.520   128172780.81207  24390390.140    99875109.38845
  24051905.480   126393626.55506  24051908.660    98488554.09545
 15 02 18 01 07  0.0000000  0  7G16G18G21G22G27G29G31
  21105551.460   110910443.56709  21105552.780    86423733.55348
  21925940.140   115221632.66208  21925941.640    89783107.23847
  21619081.760   113609300.96108  21619082.780    88526832.43248
  22989203.920   120809109.82207  22989203.840    94136983.41546
  22416078.380   117797305.19108  22416082.280    91790132.49347
  24404682.940   128247904.06105  24404685.780    99933646.92844
  24070034.080   126488892.74906  24070037.300    98562787.42646
 15 02 18 01 07 30.0000000  0  7G16G18G21G22G27G29G31
  21095399.340   110857094.18108  21095400.740    86382162.61448
  21917738.340   115178532.05408  21917739.860    89749522.36147
  21628469.360   113658633.08008  21628470.380    88565273.04248
  22971712.740   120717193.20807  22971712.640    94065360.11546
  22404011.420   117733893.13208  22404015.320    91740720.53147
  24418987.860   128323076.19306  24418990.720    99992222.62745
  24088164.960   126584170.58906  24088168.100    98637029.83145
 15 02 18 01 08  0.0000000  0  7G16G18G21G22G27G29G31
  21085324.300   110804149.60409  21085325.740    86340907.10548
  21909615.660   115135847.30308  21909617.240    89716261.53047
  21637902.200   113708202.80208  21637903.180    88603898.80148
  22954250.700   120625429.78407  22954250.700    93993856.17946
  22391962.960   117670578.42108  22391966.880    91691384.42247
  24433301.520   128398294.71605  24433304.200   100050834.48344
  24106297.020   126679454.20106  24106300.000    98711276.72946
 15 02 18 01 08 30.0000000  0  7G16G18G21G22G27G29G31
  21075326.880   110751612.86509  21075328.320    86299969.38748
  21901572.540   115093580.74008  21901574.200    89683326.56147
  21647380.000   113758008.81708  21647380.940    88642708.69148
  22936818.420   120533822.61607  22936818.600    93922473.99046
  22379933.260   117607362.12008  22379937.180    91642124.98648
  24447624.080   128473560.30506  24447626.700   100109482.99145
  24124429.860   126774741.54206  24124432.640    98785526.51145
 15 02 18 01 09  0.0000000  0  7G16G18G21G22G27G29G31
  21065407.680   110699487.31709  21065409.140    86259352.08948
  21893609.620   115051735.44408  21893611.380    89650719.85547
  21656902.540   113808050.14208  21656903.480    88681701.93148
  22919416.620   120442375.90507  22919417.080    93851216.84147
  22367922.620   117544245.94108  22367926.540    91592943.57048
  24461955.480   128548874.27305  24461958.580   100168169.09546
  24142563.160   126870031.20206  24142565.740    98859778.12145
 15 02 18 01 09 30.0000000  0  7G16G18G21G22G27G29G31
  21055567.320   110647775.91109  21055568.780    86219057.49048
  21885727.320   115010313.75708  21885729.140    89618443.22647
  21666469.840   113858326.66908  21666470.780    88720878.44048
  22902045.960   120351092.80907  22902046.680    93780087.17947
  22355931.160   117481230.73508  22355935.140    91543840.83548
  24476296.340   128624237.12005  24476299.880   100226893.40044
  24160696.360   126965320.77606  24160698.780    98934029.65346
 15 02 18 01 10  0.0000000  0  7G16G18G21G22G27G29G31
  21045805.540   110596477.43109  21045807.000    86179084.65648
  21877925.360   114969314.27208  21877927.180    89586495.59047
  21676080.960   113908833.56908  21676081.920    88760234.47048
  22884706.320   120259972.71207  22884707.240    93709084.53247
  22343958.360   117418313.54408  22343962.400    91494814.47248
  24490645.820   128699645.73405  24490649.720   100285653.29544
  24178828.300   127060604.04106  24178830.640    99008276.26746
 15 02 18 01 10 30.0000000  0  7G16G18G21G22G27G29G31
  21036123.000   110545595.26709  21036124.440    86139436.22048
  21870204.440   114928740.41208  21870206.240    89554879.61547
  21685735.840   113959570.46308  21685736.840    88799769.71248
  22867398.640   120169020.35307  22867399.620    93638212.60946
  22332004.620   117355496.42608  22332008.700    91445866.09448
  24505004.540   128775101.57905  24505008.440   100344450.14845
  24196958.760   127155879.87906  24196961.040    99082517.09745
 15 02 18 01 11  0.0000000  0  8G16G18G19G21G22G27G29G31
  21026521.080   110495136.67909  21026522.480    86100117.84248
  21862565.660   114888598.29908  21862567.420    89523600.06547
  24541114.140   128964427.26505  24541115.100   100491762.76645
  21695435.080   114010540.29308  21695436.080    88839486.46848
  22850124.280   120078242.82807  22850125.100    93567476.91546
  22320070.900   117292784.63308  22320075.000    91396999.77148
  24519373.220   128850609.69906  24519377.100   100403287.56045
  24215088.060   127251150.14306  24215090.380    99156753.57945
 15 02 18 01 11 30.0000000  0  8G16G18G19G21G22G27G29G31
  21016994.980   110445076.71709  21016996.340    86061110.07948
  21855004.220   114848862.74008  21855005.960    89492637.30647
  24525784.580   128883869.20805  24525785.460   100428990.30145
  21705173.160   114061714.39308  21705174.200    88879362.39348
  22832878.660   119987616.06107  22832879.140    93496858.68146
  22308152.180   117230151.51808  22308156.320    91348194.77748
  24533746.980   128926143.32006  24533750.720   100462144.89745
  24233210.700   127346385.57706  24233213.120    99230962.87945
 15 02 18 01 12  0.0000000  0  8G16G18G19G21G22G27G29G31
  21007552.780   110395457.81809  21007554.140    86022446.00648
  21847528.060   114809575.51908  21847529.780    89462023.90647
  24510467.620   128803377.86105  24510468.260   100366269.82545
  21714957.460   114113131.59908  21714958.580    88919427.74448
  22815669.800   119897183.07007  22815670.000    93426391.44846
  22296256.180   117167637.80508  22296260.340    91299482.80848
  24548133.300   129001742.76406  24548136.820   100521053.54344
  24251333.700   127441623.23906  24251336.280    99305173.93845
 15 02 18 01 12 30.0000000  0  7G16G18G19G21G22G27G31
  20998185.000   110346229.88409  20998186.360    85984086.58348
  21840127.580   114770686.07608  21840129.340    89431720.45647
  24495153.380   128722901.26805  24495154.180   100303560.82045
  21724777.760   114164737.85208  21724778.920    88959640.40948
  22798488.380   119806894.60307  22798488.340    93356036.81946
  22284373.100   117105191.78208  22284377.260    91250823.61248
  24269446.700   127536808.48206  24269449.520    99379344.13646
 15 02 18 01 13  0.0000000  0  7G16G18G19G21G22G27G31
  20988907.340   110297475.42009  20988908.720    85946096.09648
  21832818.620   114732277.28708  21832820.400    89401791.54247
  24479857.220   128642520.02705  24479858.180   100240926.16444
  21734649.060   114216612.28908  21734650.300    89000062.04848
  22781350.260   119716833.85207  22781350.140    93285859.63546
  22272518.320   117042894.33508  22272522.460    91202280.17648
  24287564.680   127632019.15706  24287567.540    99453534.14545
 15 02 18 01 13 30.0000000  0  7G16G18G19G21G22G27G31
  20979709.160   110249138.43409  20979710.540    85908430.91448
  21825590.260   114694291.72008  21825591.980    89372192.41347
  24464568.040   128562175.66105  24464569.140   100178320.22445
  21744560.040   114268695.00608  21744561.300    89040645.97948
  22764244.820   119626945.19107  22764244.840    93215816.55346
  22260680.740   116980687.36408  22260684.840    91153807.23648
  24305675.840   127727193.80806  24305678.820    99527696.11545
 15 02 18 01 14  0.0000000  0  7G16G18G19G21G22G27G31
  20970593.120   110201233.04209  20970594.480    85871102.04348
  21818445.140   114656743.15508  21818446.780    89342933.80947
  24449288.180   128481880.68705  24449289.440   100115752.75744
  21754512.680   114320996.32908  21754513.900    89081400.25548
  22747174.980   119537243.14407  22747175.180    93145918.87347
  22248862.760   116918583.50208  22248866.800    91105414.64748
  24323782.060   127822341.85906  24323785.080    99601837.28446
 15 02 18 01 14 30.0000000  0  7G16G18G19G21G22G27G31
  20961559.260   110153759.68509  20961560.580    85834109.82548
  21811383.080   114619631.35608  21811384.660    89314015.53947
  24434017.540   128401633.42906  24434018.840   100053222.48645
  21764506.340   114373513.18308  21764507.560    89122322.47748
  22730140.980   119447728.82207  22730141.300    93076167.47847
  22237064.120   116856581.37208  22237068.140    91057101.33248
  24341882.440   127917458.94406  24341885.440    99675954.35445
 15 02 18 01 15  0.0000000  0  7G16G18G19G21G22G27G31
  20952608.520   110106723.16609  20952609.760    85797457.99848
  21804404.980   114582961.05908  21804406.560    89285441.29447
  24418756.620   128321437.39206  24418757.940    99990732.13045
  21774541.140   114426246.34808  21774542.380    89163413.24848
  22713143.980   119358408.16508  22713144.300    93006566.99447
  22225285.560   116794684.58008  22225289.540    91008870.09548
  24359977.060   128012545.39206  24359980.000    99750047.54545
 15 02 18 01 15 30.0000000  0  7G16G18G19G21G22G27G31
  20943740.920   110060123.44509  20943742.100    85761146.52948
  21797510.760   114546732.03208  21797512.420    89257210.89647
  24403505.120   128241290.28906  24403506.420    99928279.92245
  21784616.420   114479192.04608  21784617.620    89204669.63948
  22696183.940   119269281.62808  22696184.220    92937117.76347
  22213526.740   116732891.51608  22213530.680    90960719.68547
  24378064.940   128107596.36106  24378067.900    99824113.06946
 15 02 18 01 16  0.0000000  0  7G16G18G19G21G22G27G31
  20934956.860   110013962.85909  20934958.040    85725177.24448
  21790700.660   114510945.52708  21790702.460    89229325.33047
  24388263.060   128161192.50206  24388264.220    99865866.14945
  21794731.920   114532349.26008  21794733.120    89246090.84548
  22679261.280   119180352.05808  22679261.580    92867822.02747
  22201787.720   116671202.48908  22201791.640    90912650.34248
  24396145.480   128202608.71906  24396148.440    99898148.51746
 15 02 18 01 16 30.0000000  0  7G16G18G19G21G22G27G31
  20926256.220   109968240.79509  20926257.460    85689549.66348
  21783974.600   114475600.67408  21783976.500    89201783.89647
  24373030.060   128081142.02906  24373030.940    99803489.23345
  21804886.940   114585714.16108  21804888.140    89287673.87648
  22662376.140   119091620.03808  22662376.520    92798680.21447
  22190068.220   116609616.05408  22190072.100    90864660.92448
  24414217.820   128297578.30106  24414220.820    99972150.62045
 15 02 18 01 17  0.0000000  0  7G16G18G19G21G22G27G31
  20917640.160   109922963.43509  20917641.460    85654268.60849
  21777333.740   114440703.05808  21777335.640    89174590.96547
  24357806.800   128001142.69906  24357807.460    99741152.18444
  21815081.820   114639288.29908  21815082.960    89329419.96448
  22645529.840   119003092.39708  22645530.340    92729697.66347
  22178369.000   116548136.34008  22178372.920    90816754.69548
  24432282.260   128392505.98906  24432285.140   100046120.05546
 15 02 18 01 17 30.0000000  0  7G16G18G19G21G22G27G31
  20909108.880   109878131.58709  20909110.220    85619334.70948
  21770778.060   114406252.30908  21770779.800    89147746.24647
  24342592.900   127921193.23806  24342593.460    99678853.98145
  21825316.100   114693069.52508  21825317.160    89371327.40948
  22628722.560   118914769.92208  22628723.100    92660874.98247
  22166689.840   116486762.05308  22166693.760    90768930.60148
  24450337.900   128487387.44906  24450340.680   100120053.46646
 15 02 18 01 18  0.0000000  0  7G16G18G19G21G22G27G31
  20900663.300   109833749.82009  20900664.620    85584751.52049
  21764308.320   114372253.09408  21764309.900    89121253.37347
  24327389.020   127841296.62206  24327389.740    99616596.94945
  21835589.820   114747057.95508  21835590.820    89413396.31548
  22611955.380   118826658.14108  22611955.880    92592216.47247
  22155031.400   116425496.60308  22155035.320    90721191.31648
  24468384.600   128582222.60706  24468387.400   100193950.78945
 15 02 18 01 18 30.0000000  0  7G16G18G19G21G22G27G31
  20892303.460   109789818.47309  20892304.760    85550519.30748
  21757924.440   114338705.10508  21757925.880    89095112.10047
  24312194.860   127761451.47606  24312195.780    99554380.03045
  21845902.460   114801251.11208  21845903.420    89455624.74748
  22595228.380   118738757.74308  22595228.880    92523722.68247
  22143393.500   116364338.89708  22143397.400    90673535.99448
  24486421.520   128677007.10906  24486424.500   100267808.64045
 15 02 18 01 19  0.0000000  0  7G16G18G19G21G22G27G31
  20884029.740   109746339.57809  20884031.000    85516639.64949
  21751626.600   114305609.78508  21751628.020    89069323.55947
  24297010.460   127681657.98306  24297011.620    99492203.33145
  21856253.740   114855647.33208  21856254.680    89498011.41048
  22578542.260   118651072.03808  22578542.660    92455396.18746
  22131776.160   116303289.45308  22131780.040    90625965.02148
  24504448.280   128771738.90806  24504451.560   100341625.41745
 15 02 18 01 19 30.0000000  0  7G16G18G19G21G22G27G31
  20875842.120   109703313.50508  20875843.360    85483112.83949
  21745414.720   114272966.53808  21745416.180    89043887.27747
  24281835.600   127601914.71906  24281837.000    99430065.77845
  21866643.060   114910243.51708  21866643.980    89540553.88948
  22561897.260   118563602.31908  22561897.560    92387237.98747
  22120179.200   116242347.19008  22120183.040    90578477.57048
  24522464.100   128866413.28306  24522467.700   100415397.42445
 15 02 18 01 20  0.0000000  0  7G16G18G19G21G22G27G31
  20867741.200   109660743.03509  20867742.440    85449941.04849
  21739289.340   114240777.97108  21739290.920    89018805.28747
  24266670.560   127522222.87605  24266672.100    99367968.28746
  21877070.220   114965038.49708  21877071.080    89583251.28148
  22545294.040   118476352.03808  22545294.280    92319250.78147
  22108602.880   116181513.73508  22108606.760    90531074.90748
  24540468.700   128961028.64906  24540472.560   100489123.45246
 15 02 18 01 20 30.0000000  0  7G16G18G19G21G22G27G31
  20859727.020   109618628.43208  20859728.320    85417124.48549
  21733250.540   114209044.21508  21733252.240    88994077.69148
  24251515.080   127442580.78206  24251516.700    99305909.56445
  21887534.640   115020029.32708  21887535.480    89626101.27648
  22528732.840   118389322.03408  22528733.000    92251435.21747
  22097047.040   116120787.58308  22097050.900    90483755.85048
  24558461.240   129055580.54206  24558465.220   100562800.01046
 15 02 18 01 21  0.0000000  0  7G16G18G19G21G22G27G31
  20851800.320   109576973.45608  20851801.680    85384666.06949
  21727298.820   114177767.84208  21727300.600    88969706.50548
  24236369.500   127362990.39106  24236371.080    99243891.14546
  21898036.240   115075215.80208  21898037.100    89669103.72648
  22512214.440   118302516.51308  22512214.520    92183794.57747
  22085512.020   116060170.81808  22085515.880    90436522.02548
  24576441.600   129150067.46206  24576445.600   100636425.91945
 15 02 18 01 21 30.0000000  0  7G16G18G19G21G22G27G31
  20843961.220   109535778.77009  20843962.620    85352566.31749
  21721434.180   114146948.89008  21721436.000    88945691.75448
  24221233.680   127283450.67806  24221235.080    99181912.21146
  21908574.560   115130595.22608  21908575.440    89712256.52648
  22495739.020   118215937.10208  22495739.100    92116330.12447
  22073997.700   115999662.80208  22074001.580    90389372.94648
  24594409.020   129244485.90106  24594412.940   100709998.48945
 15 02 18 01 22  0.0000000  0  7G16G18G19G21G22G27G31
  20836210.240   109495047.05909  20836211.620    85320827.33149
  21715657.040   114116589.73308  21715658.840    88922035.28948
  24206107.660   127203962.64906  24206108.880    99119973.53946
  21919149.580   115186167.36008  21919150.440    89755559.49048
  22479307.240   118129587.49508  22479307.400    92049044.74247
  22062504.380   115939265.06608  22062508.280    90342309.80448
  24612363.180   129338834.35606  24612366.900   100783516.49145
 15 02 18 01 22 30.0000000  0  7G16G18G19G21G22G27G31
  20828548.180   109454782.50909  20828549.500    85289452.35949
  21709968.000   114086693.72308  21709969.820    88898739.71948
  24190991.840   127124528.72606  24190993.000    99058077.03945
  21929761.240   115241931.99408  21929762.060    89799012.45348
  22462920.000   118043472.47708  22462920.340    91981942.15547
  22051032.580   115878980.21608  22051036.420    90295334.62348
  24630304.120   129433112.42506  24630307.520   100856979.63745
 15 02 18 01 23  0.0000000  0  7G16G18G19G21G22G27G31
  20820974.760   109414983.84208  20820976.020    85258440.41949
  21704366.720   114057259.10008  21704368.620    88875803.66648
  24175885.740   127045145.80306  24175886.760    98996220.29546
  21940408.640   115297884.62908  21940409.480    89842611.90148
  22446577.260   117957591.46608  22446577.800    91915021.91047
  22039581.740   115818805.55108  22039585.520    90248445.29048
  24648230.560   129527313.88006  24648233.680   100930383.06845
 15 02 18 01 23 30.0000000  0  7G16G18G19G21G22G27G31
  20813490.260   109375652.52709  20813491.520    85227792.64549
  21698853.320   114028286.31908  21698855.300    88853227.49347
  24160789.380   126965813.94506  24160790.280    98934403.33745
  21951091.500   115354023.51108  21951092.360    89886356.48848
  22430279.440   117871946.57708  22430280.100    91848285.64347
  22028151.920   115758741.50808  22028155.660    90201642.15748
  24666141.840   129621435.66206  24666144.780   101003724.38644
 15 02 18 01 24  0.0000000  0  7G16G18G19G21G22G27G31
  20806096.160   109336796.17209  20806097.380    85197514.97249
  21693429.220   113999782.62508  21693431.180    88831016.84147
  24145703.800   126886538.88206  24145704.540    98872630.62445
  21961810.560   115410352.63808  21961811.420    89930249.31548
  22414028.320   117786546.73808  22414028.960    91781740.33047
  22016744.240   115698794.02608  22016748.020    90154929.87348
  24684038.440   129715481.20106  24684041.220   101077006.30144
 15 02 18 01 24 30.0000000  0  7G16G18G19G21G22G27G31
  20798791.880   109298411.86109  20798793.080    85167605.12549
  21688093.700   113971744.44408  21688095.640    88809168.92048
  24130628.100   126807315.84806  24130628.800    98810898.46245
  21972564.500   115466865.29008  21972565.420    89974285.15148
  22397823.400   117701389.31108  22397823.960    91715383.91047
  22005357.960   115638958.79108  22005361.780    90108305.04848
  24701919.000   129809442.78006  24701921.800   101150222.74145
 15 02 18 01 25  0.0000000  0  6G16G18G19G21G22G27
  20791576.560   109260494.96409  20791577.740    85138059.49449
  21682845.820   113944166.69808  21682847.740    88787679.77848
  24115561.200   126728139.29106  24115561.900    98749202.51045
  21983351.860   115523553.47008  21983352.840    90018457.75748
  22381663.920   117616470.38408  22381664.340    91649213.35047
  21993991.980   115579230.20308  21993995.820    90061763.31748
 15 02 18 01 25 30.0000000  0  6G16G18G19G21G22G27
  20784452.800   109223059.56008  20784454.020    85108889.05349
  21677688.100   113917062.68908  21677689.980    88766559.79347
  24100505.500   126649021.05306  24100506.180    98687551.98745
  21994174.800   115580428.71908  21994175.880    90062776.13348
  22365552.860   117531805.37508  22365553.000    91583240.65947
  21982648.740   115519621.00608  21982652.560    90015314.61548
 15 02 18 01 26  0.0000000  0  6G16G18G19G21G22G27
  20777420.160   109186102.77708  20777421.440    85080091.56449
  21672619.920   113890429.15008  21672621.740    88745806.39848
  24085460.080   126569957.00006  24085460.820    98625943.68745
  22005032.160   115637484.54908  22005033.240    90107235.21748
  22349489.780   117447392.60008  22349489.640    91517464.49747
  21971327.420   115460127.26808  21971331.260    89968955.87848
 15 02 18 01 26 30.0000000  0  6G16G18G19G21G22G27
  20770478.680   109149625.23008  20770480.040    85051667.50549
  21667641.160   113864265.35308  21667642.900    88725419.04448
  24070424.760   126490946.03105  24070425.580    98564376.73945
  22015923.340   115694717.88408  22015924.400    90151832.62548
  22333474.720   117363232.78408  22333474.440    91451885.44347
  21960027.800   115400747.85008  21960031.700    89922686.22648
 15 02 18 01 27  0.0000000  0  6G16G18G19G21G22G27
  20763629.000   109113630.07108  20763630.400    85023619.33349
  21662752.280   113838574.09408  21662753.980    88705399.89647
  24055399.860   126411989.61705  24055400.620    98502852.30246
  22026848.280   115752128.45308  22026849.240    90196568.13548
  22317508.480   117279330.05208  22317508.240    91386506.71147
  21948750.360   115341485.01508  21948754.320    89876507.41248
 15 02 18 01 27 30.0000000  0  6G16G18G19G21G22G27
  20756871.380   109078118.66108  20756872.780    84995948.10749
  21657953.360   113813355.84908  21657955.080    88685749.33048
  24040385.300   126333087.96105  24040386.100    98441370.52446
  22037806.480   115809714.00608  22037807.380    90241439.99748
  22301591.420   117195686.33308  22301591.420    91321329.80347
  21937495.100   115282338.50308  21937499.040    89830419.24248
 15 02 18 01 28  0.0000000  0  6G16G18G19G21G22G27
  20750206.380   109043093.85508  20750207.760    84968656.06149
  21653244.940   113788613.20008  21653246.660    88666469.36448
  24025381.340   126254242.03106  24025382.140    98379932.19145
  22048798.000   115867474.56608  22048798.800    90286448.23048
  22285724.460   117112306.05708  22285724.800    91256358.18847
  21926262.380   115223310.41608  21926266.320    89784423.35848
 15 02 18 01 28 30.0000000  0  6G16G18G19G21G22G27
  20743633.700   109008554.12008  20743635.040    84941741.98249
  21648626.680   113764344.15408  21648628.360    88647558.43747
  24010387.480   126175448.90406  24010388.220    98318534.98446
  22059821.940   115925405.68508  22059822.680    90331589.35848
  22269907.580   117029188.37208  22269908.160    91191591.17847
  21915051.720   115164398.25208  21915055.640    89738517.79548
 15 02 18 01 29  0.0000000  0  6G16G18G19G21G22G27
  20737153.940   108974502.80408  20737155.320    84915208.48949
  21644098.940   113740550.57508  21644100.520    88629018.00248
  23995404.080   126096710.35905  23995404.760    98257180.32246
  22070878.160   115983506.23208  22070878.840    90376862.51948
  22254141.540   116946337.14208  22254142.160    91127031.78547
  21903863.480   115105603.86208  21903867.360    89692704.00048
 15 02 18 01 29 30.0000000  0  6G16G18G19G21G22G27
  20730767.460   108940941.77808  20730768.860    84889057.04649
  21639662.020   113717234.36608  21639663.560    88610849.55148
  23980431.220   126018027.04105  23980431.820    98195868.68946
  22081966.420   116041775.43208  22081967.080    90422267.08848
  22238426.840   116863755.25208  22238427.360    91062682.28447
  21892697.880   115046928.14808  21892701.680    89646982.68848
 15 02 18 01 30  0.0000000  0  6G16G18G19G21G22G27
  20724475.000   108907874.55608  20724476.380    84863290.38449
  21635316.400   113694397.98908  21635317.940    88593054.98648
  23965469.140   125939400.55206  23965469.720    98134601.33146
  22093086.880   116100213.90208  22093087.560    90467803.56048
  22222764.200   116781446.98508  22222764.520    90998545.99647
  21881555.340   114988373.49808  21881559.100    89601355.71048
 15 02 18 01 30 30.0000000  0  6G16G18G19G21G22G27
  20718276.660   108875301.76609  20718277.960    84837908.98649
  21631062.120   113672041.53908  21631063.640    88575634.39048
  23950517.760   125860830.38306  23950518.340    98073377.90146
  22104239.040   116158819.01108  22104239.760    90513469.88147
  22207153.980   116699414.36008  22207154.080    90934624.50947
  21870435.740   114929939.47408  21870439.480    89555822.72348
 15 02 18 01 31  0.0000000  0  6G16G18G19G21G22G27
  20712172.600   108843224.31409  20712173.840    84812913.56849
  21626899.160   113650165.16608  21626900.720    88558587.87748
  23935576.940   125782316.06706  23935577.580    98012197.97646
  22115422.460   116217588.33208  22115423.200    90559264.15148
  22191596.500   116617659.16208  22191596.340    90870919.18047
  21859339.060   114871626.04508  21859342.840    89510383.70648
 15 02 18 01 31 30.0000000  0  6G16G18G19G21G22G27
  20706163.440   108811645.73708  20706164.660    84788306.88649
  21622828.020   113628771.44308  21622829.620    88541917.45648
  23920647.080   125703859.72805  23920647.820    97951063.18546
  22126637.180   116276521.99208  22126637.920    90605186.47948
  22176092.480   116536185.42008  22176092.280    90807433.17247
  21848265.760   114813435.52208  21848269.620    89465040.45748
 15 02 18 01 32  0.0000000  0  6G16G18G19G21G22G27
  20700249.080   108780565.44408  20700250.260    84764088.47849
  21618848.480   113607858.87208  21618850.100    88525621.95448
  23905727.820   125625459.19405  23905728.660    97889971.88046
  22137882.360   116335615.81708  22137883.120    90651233.61447
  22160642.000   116454993.52508  22160641.960    90744166.79747
  21837215.520   114755366.17108  21837219.440    89419791.64548
 15 02 18 01 32 30.0000000  0  6G16G18G19G21G22G27
  20694430.080   108749986.45308  20694431.240    84740260.69949
  21614961.040   113587430.27608  21614962.700    88509703.58048
  23890819.500   125547116.20606  23890820.460    97828925.44945
  22149158.040   116394870.15408  22149158.860    90697405.82147
  22145245.980   116374087.73708  22145246.200    90681123.34447
  21826188.800   114697420.28208  21826192.700    89374639.02948
 15 02 18 01 33  0.0000000  0  6G16G18G19G21G22G27
  20688706.380   108719908.57208  20688707.580    84716823.38949
  21611165.520   113567484.49708  21611167.160    88494161.43148
  23875921.800   125468829.14406  23875922.840    97767922.61346
  22160463.620   116454281.62008  22160464.480    90743700.46547
  22129904.660   116293468.92108  22129905.020    90618303.50447
  21815185.340   114639596.64708  21815189.160    89329581.66748
 15 02 18 01 33 30.0000000  0  6G16G18G19G21G22G27
  20683078.220   108690332.71808  20683079.500    84693777.27349
  21607462.020   113548022.13508  21607463.580    88478995.97048
  23861034.860   125390598.08505  23861035.880    97706963.40246
  22171798.760   116513848.59008  22171799.680    90790116.28047
  22114618.300   116213138.79908  22114618.800    90555708.62047
  21804205.180   114581895.50108  21804208.940    89284619.75348
 15 02 18 01 34  0.0000000  0  6G16G18G19G21G22G27
  20677546.360   108661262.78908  20677547.680    84671125.38049
  21603851.060   113529046.02808  21603852.520    88464209.41648
  23846159.080   125312425.34405  23846159.940    97646049.64145
  22183163.660   116573571.67908  22183164.580    90836653.75247
  22099387.880   116133102.32608  22099388.440    90493342.55847
  21793248.840   114524319.64008  21793252.580    89239755.46148
 15 02 18 01 34 30.0000000  0  6G16G18G19G21G22G27
  20672111.220   108632700.98508  20672112.540    84648869.43149
  21600332.840   113510557.51008  21600334.200    88449802.80148
  23831294.420   125234311.42805  23831295.200    97585181.68646
  22194558.040   116633449.44708  22194558.960    90883311.75547
  22084213.860   116053362.17808  22084214.420    90431207.40047
  21782316.500   114466869.88908  21782320.200    89194989.44448
 15 02 18 01 35  0.0000000  0  6G16G18G19G21G22G27
  20666772.900   108604647.92208  20666774.240    84627009.90849
  21596907.320   113492556.30208  21596908.620    88435775.89448
  23816440.860   125156255.77405  23816441.640    97524359.19346
  22205981.420   116693479.65708  22205982.360    90930088.53647
  22069096.580   115973920.21008  22069097.080    90369304.59247
  21771408.180   114409546.25208  21771411.820    89150321.68548
 15 02 18 01 35 30.0000000  0  6G16G18G19G21G22G27
  20661531.660   108577105.13308  20661533.040    84605547.99249
  21593574.640   113475043.29508  21593575.940    88422129.39948
  23801598.580   125078259.08005  23801599.340    97463582.60146
  22217433.520   116753660.82708  22217434.460    90976982.94447
  22054036.460   115894778.83408  22054036.860    90307636.01347
  21760523.960   114352349.45808  21760527.600    89105752.76548
 15 02 18 01 36  0.0000000  0  6G16G18G19G21G22G27
  20656387.780   108550074.12108  20656389.200    84584484.86849
  21590335.000   113458019.57108  21590336.340    88408864.16648
  23786767.540   125000321.54105  23786768.300    97402852.12046
  22228914.180   116813991.80308  22228915.080    91023994.08847
  22039034.000   115815940.90808  22039034.360    90246203.89347
  21749664.060   114295280.45908  21749667.740    89061283.42748
 15 02 18 01 36 30.0000000  0  6G16G18G19G21G22G27
  20651341.380   108523555.09908  20651342.800    84563820.69149
  21587188.420   113441484.78808  21587189.840    88395979.93048
  23771947.620   124922442.45105  23771948.400    97342167.15445
  22240422.780   116874469.68108  22240423.640    91071119.71147
  22024089.580   115737408.07408  22024089.900    90185009.50347
  21738828.340   114238338.66008  21738832.120    89016913.20248
 15 02 18 01 37  0.0000000  0  6G16G18G19G21G22G27
  20646393.140   108497551.84908  20646394.520    84543558.41249
  21584135.380   113425441.38808  21584136.880    88383478.58748
  23757139.220   124844623.91806  23757140.040    97281529.37745
  22251959.420   116935094.71808  22251960.180    91118359.99847
  22009204.080   115659184.54808  22009204.360    90124056.12747
  21728017.340   114181526.72908  21728021.200    88972644.18148
 15 02 18 01 37 30.0000000  0  6G16G18G19G21G22G27
  20641542.740   108472062.69108  20641544.080    84523696.73349
  21581175.520   113409887.30008  21581177.080    88371358.53348
  23742341.920   124766863.46306  23742342.720    97220936.88346
  22263523.320   116995863.03708  22263524.020    91165711.92847
  21994377.520   115581270.06808  21994377.720    90063343.56447
  21717230.720   114124842.57408  21717234.540    88928474.72048
 15 02 18 01 38  0.0000000  0  6G16G18G19G21G22G27
  20636791.020   108447092.17108  20636792.360    84504239.17849
  21578309.360   113394825.60908  21578310.980    88359622.16348
  23727556.200   124689163.74706  23727556.880    97160391.69646
  22275114.700   117056775.91908  22275115.360    91213176.51447
  21979610.740   115503669.43808  21979610.900    90002875.55947
  21706469.040   114068289.38308  21706472.800    88884407.30748
 15 02 18 01 38 30.0000000  0  6G16G18G19G21G22G27
  20632137.980   108422640.30708  20632139.320    84485185.78249
  21575536.940   113380256.38108  21575538.580    88348269.53648
  23712781.900   124611524.17106  23712782.580    97099893.34846
  22286733.060   117117830.68408  22286733.720    91260751.65147
  21964903.960   115426384.15108  21964904.120    89942653.27448
  21695732.200   114011866.80808  21695735.900    88840441.67448
 15 02 18 01 39  0.0000000  0  6G16G18G19G21G22G27
  20627584.240   108398710.48108  20627585.640    84466539.16849
  21572858.640   113366181.71708  21572860.280    88337302.27348
  23698019.400   124533946.92306  23698020.120    97039443.57546
  22298378.420   117179027.47408  22298379.120    91308437.46247
  21950257.980   115349418.44208  21950258.100    89882680.01648
  21685020.680   113955577.39308  21685024.340    88796579.80148
 15 02 18 01 39 30.0000000  0  6G16G18G19G21G22G27
  20623129.960   108375303.07908  20623131.400    84448299.63449
  21570274.440   113352601.43908  21570276.040    88326720.25148
  23683268.640   124456431.47106  23683269.400    96979041.96546
  22310050.280   117240363.72508  22310051.060    91356231.93547
  21935673.140   115272774.33808  21935673.240    89822957.35548
  21674334.460   113899421.15708  21674338.140    88752821.70248
 15 02 18 01 40  0.0000000  0  6G16G18G19G21G22G27
  20618775.300   108352418.94408  20618776.680    84430467.84349
  21567784.300   113339515.68008  21567785.900    88316523.56448
  23668529.600   124378977.65606  23668530.440    96918688.38446
  22321748.440   117301837.98208  22321749.260    91404133.94347
  21921149.780   115196453.64508  21921149.860    89763486.70348
  21663673.600   113843398.20908  21663677.300    88709167.46248
 15 02 18 01 40 30.0000000  0  6G16G18G19G21G22G27
  20614520.420   108330058.99708  20614521.720    84413044.50549
  21565388.240   113326924.29208  21565389.840    88306712.10948
  23653802.320   124301585.33206  23653803.220    96858382.69746
  22333472.520   117363448.53008  22333473.400    91452142.15647
  21906688.220   115120457.98108  21906688.240    89704269.31947
  21653038.180   113787508.79908  21653041.880    88665617.28948
 15 02 18 01 41  0.0000000  0  6G16G18G19G21G22G27
  20610365.840   108308226.29808  20610367.040    84396032.00449
  21563086.660   113314829.87508  21563088.340    88297287.89448
  23639087.100   124224256.40306  23639088.000    96798126.41346
  22345222.440   117425194.74208  22345223.320    91500256.08147
  21892289.380   115044792.02108  21892289.340    89645308.85147
  21642428.640   113731755.40308  21642432.360    88622173.09248
 15 02 18 01 41 30.0000000  0  6G16G18G19G21G22G27
  20606311.240   108286919.03108  20606312.380    84379428.93649
  21560879.200   113303229.78908  21560880.900    88288248.87448
  23624383.460   124146988.46006  23624384.320    96737917.66646
  22356997.520   117487073.34908  22356998.440    91548473.17247
  21877953.180   114969455.03408  21877953.100    89586604.73248
  21631844.600   113676135.85608  21631848.300    88578833.18948
 15 02 18 01 42  0.0000000  0  6G16G18G19G21G22G27
  20602357.420   108266141.52508  20602358.540    84363238.66749
  21558766.480   113292127.47808  21558768.180    88279597.73348
  23609691.940   124069784.29906  23609692.760    96677758.62046
  22368797.860   117549084.91708  22368798.840    91596793.86447
  21863680.540   114894451.76808  21863680.400    89528160.65348
  21621286.660   113620653.49308  21621290.360    88535600.17948
 15 02 18 01 42 30.0000000  0  6G16G18G19G21G22G27
  20598504.200   108245892.94108  20598505.340    84347460.54149
  21556748.200   113281521.21408  21556749.860    88271333.12248
  23595012.280   123992642.35406  23595013.100    96617648.06346
  22380622.820   117611225.76408  22380623.780    91645215.29347
  21849471.540   114819782.97408  21849471.400    89469977.21048
  21610754.560   113565307.06608  21610758.300    88492473.09748
 15 02 18 01 43  0.0000000  0  6G16G18G19G21G22G27
  20594752.040   108226175.43508  20594753.220    84332096.24949
  21554824.600   113271412.37608  21554826.200    88263456.11348
  23580344.720   123915563.65606  23580345.480    96557586.78946
  22392472.320   117673495.36008  22392473.280    91693737.04547
  21835326.800   114745451.94208  21835326.680    89412056.94648
  21600248.660   113510098.19908  21600252.440    88449453.20348
 15 02 18 01 43 30.0000000  0  6G16G18G19G21G22G27
  20591101.580   108206992.25908  20591102.820    84317148.32049
  21552996.160   113261803.62508  21552997.720    88255968.78948
  23565689.680   123838551.04306  23565690.400    96497576.98946
  22404346.640   117735895.41908  22404347.600    91742360.46447
  21821247.160   114671463.16308  21821247.120    89354403.37948
  21589769.540   113455029.97008  21589773.360    88406542.90348
 15 02 18 01 44  0.0000000  0  6G16G18G19G21G22G27
  20587552.840   108188343.49708  20587554.100    84302616.81449
  21551262.660   113252694.07808  21551264.240    88248870.45248
  23551046.960   123761603.61906  23551047.760    96437617.99645
  22416245.220   117798422.91108  22416246.180    91791083.18347
  21807232.860   114597817.90608  21807232.920    89297017.47448
  21579317.080   113400101.83308  21579320.920    88363741.76348
 15 02 18 01 44 30.0000000  0  6G16G18G19G21G22G27
  20584105.540   108170227.80808  20584106.840    84288500.68949
  21549623.840   113244081.84808  21549625.380    88242159.63348
  23536416.300   123684719.21007  23536417.120    96377708.10246
  22428167.280   117861073.63808  22428168.260    91839901.92347
  21793283.840   114524515.97608  21793284.080    89239899.10348
  21568891.000   113345312.20808  21568894.800    88321048.55548
 15 02 18 01 45  0.0000000  0  6G16G18G19G21G22G27
  20580760.480   108152649.27508  20580761.760    84274803.13149
  21548080.080   113235969.44208  21548081.640    88235838.29448
  23521798.300   123607901.00407  23521798.980    96317849.79546
  22440113.020   117923848.87508  22440114.020    91888817.68447
  21779401.140   114451562.46008  21779401.500    89183052.22648
  21558491.900   113290664.45508  21558495.660    88278465.89348
 15 02 18 01 45 30.0000000  0  6G16G18G19G21G22G27
  20577517.560   108135607.41608  20577518.800    84261523.75649
  21546631.280   113228356.29908  21546632.900    88229905.98348
  23507192.660   123531147.55107  23507193.160    96258041.95846
  22452081.780   117986745.16308  22452082.780    91937827.77247
  21765584.960   114378958.05208  21765585.260    89126477.37948
  21548119.640   113236157.82208  21548123.340    88235993.19348
 15 02 18 01 46  0.0000000  0  6G16G18G19G21G22G27
  20574377.440   108119105.71708  20574378.600    84248665.28149
  21545278.000   113221245.11908  21545279.700    88224364.81248
  23492599.820   123454461.51207  23492600.220    96198286.62646
  22464073.820   118049764.19208  22464074.900    91986933.49747
  21751836.140   114306707.24208  21751836.260    89070178.06747
  21537774.820   113181795.55708  21537778.560    88193632.99748
 15 02 18 01 46 30.0000000  0  6G16G18G19G21G22G27
  20571339.560   108103141.46308  20571340.700    84236225.59949
  21544019.600   113214632.37408  21544021.360    88219212.03648
  23478019.200   123377839.78707  23478019.580    96138581.42646
  22476088.400   118112901.50408  22476089.520    92036131.39247
  21738154.520   114234809.31508  21738154.380    89014153.73548
  21527456.900   113127574.69208  21527460.660    88151382.97948
 15 02 18 01 47  0.0000000  0  6G16G18G19G21G22G27
  20568404.840   108087719.51808  20568406.000    84224208.49749
  21542856.760   113208521.72708  21542858.520    88214450.50148
  23463451.580   123301286.07807  23463451.860    96078929.22046
  22488125.620   118176157.92908  22488126.800    92085422.10547
  21724541.040   114163269.42708  21724540.660    88958408.38948
  21517166.700   113073499.36308  21517170.480    88109246.37148
 15 02 18 01 47 30.0000000  0  6G16G18G19G21G22G27
  20565573.300   108072839.52808  20565574.480    84212613.69549
  21541789.320   113202912.40508  21541791.080    88210079.61148
  23448896.720   123224799.80407  23448897.020    96019329.54946
  22500185.140   118239531.30208  22500186.320    92134803.94447
  21710995.940   114092088.95508  21710995.400    88902943.10848
  21506904.120   113019569.39108  21506907.920    88067223.03148
 15 02 18 01 48  0.0000000  0  6G16G18G19G21G22G27
  20562845.200   108058503.36308  20562846.420    84201442.65749
  21540817.480   113197805.27008  21540819.200    88206100.02348
  23434354.880   123148381.99507  23434355.180    95959783.23946
  22512266.860   118303021.18508  22512268.040    92184276.57447
  21697519.780   114021271.10708  21697519.220    88847760.38148
  21496669.560   112965786.42808  21496673.340    88025314.24148
 15 02 18 01 48 30.0000000  0  6G16G18G19G21G22G27
  20560220.860   108044712.36808  20560222.080    84190696.41849
  21539941.300   113193200.84208  21539942.960    88202512.17248
  23419826.140   123072033.14307  23419826.500    95900290.66446
  22524370.600   118366626.51108  22524371.740    92233839.15547
  21684112.940   113950818.01308  21684112.520    88792861.88148
  21486463.160   112912151.46108  21486466.900    87983520.76648
 15 02 18 01 49  0.0000000  0  6G16G18G19G21G22G27
  20557700.060   108031465.56708  20557701.300    84180374.23349
  21539160.440   113189097.19508  21539162.040    88199314.53148
  23405310.240   122995751.91507  23405310.620    95840850.76946
  22536495.520   118430343.35608  22536496.720    92283488.63747
  21670775.660   113880730.41408  21670775.360    88738248.17448
  21476284.660   112858663.18208  21476288.420    87941841.60248
 15 02 18 01 49 30.0000000  0  6G16G18G19G21G22G27
  20555283.160   108018764.97908  20555284.460    84170477.66249
  21538475.200   113185496.10308  21538476.760    88196508.50248
  23390807.460   122919539.75407  23390807.880    95781464.69646
  22548641.740   118494172.04208  22548643.000    92333225.26647
  21657508.560   113811011.53808  21657508.360    88683921.79548
  21466134.460   112805323.67108  21466138.260    87900278.35848
 15 02 18 01 50  0.0000000  0  6G16G18G19G21G22G27
  20552970.620   108006612.73808  20552971.980    84161008.38249
  21537885.740   113182398.31508  21537887.280    88194094.64548
  23376318.020   122843397.93207  23376318.440    95722133.44346
  22560809.220   118558112.47008  22560810.500    92383048.96747
  21644312.260   113741664.43008  21644312.100    88629885.10448
  21456012.920   112752134.69808  21456016.700    87858832.41848
 15 02 18 01 50 30.0000000  0  6G16G18G19G21G22G27
  20550762.360   107995008.38808  20550763.740    84151966.02749
  21537391.920   113179803.01908  21537393.400    88192072.34248
  23361841.860   122767325.73607  23361842.240    95662856.44446
  22572997.540   118622162.14808  22572998.720    92432957.79747
  21631186.900   113672690.41008  21631186.840    88576139.13548
  21445919.960   112699096.00808  21445923.720    87817503.58148
 15 02 18 01 51  0.0000000  0  6G16G18G19G21G22G27
  20548658.660   107983953.15708  20548659.980    84143351.55549
  21536993.780   113177710.65008  21536995.220    88190441.92948
  23347379.100   122691323.76107  23347379.440    95603634.16046
  22585206.180   118686318.59308  22585207.300    92482949.82747
  21618132.960   113604091.70308  21618132.940    88522685.62348
  21435855.800   112646208.62508  21435859.560    87776292.64748
 15 02 18 01 51 30.0000000  0  6G16G18G19G21G22G27
  20546659.860   107973449.20308  20546661.120    84135166.64849
  21536691.460   113176122.17908  21536692.920    88189204.16848
  23332930.020   122615393.68007  23332930.340    95544467.88446
  22597435.260   118750582.54308  22597436.340    92533025.62647
  21605151.040   113535871.73308  21605151.040    88469527.22648
  21425820.820   112593474.54908  21425824.640    87735201.17049
 15 02 18 01 52  0.0000000  0  6G16G18G19G21G22G27
  20544765.980   107963496.65208  20544767.220    84127411.40749
  21536484.860   113175036.60908  21536486.320    88188358.26748
  23318494.500   122539534.78407  23318494.820    95485357.10946
  22609684.380   118814951.89308  22609685.420    92583183.55947
  21592241.400   113468031.66608  21592241.460    88416664.85948
  21415815.020   112540893.67008  21415818.860    87694229.07748
 15 02 18 01 52 30.0000000  0  6G16G18G19G21G22G27
  20542977.220   107954096.61508  20542978.480    84120086.69549
  21536374.060   113174454.64808  21536375.580    88187904.80148
  23304072.700   122463748.09707  23304073.120    95426302.57846
  22621953.340   118879425.63408  22621954.400    92633422.83447
  21579404.600   113400574.24208  21579404.720    88364100.64748
  21405838.680   112488467.44708  21405842.460    87653377.48549
 15 02 18 01 53  0.0000000  0  6G16G18G19G21G22G27
  20541293.380   107945248.07108  20541294.700    84113191.72349
  21536358.840   113174374.74008  21536360.380    88187842.54148
  23289664.420   122388032.12407  23289664.840    95367303.14846
  22634241.560   118944000.84207  22634242.700    92683741.17247
  21566640.740   113333499.70308  21566640.820    88311834.78648
  21395891.580   112436194.91308  21395895.280    87612645.65348
 15 02 18 01 53 30.0000000  0  6G16G18G19G21G22G27
  20539714.740   107936952.42708  20539716.120    84106727.57949
  21536439.240   113174797.24808  21536440.820    88188171.77248
  23275269.880   122312387.99307  23275270.240    95308359.69646
  22646548.860   119008676.52907  22646550.080    92734137.79847
  21553950.340   113266810.89608  21553950.340    88259869.49648
  21385973.940   112384077.35508  21385977.580    87572034.58148
 15 02 18 01 54  0.0000000  0  6G16G18G19G21G22G27
  20538241.780   107929212.06708  20538243.220    84100696.12649
  21536615.540   113175723.85208  21536617.180    88188893.80248
  23260889.460   122236818.02907  23260889.760    95249474.04946
  22658875.280   119073452.93907  22658876.620    92784612.91747
  21541334.140   113200511.91008  21541334.060    88208207.95948
  21376086.340   112332117.44308  21376089.920    87531546.34848
 15 02 18 01 54 30.0000000  0  6G16G18G19G21G22G27
  20536874.460   107922026.86208  20536875.920    84095097.26149
  21536887.600   113177153.60608  21536889.240    88190007.90748
  23246522.960   122161321.24207  23246523.220    95190645.42446
  22671220.460   119138327.71307  22671221.900    92835164.68547
  21528792.240   113134603.27908  21528792.060    88156850.59448
  21366228.620   112280315.04308  21366232.240    87491180.85849
 15 02 18 01 55  0.0000000  0  6G16G18G19G21G22G27
  20535613.520   107915400.47608  20535614.960    84089933.83249
  21537255.940   113179089.05908  21537257.520    88191516.06348
  23232170.960   122085901.02307  23232171.260    95131876.45746
  22683584.700   119203302.32407  22683586.160    92885794.24047
  21516325.600   113069090.32308  21516325.360    88105801.56448
  21356401.580   112228673.80408  21356405.220    87450940.93749
 15 02 18 01 55 30.0000000  0  6G16G18G19G21G22G27
  20534458.540   107909330.66008  20534459.920    84085204.10049
  21537719.980   113181527.57408  21537721.580    88193416.21348
  23217833.100   122010554.92607  23217833.360    95073165.25646
  22695967.180   119268372.70407  22695968.640    92936498.42447
  21503934.040   113003972.08308  21503933.780    88055060.09148
  21346604.840   112177191.71208  21346608.460    87410825.03548
 15 02 18 01 56  0.0000000  0  6G16G18G19G21G22G27
  20533409.920   107903819.85108  20533411.260    84080909.95349
  21538280.000   113184470.48608  21538281.620    88195709.39348
  23203509.760   121935285.39207  23203510.060    95014513.71647
  22708368.160   119333539.85708  22708369.520    92987278.01847
  21491618.340   112939252.76408  21491618.060    88004629.47948
  21336838.980   112125871.57908  21336842.520    87370835.33648
 15 02 18 01 56 30.0000000  0  6G16G18G19G21G22G27
  20532467.460   107898867.05708  20532468.760    84077050.62649
  21538935.600   113187915.84708  21538937.240    88198394.09648
  23189200.620   121860090.79007  23189200.940    94955920.56047
  22720786.840   119398799.81808  22720788.080    93038129.93147
  21479378.500   112874932.22508  21479378.220    87954509.59248
  21327103.680   112074712.28208  21327107.220    87330970.95749
 15 02 18 01 57  0.0000000  0  6G16G18G19G21G22G27
  20531631.660   107894474.86708  20531632.960    84073628.13049
  21539687.200   113191865.70008  21539688.860    88201471.91048
  23174906.200   121784973.59507  23174906.560    94897387.72247
  22733223.400   119464153.74808  22733224.560    93089055.06147
  21467215.280   112811014.52208  21467215.020    87904703.60748
  21317399.600   112023716.85609  21317403.120    87291234.27149
 15 02 18 01 57 30.0000000  0  6G16G18G19G21G22G27
  20530902.400   107890642.67408  20530903.720    84070642.00049
  21540534.620   113196319.03508  21540536.240    88204942.04348
  23160626.380   121709933.35407  23160626.800    94838914.83447
  22745677.460   119529599.28508  22745678.520    93140051.57547
  21455128.960   112747500.86008  21455128.780    87855212.45548
  21307726.740   111972885.43109  21307730.240    87251625.38149
 15 02 18 01 58  0.0000000  0  6G16G18G19G21G22G27
  20530279.780   107887370.86508  20530281.120    84068092.53649
  21541477.680   113201274.79708  21541479.220    88208803.68448
  23146361.240   121634970.02107  23146361.700    94780501.90046
  22758148.580   119595134.80608  22758149.560    93191118.20547
  21443119.760   112684392.54508  21443119.700    87806037.15748
  21298085.080   111922218.06308  21298088.520    87212144.32449
 15 02 18 01 58 30.0000000  0  6G16G18G19G21G22G27
  20529764.180   107884661.24308  20529765.500    84065981.13449
  21542516.600   113206734.45808  21542518.100    88213057.96948
  23132111.080   121560085.29507  23132111.560    94722150.20946
  22770636.720   119660760.22708  22770637.680    93242254.89547
  21431188.400   112621693.19808  21431188.420    87757180.53948
  21288475.020   111871717.01208  21288478.460    87172792.86849
 15 02 18 01 59  0.0000000  0  6G16G18G19G21G22G27
  20529355.340   107882512.62208  20529356.660    84064306.87249
  21543650.960   113212695.73908  21543652.440    88217703.12748
  23117875.700   121485278.12607  23117876.160    94663858.92847
  22783141.320   119726472.50907  22783142.320    93293459.25647
  21419334.980   112559403.23208  21419335.040    87708642.92148
  21278896.500   111821381.68908  21278899.960    87133570.55449
 15 02 18 01 59 30.0000000  0  6G16G18G19G21G22G27
  20529053.600   107880927.03608  20529054.940    84063071.34449
  21544881.040   113219159.83908  21544882.500    88222740.10148
  23103655.400   121410550.22907  23103655.860    94605629.42747
  22795662.480   119792271.83307  22795663.480    93344731.44847
  21407560.040   112497525.49708  21407560.100    87660426.51948
  21269349.960   111771214.26408  21269353.440    87094479.06749
 15 02 18 02 00  0.0000000  0  6G16G18G19G21G22G27
  20528859.260   107879905.65608  20528860.560    84062275.46049
  21546206.860   113226127.12108  21546208.320    88228169.15948
  23089450.400   121335902.75207  23089450.900    94547462.59747
  22808200.000   119858157.28707  22808201.020    93396070.75347
  21395864.100   112436062.84908  21395864.120    87612533.55948
  21259835.620   111721216.26508  21259839.180    87055519.59949
 15 02 18 02 00 30.0000000  0  6G16G18G19G21G22G27
  20528772.380   107879449.06008  20528773.680    84061919.66449
  21547628.400   113233597.39808  21547629.860    88233990.15948
  23075260.820   121261336.01607  23075261.300    94489358.67347
  22820753.760   119924127.92007  22820754.780    93447476.43046
  21384247.580   112375017.52708  21384247.560    87564965.79248
  21250353.660   111671388.72308  21250357.320    87016692.95549
 15 02 18 02 01  0.0000000  0  6G16G18G19G21G22G27
  20528792.500   107879554.92208  20528793.840    84062002.14449
  21549145.140   113241567.90708  21549146.620    88240200.95648
  23061086.340   121186848.63207  23061086.740    94431316.58447
  22833323.040   119990179.93707  22833324.080    93498945.53347
  21372710.300   112314388.52208  21372710.200    87517722.42648
  21240903.920   111621730.20308  21240907.560    86977998.01949
 15 02 18 02 01 30.0000000  0  6G16G18G19G21G22G27
  20528919.960   107880224.85808  20528921.320    84062524.16449
  21550757.320   113250039.79908  21550758.760    88246802.43648
  23046927.240   121112442.07507  23046927.600    94373337.47847
  22845907.860   120056313.69707  22845908.920    93550478.32847
  21361252.880   112254179.41608  21361252.740    87470806.25548
  21231486.800   111572242.99008  21231490.440    86939436.56349
 15 02 18 02 02  0.0000000  0  6G16G18G19G21G22G27
  20529155.560   107881463.00508  20529156.920    84063488.95149
  21552465.340   113259015.51008  21552466.780    88253796.50348
  23032784.120   121038119.74807  23032784.520    94315424.02647
  22858508.580   120122531.08007  22858509.660    93602076.27947
  21349876.240   112194394.92908  21349876.020    87424220.95548
  21222102.960   111522930.89408  21222106.660    86901011.56349
 15 02 18 02 02 30.0000000  0  6G16G18G19G21G22G27
  20529498.760   107883266.41708  20529500.100    84064894.19849
  21554268.540   113268491.54808  21554270.000    88261180.43248
  23018656.620   120963879.13507  23018656.980    94257574.24447
  22871124.240   120188826.98607  22871125.360    93653735.41646
  21338580.140   112135033.74108  21338579.880    87377965.49948
  21212752.060   111473791.83008  21212755.780    86862721.39349
 15 02 18 02 03  0.0000000  0  6G16G18G19G21G22G27
  20529949.780   107885636.33308  20529951.120    84066740.87349
  21556167.120   113278468.88708  21556168.660    88268954.98848
  23004544.980   120889721.82207  23004545.320    94199789.35147
  22883755.040   120255202.23807  22883756.180    93705456.38046
  21327365.220   112076099.03608  21327364.940    87332042.36248
  21203434.560   111424828.03908  21203438.260    86824567.79849
 15 02 18 02 03 30.0000000  0  6G16G18G19G21G22G27
  20530508.700   107888573.23608  20530510.000    84069029.36249
  21558161.040   113288947.15508  21558162.680    88277119.88248
  22990449.320   120815648.62307  22990449.680    94142070.01547
  22896400.680   120321655.43307  22896401.740    93757238.07346
  21316231.880   112017593.10808  21316231.640    87286453.34148
  21194150.640   111376040.53408  21194154.260    86786551.56949
 15 02 18 02 04  0.0000000  0  6G16G18G19G21G22G27
  20531175.640   107892077.77908  20531176.900    84071760.17049
  21560250.200   113299925.70708  21560251.880    88285674.60548
  22976369.720   120741660.01007  22976370.180    94084416.60347
  22909060.840   120388184.81507  22909061.880    93809079.13846
  21305180.480   111959517.64808  21305180.260    87241199.75548
  21184900.420   111327430.21608  21184904.000    86748673.40549
 15 02 18 02 04 30.0000000  0  6G16G18G19G21G22G27
  20531950.560   107896149.81208  20531951.820    84074933.17449
  21562434.420   113311403.72608  21562436.120    88294618.52448
  22962306.280   120667756.10207  22962306.760    94026829.17347
  22921735.220   120454788.67707  22921736.180    93860978.24146
  21294211.180   111901873.80308  21294211.000    87196282.48748
  21175684.020   111278997.59908  21175687.580    86710933.70849
 15 02 18 02 05  0.0000000  0  6G16G18G19G21G22G27
  20532833.680   107900790.65208  20532834.980    84078549.40749
  21564713.820   113323382.18508  21564715.520    88303952.39048
  22948259.220   120593938.51107  22948259.720    93969308.99747
  22934423.980   120521468.10408  22934424.800    93912936.22446
  21283324.640   111844664.83808  21283324.480    87151704.08348
  21166501.860   111230744.94909  21166505.380    86673334.25249
 15 02 18 02 05 30.0000000  0  6G16G18G19G21G22G27
  20533824.860   107905999.21208  20533826.160    84082608.01449
  21567088.000   113335858.71708  21567089.680    88313674.36948
  22934228.500   120520206.54008  22934228.920    93911855.55047
  22947126.500   120588220.04707  22947127.200    93964950.71346
  21272520.860   111787890.82308  21272520.700    87107464.61148
  21157353.860   111182671.84809  21157357.380    86635874.69749
 15 02 18 02 06  0.0000000  0  7G04G16G18G19G21G22G27
  24563000.660   129079439.34706  24563005.600   100581395.33244
  20534924.600   107911778.61108  20534925.960    84087111.43449
  21569557.500   113348836.03208  21569559.140    88323786.56948
  22920214.700   120446563.64007  22920215.060    93854471.50347
  22959843.100   120655046.11807  22959843.760    94017022.96646
  21261800.820   111731556.72108  21261800.620    87063567.92148
  21148240.760   111134782.29208  21148244.340    86598558.17049
 15 02 18 02 06 30.0000000  0  7G04G16G18G19G21G22G27
  24544737.280   128983465.17006  24544742.140   100506610.31945
  20536137.580   107918153.13408  20536139.000    84092078.58949
  21572126.760   113362337.62408  21572128.340    88334307.29648
  22906222.600   120373034.59507  22906222.860    93797176.16147
  22972578.180   120721969.28107  22972578.860    94069170.86746
  21251169.400   111675688.16408  21251169.140    87020033.99748
  21139167.340   111087101.33208  21139170.960    86561404.17749
 15 02 18 02 07  0.0000000  0  7G04G16G18G19G21G22G27
  24526495.000   128887601.62306  24526499.840   100431911.50044
  20537453.140   107925066.70108  20537454.620    84097465.77349
  21574784.920   113376306.23108  21574786.440    88345191.93348
  22892241.400   120299563.11707  22892241.640    93739925.69147
  22985320.720   120788931.67107  22985321.460    94121349.34646
  21240616.180   111620230.70308  21240615.900    86976820.39848
  21130123.040   111039573.31208  21130126.680    86524369.36349
 15 02 18 02 07 30.0000000  0  7G04G16G18G19G21G22G27
  24508280.560   128791883.46706  24508285.180   100357325.99344
  20538877.680   107932552.64608  20538879.160    84103298.97349
  21577538.240   113390775.03808  21577539.700    88356466.34148
  22878277.600   120226183.11207  22878277.860    93682746.49847
  22998076.920   120855965.99607  22998077.760    94173583.86746
  21230147.920   111565219.52008  21230147.600    86933954.55848
  21121114.440   110992232.86309  21121118.080    86487480.70749
 15 02 18 02 08  0.0000000  0  7G04G16G18G19G21G22G27
  24490093.260   128696307.59306  24490097.600   100282851.33844
  20540410.520   107940607.56408  20540411.940    84109575.52349
  21580385.980   113405740.05508  21580387.400    88368127.39948
  22864330.780   120152892.25207  22864331.020    93625636.75747
  23010845.840   120923067.23707  23010846.780    94225870.53546
  21219764.240   111510652.75008  21219763.920    86891435.01048
  21112141.040   110945077.54309  21112144.700    86450736.30649
 15 02 18 02 08 30.0000000  0  7G04G16G18G19G21G22G27
  24471933.420   128600876.22307  24471937.440   100208489.29844
  20542051.960   107949233.18208  20542053.300    84116296.77549
  21583328.240   113421201.80708  21583329.660    88380175.52148
  22850401.260   120079692.22507  22850401.500    93568597.79847
  23023627.560   120990235.79107  23023628.560    94278209.65946
  21209465.660   111456533.04208  21209465.320    86849263.82548
  21103203.340   110898109.74409  21103206.980    86414138.02349
 15 02 18 02 09  0.0000000  0  7G04G16G18G19G21G22G27
  24453801.280   128505590.84207  24453805.100   100134241.01344
  20543802.120   107958430.08508  20543803.380    84123463.19149
  21586364.980   113437160.21408  21586366.480    88392610.64848
  22836489.240   120006584.04007  22836489.460    93511630.41047
  23036421.980   121057471.21907  23036423.040    94330600.88946
  21199252.660   111402863.38108  21199252.360    86807443.32248
  21094301.660   110851331.08409  21094305.260    86377687.12349
 15 02 18 02 09 30.0000000  0  7G04G16G18G19G21G22G27
  24435696.880   128410451.47006  24435700.640   100060106.48344
  20545660.840   107968197.58608  20545662.020    84131074.21849
  21589496.000   113453614.01908  21589497.600    88405431.80348
  22822594.740   119933567.98407  22822594.940    93454734.80847
  23049228.740   121124771.64407  23049229.820    94383042.76246
  21189125.440   111349644.66708  21189125.180    86765974.20748
  21085436.060   110804742.00709  21085439.620    86341383.95749
 15 02 18 02 10  0.0000000  0  7G04G16G18G19G21G22G27
  24417620.120   128315457.72106  24417623.900    99986085.41245
  20547628.000   107978534.96008  20547629.160    84139129.30549
  21592721.020   113470561.43008  21592722.660    88418637.58848
  22808717.580   119860643.34507  22808717.780    93397910.43847
  23062047.400   121192134.83507  23062048.520    94435533.55446
  21179084.040   111296877.25108  21179083.880    86724856.74948
  21076606.460   110758342.19309  21076610.020    86305228.26249
 15 02 18 02 10 30.0000000  0  7G04G16G18G19G21G22G27
  24399571.700   128220613.70606  24399575.680    99912181.04644
  20549704.180   107989445.33608  20549705.340    84147630.89149
  21596040.520   113488005.27808  21596042.200    88432230.20348
  22794858.580   119787814.06807  22794858.820    93341160.36947
  23074878.360   121259562.69407  23074879.600    94488074.71646
  21169129.440   111244565.98408  21169129.320    86684094.74248
  21067813.760   110712136.23009  21067817.340    86269223.61949
 15 02 18 02 11  0.0000000  0  7G04G16G18G19G21G22G27
  24381551.260   128125916.94706  24381555.440    99838391.40545
  20551888.740   108000925.37108  20551889.940    84156576.36649
  21599453.680   113505941.52408  21599455.360    88446206.50448
  22781017.300   119715077.56708  22781017.480    93284482.60047
  23087720.900   121327051.04907  23087722.240    94540663.02046
  21159261.460   111192709.52008  21159261.320    86643687.12048
  21059057.560   110666121.90409  21059061.120    86233368.30549
 15 02 18 02 11 30.0000000  0  7G04G16G18G19G21G22G27
  24363559.240   128031369.81806  24363563.640    99764718.37544
  20554182.140   108012977.27508  20554183.400    84165967.45449
  21602960.800   113524371.37708  21602962.440    88460567.43948
  22767194.160   119642436.23908  22767194.300    93227878.98147
  23100575.120   121394600.68907  23100576.540    94593299.08746
  21149480.780   111141311.30608  21149480.540    86603636.58048
  21050338.380   110620302.08309  21050341.920    86197664.54849
 15 02 18 02 12  0.0000000  0  7G04G16G18G19G21G22G27
  24345595.660   127936971.99206  24345600.160    99691161.66044
  20556584.080   108025599.30208  20556585.340    84175802.79249
  21606561.460   113543292.85208  21606563.020    88475311.44448
  22753389.020   119569889.57108  22753389.100    93171349.12847
  23113440.640   121462209.37907  23113442.000    94645981.16746
  21139787.380   111090371.47008  21139787.040    86563943.21548
  21041656.140   110574676.67009  21041659.700    86162112.28249
 15 02 18 02 12 30.0000000  0  7G04G16G18G19G21G22G27
  24327660.760   127842723.91306  24327665.180    99617721.65445
  20559094.480   108038791.46708  20559095.760    84186082.39549
  21610255.400   113562704.51208  21610256.860    88490437.42348
  22739601.900   119497437.79008  22739601.960    93114893.22747
  23126317.220   121529875.80707  23126318.500    94698708.23046
  21130181.400   111039891.18408  21130180.980    86524607.94648
  21033011.000   110529246.33909  21033014.620    86126712.02449
 15 02 18 02 13  0.0000000  0  7G04G16G18G19G21G22G27
  24309754.640   127748626.37106  24309758.840    99544398.92444
  20561713.360   108052553.64308  20561714.620    84196806.16249
  21614042.520   113582606.02508  21614043.880    88505945.10148
  22725832.980   119425081.67408  22725833.060    93058511.86547
  23139204.660   121597599.10207  23139205.800    94751479.61146
  21120663.100   110989871.92708  21120662.660    86485631.91548
  21024403.220   110484012.30209  21024406.840    86091464.72549
 15 02 18 02 13 30.0000000  0  7G04G16G18G19G21G22G27
  24291877.680   127654681.52306  24291881.700    99471195.20044
  20564440.940   108066887.11808  20564442.180    84207975.09549
  21617922.760   113602997.10208  21617924.060    88521834.25648
  22712082.640   119352823.29408  22712082.760    93002206.65047
  23152102.940   121665379.19307  23152103.940    94804295.23346
  21111233.120   110940317.34008  21111232.780    86447017.96048
  21015833.320   110438977.00309  21015836.900    86056372.28649
 15 02 18 02 14  0.0000000  0  7G04G16G18G19G21G22G27
  24274029.820   127560889.41907  24274033.800    99398110.50744
  20567276.980   108081790.69508  20567278.240    84219588.26449
  21621896.160   113623877.69908  21621897.400    88538104.85848
  22698350.920   119280662.88708  22698351.100    92945977.79447
  23165011.700   121733214.14907  23165012.540    94857153.62546
  21101891.660   110891228.41408  21101891.480    86408766.85548
  21007301.340   110394141.11709  21007304.900    86021435.23049
 15 02 18 02 14 30.0000000  0  7G04G16G18G19G21G22G27
  24256211.420   127467251.93606  24256215.300    99325146.28045
  20570221.760   108097265.97608  20570223.060    84231646.91449
  21625962.640   113645247.47208  21625963.880    88554756.63548
  22684638.160   119208602.03808  22684638.340    92889826.50447
  23177931.000   121801104.68507  23177931.680    94910055.32946
  21092639.220   110842607.18608  21092639.140    86370880.19948
  20998807.660   110349506.64809  20998811.240    85986655.12849
 15 02 18 02 15  0.0000000  0  7G04G16G18G19G21G22G27
  24238422.440   127373769.84006  24238426.360    99252303.13545
  20573275.320   108113312.84708  20573276.660    84244150.95549
  21630121.980   113667105.08808  21630123.220    88571788.55148
  22670944.420   119136641.33008  22670944.660    92833753.24147
  23190860.580   121869049.63207  23190861.240    94962999.42346
  21083476.180   110794455.49608  21083476.100    86333359.42048
  20990352.560   110305074.81309  20990356.120    85952032.91549
 15 02 18 02 15 30.0000000  0  7G04G16G18G19G21G22G27
  24220663.020   127280443.65006  24220667.040    99179581.48845
  20576437.540   108129930.63008  20576438.920    84257099.87149
  21634374.240   113689450.71208  21634375.500    88589200.72848
  22657269.960   119064781.74408  22657270.260    92777758.78747
  23203800.300   121937047.90707  23203800.940    95015985.07946
  21074402.840   110746774.71208  21074402.680    86296205.58248
  20981936.220   110260846.72409  20981939.800    85917569.46949
 15 02 18 02 16  0.0000000  0  7G04G16G18G19G21G22G27
  24202933.360   127187274.08106  24202937.480    99106981.85445
  20579708.360   108147118.96008  20579709.760    84270493.36949
  21638719.120   113712283.00608  21638720.440    88606992.13048
  22643614.760   118993023.47808  22643615.080    92721843.27047
  23216749.800   122005098.31807  23216750.500    95069011.35946
  21065419.340   110699565.93808  21065419.100    86259419.53748
  20973558.840   110216823.27409  20973562.420    85883265.48849
 15 02 18 02 16 30.0000000  0  7G04G16G18G19G21G22G27
  24185233.560   127094261.98106  24185237.880    99034504.94145
  20583087.840   108164878.18408  20583089.240    84284331.71349
  21643156.480   113735601.05408  21643157.800    88625162.04248
  22629979.140   118921367.93208  22629979.420    92666007.79447
  23229709.060   122073200.36407  23229709.920    95122077.87446
  21056526.100   110652831.44908  21056525.820    86223003.07148
  20965220.680   110173006.19209  20965224.300    85849122.30349
 15 02 18 02 17  0.0000000  0  7G04G16G18G19G21G22G27
  24167563.920   127001408.86006  24167568.440    98962151.90245
  20586576.080   108183208.73308  20586577.460    84298615.24349
  21647686.180   113759404.60408  21647687.520    88643710.26748
  22616363.300   118849816.44607  22616363.540    92610253.41847
  23242678.040   122141353.38407  23242679.080    95175184.09946
  21047723.480   110606573.26408  21047723.180    86186957.74248
  20956922.080   110129396.94909  20956925.740    85815141.08149
 15 02 18 02 17 30.0000000  0  7G04G16G18G19G21G22G27
  24149924.300   126908713.47906  24149928.920    98889921.78445
  20590172.560   108202108.04808  20590173.880    84313341.97449
  21652307.760   113783691.08208  21652309.100    88662634.79748
  22602766.940   118778367.47607  22602767.180    92554578.91647
  23255656.220   122209554.58207  23255657.360    95228327.87946
  21039011.280   110560790.29408  21039010.980    86151282.71248
  20948662.900   110085994.78909  20948666.620    85781321.21649
 15 02 18 02 18  0.0000000  0  7G04G16G18G19G21G22G27
  24132315.080   126816177.22306  24132319.720    98817815.65444
  20593877.440   108221577.27708  20593878.780    84328512.79149
  21657021.120   113808459.99308  21657022.460    88681935.24948
  22589190.400   118707022.62607  22589190.640    92498985.54147
  23268643.560   122277803.86107  23268644.820    95281509.10546
  21030390.020   110515485.15908  21030389.700    86115980.02448
  20940443.540   110042801.78109  20940447.300    85747664.32949
 15 02 18 02 18 30.0000000  0  7G04G16G18G19G21G22G27
  24114736.220   126723799.83506  24114740.680    98745833.32744
  20597690.460   108241614.87708  20597691.820    84344126.49149
  21661826.040   113833710.26208  21661827.380    88701610.78748
  22575633.740   118635781.98407  22575633.940    92443473.36047
  23281639.680   122346099.20407  23281640.960    95334726.22246
  21021859.820   110470658.49508  21021859.460    86081050.16548
  20932264.040   109999818.17409  20932267.800    85714170.61549
 15 02 18 02 19  0.0000000  0  7G04G16G18G19G21G22G27
  24097187.940   126631582.27606  24097192.140    98673975.52544
  20601611.500   108262220.09408  20601612.860    84360182.49249
  21666722.120   113859439.66208  21666723.440    88721659.67748
  22562097.060   118564646.21307  22562097.220    92388042.89447
  23294644.380   122414439.38207  23294645.600    95387978.27645
  21013420.900   110426311.43509  21013420.500    86046494.02248
  20924124.600   109957045.01509  20924128.320    85680840.88149
 15 02 18 02 19 30.0000000  0  7G04G16G18G19G21G22G27
  24079670.480   126539526.74806  24079674.480    98602244.00744
  20605640.920   108283394.66808  20605642.240    84376682.15449
  21671709.760   113885650.08108  21671711.020    88742083.37847
  22548580.800   118493617.72207  22548580.960    92332696.02847
  23307657.940   122482825.43407  23307659.000    95441266.08446
  21005073.820   110382447.11509  21005073.420    86012314.04748
  20916025.760   109914485.28409  20916029.480    85647677.45949
 15 02 18 02 20  0.0000000  0  7G04G16G18G19G21G22G27
  24062183.840   126447633.39306  24062187.700    98530638.83645
  20609778.500   108305137.79008  20609779.820    84393624.83449
  21676788.620   113912339.59708  21676789.780    88762880.41047
  22535085.080   118422697.01407  22535085.240    92277433.15747
  23320680.040   122551256.08307  23320680.940    95494588.64545
  20996818.740   110339066.31909  20996818.360    85978510.85048
  20907967.680   109872139.83309  20907971.420    85614681.00949
 15 02 18 02 20 30.0000000  0  7G04G16G18G19G21G22G27
  24044728.340   126355904.17406  24044732.240    98459161.57645
  20614024.440   108327450.34708  20614025.720    84411011.23749
  21681958.740   113939508.52508  21681959.820    88784051.01147
  22521610.120   118351885.72108  22521610.360    92222255.53047
  23333710.640   122619731.57507  23333711.400    95547946.13546
  20988656.120   110296171.71108  20988655.740    85945086.49248
  20899950.780   109830010.75709  20899954.500    85581853.15649
 15 02 18 02 21  0.0000000  0  7G04G16G18G19G21G22G27
  24027304.040   126264338.94606  24027307.960    98387812.08244
  20618378.520   108350330.76908  20618379.720    84428840.12749
  21687219.700   113967154.88308  21687220.760    88805593.63347
  22508156.000   118281183.95408  22508156.340    92167163.26047
  23346749.360   122688250.05707  23346749.960    95601337.12945
  20980586.040   110253763.75108  20980585.700    85912041.34048
  20891975.120   109788098.53609  20891978.820    85549194.28449
 15 02 18 02 21 30.0000000  0  7G04G16G18G19G21G22G27
  24009911.100   126172938.59806  24009915.120    98316591.06645
  20622840.560   108373778.71108  20622841.720    84447111.24049
  21692571.360   113995278.05908  21692572.480    88827507.79948
  22494722.920   118210592.66008  22494723.300    92112157.07247
  23359796.060   122756810.85407  23359796.640    95654761.09746
  20972608.880   110211844.03108  20972608.600    85879376.64048
  20884041.060   109746404.67009  20884044.720    85516705.55349
 15 02 18 02 22  0.0000000  0  7G04G16G18G19G21G22G27
  23992549.540   126081703.60906  23992553.740    98245498.91345
  20627410.440   108397793.58708  20627411.640    84465824.12049
  21698013.400   114023876.41608  21698014.640    88849792.23748
  22481311.040   118140112.87608  22481311.460    92057237.77048
  23372850.640   122825412.97207  23372851.140    95708217.26446
  20964724.820   110170413.44708  20964724.600    85847093.08448
  20876148.760   109704930.23509  20876152.380    85484387.81649
 15 02 18 02 22 30.0000000  0  7G04G16G18G19G21G22G27
  23975219.740   125990635.56006  23975224.160    98174536.80944
  20632088.400   108422376.44108  20632089.620    84484979.57449
  21703545.880   114052949.94508  21703547.200    88872446.94147
  22467920.620   118069745.76208  22467921.040    92002406.27547
  23385912.880   122894056.14807  23385913.540    95761705.43245
  20956934.300   110129473.99008  20956934.100    85815192.21548
  20868298.560   109663677.16309  20868302.160    85452242.56949
 15 02 18 02 23  0.0000000  0  7G04G16G18G19G21G22G27
  23957921.560   125899733.82006  23957926.120    98103704.29945
  20636874.020   108447524.99708  20636875.260    84504575.83949
  21709168.360   114082496.52108  21709169.760    88895470.24347
  22454551.720   117999491.57408  22454552.080    91947662.76847
  23398982.620   122962738.45807  23398983.420    95815224.09546
  20949237.420   110089026.19009  20949237.140    85783674.46348
  20860490.500   109622645.53909  20860494.120    85420269.87949
 15 02 18 02 23 30.0000000  0  7G04G16G18G19G21G22G27
  23940655.060   125808998.40506  23940659.740    98033001.40644
  20641767.020   108473238.02208  20641768.340    84524611.95449
  21714880.500   114112514.11108  21714881.960    88918860.57748
  22441204.220   117929349.86708  22441204.500    91893006.90947
  23412059.540   123031458.44407  23412060.520    95868772.12545
  20941634.140   110049070.32708  20941633.780    85752540.03648
  20852724.640   109581835.78209  20852728.300    85388470.07349
 15 02 18 02 24  0.0000000  0  7G04G16G18G19G21G22G27
  23923420.640   125718431.24206  23923425.360    97962429.58945
  20646767.540   108499516.24708  20646768.960    84545088.48349
  21720682.300   114143003.07008  21720683.820    88942618.21047
  22427878.520   117859322.86808  22427878.700    91838440.43047
  23425143.740   123100216.28207  23425144.800    95922349.65146
  20934124.900   110009608.89108  20934124.540    85721790.87848
  20845001.540   109541250.58109  20845005.200    85356845.24349
 15 02 18 02 24 30.0000000  0  7G04G16G18G19G21G22G27
  23906218.020   125628030.22806  23906222.600    97891987.27745
  20651874.900   108526355.79708  20651876.380    84566002.41249
  21726573.040   114173959.41508  21726574.540    88966740.03947
  22414574.300   117789408.76208  22414574.420    91783961.92647
  23438234.460   123169008.41907  23438235.620    95975953.89646
  20926709.380   109970640.40208  20926709.080    85691425.83648
  20837320.900   109500888.36209  20837324.520    85325394.16949
 15 02 18 02 25  0.0000000  0  7G04G16G18G19G21G22G27
  23889047.780   125537798.82006  23889052.000    97821677.10845
  20657089.660   108553759.54008  20657091.160    84587355.96849
  21732553.120   114205384.96608  21732554.520    88991227.48348
  22401292.200   117719611.11308  22401292.300    91729574.15847
  23451332.160   123237837.06307  23451333.340    96029586.58346
  20919388.380   109932168.72808  20919388.140    85661447.91748
  20829683.460   109460753.17009  20829687.040    85294119.99649
 15 02 18 02 25 30.0000000  0  7G04G16G18G19G21G22G27
  23871910.120   125447738.36907  23871913.960    97751500.14345
  20662411.900   108581727.97708  20662413.380    84609149.54349
  21738622.400   114237279.02408  21738623.680    89016080.00247
  22388032.580   117649931.66508  22388032.720    91675278.49547
  23464436.680   123306701.72806  23464437.820    96083247.33646
  20912162.240   109894195.52108  20912162.040    85631858.41748
  20822089.560   109420846.95109  20822093.140    85263024.24149
 15 02 18 02 26  0.0000000  0  7G04G16G18G19G21G22G27
  23854804.840   125357848.56006  23854808.400    97681456.16444
  20667841.180   108610259.00408  20667842.640    84631381.50249
  21744780.440   114269639.57708  21744781.680    89041296.02647
  22374795.460   117580370.26408  22374795.640    91621074.82647
  23477547.760   123375600.88406  23477548.880    96136934.98046
  20905031.120   109856721.30908  20905030.900    85602657.74249
  20814539.280   109381170.00409  20814542.860    85232107.14149
 15 02 18 02 26 30.0000000  0  7G04G16G18G19G21G22G27
  23837732.300   125268131.09707  23837735.720    97611546.48444
  20673377.580   108639352.87508  20673379.020    84654052.03449
  21751027.240   114302466.54408  21751028.460    89066875.48847
  22361581.220   117510928.97208  22361581.400    91566964.74747
  23490665.400   123444534.79206  23490666.640    96190649.67946
  20897995.400   109819748.26209  20897995.140    85573847.59048
  20807033.100   109341724.67509  20807036.660    85201370.52149
 15 02 18 02 27  0.0000000  0  7G04G16G18G19G21G22G27
  23820692.620   125178586.78006  23820695.940    97541771.69145
  20679021.000   108669008.92708  20679022.360    84677160.63649
  21757362.500   114335758.79908  21757363.800    89092817.50947
  22348389.980   117441608.73708  22348390.200    91512948.98847
  23503789.560   123513502.54007  23503790.860    96244390.75645
  20891055.320   109783277.71909  20891055.000    85545429.00248
  20799571.260   109302512.38109  20799574.840    85170815.49349
 15 02 18 02 27 30.0000000  0  7G04G16G18G19G21G22G27
  23803685.740   125089215.61606  23803689.120    97472131.84845
  20684771.260   108699226.55808  20684772.580    84700706.83349
  21763785.960   114369514.53208  21763787.380    89119120.68247
  22335221.840   117372409.82308  22335222.040    91459027.76747
  23516919.900   123582502.78506  23516921.240    96298157.16246
  20884210.940   109747310.08309  20884210.600    85517402.28748
  20792153.840   109263533.80909  20792157.480    85140442.58849
 15 02 18 02 28  0.0000000  0  7G04G16G18G19G21G22G27
  23786711.900   125000018.48006  23786715.380    97402627.58645
  20690628.080   108730004.13608  20690629.340    84724689.34849
  21770297.500   114403732.83508  21770298.960    89145784.29547
  22322077.080   117303333.47308  22322077.240    91405202.04547
  23530056.240   123651534.93806  23530057.700    96351948.42445
  20877462.440   109711846.30609  20877462.080    85489768.19149
  20784781.200   109224790.35109  20784784.860    85110252.88249
 15 02 18 02 28 30.0000000  0  7G04G16G18G19G21G22G27
  23769771.180   124910995.90706  23769774.960    97333259.34345
  20696591.520   108761341.99908  20696592.780    84749108.45049
  21776896.820   114438412.46408  21776898.320    89172807.37847
  22308955.760   117234380.24208  22308955.840    91351472.26347
  23543198.580   123720598.24107  23543200.020    96405763.95845
  20870810.020   109676887.69208  20870809.660    85462527.72749
  20777453.560   109186283.26709  20777457.220    85080247.37049
 15 02 18 02 29  0.0000000  0  7G04G16G18G19G21G22G27
  23752863.540   124822146.47306  23752867.500    97264026.02745
  20702660.940   108793236.74908  20702662.160    84773961.48749
  21783583.160   114473549.72808  21783584.760    89200187.06647
  22295857.680   117165549.24408  22295857.760    91297837.72947
  23556346.400   123789690.00406  23556347.760    96459601.67545
  20864253.480   109642433.12309  20864253.160    85435680.01949
  20770170.740   109148011.71609  20770174.400    85050425.38549
 15 02 18 02 29 30.0000000  0  7G04G16G18G19G21G22G27
  23735989.180   124733471.52806  23735993.280    97194928.66546
  20708836.320   108825688.45308  20708837.500    84799248.51749
  21790356.580   114509144.35908  21790358.200    89227923.14647
  22282783.140   117096842.11708  22282783.240    91244299.71847
  23569499.500   123858809.93306  23569500.820    96513461.33945
  20857793.280   109608484.48009  20857792.920    85409226.54549
  20762933.120   109109977.94209  20762936.800    85020788.67849
 15 02 18 02 30  0.0000000  0  7G04G16G18G19G21G22G27
  23719148.260   124644971.58406  23719152.300    97125967.69645
  20715117.520   108858696.17408  20715118.660    84824968.80549
  21797216.860   114545195.28708  21797218.480    89256014.77748
  22269732.340   117028259.85808  22269732.460    91190859.01548
  23582657.880   123927957.42107  23582659.140    96567342.47246
  20851429.460   109575042.44009  20851429.100    85383167.82749
  20755740.940   109072183.07509  20755744.640    84991338.14049
 15 02 18 02 30 30.0000000  0  7G04G16G18G19G21G22G27
  23702341.080   124556649.04106  23702345.080    97057144.95445
  20721504.600   108892260.50608  20721505.740    84851122.82149
  21804163.980   114581702.45708  21804165.540    89284461.92847
  22256705.820   116959805.00108  22256705.940    91137517.58747
  23595821.600   123997133.01806  23595822.860    96621245.52146
  20845162.520   109542109.64308  20845162.200    85357505.91549
  20748594.800   109034630.00809  20748598.520    84962076.01249
 15 02 18 02 31  0.0000000  0  7G04G16G18G19G21G22G27
  23685567.740   124468504.36806  23685571.720    96988460.82645
  20727997.440   108926380.80208  20727998.660    84877710.05349
  21811197.720   114618664.78708  21811199.180    89313263.74248
  22243703.720   116891478.53108  22243703.820    91084276.19448
  23608990.420   124066335.75806  23608991.660    96675169.70545
  20838992.680   109509687.38508  20838992.460    85332241.83549
  20741494.980   108997320.20009  20741498.700    84933003.43649
 15 02 18 02 31 30.0000000  0  7G04G16G18G19G21G22G27
  23668828.200   124380537.12406  23668832.120    96919914.93645
  20734595.680   108961055.07408  20734597.000    84904728.95649
  21818317.620   114656079.75908  21818318.980    89342418.27247
  22230725.980   116823280.19908  22230726.100    91031134.65348
  23622164.200   124135564.64106  23622165.460    96729114.26945
  20832919.980   109477775.44608  20832919.840    85307375.39949
  20734441.500   108960253.78109  20734445.180    84904120.51749
 15 02 18 02 32  0.0000000  0  7G04G16G18G19G21G22G27
  23652122.800   124292749.58106  23652126.740    96851509.06845
  20741299.560   108996284.39808  20741300.960    84932180.36749
  21825523.660   114693947.54208  21825524.940    89371925.63548
  22217773.160   116755212.49508  22217773.260    90978094.89648
  23635343.040   124204820.02906  23635344.360    96783079.47745
  20826944.820   109446375.97908  20826944.740    85282908.29449
  20727434.880   108923433.60009  20727438.500    84875429.47349
 15 02 18 02 32 30.0000000  0  7G04G16G18G19G21G22G27
  23635451.480   124205141.70006  23635455.460    96783243.16444
  20748108.760   109032067.12808  20748110.240    84960063.00149
  21832815.540   114732266.63508  21832816.820    89401784.67347
  22204845.340   116687276.27708  22204845.400    90925157.59948
  23648526.780   124274100.95006  23648528.160    96837064.59446
  20821067.380   109415489.82309  20821067.320    85258841.17249
  20720475.320   108886860.66309  20720478.880    84846931.08649
 15 02 18 02 33  0.0000000  0  7G04G16G18G19G21G22G27
  23618814.240   124117713.27806  23618818.360    96715117.14145
  20755022.740   109068400.63208  20755024.320    84988374.81049
  21840192.760   114771034.48508  21840194.120    89431993.39347
  22191942.460   116619471.35308  22191942.560    90872322.61848
  23661715.080   124343405.53506  23661716.420    96891068.14945
  20815287.580   109385116.48509  20815287.480    85235173.64449
  20713562.800   108850535.12809  20713566.380    84818625.47749
 15 02 18 02 33 30.0000000  0  7G04G16G18G19G21G22G27
  23602211.180   124030464.32906  23602215.280    96647130.97045
  20762041.420   109105284.32508  20762043.080    85017115.33649
  21847655.060   114810249.40408  21847656.480    89462550.48347
  22179064.720   116551798.38008  22179064.840    90819590.45048
  23674907.740   124412732.73506  23674909.080    96945089.32345
  20809605.520   109355256.68309  20809605.340    85211906.27849
  20706697.560   108814458.11109  20706701.180    84790513.52049
 15 02 18 02 34  0.0000000  0  7G04G16G18G19G21G22G27
  23585642.620   123943396.25006  23585646.640    96579285.72445
  20769164.740   109142717.92408  20769166.440    85046284.36449
  21855202.280   114849910.50508  21855203.740    89493455.24147
  22166212.420   116484259.13008  22166212.560    90766962.47948
  23688104.720   124482082.84906  23688106.060    96999128.35145
  20804021.440   109325912.07909  20804021.220    85189040.36349
  20699879.960   108778631.58109  20699883.620    84762596.74749
 15 02 18 02 34 30.0000000  0  7G04G16G18G19G21G22G27
  23569108.720   123856509.66206  23569112.660    96511581.92245
  20776392.560   109180700.38308  20776394.240    85075881.07049
  21862834.180   114890016.75408  21862835.680    89524706.86647
  22153385.740   116416854.57108  22153385.880    90714439.46548
  23701305.860   124551454.77006  23701307.160    97053184.36846
  20798535.460   109297083.18009  20798535.220    85166576.30349
  20693110.340   108743056.89009  20693113.960    84734876.21149
 15 02 18 02 35  0.0000000  0  7G04G16G18G19G21G22G27
  23552609.200   123769803.51806  23552613.040    96444018.71345
  20783724.260   109219228.47108  20783725.860    85105902.94349
  21870550.180   114930564.71508  21870551.660    89556302.68647
  22140584.500   116349584.00308  22140584.680    90662020.86547
  23714510.700   124620846.34906  23714511.960    97107255.70445
  20793147.500   109268769.41709  20793147.240    85144513.64449
  20686388.540   108707733.60909  20686392.140    84707351.58049
 15 02 18 02 35 30.0000000  0  7G04G16G18G19G21G22G27
  23536144.760   123683281.48206  23536148.400    96376598.98645
  20791160.340   109258304.83908  20791161.860    85136352.05349
  21878350.580   114971556.32508  21878352.020    89588244.20247
  22127809.640   116282451.75308  22127809.820    90609710.04148
  23727719.800   124690260.72206  23727721.080    97161344.80946
  20787858.360   109240974.79608  20787858.060    85122855.50849
  20679715.520   108672666.47909  20679719.060    84680026.54649
 15 02 18 02 36  0.0000000  0  7G04G16G18G19G21G22G27
  23519715.200   123596942.97306  23519718.740    96309322.25046
  20798700.280   109297927.19408  20798701.780    85167226.59949
  21886234.980   115012989.25808  21886236.380    89620529.60547
  22115061.140   116215457.94608  22115061.280    90557507.09148
  23740932.760   124759695.25406  23740934.000    97215449.61945
  20782667.880   109213698.78409  20782667.560    85101601.47949
  20673091.240   108637855.68909  20673094.740    84652901.25949
 15 02 18 02 36 30.0000000  0  7G04G16G18G19G21G22G27
  23503320.480   123510787.85206  23503324.000    96242188.42645
  20806343.840   109338094.22308  20806345.340    85198525.56849
  21894202.920   115054860.98208  21894204.300    89653156.92847
  22102339.040   116148602.69608  22102339.080    90505412.10847
  23754149.340   124829148.72706  23754150.580    97269569.17945
  20777576.100   109186941.42609  20777575.780    85080751.60249
  20666515.840   108603301.82109  20666519.340    84625976.17549
 15 02 18 02 37  0.0000000  0  7G04G16G18G19G21G22G27
  23486960.840   123424817.43406  23486964.460    96175198.54045
  20814090.800   109378804.76508  20814092.320    85230248.05649
  21902254.320   115097171.13008  21902255.680    89686125.87647
  22089643.560   116081887.57208  22089643.580    90453426.30948
  23767369.640   124898621.70706  23767370.880    97323703.96145
  20772583.320   109160704.12109  20772582.960    85060306.96549
  20659989.720   108569006.88909  20659993.220    84599252.85649
 15 02 18 02 37 30.0000000  0  7G04G16G18G19G21G22G27
  23470636.480   123339032.61706  23470640.320    96108353.25246
  20821941.000   109420057.84208  20821942.500    85262393.29849
  21910388.860   115139918.16908  21910390.220    89719435.25147
  22076975.020   116015313.99308  22076975.020    90401550.80948
  23780593.400   124968113.19706  23780594.660    97377853.14845
  20767689.680   109134987.83309  20767689.280    85040268.31149
  20653513.180   108534972.48109  20653516.700    84572732.54249
 15 02 18 02 38  0.0000000  0  7G04G16G18G19G21G22G27
  23454347.360   123253432.89406  23454351.300    96041652.19846
  20829894.200   109461852.18208  20829895.720    85294960.30949
  21918606.080   115183099.75908  21918607.440    89753083.24647
  22064333.440   115948882.29908  22064333.480    90349785.87148
  23793820.460   125037621.84606  23793821.740    97432015.71045
  20762895.180   109109792.51309  20762894.760    85020635.60949
  20647086.380   108501199.17709  20647089.860    84546415.69249
 15 02 18 02 38 30.0000000  0  7G04G16G18G19G21G22G27
  23438093.740   123168019.90506  23438097.780    95975096.67545
  20837950.300   109504187.20708  20837951.820    85327948.62449
  21926905.880   115226715.58408  21926907.260    89787069.60347
  22051719.260   115882594.58208  22051719.400    90298133.12448
  23807050.920   125107148.40106  23807052.160    97486192.22645
  20758200.060   109085119.68509  20758199.640    85001410.04149
  20640709.720   108467689.36409  20640713.140    84520304.15149
 15 02 18 02 39  0.0000000  0  7G04G16G18G19G21G22G27
  23421875.640   123082793.74006  23421879.700    95908686.69346
  20846108.940   109547061.08208  20846110.440    85361356.82149
  21935287.940   115270763.68008  21935289.360    89821392.79747
  22039132.560   115816451.32208  22039132.780    90246592.94548
  23820284.440   125176691.37806  23820285.720    97540381.52245
  20753604.420   109060969.56008  20753604.020    84982591.77249
  20634383.340   108434443.88109  20634386.740    84494398.58749
 15 02 18 02 39 30.0000000  0  7G04G16G18G19G21G22G27
  23405693.060   122997754.20706  23405697.080    95842422.15345
  20854369.840   109590472.23608  20854371.280    85395183.68449
  21943751.880   115315241.82008  21943753.220    89856051.09147
  22026573.500   115750453.10508  22026573.720    90195165.77248
  23833520.860   125246249.84106  23833522.200    97594582.92245
  20749108.240   109037342.14308  20749107.840    84964180.81249
  20628107.360   108401463.52009  20628110.780    84468699.60849
 15 02 18 02 40  0.0000000  0  7G04G16G18G19G21G22G27
  23389546.120   122912901.90306  23389550.080    95776303.52845
  20862732.660   109634419.03408  20862734.060    85429427.92849
  21952297.400   115360148.37608  21952298.580    89891043.21547
  22014042.240   115684600.90808  22014042.400    90143852.38248
  23846760.180   125315823.22106  23846761.580    97648795.90745
  20744711.620   109014238.01908  20744711.260    84946177.61349
  20621882.040   108368749.48209  20621885.520    84443208.15449
 15 02 18 02 40 30.0000000  0  7G04G16G18G19G21G22G27
  23373434.740   122828236.23506  23373438.560    95710330.32045
  20871196.980   109678899.26708  20871198.360    85464087.83649
  21960923.900   115405480.45308  21960924.900    89926366.91847
  22001538.840   115618894.87908  22001538.880    90092652.89348
  23860002.120   125385409.77306  23860003.420    97703019.17945
  20740414.520   108991656.61209  20740414.120    84928581.72349
  20615707.440   108336302.14709  20615711.020    84417924.52049
 15 02 18 02 41  0.0000000  0  7G04G16G18G19G21G22G27
  23357359.320   122743758.99907  23357362.900    95644503.93645
  20879762.840   109723913.10508  20879764.200    85499163.53949
  21969631.320   115451238.03908  21969632.200    89962022.18347
  21989063.660   115553337.13708  21989063.580    90041568.95548
  23873246.600   125455009.76406  23873247.900    97757252.94145
  20736217.280   108969599.80909  20736216.820    84911394.62149
  20609584.080   108304124.15709  20609587.760    84392850.77049
 15 02 18 02 41 30.0000000  0  7G04G16G18G19G21G22G27
  23341320.140   122659472.25007  23341323.520    95578825.98645
  20888430.280   109769460.74408  20888431.640    85534655.19149
  21978419.600   115497421.04008  21978420.500    89998008.93847
  21976617.300   115487930.80108  21976617.120    89990602.98848
  23886493.940   125524624.35706  23886495.200    97811498.04545
  20732120.300   108948069.74209  20732119.740    84894617.95849
  20603512.580   108272218.44309  20603516.320    84367989.17949
 15 02 18 02 42  0.0000000  0  7G04G16G18G19G21G22G27
  23325317.160   122575375.71007  23325320.420    95513296.27045
  20897198.860   109815539.82708  20897200.200    85570560.95849
  21987288.460   115544027.38208  21987289.420    90034325.57447
  21964199.780   115422675.80408  21964199.460    89939754.94548
  23899743.800   125594252.14006  23899745.020    97865753.45846
  20728123.500   108927065.98309  20728122.840    84878251.40649
  20597493.020   108240585.56009  20597496.800    84343340.18349
 15 02 18 02 42 30.0000000  0  7G04G16G18G19G21G22G27
  23309350.440   122491469.94907  23309353.700    95447915.20045
  20906068.220   109862148.74108  20906069.640    85606879.57949
  21996237.440   115591055.10208  21996238.520    90070970.55347
  21951811.160   115357573.04808  21951810.800    89889025.53748
  23912995.940   125663892.31406  23912997.160    97920018.50445
  20724226.800   108906588.61209  20724226.120    84862295.02649
  20591525.660   108209226.81309  20591529.440    84318904.80049
 15 02 18 02 43  0.0000000  0  7G04G16G18G19G21G22G27
  23293420.080   122407755.47107  23293423.460    95382683.16445
  20915038.300   109909287.01408  20915039.800    85643610.69249
  22005266.360   115638502.87508  22005267.600    90107942.84347
  21939451.780   115292624.28108  21939451.460    89838416.11848
  23926250.400   125733544.95006  23926251.640    97974293.26645
  20720430.400   108886638.74509  20720429.780    84846749.68149
  20585610.800   108178143.87809  20585614.520    84294684.33949
 15 02 18 02 43 30.0000000  0  7G04G16G18G19G21G22G27
  23277526.060   122324232.33607  23277529.640    95317600.23145
  20924108.720   109956952.45808  20924110.280    85680752.58249
  22014374.880   115686368.70508  22014376.200    90145240.89247
  21927121.860   115227830.29508  21927121.600    89787927.31148
  23939507.040   125803209.29506  23939508.280    98028577.15445
  20716734.400   108867216.42609  20716733.860    84831615.41649
  20579748.540   108147337.48309  20579752.220    84270679.35849
 15 02 18 02 44  0.0000000  0  7G04G16G18G19G21G22G27
  23261668.380   122240900.30407  23261672.120    95252666.21745
  20933279.000   110005142.67108  20933280.620    85718303.38549
  22023562.580   115734650.31508  22023563.900    90182862.92447
  21914821.380   115163191.29708  21914821.240    89737559.26848
  23952765.480   125872883.19306  23952766.820    98082868.47945
  20713138.780   108848321.46209  20713138.280    84816892.07649
  20573939.080   108116808.43609  20573942.720    84246890.49949
 15 02 18 02 44 30.0000000  0  7G04G16G18G19G21G22G27
  23245847.460   122157761.51207  23245851.300    95187882.77346
  20942549.260   110053858.26608  20942550.920    85756263.57948
  22032829.320   115783347.03908  22032830.560    90220808.43447
  21902550.900   115098709.82508  21902550.800    89687313.97648
  23966025.960   125942568.12906  23966027.460    98137168.41745
  20709643.860   108829955.60509  20709643.400    84802581.02949
  20568182.940   108086559.56909  20568186.540    84223319.95149
 15 02 18 02 45  0.0000000  0  7G04G16G18G19G21G22G27
  23230063.020   122074813.93607  23230066.880    95123248.34145
  20951918.720   110103094.99508  20951920.340    85794629.84949
  22042174.340   115832455.27208  22042175.500    90259074.58747
  21890310.280   115034385.20408  21890310.180    89637190.90248
  23979288.060   126012261.78906  23979289.760    98191475.13845
  20706249.240   108812116.87209  20706248.800    84788680.73449
  20562479.920   108056589.95209  20562483.500    84199967.00949
 15 02 18 02 45 30.0000000  0  7G04G16G18G19G21G22G27
  23214315.560   121992061.06607  23214319.520    95058765.62246
  20961387.700   110152854.56308  20961389.280    85833403.52448
  22051597.940   115881976.56908  22051599.040    90297662.61547
  21878100.180   114970220.95008  21878100.120    89587192.79148
  23992552.280   126081965.71206  23992554.000    98245789.87945
  20702955.580   108794808.61109  20702955.080    84775193.78649
  20556830.860   108026903.87809  20556834.440    84176835.00549
 15 02 18 02 46  0.0000000  0  7G04G16G18G19G21G22G27
  23198604.760   121909500.76507  23198608.720    94994432.95145
  20970955.440   110203133.06608  20970956.960    85872581.56648
  22061099.240   115931906.42408  22061100.340    90336568.99647
  21865920.460   114906216.27608  21865920.440    89537319.02748
  24005818.060   126151677.72506  24005819.720    98300110.91445
  20699762.520   108778028.91509  20699761.920    84762118.70849
  20551235.520   107997500.27609  20551239.140    84153923.10349
 15 02 18 02 46 30.0000000  0  7G04G16G18G19G21G22G27
  23182930.720   121827133.00007  23182934.520    94930250.31145
  20980621.340   110253927.58208  20980622.840    85912161.69648
  22070677.820   115982242.50908  22070678.960    90375791.92347
  21853771.140   114842371.22108  21853771.120    89487569.65448
  24019085.000   126221395.76306  24019086.700    98354436.64645
  20696669.880   108761777.03709  20696669.260    84749454.92449
  20545694.060   107968379.83009  20545697.740    84131231.85349
 15 02 18 02 47  0.0000000  0  7G04G16G18G19G21G22G27
  23167294.000   121744961.19007  23167297.600    94866220.37945
  20990385.840   110305240.45208  20990387.340    85952145.73248
  22080333.960   116032986.03608  22080335.160    90415332.33547
  21841653.100   114778690.17308  21841652.940    89437948.05848
  24032353.640   126291122.76106  24032355.320    98408769.33445
  20693678.220   108746055.92609  20693677.620    84737204.71549
  20540207.300   107939546.91909  20540211.020    84108764.64649
 15 02 18 02 47 30.0000000  0  7G04G16G18G19G21G22G27
  23151694.300   121662983.82107  23151697.700    94802341.95545
  21000248.280   110357067.96908  21000249.780    85992530.79648
  22090066.980   116084133.47208  22090068.240    90455187.47947
  21829566.060   114715172.22308  21829565.840    89388453.55848
  24045623.460   126360855.79706  24045625.060    98463106.74445
  20690787.340   108730864.72508  20690786.820    84725367.42849
  20534775.180   107911000.94109  20534778.920    84086521.02649
 15 02 18 02 48  0.0000000  0  7G04G16G18G19G21G22G27
  23136132.120   121581203.89307  23136135.380    94738617.37845
  21010208.860   110409411.02508  21010210.300    86033317.57948
  22099877.000   116135685.45108  22099878.320    90495357.85847
  21817510.740   114651820.94408  21817510.520    89339088.93348
  24058894.840   126430597.34006  24058896.440    98517450.80444
  20687997.700   108716205.38309  20687997.260    84713944.57449
  20529398.460   107882745.86109  20529402.140    84064504.07949
 15 02 18 02 48 30.0000000  0  7G04G16G18G19G21G22G27
  23120607.000   121499619.00507  23120610.300    94675044.78546
  21020266.560   110462264.60608  21020267.980    86074502.17748
  22109763.220   116187637.50508  22109764.520    90535839.97847
  21805486.900   114588635.13908  21805486.700    89289853.25748
  24072167.180   126500344.02906  24072168.620    98571798.81045
  20685308.920   108702075.91409  20685308.540    84702934.60949
  20524076.760   107854780.09209  20524080.420    84042712.57049
 15 02 18 02 49  0.0000000  0  7G04G16G18G19G21G22G27
  23105119.320   121418231.33507  23105122.760    94611625.84746
  21030421.540   110515629.31308  21030422.960    86116085.05148
  22119725.560   116239989.89708  22119726.860    90576634.04747
  21793495.120   114525617.74108  21793494.880    89240748.80248
  24085440.800   126570097.04706  24085442.140    98626151.81344
  20682721.400   108688478.40709  20682721.060    84692339.15749
  20518810.720   107827107.02809  20518814.400    84021149.14549
 15 02 18 02 49 30.0000000  0  7G04G16G18G19G21G22G27
  23089669.040   121337040.24707  23089672.700    94548360.10246
  21040673.360   110569502.83808  21040674.800    86158064.40748
  22129763.520   116292739.68808  22129764.820    90617737.77947
  21781535.320   114462768.68608  21781535.100    89191775.52648
  24098715.400   126639855.30406  24098716.720    98680508.85444
  20680234.860   108675411.42809  20680234.540    84682157.10649
  20513600.420   107799726.81909  20513604.100    83999813.92049
 15 02 18 02 50  0.0000000  0  7G04G16G18G19G21G22G27
  23074256.360   121256046.74407  23074260.220    94485248.31346
  21051021.780   110623884.07109  21051023.280    86200439.37948
  22139876.820   116345885.65608  22139878.140    90659150.22447
  21769607.940   114400090.02908  21769607.740    89142935.02648
  24111991.000   126709618.45106  24111992.380    98734869.73745
  20677849.480   108662876.05809  20677849.160    84672389.29549
  20508446.220   107772641.50909  20508449.920    83978708.48049
 15 02 18 02 50 30.0000000  0  7G04G16G18G19G21G22G27
  23058881.380   121175250.99707  23058885.320    94422290.61945
  21061466.340   110678770.41209  21061467.880    86243207.94248
  22150065.060   116399425.49708  22150066.400    90700869.57247
  21757713.140   114337582.54008  21757712.980    89094227.90748
  24125267.400   126779386.00806  24125268.920    98789234.05544
  20675565.200   108650872.06509  20675564.860    84663035.54249
  20503348.380   107745852.10109  20503352.060    83957833.61449
 15 02 18 02 51  0.0000000  0  7G04G16G18G19G21G22G27
  23043544.020   121094652.48207  23043547.900    94359486.62046
  21072006.580   110734159.70208  21072008.140    86286368.41648
  22160327.900   116453357.08808  22160329.220    90742894.18847
  21745850.940   114275246.48508  21745850.860    89045654.37348
  24138544.360   126849156.47806  24138546.000    98843600.62645
  20673381.840   108639398.29709  20673381.440    84654094.95449
  20498306.980   107719359.14109  20498310.600    83937189.74549
 15 02 18 02 51 30.0000000  0  7G04G16G18G19G21G22G27
  23028244.320   121014251.86107  23028248.160    94296836.81646
  21082642.180   110790050.34708  21082643.800    86329919.55148
  22170664.960   116507678.49008  22170666.220    90785222.55547
  21734021.700   114213083.37508  21734021.620    88997215.59048
  24151821.780   126918929.44106  24151823.540    98897969.14445
  20671299.560   108628455.73609  20671299.100    84645568.30049
  20493322.260   107693164.16609  20493325.860    83916778.07549
 15 02 18 02 52  0.0000000  0  7G04G16G18G19G21G22G27
  23012982.820   120934051.88707  23012986.540    94234343.37745
  21093373.200   110846442.29808  21093374.860    86373861.31948
  22181076.260   116562390.21408  22181077.480    90827855.06847
  21722226.060   114151096.93108  21722225.980    88948914.46848
  24165100.060   126988706.84506  24165101.940    98952341.13145
  20669318.760   108618046.57808  20669318.260    84637457.27849
  20488395.000   107667270.96209  20488398.520    83896601.55249
 15 02 18 02 52 30.0000000  0  7G04G16G18G19G21G22G27
  22997759.360   120854052.14107  22997763.000    94172005.94745
  21104199.320   110903334.04008  21104200.980    86418192.52648
  22191561.280   116617489.45808  22191562.480    90870789.54847
  21710464.120   114089287.50608  21710463.980    88900751.29148
  24178378.880   127058487.76006  24178380.820    99006715.82544
  20667439.280   108608170.19109  20667438.800    84629761.40049
  20483525.240   107641680.09509  20483528.740    83876660.61049
 15 02 18 02 53  0.0000000  0  7G04G16G18G19G21G22G27
  22982573.720   120774250.98007  22982577.220    94109823.24945
  21115119.700   110960720.98208  21115121.380    86462909.60948
  22202119.380   116672972.66408  22202120.540    90914023.20846
  21698735.640   114027654.10108  21698735.480    88852725.26448
  24191657.800   127128269.35505  24191659.680    99061091.09345
  20665660.740   108598824.14709  20665660.300    84622478.77849
  20478712.820   107616390.69409  20478716.380    83856954.58249
 15 02 18 02 53 30.0000000  0  9G04G11G16G18G19G21G22G27G32
  22967427.320   120694656.56807  22967430.800    94047801.67845
  24632301.260   129443620.21705  24632303.500   100865166.85244
  21126135.520   111018609.40909  21126137.160    86508017.46148
  22212751.640   116728845.78308  22212752.740    90957560.70447
  21687042.460   113966206.08908  21687042.320    88804843.69548
  24204938.200   127198058.93205  24204940.100    99115472.56845
  20663984.660   108590016.55509  20663984.280    84615615.72649
  20473959.540   107591412.12909  20473963.140    83837490.76649
  24491614.700   128704302.73005  24491619.760   100289094.10345
 15 02 18 02 54  0.0000000  0  9G04G11G16G18G19G21G22G27G32
  22952315.880   120615245.83507  22952319.320    93985923.22846
  24615092.040   129353184.33905  24615094.640   100794697.37145
  21137242.080   111076974.40009  21137243.640    86553496.66248
  22223453.260   116785083.22308  22223454.280    91001382.08747
  21675380.280   113904921.07908  21675380.220    88757089.15348
  24218215.660   127267833.18605  24218217.620    99169842.08444
  20662406.620   108581723.94109  20662406.260    84609153.95749
  20469261.200   107566722.32409  20469264.820    83818251.95449
  24468919.960   128585040.87705  24468924.980   100196163.01645
 15 02 18 02 54 30.0000000  0  9G04G11G16G18G19G21G22G27G32
  22937244.360   120536045.02807  22937247.800    93924208.35046
  24597895.580   129262806.24505  24597898.880   100724280.71744
  21148443.860   111135839.78409  21148445.360    86599365.77448
  22234228.900   116841709.49808  22234229.820    91045506.45447
  21663754.280   113843826.27308  21663754.300    88709482.82348
  24231495.020   127337617.21105  24231497.080    99224219.21144
  20660931.500   108573971.93609  20660931.100    84603113.44449
  20464622.980   107542348.37409  20464626.600    83799259.26149
  24446235.240   128465832.12905  24446240.340   100103273.28344
 15 02 18 02 55  0.0000000  0  9G04G11G16G18G19G21G22G27G32
  22922212.000   120457049.97707  22922215.540    93862653.81445
  24580711.100   129172501.94705  24580714.480   100653913.77345
  21159739.540   111195198.72508  21159741.000    86645619.48248
  22245077.300   116898718.02808  22245078.220    91089928.68947
  21652163.820   113782918.23708  21652163.880    88662022.03048
  24244775.380   127407405.92405  24244777.240    99278600.00044
  20659558.340   108566755.75009  20659557.880    84597490.45049
  20460044.300   107518287.22709  20460047.920    83780510.31449
  24423560.240   128346674.67606  24423565.420   100010423.51044
 15 02 18 02 55 30.0000000  0  9G04G11G16G18G19G21G22G27G32
  22907217.680   120378254.57707  22907221.340    93801254.83046
  24563537.680   129082255.52805  24563540.780   100583591.94342
  21171127.480   111255042.87808  21171128.960    86692251.26648
  22255996.860   116956100.39308  22255997.860    91134642.21847
  21640608.020   113722192.12708  21640608.020    88614702.99548
  24258055.420   127477192.62405  24258057.100    99332979.24545
  20658286.000   108560069.46909  20658285.500    84592280.36549
  20455524.160   107494533.69709  20455527.780    83762001.07149
  24400894.220   128227564.50706  24400899.460    99917610.58045
 15 02 18 02 56  0.0000000  0  9G04G11G16G18G19G21G22G27G32
  22892261.820   120299661.05207  22892265.540    93740013.16146
  24546375.680   128992068.95605  24546378.820   100513316.70944
  21182607.840   111315372.87108  21182609.360    86739261.63648
  22266987.560   117013856.68808  22266988.640    91179647.11947
  21629087.380   113661650.81308  21629087.340    88567527.95348
  24271335.480   127546979.15905  24271337.100    99387358.32044
  20657114.720   108553914.50309  20657114.260    84587484.29849
  20451063.140   107471091.03909  20451066.780    83743734.06349
  24378238.120   128108506.14706  24378243.300    99824837.98545
 15 02 18 02 56 30.0000000  0  9G04G11G16G18G19G21G22G27G32
  22877344.760   120221271.14407  22877348.440    93678930.15146
  24529225.360   128901943.99705  24529228.360   100443089.49944
  21194180.480   111376187.65908  21194182.020    86786649.76148
  22278049.280   117071985.99608  22278050.340    91224942.68247
  21617602.460   113601297.24808  21617602.420    88520499.21048
  24284615.540   127616765.55705  24284617.080    99441737.30744
  20656044.720   108548291.83908  20656044.300    84583103.01149
  20446661.800   107447961.90409  20446665.440    83725711.36149
  24355592.620   127989503.52006  24355597.820    99732108.86845
 15 02 18 02 57  0.0000000  0  9G04G11G16G18G19G21G22G27G32
  22862466.300   120143084.12307  22862469.940    93618005.24646
  24512086.680   128811880.03305  24512089.480   100372909.77842
  21205844.900   111437484.64808  21205846.460    86834413.63348
  22289181.480   117130485.77608  22289182.520    91270526.92046
  21606153.220   113541131.16708  21606153.200    88473616.55848
  24297895.260   127686551.01405  24297896.800    99496115.55044
  20655075.840   108543200.54809  20655075.460    84579135.78049
  20442320.200   107425146.70009  20442323.860    83707933.27749
  24332958.080   127870558.26806  24332963.120    99639424.42044
 15 02 18 02 57 30.0000000  0  9G04G11G16G18G19G21G22G27G32
  22847626.440   120065099.76907  22847629.940    93557238.25846
  24494959.580   128721877.89705  24494961.660   100302764.48743
  21217600.500   111499260.71608  21217602.100    86882550.81148
  22300383.660   117189353.43808  22300384.640    91316397.82546
  21594739.880   113481153.66308  21594739.880    88426880.85948
  24311174.680   127756334.43605  24311176.220    99550492.21644
  20654207.920   108538639.87809  20654207.560    84575582.02049
  20438038.500   107402646.24409  20438042.140    83690400.45649
  24310334.920   127751672.46806  24310339.720    99546786.26944
 15 02 18 02 58  0.0000000  0  9G04G11G16G18G19G21G22G27G32
  22832825.320   119987319.46407  22832828.740    93496630.25346
  24477844.360   128631936.59105  24477846.780   100232680.41043
  21229447.060   111561514.81208  21229448.720    86931060.48448
  22311655.600   117248587.83708  22311656.520    91362554.50447
  21583362.820   113421366.80408  21583362.800    88380293.70848
  24324453.760   127826116.39805  24324455.320    99604867.74744
  20653441.180   108534610.91609  20653440.820    84572442.58149
  20433817.100   107380462.70009  20433820.740    83673114.58249
  24287723.700   127632849.48606  24287728.360    99454197.07845
 15 02 18 02 58 30.0000000  0  9G04G11G16G18G19G21G22G27G32
  22818063.180   119909744.11807  22818066.560    93436181.97045
  24460741.120   128542058.47905  24460743.780   100162645.57544
  21241384.440   111624246.35408  21241386.200    86979942.18848
  22322997.020   117308187.57308  22322997.920    91408995.85247
  21572022.420   113361772.73408  21572022.440    88333856.77948
  24337732.640   127895897.22605  24337734.160    99659242.37045
  20652775.680   108531113.83509  20652775.320    84569717.58849
  20429656.400   107358598.12909  20429660.040    83656077.25049
  24265125.040   127514092.70606  24265129.680    99361659.47545
 15 02 18 02 59  0.0000000  0  9G04G11G16G18G19G21G22G27G32
  22803339.600   119832371.82907  22803343.060    93375891.92046
  24443650.060   128452244.91705  24443651.480   100092666.68844
  21253411.880   111687451.08008  21253413.700    87029192.60648
  22334407.340   117368149.02808  22334408.220    91455719.06847
  21560718.560   113302370.56508  21560718.640    88287569.38848
  24351010.860   127965674.40406  24351012.260    99713614.14445
  20652210.920   108528146.01909  20652210.560    84567405.01549
  20425556.260   107337051.70609  20425559.900    83639287.83449
  24242538.980   127395402.47706  24242543.560    99269173.71145
 15 02 18 02 59 30.0000000  0  9G04G11G16G18G19G21G22G27G32
  22788655.420   119755206.41507  22788658.920    93315763.07145
  24426570.660   128362493.70105  24426572.720   100022730.73344
  21265529.540   111751129.84508  21265531.400    87078812.40448
  22345886.740   117428473.52108  22345887.620    91502725.16347
  21549452.120   113243164.90208  21549452.160    88241435.11048
  24364288.960   128035450.87605  24364290.320    99767985.39444
  20651747.560   108525710.84609  20651747.140    84565507.48649
  20421517.560   107315828.24409  20421521.200    83622750.07149
  24219966.680   127276785.03906  24219971.220    99176744.63545
 15 02 18 03 00  0.0000000  0  9G04G11G16G18G19G21G22G27G32
  22774010.340   119678246.17407  22774013.820    93255794.09746
  24409503.460   128272805.63305  24409505.840    99952844.00444
  21277736.700   111815278.76208  21277738.540    87128798.55548
  22357434.480   117489157.21808  22357435.380    91550011.15646
  21538222.960   113184155.25708  21538222.980    88195453.57748
  24377566.440   128105224.32306  24377567.740    99822354.31244
  20651385.060   108523805.66209  20651384.580    84564022.93549
  20417540.200   107294927.03209  20417543.840    83606463.41249
  24197408.320   127158240.78706  24197412.840    99084372.58945
 15 02 18 03 00 30.0000000  0  9G04G11G16G18G19G21G22G27G32
  22759404.400   119601491.49407  22759407.860    93195985.30246
  24392448.560   128183181.75705  24392450.940    99883007.24043
  21290032.940   111879895.72108  21290034.740    87179149.41848
  22369050.180   117550198.27808  22369051.160    91597575.61946
  21527031.280   113125342.80508  21527031.340    88149625.70048
  24390843.360   128174994.58205  24390844.720    99876720.71745
  20651123.440   108522430.67209  20651122.940    84562951.52449
  20413624.420   107274349.51909  20413628.080    83590428.99049
  24174864.400   127039772.55506  24174868.840    98992059.79145
 15 02 18 03 01  0.0000000  0  9G04G11G16G18G19G21G22G27G32
  22744837.680   119524942.72207  22744841.080    93136336.94946
  24375405.940   128093622.58605  24375408.440    99813220.91844
  21302418.020   111944979.44808  21302419.740    87229863.99248
  22380733.500   117611594.51008  22380734.480    91645416.83846
  21515877.380   113066728.97308  21515877.480    88103952.59648
  24404119.560   128244761.08505  24404120.920    99931084.17744
  20650962.620   108521585.44409  20650962.120    84562292.91549
  20409770.500   107254097.02709  20409774.180    83574647.82649
  24152335.340   126921382.90206  24152339.800    98899808.19345
 15 02 18 03 01 30.0000000  0  8G04G16G18G19G21G22G27G32
  22730310.280   119448600.50607  22730313.620    93076849.54846
  21314891.520   112010527.78908  21314893.200    87280940.60548
  22392484.120   117673344.40308  22392485.080    91693533.64146
  21504761.660   113008315.60108  21504761.780    88058435.69148
  24417395.140   128314524.12205  24417396.400    99985444.98644
  20650902.640   108521270.03109  20650902.120    84562047.14749
  20405978.760   107234171.26509  20405982.460    83559121.25849
  24129821.880   126803074.79806  24129826.260    98807620.15545
 15 02 18 03 02  0.0000000  0  9G04G11G16G18G19G21G22G27G32
  22715822.140   119372464.92207  22715825.500    93017523.14546
  24341357.500   127914699.54105  24341360.120    99673805.45344
  21327452.820   112076537.61108  21327454.460    87332376.80948
  22404301.560   117735445.58308  22404302.560    91741924.16446
  21493684.340   112950103.85708  21493684.440    88013075.90548
  24430669.960   128384283.05405  24430670.940   100039802.55944
  20650943.360   108521483.69609  20650942.780    84562213.64749
  20402249.380   107214573.26709  20402253.120    83543850.09749
  24107324.400   126684850.61306  24107328.800    98715497.50745
 15 02 18 03 02 30.0000000  0  9G04G11G16G18G19G21G22G27G32
  22701373.080   119296534.78607  22701376.420    92958356.83246
  24324352.120   127825334.72005  24324354.940    99604170.58344
  21340101.360   112143006.16908  21340103.020    87384170.47248
  22416185.180   117797894.61108  22416186.220    91790585.74046
  21482645.320   112892093.27708  21482645.340    87967872.85148
  24443943.480   128454035.92305  24443944.360   100094155.39344
  20651084.360   108522224.65109  20651083.780    84562791.02349
  20398582.400   107195303.00709  20398586.120    83528834.31049
  24084843.160   126566711.55605  24084847.520    98623441.17346
 15 02 18 03 03  0.0000000  0  9G04G11G16G18G19G21G22G27G32
  22686963.760   119220813.50607  22686967.140    92899353.26646
  24307359.480   127736037.39705  24307362.320    99534588.27844
  21352837.340   112209934.32708  21352839.040    87436322.27048
  22428135.220   117860692.72408  22428136.300    91839519.33547
  21471645.360   112834287.99708  21471645.300    87922829.78448
  24457216.360   128523785.38005  24457217.080   100148505.62844
  20651326.180   108523495.23109  20651325.580    84563781.09649
  20394978.560   107176364.68509  20394982.280    83514077.17449
  24062379.280   126448663.19106  24062383.540    98531455.49945
 15 02 18 03 03 30.0000000  0  9G04G11G16G18G19G21G22G27G32
  22672593.940   119145299.85507  22672597.380    92840511.48846
  24290379.420   127646806.83205  24290382.360    99465058.03145
  21365660.100   112277318.50408  21365661.820    87488829.40248
  22440151.040   117923836.53908  22440152.140    91888722.30746
  21460684.600   112776688.56208  21460684.440    87877947.11448
  24470488.420   128593530.06105  24470489.040   100202852.09845
  20651668.500   108525294.12709  20651667.920    84565182.84149
  20391437.880   107157758.26709  20391441.600    83499578.67349
  24039932.840   126330706.78606  24039936.980    98439541.49945
 15 02 18 03 04  0.0000000  0  9G04G11G16G18G19G21G22G27G32
  22658263.500   119069993.27307  22658267.020    92781831.06246
  24273411.980   127557642.72705  24273415.080    99395579.53245
  21378569.000   112345155.20208  21378570.740    87541689.14848
  22452232.020   117987323.10308  22452233.240    91938192.35146
  21449763.060   112719295.46908  21449762.880    87833225.22748
  24483759.300   128663268.56505  24483759.840   100257193.75044
  20652111.040   108527619.83009  20652110.480    84566995.08549
  20387960.420   107139484.18909  20387964.160    83485339.13349
  24017504.220   126212844.05506  24017508.380    98347700.47245
 15 02 18 03 04 30.0000000  0  9G04G11G16G18G19G21G22G27G32
  22643972.820   118994895.56907  22643976.420    92723313.39946
  24256457.480   127468546.71405  24256460.660    99326154.12145
  21391563.940   112413443.97308  21391565.680    87594901.16148
  22464378.200   118051151.79208  22464379.420    91987928.99646
  21438881.260   112662111.52108  21438881.160    87788666.31748
  24497029.220   128733002.09005  24497029.620   100311531.51043
  20652654.020   108530473.45109  20652653.480    84569218.69649
  20384546.760   107121545.27609  20384550.500    83471360.76449
  23995094.180   126095079.14106  23995098.280    98255935.68845
 15 02 18 03 05  0.0000000  0  9G04G11G16G18G19G21G22G27G32
  22629721.780   118920005.89307  22629725.320    92664957.83646
  24239515.880   127379517.90305  24239518.900    99256781.08944
  21404644.280   112482181.50308  21404646.020    87648462.85848
  22476588.900   118115319.35908  22476590.120    92037929.70347
  21428039.280   112605136.45808  21428039.180    87744270.16848
  24510298.000   128802729.33405  24510298.280   100365864.36944
  20653297.200   108533853.48709  20653296.660    84571852.50149
  20381196.920   107103941.81209  20381200.680    83457643.77249
  23972703.020   125977413.67306  23972707.100    98164248.37045
 15 02 18 03 05 30.0000000  0  9G04G11G16G18G19G21G22G27G32
  22615510.260   118845323.88207  22615513.720    92606764.09046
  24222587.160   127290556.30605  24222589.980    99187460.40745
  21417809.580   112551365.44808  21417811.320    87702372.40648
  22488863.700   118179823.68108  22488864.920    92088192.81046
  21417237.300   112548371.47008  21417237.140    87700037.71448
  24523565.380   128872449.32506  24523565.580   100420191.59344
  20654040.240   108537758.61909  20654039.760    84574895.47049
  20377911.060   107086674.53209  20377914.800    83444188.75149
  23950331.200   125859849.63805  23950335.240    98072640.09245
 15 02 18 03 06  0.0000000  0  9G04G11G16G18G19G21G22G27G32
  22601338.880   118770852.83808  22601342.220    92548734.75246
  24205671.720   127201664.91605  24205674.420    99118194.44445
  21431059.880   112620996.04208  21431061.600    87756629.99548
  22501202.600   118244665.27808  22501203.900    92138718.72346
  21406476.080   112491820.74308  21406475.880    87655972.21748
  24536831.800   128942164.93205  24536832.000   100474515.40845
  20654883.640   108542191.10809  20654883.240    84578349.36549
  20374689.940   107069747.49009  20374693.660    83430998.85049
  23927979.800   125742392.40406  23927983.820    97981115.03646
 15 02 18 03 06 30.0000000  0  9G04G11G16G18G19G21G22G27G32
  22587207.240   118696590.97908  22587210.520    92490868.40346
  24188769.380   127112842.38605  24188771.880    99048982.12244
  21444394.380   112691069.14708  21444396.100    87811232.39248
  22513605.060   118309840.66908  22513606.380    92189504.74446
  21395755.580   112435483.84108  21395755.360    87612073.33648
  24550096.800   129011873.38505  24550097.400   100528833.62345
  20655826.940   108547148.34809  20655826.560    84582212.15649
  20371533.500   107053160.15509  20371537.160    83418073.65449
  23905648.980   125625042.91906  23905652.940    97889673.94245
 15 02 18 03 07  0.0000000  0  9G04G11G16G18G19G21G22G27G32
  22573115.580   118622539.07907  22573118.800    92433165.66146
  24171880.320   127024089.92406  24171882.700    98979824.44144
  21457812.700   112761582.79708  21457814.400    87866178.07748
  22526070.620   118375347.76208  22526072.020    92240549.22946
  21385076.080   112379362.60608  21385075.900    87568342.51248
  24563360.420   129081575.03805  24563361.480   100583146.54044
  20656870.140   108552630.35909  20656869.740    84586483.86349
  20368442.000   107036914.18909  20368445.640    83405414.46449
  23883339.200   125507804.06006  23883343.180    97798319.03745
 15 02 18 03 07 30.0000000  0  9G04G11G16G18G19G21G22G27G32
  22559063.760   118548696.63207  22559066.980    92375626.14146
  24155004.540   126935406.90405  24155006.480    98910720.85544
  21471314.400   112832534.56208  21471316.060    87921465.15048
  22538598.820   118441183.88208  22538600.260    92291850.10146
  21374437.680   112323457.68608  21374437.540    87524780.24548
  24576622.600   129151269.15205  24576624.000   100637453.57343
  20658013.060   108558636.43709  20658012.620    84591163.93349
  20365415.600   107021010.34709  20365419.240    83393021.85849
  23861050.920   125390677.97006  23861054.860    97707052.00845
 15 02 18 03 08  0.0000000  0  9G04G11G16G18G19G21G22G27G32
  22545051.940   118475064.27807  22545055.200    92318250.32646
  24138142.000   126846793.82705  24138143.820    98841671.74745
  21484898.920   112903921.51308  21484900.540    87977091.32748
  22551189.340   118507347.33808  22551190.760    92343406.03646
  21363840.740   112267770.65108  21363840.620    87481387.75648
  24589883.320   129220955.65705  24589884.940   100691754.73944
  20659255.540   108565165.55509  20659255.040    84596251.56749
  20362454.560   107005450.01109  20362458.200    83380896.91949
  23838784.700   125273667.33406  23838788.440    97615874.94545
 15 02 18 03 08 30.0000000  0  9G04G11G16G18G19G21G22G27G32
  22531080.540   118401643.93608  22531083.780    92261039.71146
  24121293.160   126758252.83205  24121295.060    98772678.84444
  21498566.320   112975744.01108  21498567.900    88033056.88848
  22563842.100   118573838.08008  22563843.520    92395216.99846
  21353285.860   112212304.68108  21353285.720    87438167.53248
  24603142.920   129290636.04805  24603144.480   100746051.11143
  20660597.800   108572219.12209  20660597.240    84601747.86049
  20359559.500   106990236.27109  20359563.140    83369042.06049
  23816541.200   125156776.58506  23816544.780    97524791.30445
 15 02 18 03 09  0.0000000  0  9G04G11G16G18G19G21G22G27G32
  22517149.320   118328434.66608  22517152.540    92203993.56946
  24104457.860   126669783.76905  24104459.800    98703741.96744
  21512315.840   113047998.21308  21512317.400    88089358.84548
  22576556.460   118640652.57908  22576557.900    92447280.25346
  21342773.120   112157060.10208  21342773.000    87395119.82248
  24616401.000   129360308.83004  24616402.760   100800341.51643
  20662039.500   108579795.27709  20662038.920    84607651.37249
  20356730.440   106975369.32109  20356734.040    83357457.42249
  23794320.820   125040007.32206  23794324.260    97433802.31245
 15 02 18 03 09 30.0000000  0  9G04G11G16G18G19G21G22G27G32
  22503258.300   118255436.76308  22503261.520    92147112.13346
  24087636.260   126581386.28705  24087638.320    98634860.86344
  21526147.040   113120681.66808  21526148.600    88145995.29148
  22589332.020   118707788.73708  22589333.480    92499594.13346
  21332302.840   112102038.39608  21332302.740    87352245.76848
  24629657.700   129429974.02005  24629659.580   100854626.07044
  20663580.480   108587893.18209  20663579.920    84613961.43849
  20353967.600   106960850.42009  20353971.200    83346143.99049
  23772123.940   124923362.09806  23772127.380    97342910.00645
 15 02 18 03 10  0.0000000  0  9G04G11G16G18G19G21G22G27G32
  22489407.260   118182649.03308  22489410.440    92090394.46446
  24070828.140   126493059.85905  24070830.560    98566035.13444
  21540059.100   113193790.14708  21540060.720    88202962.91648
  22602168.140   118775243.08708  22602169.640    92552155.95846
  21321874.960   112047239.47208  21321874.880    87309545.32448
  24642912.740   129499629.74104  24642914.760   100908903.21544
  20665220.380   108596510.76209  20665219.800    84620676.44449
  20351270.960   106946679.42009  20351274.560    83335101.65949
  23749950.900   124806842.19906  23749954.340    97252115.31945
 15 02 18 03 10 30.0000000  0  9G04G11G16G18G19G21G22G27G32
  22475596.720   118110074.06608  22475599.820    92033842.58346
  24054034.060   126404807.24206  24054036.620    98497266.91144
  21554052.260   113267324.86708  21554054.000    88260262.68448
  22615064.920   118843016.23908  22615066.400    92604966.20746
  21311490.120   111992666.78808  21311489.980    87267021.16248
  24656166.400   129569277.97905  24656168.640   100963174.52844
  20666959.480   108605649.74709  20666958.900    84627797.73549
  20348641.180   106932859.81509  20348644.760    83324333.13149
  23727802.620   124690452.50506  23727806.200    97161422.12045
 15 02 18 03 11  0.0000000  0  9G04G11G16G18G19G21G22G27G32
  22461826.360   118037710.34408  22461829.420    91977455.30846
  24037253.860   126316626.98005  24037256.560    98428555.05544
  21568125.580   113341280.71008  21568127.400    88317890.60248
  22628021.640   118911104.01508  22628023.040    92658021.61746
  21301148.320   111938320.39808  21301148.140    87224673.33148
  24669418.520   129638917.07605  24669420.840   101017438.73744
  20668797.360   108615307.81109  20668796.760    84635323.50349
  20346078.180   106919391.28009  20346081.780    83313838.16549
  23705679.220   124574193.97606  23705682.980    97070831.09745
 15 02 18 03 11 30.0000000  0  9G04G11G16G18G19G21G22G27G32
  22448097.220   117965563.39708  22448100.260    91921236.93846
  24020488.560   126228524.88906  24020491.160    98359904.13845
  21582279.760   113415661.15008  21582281.560    88375849.36548
  22641038.860   118979509.64208  22641040.180    92711324.69946
  21290850.860   111884207.11208  21290850.740    87182507.14448
  24682669.780   129708551.86105  24682672.020   101071699.59244
  20670734.840   108625489.50009  20670734.260    84643257.29949
  20343583.260   106906280.31809  20343586.840    83303621.83449
  23683582.240   124458074.47406  23683586.120    96980348.43445
 15 02 18 03 12  0.0000000  0 10G04G11G14G16G18G19G21G22G27G32
  22434408.100   117893626.90608  22434411.140    91865182.57346
  24003737.000   126140494.84406  24003739.540    98291309.36844
  24668845.960   129635657.90305  24668849.700   101014815.48443
  21596513.040   113490457.07008  21596514.760    88434131.88448
  22654114.920   119048224.58308  22654116.160    92764868.80246
  21280596.700   111830321.41108  21280596.660    87140518.30248
  24695918.860   129778175.58205  24695920.880   101125951.79744
  20672770.540   108636187.34409  20672769.940    84651593.28449
  20341155.380   106893521.67609  20341158.940    83293680.03649
  23661511.000   124342090.12606  23661515.040    96889971.06945
 15 02 18 03 12 30.0000000  0 10G04G11G14G16G18G19G21G22G27G32
  22420758.000   117821895.62708  22420761.040    91809288.11746
  23986998.100   126052531.28605  23987000.540    98222766.39145
  24654212.120   129558755.25205  24654215.440   100954891.38144
  21610823.860   113565660.36408  21610825.460    88492731.82748
  22667248.400   119117241.27608  22667249.580    92818648.04446
  21270385.100   111776659.18308  21270385.100    87098703.59548
  24709164.780   129847782.30205  24709166.440   101180190.74044
  20674903.240   108647394.79009  20674902.620    84660326.36449
  20338793.680   106881110.97709  20338797.260    83284009.35749
  23639464.860   124226238.04806  23639469.120    96799696.76744
 15 02 18 03 13  0.0000000  0 10G04G11G14G16G18G19G21G22G27G32
  22407149.280   117750381.83308  22407152.380    91753563.12246
  23970274.400   125964647.30506  23970276.720    98154285.43945
  24639582.560   129481876.18205  24639585.700   100894985.63345
  21625214.060   113641281.14708  21625215.600    88551657.09448
  22680441.260   119186569.88908  22680442.400    92872670.33846
  21260218.740   111723234.46908  21260218.700    87057073.95648
  24722409.820   129917384.30905  24722411.180   101234426.04843
  20677135.100   108659123.38009  20677134.460    84669465.53649
  20336500.700   106869061.58509  20336504.340    83274620.22549
  23617446.700   124110532.94706  23617451.120    96709536.98246
 15 02 18 03 13 30.0000000  0 10G04G11G14G16G18G19G21G22G27G32
  22393581.560   117679083.16807  22393584.660    91698005.76746
  23953565.460   125876841.07306  23953567.680    98085865.06145
  24624957.520   129405021.51205  24624960.740   100835098.84744
  21639682.680   113717314.15108  21639684.180    88610903.56648
  22693692.520   119256205.68608  22693693.700    92926931.99146
  21250097.400   111670046.33208  21250097.300    87015628.66348
  24735653.420   129986979.05605  24735654.480   101288655.66344
  20679465.600   108671370.31109  20679464.940    84679008.60549
  20334276.280   106857372.49709  20334279.980    83265511.84549
  23595456.620   123994975.16106  23595461.140    96619492.01146
 15 02 18 03 14  0.0000000  0 10G04G11G14G16G18G19G21G22G27G32
  22380054.720   117607999.40408  22380057.840    91642615.86846
  23936871.080   125789111.76106  23936873.300    98017504.62045
  24610337.160   129328192.93805  24610340.700   100775232.49745
  21654229.080   113793756.18308  21654230.640    88670468.76748
  22707001.720   119326145.79908  22707002.880    92981430.77346
  21240021.100   111617095.00708  21240021.000    86974367.90548
  24748895.260   130056565.46605  24748896.220   101342878.85843
  20681894.360   108684133.50509  20681893.660    84688953.96149
  20332120.540   106846044.05409  20332124.240    83256684.49149
  23573495.060   123879566.56606  23573499.580    96529563.28545
 15 02 18 03 14 30.0000000  0 10G04G11G14G16G18G19G21G22G27G32
  22366568.700   117537130.02708  22366571.860    91587393.02047
  23920191.320   125701459.43806  23920193.620    97949204.14544
  24595721.980   129251396.24405  24595726.080   100715380.59444
  21668852.780   113870604.31608  21668854.360    88730350.41748
  22720368.400   119396388.00908  22720369.560    93036164.96846
  21229990.060   111564381.62608  21229990.020    86933292.56348
  24762135.300   130126142.57405  24762136.180   101397094.72143
  20684421.100   108697411.61309  20684420.380    84699300.54549
  20330033.580   106835077.00009  20330037.300    83248138.73449
  23551562.360   123764309.22606  23551566.800    96439752.42245
 15 02 18 03 15  0.0000000  0  9G04G11G16G18G19G21G22G27G32
  22353122.080   117466467.88007  22353125.360    91532331.64447
  23903524.900   125613877.27705  23903527.240    97880958.37545
  21683551.920   113947849.02308  21683553.540    88790541.07348
  22733790.640   119466922.41908  22733791.800    93091126.83846
  21220003.200   111511900.42208  21220003.120    86892398.13548
  24775372.040   130195702.88704  24775373.100   101451297.55043
  20687044.260   108711196.49109  20687043.560    84710042.01849
  20328014.220   106824465.05509  20328017.900    83239869.68249
  23529657.480   123649198.30006  23529661.820    96350055.65545
 15 02 18 03 15 30.0000000  0 10G04G11G14G16G18G19G21G22G27G32
  22339717.660   117396027.56107  22339721.020    91477443.11647
  23886874.640   125526379.98005  23886877.080    97812778.72544
  24566511.180   129097882.70305  24566513.440   100595763.02943
  21698328.780   114025502.09308  21698330.460    88851049.94748
  22747270.800   119537761.31608  22747271.960    93146325.97546
  21210063.460   111459666.95108  21210063.400    86851696.73748
  24788608.240   130265260.93305  24788609.800   101505498.58044
  20689766.400   108725501.48309  20689765.720    84721188.77649
  20326065.460   106814223.98709  20326069.100    83231889.63149
  23507783.800   123534250.88906  23507787.940    96260486.29745
 15 02 18 03 16  0.0000000  0 10G04G11G14G16G18G19G21G22G27G32
  22326353.560   117325799.31207  22326357.040    91422719.84847
  23870238.660   125438957.82505  23870241.120    97744657.57745
  24551915.540   129021182.30704  24551917.840   100535996.50843
  21713180.880   114103550.55008  21713182.600    88911866.91648
  22760806.580   119608892.79308  22760807.760    93201753.09646
  21200169.280   111407672.73208  21200169.240    86811181.77549
  24801842.080   130334805.96005  24801843.940   101559689.51644
  20692585.440   108740315.57809  20692584.780    84732732.23249
  20324185.580   106804344.92409  20324189.200    83224191.66349
  23485939.880   123419459.57106  23485943.720    96171038.55045
 15 02 18 03 16 30.0000000  0 10G04G11G14G16G18G19G21G22G27G32
  22313030.100   117255784.28307  22313033.580    91368162.72046
  23853617.180   125351612.27805  23853619.700    97676596.16144
  24537327.360   128944519.63205  24537329.260   100476259.31543
  21728107.980   114181993.11308  21728109.760    88972990.97148
  22774397.860   119680315.57808  22774399.040    93257407.20946
  21190321.040   111355919.86808  21190321.000    86770854.87949
  24815073.860   130404339.31404  24815075.860   101613871.30245
  20695501.320   108755638.80609  20695500.720    84744672.42149
  20322374.940   106794829.94409  20322378.560    83216777.38849
  23464126.300   123304827.90106  23464130.000    96081715.23845
 15 02 18 03 17  0.0000000  0 10G04G11G14G16G18G19G21G22G27G32
  22299747.780   117185985.23608  22299751.140    91313773.89146
  23837010.940   125264346.82205  23837013.420    97608597.12344
  24522747.420   128867900.41404  24522749.240   100416556.07943
  21743110.180   114260830.27808  21743112.000    89034422.51948
  22788044.880   119752030.64208  22788046.060    93313289.06946
  21180519.620   111304413.05008  21180519.540    86730719.70449
  24828303.940   130473863.42104  24828306.160   101668045.89545
  20698514.440   108771473.14009  20698513.880    84757010.87949
  20320634.340   106785683.11609  20320637.980    83209649.98649
  23442344.100   123190361.38106  23442347.660    95992520.60045
 15 02 18 03 17 30.0000000  0 10G04G11G14G16G18G19G21G22G27G32
  22286506.380   117116401.17808  22286509.620    91259552.57846
  23820419.800   125177160.39505  23820422.280    97540659.69444
  24508176.000   128791326.35905  24508177.600   100356888.03043
  21758186.700   114340057.86408  21758188.540    89096158.27048
  22801746.840   119824034.41308  22801747.940    93369395.90046
  21170765.020   111253152.35508  21170764.920    86690776.31248
  24841532.000   130543376.64905  24841534.380   101722212.04945
  20701624.380   108787816.27409  20701623.860    84769745.79749
  20318963.780   106776904.28509  20318967.420    83202809.33649
  23420593.480   123076061.15906  23420596.940    95903455.53646
 15 02 18 03 18  0.0000000  0 10G04G11G14G16G18G19G21G22G27G32
  22273306.100   117047033.08008  22273309.160    91205499.55046
  23803844.020   125090054.06205  23803846.500    97472784.68343
  24493613.620   128714801.09305  24493615.480   100297257.94845
  21773337.200   114419674.32108  21773339.060    89158197.05848
  22815503.420   119896325.19008  22815504.460    93425726.37346
  21161057.620   111202139.82808  21161057.540    86651026.30548
  24854758.160   130612879.85304  24854760.280   101776370.34544
  20704831.140   108804668.17209  20704830.680    84782877.15249
  20317363.620   106768495.45909  20317367.260    83196257.00649
  23398875.160   122961930.78006  23398878.580    95814522.80545
 15 02 18 03 18 30.0000000  0 10G04G11G14G16G18G19G21G22G27G32
  22260147.060   116977881.44108  22260149.920    91151615.20646
  23787283.680   125003028.83305  23787286.200    97404972.89444
  24479061.020   128638327.78305  24479063.320   100237668.35642
  21788561.200   114499676.73408  21788563.040    89220536.58248
  22829314.140   119968900.75408  22829315.180    93482278.75046
  21151397.820   111151377.36008  21151397.720    86611471.13749
  24867982.420   130682373.05204  24867984.160   101830520.89145
  20708134.540   108822027.81909  20708134.080    84796404.15649
  20315834.120   106760458.04209  20315837.780    83189994.08449
  23377189.720   122847973.15006  23377193.160    95725724.68145
 15 02 18 03 19  0.0000000  0 10G04G11G14G16G18G19G21G22G27G32
  22247029.180   116908946.29808  22247031.880    91097899.54146
  23770738.820   124916084.89406  23770741.340    97337224.44146
  24464518.560   128561909.18405  24464521.340   100178121.40443
  21803858.380   114580063.53508  21803860.160    89283175.63147
  22843178.820   120041760.10708  22843179.840    93539052.27346
  21141785.960   111100866.64508  21141785.820    86572112.15149
  24881204.900   130751614.88405  24881206.900   101884376.34043
  20711534.380   108839894.14809  20711533.900    84810325.97949
  20314375.540   106752793.27109  20314379.200    83184021.53349
  23355537.660   122734190.82207  23355541.020    95637063.16845
 15 02 18 03 19 30.0000000  0 10G04G11G14G16G18G19G21G22G27G32
  22233952.340   116840226.86908  22233954.940    91044351.97146
  23754209.400   124829221.76606  23754211.920    97269538.94345
  24449986.920   128485547.17805  24449990.160   100118618.54043
  21819227.940   114660830.78408  21819229.660    89346111.13347
  22857096.800   120114899.68608  22857097.860    93596044.14246
  21132222.040   111050607.77808  21132221.840    86532949.40349
  24894424.960   130821086.40805  24894426.220   101938509.94244
  20715030.280   108858265.03509  20715029.760    84824640.96049
  20312987.880   106745501.19409  20312991.540    83178339.39949
  23333919.280   122620585.46307  23333922.640    95548539.54845
 15 02 18 03 20  0.0000000  0 10G04G11G14G16G18G19G21G22G27G32
  22220916.680   116771724.13208  22220919.260    90990973.26446
  23737695.560   124742440.62806  23737698.020    97201917.34944
  24435466.940   128409245.46305  24435470.300   100059162.66144
  21834669.400   114741976.02508  21834671.100    89409341.16348
  22871067.820   120188317.89108  22871068.880    93653253.13146
  21122706.440   111000602.98108  21122706.240    86493984.63248
  24907642.840   130890546.97305  24907644.000   101992635.04143
  20718622.220   108877140.52909  20718621.620    84839349.14549
  20311671.540   106738583.75009  20311675.180    83172949.17849
  23312335.120   122507160.35507  23312338.500    95460156.39846
 15 02 18 03 20 30.0000000  0 10G04G11G14G16G18G19G21G22G27G32
  22207921.960   116703436.69808  22207924.560    90937762.31446
  23721197.220   124655740.80106  23721199.560    97134359.09745
  24420958.840   128333005.27205  24420962.400    99999754.69944
  21850182.260   114823496.34208  21850183.920    89472863.47348
  22885091.220   120262011.21108  22885092.220    93710676.49946
  21113239.240   110950852.62208  21113239.080    86455218.12549
  24920858.600   130959995.44005  24920859.440   102046750.75244
  20722309.660   108896517.86209  20722308.980    84854448.37849
  20310426.460   106732040.67609  20310430.080    83167850.68249
  23290785.460   122393916.75806  23290788.940    95371914.66346
 15 02 18 03 21  0.0000000  0 10G04G11G14G16G18G19G21G22G27G32
  22194968.500   116635366.32408  22194971.180    90884720.49546
  23704714.660   124569123.79606  23704716.860    97066865.36845
  24406463.360   128256830.97706  24406466.820    99940398.15444
  21865766.040   114905389.64808  21865767.720    89536676.41947
  22899166.760   120335978.62608  22899167.760    93768313.44646
  21103821.040   110901359.36008  21103820.840    86416651.95849
  24934072.280   131029432.82805  24934072.980   102100857.83244
  20726092.620   108916397.25409  20726091.860    84869938.82249
  20309253.120   106725874.52009  20309256.720    83163045.88249
  23269271.060   122280858.71306  23269274.740    95283817.54345
 15 02 18 03 21 30.0000000  0 10G04G11G14G16G18G19G21G22G27G32
  22182056.380   116567513.10908  22182059.100    90831847.89847
  23688247.840   124482590.09206  23688250.040    96999436.55245
  24391981.160   128180725.60605  24391984.500    99881095.26244
  21881420.300   114987653.56608  21881422.060    89600778.15248
  22913294.060   120410218.34607  22913295.100    93826162.56846
  21094452.040   110852124.71808  21094451.820    86378287.30549
  24947283.560   131098859.05104  24947284.180   102154956.13744
  20729970.880   108936777.74509  20729970.120    84885819.73449
  20308151.740   106720086.37209  20308155.300    83158535.63749
  23247792.400   122167988.75506  23247796.320    95195866.95846
 15 02 18 03 22  0.0000000  0 10G04G11G14G16G18G19G21G22G27G32
  22169185.840   116499878.27208  22169188.580    90779145.44947
  23671797.160   124396141.39206  23671799.340    96932073.97245
  24377512.920   128104693.26705  24377516.020    99821849.31445
  21897144.880   115070286.87508  21897146.680    89665167.73248
  22927473.020   120484729.78307  22927474.200    93884223.42246
  21085132.700   110803151.33108  21085132.480    86340126.22949
  24960492.760   131168275.25305  24960493.880   102209046.65743
  20733944.460   108957659.33308  20733943.760    84902091.10549
  20307122.740   106714678.64809  20307126.280    83154321.82949
  23226350.300   122055310.67306  23226354.460    95108065.89245
 15 02 18 03 22 30.0000000  0 10G04G11G14G16G18G19G21G22G27G32
  22156356.220   116432458.29008  22156359.000    90726610.42647
  23655362.120   124309774.76106  23655364.300    96864775.34444
  24363058.400   128028733.04805  24363061.260    99762659.56245
  21912938.520   115153282.83008  21912940.360    89729839.88648
  22941702.580   120559506.66207  22941703.780    93942491.11646
  21075862.680   110754437.13708  21075862.460    86302167.11849
  24973699.480   131237677.73405  24973700.840   102263126.50845
  20738012.400   108979037.12708  20738011.820    84918749.13149
  20306165.580   106709648.71809  20306169.120    83150402.40449
  23204944.640   121942823.51707  23204948.860    95020413.61945
 15 02 18 03 23  0.0000000  0 10G04G11G14G16G18G19G21G22G27G32
  22143568.340   116365257.39908  22143571.120    90674246.12446
  23638943.400   124223494.23306  23638945.480    96797543.82144
  24348618.820   127952851.67905  24348621.580    99703531.23145
  21928801.460   115236642.75608  21928803.280    89794795.65248
  22955982.960   120634550.68407  22955984.200    94000966.97546
  21066643.000   110705987.48108  21066642.780    86264414.14449
  24986904.440   131307069.95404  24986905.800   102317198.38943
  20742175.340   109000914.07908  20742174.900    84935796.11249
  20305281.300   106705001.66309  20305284.800    83146781.32949
  23183576.600   121830533.77007  23183580.820    94932915.16946
 15 02 18 03 23 30.0000000  0 10G04G11G14G16G18G19G21G22G27G32
  22130821.920   116298274.28908  22130824.680    90622051.52346
  23622540.960   124137299.16006  23622543.000    96730378.85244
  24334194.460   127877050.77705  24334196.920    99644465.63045
  21944732.960   115320363.04108  21944734.760    89860032.22347
  22970313.600   120709858.63707  22970314.880    94059648.49346
  21057473.680   110657802.53108  21057473.500    86226867.43849
  25000107.120   131376450.54805  25000108.560   102371261.09143
  20746432.780   109023287.38508  20746432.460    84953229.86549
  20304469.800   106700737.20009  20304473.320    83143458.37249
  23162246.460   121718442.62507  23162250.540    94845571.47845
 15 02 18 03 24  0.0000000  0  9G04G11G14G16G18G19G22G27G32
  22118117.000   116231509.29708  22118119.740    90570026.87947
  23606154.840   124051190.10505  23606156.860    96663280.92745
  24319785.840   127801333.30205  24319788.200    99585465.03844
  21960732.440   115404440.76008  21960734.220    89925547.30847
  22984694.080   120785428.41707  22984695.420    94118534.03146
  21048355.060   110609883.92608  21048354.880    86189528.27349
  20750784.500   109046155.96709  20750784.220    84971049.55049
  20303731.300   106696856.56309  20303734.880    83140434.50049
  23140954.660   121606552.86007  23140958.540    94758384.69745
 15 02 18 03 24 30.0000000  0  9G04G11G14G16G18G19G22G27G32
  22105453.740   116164963.19308  22105456.420    90518172.80547
  23589785.360   123965168.25106  23589787.200    96596250.97244
  24305393.860   127725702.94905  24305396.020    99526532.29844
  21976799.580   115488874.23008  21976801.340    89991339.60247
  22999124.080   120861258.42907  22999125.440    94177622.34246
  21039287.580   110562233.99108  21039287.400    86152398.46249
  20755230.480   109069519.47908  20755230.140    84989254.89049
  20303066.200   106693361.61009  20303069.800    83137711.16249
  23119701.780   121494867.76907  23119705.500    94671357.37645
 15 02 18 03 25  0.0000000  0  9G04G11G14G16G18G19G22G27G32
  22092833.780   116098644.86408  22092836.440    90466496.20347
  23573434.140   123879242.69806  23573435.900    96529296.03744
  24291020.480   127650171.33705  24291022.680    99467676.51345
  21992935.440   115573669.01708  21992937.200    90057413.43947
  23013604.820   120937355.50207  23013606.200    94236918.75746
  21030273.160   110514862.82108  21030272.940    86115485.86449
  20759772.080   109093385.38809  20759771.660    85007851.71349
  20302476.360   106690262.05409  20302479.960    83135295.92349
  23098489.880   121383398.58507  23098493.420    94584498.31045
 15 02 18 03 25 30.0000000  0 10G01G04G11G14G16G18G19G22G27G32
  24579009.920   129163568.24504  24579017.840   100646969.52845
  22080254.040   116032538.14408  22080256.760    90414984.50247
  23557098.120   123793397.34306  23557099.920    96462403.61644
  24276663.340   127574724.99005  24276665.500    99408887.14545
  22009136.560   115658806.67708  22009138.320    90123754.46147
  23028132.800   121013701.18007  23028134.280    94296408.88746
  21021308.900   110467755.37208  21021308.680    86078778.76749
  20764405.860   109117735.69109  20764405.300    85026825.98349
  20301958.840   106687542.63609  20301962.460    83133176.89049
  23077316.360   121272131.63007  23077319.840    94497796.82845
 15 02 18 03 26  0.0000000  0 10G01G04G11G14G16G18G19G22G27G32
  24563719.720   129083218.15604  24563727.820   100584359.12545
  22067715.020   115966645.45408  22067717.820    90363639.55947
  23540778.080   123707635.50806  23540779.940    96395576.27844
  24262323.460   127499369.49405  24262325.700    99350168.58544
  22025402.860   115744286.73408  22025404.640    90190362.27947
  23042708.160   121090295.47107  23042709.620    94356092.74646
  21012395.620   110420915.81408  21012395.400    86042280.41249
  20769132.120   109142572.28109  20769131.440    85046179.18049
  20301514.360   106685206.93009  20301518.000    83131356.85849
  23056182.300   121161071.97607  23056185.720    94411256.86646
 15 02 18 03 26 30.0000000  0 10G01G04G11G14G16G18G19G22G27G32
  24548451.000   129002978.45404  24548458.780   100521834.65742
  22055217.800   115900972.54508  22055220.680    90312465.88247
  23524475.160   123621963.24006  23524476.980    96328818.73845
  24248002.440   127424112.95105  24248004.940    99291527.12944
  22041734.880   115830112.04108  22041736.680    90257239.12447
  23057331.500   121167141.92307  23057333.000    94415973.09646
  21003534.620   110374351.00808  21003534.440    86005996.15049
  20773951.620   109167898.95109  20773950.860    85065914.25349
  20301144.140   106683261.42909  20301147.760    83129840.89149
  23035089.200   121050227.70507  23035092.620    94324884.75845
 15 02 18 03 27  0.0000000  0 10G01G04G11G14G16G18G19G22G27G32
  24533203.200   128922849.34204  24533210.500   100459396.46043
  22042762.480   115835519.67008  22042765.420    90261463.68147
  23508189.320   123536380.64706  23508191.140    96262131.06744
  24233700.820   127348958.30006  24233703.700    99232965.09044
  22058132.140   115916279.89108  22058133.960    90324382.88447
  23072002.420   121244238.11007  23072003.960    94476048.04746
  20994726.220   110328062.64808  20994726.060    85969927.30249
  20778864.180   109193714.51709  20778863.380    85086030.29049
  20300848.360   106681707.24709  20300852.040    83128629.83449
  23014037.600   120939601.41507  23014041.080    94238682.50345
 15 02 18 03 27 30.0000000  0 10G01G04G11G14G16G18G19G22G27G32
  24517975.900   128842828.31304  24517983.140   100397042.46144
  22030348.560   115770284.19308  22030351.480    90210630.86847
  23491920.260   123450886.09406  23491922.000    96195511.99644
  24219418.900   127273906.11006  24219421.920    99174482.86845
  22074593.500   116002784.58008  22074595.320    90391789.11947
  23086720.100   121321579.67707  23086721.600    94536314.19346
  20985970.260   110282049.67808  20985970.080    85934073.04649
  20783869.000   109220015.04809  20783868.220    85106524.21649
  20300626.780   106680542.87309  20300630.460    83127722.53049
  22993027.500   120829193.05907  22993031.120    94152650.05746
 15 02 18 03 28  0.0000000  0 10G01G04G11G14G16G18G19G22G27G32
  24502769.460   128762918.05804  24502776.880   100334774.76644
  22017976.600   115705269.07008  22017979.460    90159969.76847
  23475668.520   123365482.62106  23475670.320    96128963.90545
  24205157.520   127198961.56806  24205160.700    99116084.56944
  22091118.980   116089626.37108  22091120.820    90459458.02947
  23101484.600   121399167.22007  23101486.080    94596772.00746
  20977267.480   110236316.25508  20977267.280    85898436.61949
  20788966.360   109246801.90809  20788965.620    85127397.09649
  20300480.060   106679772.01709  20300483.760    83127121.86549
  22972060.000   120719008.02207  22972063.700    94066791.62146
 15 02 18 03 28 30.0000000  0 10G01G04G11G14G16G18G19G22G27G32
  24487584.040   128683118.35804  24487591.520   100272593.26844
  22005646.480   115640473.95008  22005649.300    90109480.09747
  23459434.060   123280169.98406  23459435.940    96062486.59944
  24190917.180   127124127.48006  24190920.300    99057772.30146
  22107708.020   116176802.31808  22107709.900    90527387.33247
  23116295.340   121476997.81607  23116296.800    94657419.21846
  20968618.060   110190863.33608  20968617.860    85863018.77049
  20794155.980   109274073.39309  20794155.220    85148647.60949
  20300408.340   106679395.30009  20300412.080    83126828.31949
  22951135.380   120609048.34107  22951139.160    93981108.80246
 15 02 18 03 29  0.0000000  0 10G01G04G11G14G16G18G19G22G27G32
  24472419.640   128603429.28404  24472427.040   100210497.93143
  21993358.300   115575899.17008  21993361.080    90059162.11147
  23443217.080   123194949.15806  23443219.000    95996080.81845
  24176698.500   127049406.91106  24176701.500    98999548.49745
  22124360.080   116264309.52308  22124362.000    90595574.74447
  23131151.820   121555069.65807  23131153.400    94718254.41146
  20960022.360   110145692.79808  20960022.180    85827820.94849
  20799437.500   109301827.92009  20799436.740    85170274.52249
  20300411.880   106679413.85809  20300415.600    83126842.77749
  22930254.260   120499316.73707  22930258.020    93895603.68746
 15 02 18 03 29 30.0000000  0 10G01G04G11G14G16G18G19G22G27G32
  24457275.980   128523849.72304  24457283.160   100148487.90543
  21981111.780   115511543.50908  21981114.540    90009014.87847
  23427017.420   123109819.40706  23427019.380    95929746.00046
  24162501.760   126974801.56906  24162504.600    98941414.47744
  22141074.320   116352143.37908  22141076.220    90664016.68347
  23146053.660   121633379.35807  23146055.180    94779274.95346
  20951480.420   110100804.83208  20951480.280    85792843.32049
  20804810.460   109330063.12909  20804809.740    85192275.99149
  20300490.600   106679827.44209  20300494.280    83127165.04749
  22909416.820   120389814.68007  22909420.540    93810277.45046
 15 02 18 03 30  0.0000000  0 10G01G04G11G14G16G18G19G22G27G32
  24442153.460   128444380.66504  24442160.380   100086564.07844
  21968907.080   115447408.01608  21968909.920    89959039.20647
  23410835.360   123024782.28906  23410837.440    95863483.36246
  24148327.640   126900315.16006  24148330.320    98883373.13744
  22157850.540   116440302.92108  22157852.380    90732712.41147
  23161000.600   121711925.66407  23161002.020    94840479.86246
  20942992.700   110056201.62508  20942992.560    85758087.58149
  20810274.780   109358778.41308  20810274.080    85214651.54649
  20300644.860   106680637.98409  20300648.480    83127796.64249
  22888623.640   120280545.47407  22888627.260    93725132.65746
 15 02 18 03 30 30.0000000  0 10G01G04G11G14G16G18G19G22G27G32
  24427052.160   128365023.06004  24427058.840   100024727.07644
  21956744.440   115383493.75308  21956747.420    89909235.90447
  23394671.180   122939839.05006  23394673.360    95797293.87245
  24134176.720   126825951.68105  24134179.480    98825427.61044
  22174688.420   116528786.38308  22174690.200    90801660.54547
  23175992.340   121790707.19807  23175993.620    94901868.06746
  20934559.720   110011885.99008  20934559.560    85723555.92149
  20815830.380   109387973.54608  20815829.740    85237401.01049
  20300875.020   106681847.41009  20300878.580    83128739.04349
  22867875.440   120171512.67207  22867878.940    93640172.06745
 15 02 18 03 31  0.0000000  0 10G01G04G11G14G16G18G19G22G27G32
  24411972.040   128285776.73104  24411978.560    99962976.65944
  21944623.860   115319800.47108  21944627.020    89859604.78447
  23378524.760   122854989.79406  23378527.120    95731177.60644
  24120049.600   126751713.33005  24120052.320    98767579.55344
  22191587.280   116617590.33608  22191589.000    90870858.39247
  23191028.380   121869721.74107  23191029.580    94963437.83846
  20926181.700   109967859.17908  20926181.540    85689249.32649
  20821476.920   109417646.71308  20821476.360    85260522.96549
  20301181.180   106683456.38309  20301184.780    83129992.79349
  22847172.640   120062718.54507  22847175.960    93555397.46145
 15 02 18 03 31 30.0000000  0 10G01G04G11G14G16G18G19G22G27G32
  24396912.900   128206641.38304  24396919.560    99901312.81741
  21932545.400   115256328.09508  21932548.700    89810145.80047
  23362396.360   122770234.79006  23362398.660    95665134.80745
  24105946.720   126677603.20106  24105949.500    98709831.43845
  22208546.540   116706711.67808  22208548.260    90940303.57547
  23206108.360   121948967.07707  23206109.500    95025187.44445
  20917858.840   109924122.28908  20917858.700    85655168.64449
  20827214.120   109447795.98109  20827213.580    85284015.90649
  20301563.520   106685465.65909  20301567.140    83131558.46149
  22826515.640   119954165.39007  22826518.860    93470810.62646
 15 02 18 03 32  0.0000000  0 10G01G04G11G14G16G18G19G22G27G32
  24381874.860   128127616.55704  24381881.140    99839735.09044
  21920508.980   115193076.33908  21920512.320    89760858.72747
  23346285.920   122685574.20106  23346288.180    95599165.53745
  24091868.620   126603623.51906  24091871.460    98652184.95045
  22225565.580   116796147.32908  22225567.340    91009993.67947
  23221231.620   122028440.21007  23221232.740    95087114.55146
  20909591.260   109880676.05508  20909591.180    85621314.44249
  20833041.620   109478419.73009  20833041.060    85307878.57149
  20302022.140   106687875.61309  20302025.760    83133436.35149
  22805904.820   119845855.15407  22805908.000    93386413.07546
 15 02 18 03 32 30.0000000  0 10G01G04G11G14G16G18G19G22G27G32
  24366858.100   128048703.04504  24366864.520    99778244.10945
  21908514.680   115130045.66208  21908517.960    89711743.93947
  23330193.700   122601009.38406  23330195.980    95533270.93044
  24077816.000   126529777.68006  24077818.960    98594642.74444
  22242643.900   116885894.94508  22242645.780    91079926.87647
  23236397.920   122108139.77607  23236399.120    95149218.09046
  20901379.580   109837523.15908  20901379.460    85587688.81549
  20838959.260   109509516.90609  20838958.640    85332110.14149
  20302557.320   106690687.97909  20302560.960    83135627.80149
  22785340.760   119737791.18607  22785344.040    93302207.43245
 15 02 18 03 33  0.0000000  0 10G01G04G11G14G16G18G19G22G27G32
  24351862.580   127969901.08204  24351869.000    99716839.98044
  21896562.640   115067236.49808  21896565.720    89662801.75247
  23314119.700   122516540.64306  23314121.940    95467451.17345
  24063789.560   126456069.10706  24063792.600    98537207.53844
  22259781.020   116975951.49508  22259783.000    91150100.80247
  23251606.820   122188063.46307  23251608.040    95211496.28046
  20893223.960   109794664.86108  20893223.820    85554292.75349
  20844966.760   109541086.47409  20844966.140    85356709.81049
  20303169.260   106693903.75409  20303172.920    83138133.59949
  22764824.000   119629976.06407  22764827.440    93218195.68645
 15 02 18 03 33 30.0000000  0 10G01G04G11G14G16G18G19G22G27G32
  24336888.300   127891210.13104  24336894.880    99655522.34044
  21884652.620   115004648.35608  21884655.560    89614031.79547
  23298063.980   122432168.16906  23298066.200    95401706.44545
  24049789.700   126382500.30506  24049792.860    98479881.21944
  22276976.460   117066314.20208  22276978.460    91220513.28147
  23266857.860   122268208.93407  23266859.160    95273947.29045
  20885124.620   109752102.32908  20885124.460    85521127.15049
  20851063.700   109573125.90309  20851063.040    85381675.60749
  20303858.000   106697523.37209  20303861.720    83140954.08149
  22744355.100   119522411.82807  22744358.600    93134379.44145
 15 02 18 03 34  0.0000000  0 10G01G04G11G14G16G18G19G22G27G32
  24321934.760   127812627.91804  24321941.460    99594289.51245
  21872784.260   114942279.11708  21872787.040    89565432.42347
  23282026.340   122347890.11206  23282028.440    95336035.27145
  24035816.640   126309071.42706  24035819.800    98422663.92544
  22294229.240   117156977.80308  22294231.200    91291160.22847
  23282150.360   122348571.75307  23282151.660    95336567.65645
  20877081.380   109709834.81708  20877081.200    85488191.43549
  20857249.320   109605631.50509  20857248.640    85407004.65049
  20304623.360   106701545.49009  20304627.100    83144088.19949
  22723934.040   119415098.75407  22723937.580    93050758.89946
 15 02 18 03 34 30.0000000  0 10G01G04G11G14G16G18G19G22G27G32
  24307002.460   127734158.13304  24307009.260    99533144.26845
  21860958.200   114880132.31408  21860960.820    89517006.37547
  23266007.560   122263710.76806  23266009.560    95270441.00844
  24021871.560   126235789.20006  24021874.620    98365560.90245
  22311539.460   117247942.98108  22311541.320    91362042.16547
  23297484.560   122429153.32907  23297485.780    95399358.48645
  20869095.240   109667867.56008  20869095.060    85455489.68249
  20863524.100   109638605.66209  20863523.400    85432698.80349
  20305466.160   106705974.54909  20305469.940    83147539.41249
  22703561.980   119308042.96907  22703565.520    92967338.84446
 15 02 18 03 35  0.0000000  0 10G01G04G11G14G16G18G19G22G27G32
  24292091.260   127655799.23304  24292098.120    99472085.40745
  21849174.140   114818206.66308  21849176.680    89468752.64247
  23250007.440   122179629.25507  23250009.280    95204923.00944
  24007954.820   126162655.07906  24007957.620    98308573.32645
  22328906.320   117339205.98708  22328908.140    91433156.16947
  23312859.800   122509950.19507  23312860.900    95462317.08845
  20861166.200   109626200.56308  20861166.080    85423021.90449
  20869887.400   109672045.09308  20869886.720    85458755.51049
  20306386.320   106710810.07309  20306390.100    83151307.35049
  22683239.100   119201245.49807  22683242.660    92884120.07246
 15 02 18 03 35 30.0000000  0 10G01G04G11G14G16G18G19G22G27G32
  24277201.220   127577551.99604  24277208.120    99411113.56745
  21837432.260   114756502.88208  21837434.800    89420671.80347
  23234026.060   122095646.29707  23234027.720    95139481.78245
  23994067.020   126089672.70206  23994069.560    98251703.97544
  22346329.180   117430763.60808  22346331.000    91504499.75147
  23328275.580   122590960.48507  23328276.620    95525441.97645
  20853294.680   109584835.70108  20853294.600    85390789.55249
  20876339.020   109705948.85508  20876338.360    85485174.02849
  20307384.100   106716053.45209  20307387.860    83155393.09649
  22662965.980   119094709.38607  22662969.480    92801104.94646
 15 02 18 03 36  0.0000000  0 10G01G04G11G14G16G18G19G22G27G32
  24262332.680   127499417.18104  24262339.460    99350229.35944
  21825732.760   114695021.88908  21825735.320    89372764.54847
  23218063.760   122011763.62107  23218065.220    95074118.72544
  23980208.700   126016845.67806  23980211.140    98194955.65445
  22363807.740   117522614.38408  22363809.680    91576071.77447
  23343731.700   122672183.04907  23343732.740    95588732.27645
  20845481.220   109543775.58108  20845481.080    85358794.66249
  20882878.920   109740316.52208  20882878.300    85511954.03048
  20308459.840   106721706.48309  20308463.580    83159798.05149
  22642743.260   118988437.96807  22642746.700    92718296.09246
 15 02 18 03 36 30.0000000  0 10G01G04G11G14G16G18G19G22G27G32
  24247485.640   127421395.52004  24247492.380    99289433.29445
  21814075.780   114633764.42208  21814078.400    89325031.48547
  23202120.760   121927982.52207  23202122.180    95008834.78745
  23966380.420   125944177.40006  23966382.840    98138331.05545
  22381341.640   117614756.15008  22381343.740    91647870.54647
  23359227.840   122753616.31307  23359229.020    95652186.75745
  20837726.060   109503021.94508  20837725.880    85327038.58649
  20889506.820   109775146.52908  20889506.200    85539094.30348
  20309613.820   106727770.69709  20309617.600    83164523.41749
  22622571.560   118882434.56507  22622574.940    92635696.08246
 15 02 18 03 37  0.0000000  0 10G01G04G11G14G16G18G19G22G27G32
  24232659.620   127343484.24804  24232666.180    99228723.24145
  21802460.840   114572727.83908  21802463.520    89277470.52347
  23186196.580   121844300.59907  23186198.040    94943628.14145
  23952582.340   125871668.22606  23952584.940    98081830.40645
  22398929.880   117707183.18208  22398932.080    91719891.60247
  23374763.220   122835255.44407  23374764.400    95715801.65645
  20830029.060   109462574.00308  20830028.860    85295520.72349
  20896221.880   109810434.78908  20896221.300    85566591.65549
  20310845.680   106734244.11809  20310849.460    83169567.63749
  22602450.660   118776698.67907  22602454.020    92553304.52846
 15 02 18 03 37 30.0000000  0 10G01G04G11G14G16G18G19G22G27G32
  24217855.220   127265687.44404  24217861.720    99168102.36944
  21790888.780   114511916.34308  21790891.500    89230084.96447
  23170292.140   121760722.56006  23170293.700    94878502.44945
  23938815.620   125799325.07706  23938818.460    98025459.11744
  22416572.620   117799896.28608  22416574.820    91792135.55747
  23390338.260   122917102.50807  23390339.360    95779578.58345
  20822391.220   109422437.11708  20822391.060    85264245.23849
  20903024.660   109846184.05108  20903024.140    85594448.22548
  20312156.380   106741131.76909  20312160.140    83174934.64049
  22582381.860   118671237.07007  22582385.240    92471126.66746
 15 02 18 03 38  0.0000000  0 10G01G04G11G14G16G18G19G22G27G32
  24203071.940   127188001.29904  24203078.380    99107567.80445
  21779358.800   114451325.84908  21779361.540    89182871.61147
  23154406.800   121677245.00506  23154408.420    94813455.02845
  23925080.180   125727147.12005  23925083.520    97969216.59643
  22434268.660   117892889.04908  22434270.740    91864597.42847
  23405951.700   122999151.37407  23405952.780    95843512.76445
  20814812.140   109382609.12208  20814812.000    85233210.45149
  20909914.100   109882388.61808  20909913.640    85622659.58249
  20313545.320   106748430.57509  20313549.060    83180622.02349
  22562364.920   118566048.32307  22562368.420    92389161.45146
 15 02 18 03 38 30.0000000  0 10G01G04G11G14G16G18G19G22G27G32
  24188310.140   127110428.52204  24188316.500    99047121.52043
  21767871.460   114390959.37008  21767874.200    89135832.80947
  23138541.220   121593871.36306  23138543.080    94748488.61845
  23911377.200   125655139.52405  23911380.840    97913106.78545
  22452017.920   117986161.64908  22452019.880    91937277.35347
  23421603.580   123081402.76907  23421604.760    95907604.74246
  20807292.660   109343093.90108  20807292.480    85202419.37649
  20916890.480   109919049.66108  20916890.020    85651226.62849
  20315013.140   106756144.04409  20315016.920    83186632.52549
  22542400.940   118461137.50707  22542404.500    92307412.80646
 15 02 18 03 39  0.0000000  0 10G01G04G11G14G16G18G19G22G27G32
  24173569.400   127032966.18604  24173575.820    98986761.27243
  21756426.220   114330814.12008  21756428.920    89088966.40747
  23122694.960   121510599.17306  23122696.880    94683601.21345
  23897706.980   125583302.86905  23897710.740    97857130.20345
  22469819.180   118079707.88308  22469821.060    92010170.50047
  23437292.960   123163851.43507  23437294.260    95971850.44345
  20799832.500   109303890.27208  20799832.300    85171871.10249
  20923952.900   109956162.54008  20923952.380    85680145.75749
  20316559.460   106764270.09809  20316563.280    83192964.50849
  22522489.940   118356504.23507  22522493.440    92225880.42146
 15 02 18 03 39 30.0000000  0 10G01G04G11G14G16G18G19G22G27G32
  24158849.940   126955615.19904  24158856.340    98926487.86644
  21745023.220   114270890.91708  21745025.900    89042273.02847
  23106868.320   121427430.17006  23106870.340    94618794.21645
  23884070.180   125511640.85406  23884073.740    97801289.68445
  22487672.000   118173525.86008  22487673.980    92083275.38947
  23453019.660   123246496.14007  23453021.140    96036248.90745
  20792432.160   109265000.89708  20792431.980    85141567.69949
  20931101.120   109993726.39508  20931100.580    85709416.29749
  20318184.600   106772810.38709  20318188.440    83199619.27949
  22502632.420   118252151.81408  22502635.840    92144566.88346
 15 02 18 03 40  0.0000000  0 10G01G04G11G14G16G18G19G22G27G32
  24144151.820   126878377.15504  24144158.480    98866302.43444
  21733662.800   114211191.43108  21733665.420    88995753.96247
  23091061.740   121344366.14207  23091063.760    94554069.02645
  23870467.560   125440157.68106  23870470.700    97745588.53745
  22505576.320   118267614.37508  22505578.440    92156591.10847
  23468783.560   123329336.48507  23468785.260    96100799.81945
  20785092.120   109226428.80808  20785092.000    85111511.53449
  20938335.140   110031741.20108  20938334.600    85739038.23649
  20319889.080   106781767.34809  20319892.860    83206598.72949
  22482829.240   118148084.37108  22482832.440    92063475.40846
 15 02 18 03 40 30.0000000  0 10G01G04G11G14G16G18G19G22G27G32
  24129474.860   126801249.88204  24129481.760    98806203.32045
  21722344.520   114151713.65208  21722347.140    88949407.66847
  23075274.900   121261405.54807  23075276.780    94489424.43445
  23856899.200   125368854.15906  23856902.060    97690027.39745
  22523531.100   118361967.48308  22523533.320    92230112.99447
  23484583.980   123412368.20507  23484585.740    96165499.85845
  20777812.220   109188172.96708  20777812.160    85081701.80249
  20945654.160   110070203.05808  20945653.700    85769008.52349
  20321672.560   106791139.60909  20321676.320    83213901.78849
  22463080.340   118044302.22308  22463083.340    91982606.24346
 15 02 18 03 41  0.0000000  0 10G01G04G11G14G16G18G19G22G27G32
  24114819.440   126724234.96504  24114826.300    98746191.74344
  21711068.720   114092459.19908  21711071.340    88903235.39547
  23059508.200   121178550.62307  23059509.960    94424862.19845
  23843365.900   125297734.95006  23843368.480    97634609.86245
  22541536.320   118456584.82008  22541538.520    92303840.77147
  23500420.660   123495590.59107  23500422.460    96230348.45745
  20770593.080   109150236.41408  20770593.040    85052140.86449
  20953058.220   110109111.85008  20953057.840    85799327.06449
  20323535.540   106800929.46409  20323539.240    83221530.24649
  22443386.380   117940809.32608  22443389.240    91901962.48146
 15 02 18 03 41 30.0000000  0 10G01G04G11G14G16G18G19G22G27G32
  24100185.660   126647333.44005  24100192.260    98686268.53744
  21699835.620   114033429.21408  21699838.260    88857238.03447
  23043761.920   121095803.06907  23043763.560    94360383.60745
  23829868.280   125226803.73206  23829870.760    97579338.84245
  22559591.560   118551464.48508  22559593.640    92377772.95547
  23516293.420   123579002.49707  23516295.180    96295344.74545
  20763435.300   109112622.21808  20763435.260    85022831.10049
  20960547.220   110148466.86308  20960546.880    85829993.31249
  20325478.360   106811138.77109  20325481.960    83229485.55349
  22423747.980   117837609.18507  22423750.860    91821546.81646
 15 02 18 03 42  0.0000000  0 10G01G04G11G14G16G18G19G22G27G32
  24085573.440   126570545.08605  24085579.800    98626433.49045
  21688645.240   113974623.59708  21688647.880    88811415.48447
  23028036.040   121013163.03307  23028037.620    94295988.80245
  23816406.760   125156063.35106  23816409.460    97524216.51245
  22577696.080   118646603.55508  22577698.120    92451907.27447
  23532201.780   123662601.51206  23532203.560    96360486.82045
  20756339.100   109075331.25108  20756339.000    84993773.21149
  20968120.660   110188265.60108  20968120.340    85861005.32048
  20327501.080   106821768.03109  20327504.620    83237768.09349
  22404165.520   117734704.07107  22404168.620    91741361.04646
 15 02 18 03 42 30.0000000  0 10G01G04G11G14G16G18G19G22G27G32
  24070982.620   126493869.08905  24070988.840    98566686.04546
  21677497.420   113916041.49408  21677500.040    88765767.11747
  23012330.620   120930630.53907  23012332.180    94231677.80045
  23802981.840   125085515.92606  23802984.880    97469244.51446
  22595849.040   118741997.91408  22595851.120    92526240.52947
  23548145.240   123746384.80206  23548146.980    96425772.49045
  20749304.600   109038364.26508  20749304.360    84964967.77349
  20975778.300   110228506.57908  20975777.940    85892361.92848
  20329603.700   106832817.15909  20329607.220    83246377.80149
  22384639.460   117632095.49407  22384642.820    91661406.34446
 15 02 18 03 43  0.0000000  0 10G01G04G11G14G16G18G19G22G27G32
  24056413.280   126417306.28405  24056419.540    98507026.74444
  21666392.320   113857683.93308  21666394.900    88720293.71047
  22996645.880   120848206.67907  22996647.460    94167451.45745
  23789594.320   125015165.24806  23789597.680    97414425.81745
  22614049.960   118837645.17708  22614052.200    92600770.83147
  23564123.560   123830351.40106  23564125.320    96491201.01345
  20742332.140   109001723.85108  20742331.900    84936416.81149
  20983519.880   110269188.59608  20983519.400    85924062.21248
  20331786.500   106844287.79709  20331790.040    83255315.96349
  22365170.580   117529786.80608  22365174.020    91581685.32546
 15 02 18 03 43 30.0000000  0 10G01G04G11G14G16G18G19G22G27G32
  24041865.200   126340855.72305  24041871.480    98447454.93044
  21655329.740   113799549.81208  21655332.300    88674994.41347
  22980981.780   120765891.38807  22980983.360    94103309.71745
  23776244.700   124945013.04406  23776248.240    97359761.78145
  22632298.220   118933541.61107  22632300.580    92675495.31347
  23580136.120   123914497.92706  23580137.880    96556769.72445
  20735421.880   108965410.42108  20735421.700    84908120.63849
  20991344.840   110310308.67309  20991344.220    85956103.83848
  20334049.460   106856179.61209  20334053.000    83264582.31449
  22345759.120   117427779.33408  22345762.580    91502199.02846
 15 02 18 03 44  0.0000000  0 10G01G04G11G14G16G18G19G22G27G32
  24027338.400   126264517.24405  24027344.620    98387970.46845
  21644309.700   113741639.05008  21644312.220    88629869.16747
  22965338.500   120683685.59607  22965340.080    94039253.30145
  23762933.460   124875062.17106  23762937.080    97305254.64245
  22650593.480   119029684.68908  22650595.860    92750411.98747
  23596182.580   123998822.40706  23596184.300    96622477.10145
  20728574.080   108929425.23608  20728573.960    84880080.24249
  20999252.780   110351865.06309  20999252.100    85988485.44548
  20336392.640   106868493.18409  20336396.200    83274177.30549
  22326405.560   117326075.39008  22326408.960    91422949.23746
 15 02 18 03 44 30.0000000  0  9G04G11G14G16G18G19G22G27G32
  21633331.560   113683948.53808  21633334.060    88584915.53947
  22949715.440   120601585.88607  22949716.960    93975279.52745
  23749660.560   124805312.14606  23749664.120    97250903.99445
  22668934.580   119126067.74608  22668936.920    92825515.65647
  23612261.740   124083319.16306  23612263.520    96688318.73345
  20721788.400   108893766.31508  20721788.280    84852294.07549
  21007242.680   110393852.30208  21007241.980    86021202.77848
  20338815.580   106881225.90709  20338819.180    83284098.90149
  22307109.620   117224674.07108  22307112.960    91343935.24046
 15 02 18 03 45  0.0000000  0 10G01G04G11G14G16G18G19G22G27G32
  23998349.400   126112175.66805  23998355.420    98269251.18745
  21622397.680   113626490.55808  21622400.160    88540143.11647
  22934115.080   120519605.40107  22934116.580    93911398.67345
  23736428.760   124735778.17106  23736432.120    97196721.70045
  22687323.280   119222700.06608  22687325.440    92900813.54447
  23628375.620   124167998.40506  23628377.340    96754302.54245
  20715067.520   108858447.82608  20715067.380    84824773.18849
  21015316.560   110436281.18308  21015315.900    86054264.25648
  20341320.760   106894390.73809  20341324.420    83294357.21349
  22287874.040   117123590.10008  22287877.360    91265168.54347
 15 02 18 03 45 30.0000000  0  9G04G11G14G16G18G19G22G27G32
  21611505.660   113569252.51008  21611508.120    88495542.06047
  22918535.100   120437732.27207  22918536.560    93847601.46445
  23723236.160   124666450.34306  23723239.380    97142700.04745
  22705756.500   119319566.12208  22705758.500    92976293.57146
  23644521.440   124252845.44606  23644523.180    96820417.11945
  20708409.320   108823458.61008  20708409.140    84797508.87249
  21023471.720   110479137.19808  21023471.140    86087658.55748
  20343905.880   106907975.73709  20343909.560    83304942.92349
  22268696.800   117022813.12608  22268700.160    91186641.06547
 15 02 18 03 46  0.0000000  0 10G01G04G11G14G16G18G19G22G27G32
  23969446.220   125960293.27705  23969452.020    98150894.49745
  21600656.420   113512239.62108  21600658.860    88451116.46347
  22902976.520   120355971.81807  22902978.000    93783892.04945
  23710084.260   124597336.73706  23710087.340    97088845.32545
  22724234.580   119416668.22308  22724236.500    93051957.52647
  23660699.820   124337863.38807  23660701.580    96886664.87245
  20701815.000   108788805.16108  20701814.780    84770506.18949
  21031708.840   110522423.78208  21031708.320    86121388.37148
  20346572.080   106921986.65209  20346575.740    83315860.51749
  22249579.380   116922350.68208  22249582.800    91108358.66847
 15 02 18 03 46 30.0000000  0 10G01G04G11G14G16G18G19G22G27G32
  23955026.780   125884518.60105  23955032.600    98091849.37144
  21589849.740   113455450.62008  21589852.220    88406865.32047
  22887439.340   120274323.87807  22887440.840    93720270.31645
  23696973.420   124528439.17506  23696976.420    97035158.93045
  22742756.540   119514001.67508  22742758.540    93127801.75647
  23676910.180   124423048.82706  23676911.840    96953043.14345
  20695284.580   108754487.69608  20695284.340    84743765.31549
  21040027.280   110566137.61308  21040026.800    86155451.10548
  20349319.200   106936423.00009  20349322.880    83327109.62549
  22230522.060   116822204.00508  22230525.460    91030322.33547
 15 02 18 03 47  0.0000000  0 10G01G04G11G14G16G18G19G22G27G32
  23940628.920   125808857.76105  23940634.660    98032892.92845
  21579086.020   113398887.50508  21579088.520    88362790.17947
  22871923.960   120192790.52307  22871925.560    93656737.86245
  23683904.480   124459761.99206  23683907.480    96981644.27445
  22761322.260   119611565.63307  22761324.420    93203825.60347
  23693152.280   124508401.26806  23693153.900    97019551.53445
  20688818.640   108720509.10408  20688818.420    84717288.50149
  21048427.060   110610278.73908  21048426.580    86189846.79048
  20352147.660   106951286.92809  20352151.380    83338691.90449
  22211525.580   116722377.06008  22211528.880    90952535.14247
 15 02 18 03 47 30.0000000  0 10G01G04G11G14G16G18G19G22G27G32
  23926252.560   125733309.44005  23926258.200    97974024.16545
  21568365.040   113342548.75808  21568367.540    88318889.88047
  22856430.300   120111371.25307  22856431.920    93593294.31245
  23670877.820   124391306.67006  23670880.820    96928302.48445
  22779931.040   119709356.34907  22779933.400    93280026.14046
  23709425.500   124593917.30106  23709427.120    97086187.40645
  20682417.320   108686869.83609  20682417.060    84691076.08849
  21056907.500   110654843.93608  21056907.040    86224572.92348
  20355057.400   106966577.83009  20355061.120    83350606.89349
  22192590.180   116622870.81908  22192593.380    90874997.85046
 15 02 18 03 48  0.0000000  0 10G01G04G11G14G16G18G19G22G27G32
  23911897.980   125657875.81805  23911903.700    97915244.78544
  21557687.180   113286436.63508  21557689.700    88275166.16447
  22840958.820   120030068.57607  22840960.500    93529941.60345
  23657894.300   124323078.39606  23657897.340    96875137.63345
  22798582.840   119807372.65307  22798585.260    93356402.46946
  23725729.820   124679597.00406  23725731.440    97152950.79945
  20676081.320   108653573.71609  20676081.020    84665131.06349
  21065468.740   110699833.66608  21065468.280    86259629.86248
  20358048.960   106982298.44809  20358052.620    83362856.72149
  22173716.720   116523689.93608  22173719.800    90797714.09947
 15 02 18 03 48 30.0000000  0 10G01G04G11G14G16G18G19G22G27G32
  23897564.660   125582553.93405  23897570.500    97856552.46745
  21547052.040   113230548.55808  21547054.500    88231617.03147
  22825509.200   119948880.50307  22825510.960    93466678.20945
  23644954.120   124255077.41906  23644957.120    96822149.89945
  22817276.560   119905608.28108  22817278.800    93432949.68546
  23742064.360   124765435.65506  23742065.960    97219838.04745
  20669810.300   108620619.17509  20669809.980    84639452.20949
  21074109.800   110745242.68008  21074109.280    86295013.51548
  20361121.860   106998446.53009  20361125.480    83375439.64149
  22154905.020   116424833.73308  22154908.060    90720683.32646
 15 02 18 03 49  0.0000000  0 10G01G04G11G14G16G18G19G22G27G32
  23883252.860   125507345.47205  23883258.880    97797948.53045
  21536459.860   113174886.05308  21536462.280    88188243.67747
  22810081.900   119867809.41007  22810083.640    93403505.96045
  23632058.040   124187308.00906  23632060.980    96769342.60345
  22836012.000   120004062.46108  22836013.980    93509667.20146
  23758429.020   124851432.49706  23758430.540    97286848.58645
  20663604.900   108588009.51509  20663604.580    84614042.09249
  21082830.740   110791071.25308  21082830.120    86330724.09048
  20364276.560   107015024.37509  20364280.140    83388357.44049
  22136155.820   116326306.32908  22136158.920    90643908.75846
 15 02 18 03 49 30.0000000  0 10G01G04G11G14G16G18G19G22G27G32
  23868962.640   125432250.29005  23868968.780    97739432.84345
  21525910.580   113119449.11008  21525912.980    88145046.09647
  22794676.960   119786855.83107  22794678.680    93340425.28346
  23619206.440   124119772.53206  23619209.320    96716717.57445
  22854788.340   120102731.78208  22854790.180    93586552.36046
  23774823.360   124937585.25406  23774824.880    97353980.61245
  20657465.320   108555745.85709  20657465.040    84588901.58549
  21091631.100   110837317.36008  21091630.440    86366760.02748
  20367513.060   107032032.38209  20367516.660    83401610.43249
  22117469.540   116228109.86208  22117472.760    90567392.07947
 15 02 18 03 50  0.0000000  0 10G01G04G11G14G16G18G19G22G27G32
  23854693.920   125357268.24105  23854700.120    97681005.33845
  21515404.160   113064237.56308  21515406.620    88102024.13247
  22779294.500   119706020.12207  22779296.140    93277436.45146
  23606399.860   124052474.17006  23606402.820    96664277.31046
  22873604.960   120201613.22607  22873606.780    93663602.80446
  23791247.060   125023892.29606  23791248.560    97421232.85344
  20651391.840   108523829.59409  20651391.580    84564031.78449
  21100510.440   110883978.68508  21100509.760    86403119.50848
  20370831.500   107049470.96709  20370835.120    83415198.93649
  22098846.600   116130246.51308  22098850.000    90491134.94347
 15 02 18 03 50 30.0000000  0 10G01G04G11G14G16G18G19G22G27G32
  23840446.760   125282399.55905  23840453.080    97622666.16645
  21504940.720   113009251.71008  21504943.180    88059178.03947
  22763934.680   119625303.31807  22763936.260    93214540.28445
  23593639.020   123985416.15206  23593642.120    96612024.36145
  22892461.240   120300704.16907  22892463.200    93740816.50446
  23807699.720   125110351.73606  23807701.180    97488603.83545
  20645384.860   108492262.69509  20645384.600    84539434.20349
  21109468.600   110931054.08108  21109467.920    86439801.63848
  20374232.040   107067341.02609  20374235.680    83429123.65549
  22080287.640   116032718.91708  22080291.100    90415139.44047
 15 02 18 03 51  0.0000000  0 10G01G04G11G14G16G18G19G22G27G32
  23826221.080   125207643.58105  23826227.400    97564414.81046
  21494520.140   112954491.12408  21494522.620    88016507.47647
  22748597.460   119544705.25207  22748598.880    93151736.63346
  23580924.360   123918600.49106  23580927.520    96559960.22245
  22911356.600   120400001.24107  22911358.860    93818190.83347
  23824180.820   125196960.58306  23824182.300    97556091.27045
  20639444.480   108461045.72209  20639444.200    84515109.30149
  21118504.960   110978540.64208  21118504.320    86476804.15948
  20377714.680   107085642.41409  20377718.320    83443384.49349
  22061792.960   115935528.76808  22061796.360    90339406.88547
 15 02 18 03 51 30.0000000  0 10G01G04G11G14G16G18G19G22G27G32
  23812017.060   125133001.18405  23812023.460    97506251.96345
  21484142.620   112899956.79908  21484145.100    87974013.22147
  22733283.200   119464228.01207  22733284.480    93089027.12846
  23568256.580   123852030.84706  23568259.780    96508087.79045
  22930290.720   120499502.20007  22930293.280    93895724.03646
  23840690.100   125283717.69806  23840691.660    97623694.21945
  20633571.180   108430181.09609  20633570.880    84491058.95349
  21127619.400   111026437.40508  21127618.800    86514126.31748
  20381279.660   107104376.56109  20381283.300    83457982.52149
  22043363.160   115838679.21008  22043366.420    90263939.73646
 15 02 18 03 52  0.0000000  0 10G01G04G11G14G16G18G19G22G27G32
  23797834.500   125058471.63305  23797840.880    97448177.02045
  21473807.980   112845647.88308  21473810.500    87931694.60048
  22717991.780   119383871.27307  22717993.060    93026411.50646
  23555636.100   123785709.17606  23555639.160    96456408.58645
  22949263.080   120599203.49707  22949265.820    93973413.34046
  23857227.120   125370620.32406  23857228.740    97691410.56645
  20627765.040   108399669.49109  20627764.740    84467283.69149
  21136811.440   111074741.83808  21136810.880    86551766.14348
  20384926.960   107123543.26709  20384930.580    83472917.62349
  22024998.460   115742171.69508  22025001.540    90188739.10647
 15 02 18 03 52 30.0000000  0 10G01G04G11G14G16G18G19G22G27G32
  23783673.660   124984056.35505  23783679.920    97390191.17845
  21463516.520   112791565.87508  21463519.020    87889552.79648
  22702723.680   119303637.12607  22702724.980    92963891.42245
  23543063.720   123719640.13706  23543066.600    96404926.23545
  22968273.460   120699103.26107  22968276.060    94051257.28546
  23873791.700   125457668.00006  23873793.460    97759239.93444
  20622026.600   108369513.94508  20622026.280    84443785.86749
  21146081.020   111123453.45008  21146080.420    86589723.25148
  20388657.000   107143144.50209  20388660.600    83488191.31349
  22006699.540   115646010.13208  22006702.500    90113808.06347
 15 02 18 03 53  0.0000000  0 10G01G04G11G14G16G18G19G22G27G32
  23769534.160   124909752.74405  23769540.100    97332292.32045
  21453267.800   112737708.51908  21453270.320    87847586.04848
  22687478.440   119223523.43807  22687479.760    92901465.20245
  23530539.360   123653823.62206  23530542.080    96353640.67346
  22987320.760   120799196.14507  22987322.980    94129251.72446
  23890383.060   125544856.27006  23890384.780    97827178.85345
  20616355.680   108339713.24909  20616355.340    84420564.56049
  21155427.120   111172567.31108  21155426.520    86627993.80048
  20392469.300   107163178.19809  20392472.940    83503801.99149
  21988466.320   115550194.13508  21988469.240    90039146.28847
 15 02 18 03 53 30.0000000  0 10G01G04G11G14G16G18G19G22G27G32
  23755416.460   124835564.04805  23755422.160    97274483.02044
  21443062.380   112684078.98808  21443064.940    87805796.81748
  22672256.960   119143534.79107  22672258.340    92839136.39045
  23518064.220   123588266.24706  23518066.900    96302557.06045
  23006405.000   120899482.69507  23006406.840    94207397.04946
  23907001.340   125632186.27006  23907003.100    97895228.20844
  20610753.280   108310272.59009  20610752.940    84397623.79149
  21164850.100   111222085.47308  21164849.540    86666579.38848
  20396364.580   107183648.09009  20396368.220    83519752.55449
  21970299.880   115454729.29208  21970302.880    89964758.13047
 15 02 18 03 54  0.0000000  0 10G01G04G11G14G16G18G19G22G27G32
  23741320.240   124761487.69106  23741325.680    97216761.25144
  21432899.860   112630674.87108  21432902.460    87764183.23847
  22657058.860   119063669.02707  22657060.380    92776903.36446
  23505638.300   123522968.00406  23505641.020    96251675.34745
  23025524.920   120999957.08407  23025526.500    94285688.74446
  23923645.720   125719653.24006  23923647.620    97963384.31645
  20605219.120   108281190.40909  20605218.760    84374962.35749
  21174349.040   111272002.82108  21174348.540    86705476.02648
  20400342.420   107204552.10909  20400346.100    83536041.39649
  21952200.220   115359615.30208  21952203.300    89890643.37747
 15 02 18 03 54 30.0000000  0 10G01G04G11G14G16G18G19G22G27G32
  23727245.700   124687525.55806  23727251.060    97159128.49945
  21422780.660   112577498.08708  21422783.260    87722746.80947
  22641884.700   118983928.88207  22641886.360    92714768.23846
  23493262.600   123457933.45406  23493265.320    96200999.10345
  23044680.280   121100618.52607  23044681.840    94364126.20646
  23940316.140   125807257.25606  23940318.120    98031647.17744
  20599753.800   108252470.10909  20599753.440    84352582.91549
  21183923.980   111322319.62008  21183923.540    86744683.92248
  20404403.280   107225892.61609  20404407.020    83552670.35749
  21934168.160   115264856.21608  21934171.300    89816805.16147
 15 02 18 03 55  0.0000000  0 10G01G04G11G14G16G18G19G22G27G32
  23713192.600   124613675.81105  23713197.920    97101583.28145
  21412704.420   112524547.09108  21412706.980    87681486.30948
  22626734.320   118904313.49507  22626736.040    92652730.31146
  23480937.320   123393163.91706  23480940.040    96150529.36245
  23063870.140   121201462.39707  23063871.920    94442705.81946
  23957011.980   125894994.45106  23957013.940    98100013.84744
  20594357.300   108224111.47308  20594356.980    84330485.28849
  21193574.260   111373032.25508  21193573.840    86784200.26748
  20408546.960   107247668.28509  20408550.760    83569638.40849
  21916203.740   115170452.61508  21916206.900    89743243.95847
 15 02 18 03 55 30.0000000  0 10G01G04G11G14G16G18G19G22G27G32
  23699161.140   124539940.44305  23699166.500    97044127.17946
  21402671.480   112471823.70408  21402674.040    87640403.18748
  22611608.220   118824825.21607  22611609.880    92590791.42546
  23468663.360   123328664.19506  23468666.100    96100269.86145
  23083094.400   121302487.38507  23083096.500    94521426.57146
  23973733.100   125982864.68506  23973735.080    98168484.16944
  20589030.200   108196117.65508  20589029.920    84308671.94049
  21203299.820   111424140.44408  21203299.380    86824024.83448
  20412773.940   107269881.50909  20412777.760    83586947.41449
  21898307.740   115076408.59208  21898310.920    89669962.93947
 15 02 18 03 56  0.0000000  0 10G01G04G11G14G16G18G19G22G27G32
  23685151.380   124466319.16705  23685157.020    96986760.00246
  21392681.800   112419327.77108  21392684.340    87599497.29447
  22596506.460   118745464.48007  22596508.040    92528951.92946
  23456441.260   123264436.60806  23456443.940    96050222.41545
  23102352.400   121403689.89607  23102354.780    94600285.65246
  23990479.140   126070865.67206  23990481.080    98237056.37944
  20583772.860   108168490.07509  20583772.560    84287143.96449
  21213100.260   111475642.17008  21213099.800    86864156.05448
  20417084.300   107292532.42809  20417088.040    83604597.47449
  21880480.500   114982726.14508  21880483.720    89596963.64747
 15 02 18 03 56 30.0000000  0 10G01G04G11G14G16G18G19G22G27G32
  23671162.880   124392810.36705  23671168.880    96929480.46746
  21382735.120   112367057.78808  21382737.640    87558767.45147
  22581428.820   118666230.57908  22581430.300    92467211.26646
  23444271.160   123200482.31906  23444273.800    96000387.92345
  23121643.620   121505066.25607  23121646.100    94679280.20046
  24007249.500   126158994.01906  24007251.220    98305727.82344
  20578585.260   108141228.82709  20578584.900    84265901.44249
  21222974.900   111527533.71108  21222974.400    86904591.03248
  20421477.740   107315619.92209  20421481.440    83622587.72349
  21862722.180   114889405.93808  21862725.420    89524246.63547
 15 02 18 03 57  0.0000000  0 10G01G04G11G14G16G18G19G22G27G32
  23657196.140   124319415.63605  23657202.340    96872289.81245
  21372831.780   112315015.49808  21372834.300    87518215.03847
  22566375.780   118587125.92008  22566377.100    92405571.28246
  23432153.940   123136805.84306  23432156.520    95950769.92645
  23140967.680   121606614.77707  23140970.120    94758408.89146
  24024044.000   126247249.30506  24024045.580    98374498.16744
  20573467.860   108114336.53609  20573467.460    84244946.41749
  21232923.600   111579814.60808  21232923.100    86945329.39648
  20425954.660   107339145.94809  20425958.320    83640919.68849
  21845033.480   114796451.74408  21845036.740    89451814.83547
 15 02 18 03 57 30.0000000  0 10G01G04G11G14G16G18G19G22G27G32
  23643250.860   124246133.25205  23643257.140    96815186.70946
  21362971.440   112263199.15608  21362973.960    87477838.69047
  22551347.120   118508149.30308  22551348.260    92344031.09446
  23420089.740   123073408.23606  23420092.400    95901369.23745
  23160323.740   121708330.86507  23160325.980    94837668.15646
  24040861.900   126335627.73006  24040863.300    98443364.50744
  20568420.600   108087813.02609  20568420.200    84224278.76049
  21242945.700   111632481.24708  21242945.220    86986368.34148
  20430514.760   107363109.16209  20430518.380    83659592.32049
  21827414.580   114703864.01208  21827417.860    89379668.59147
 15 02 18 03 58  0.0000000  0 10G01G04G11G14G16G18G19G22G27G32
  23629327.420   124172965.53305  23629333.760    96758172.96645
  21353154.620   112211611.34308  21353157.140    87437640.41547
  22536343.400   118429303.96508  22536344.440    92282593.20946
  23408079.660   123010294.68406  23408082.280    95852189.88346
  23179711.540   121810213.96907  23179713.620    94917057.55246
  24057703.300   126424129.92106  24057704.520    98512327.24144
  20563444.180   108061661.98109  20563443.800    84203901.33049
  21253041.280   111685534.05608  21253040.820    87027708.19448
  20435158.540   107387512.35909  20435162.140    83678607.79649
  21809866.320   114611647.30408  21809869.560    89307811.44947
 15 02 18 03 58 30.0000000  0 10G01G04G11G14G16G18G19G22G27G32
  23615425.460   124099910.05305  23615431.820    96701246.68446
  21343380.780   112160249.49808  21343383.300    87397618.21548
  22521364.300   118350588.30308  22521365.360    92221256.34446
  23396123.680   122947465.50906  23396126.300    95803232.11545
  23199130.020   121912258.51507  23199132.020    94996572.75346
  24074567.360   126512751.39906  24074568.420    98581382.96943
  20558538.480   108035882.66309  20558538.140    84183813.56049
  21263209.560   111738968.59408  21263209.080    87069345.50148
  20439885.620   107412353.42409  20439889.240    83697964.46649
  21792388.660   114519801.42108  21792391.820    89236243.26747
 15 02 18 03 59  0.0000000  0 10G01G04G11G14G16G18G19G22G27G32
  23601545.460   124026969.57005  23601551.700    96644410.00545
  21333650.520   112109116.74508  21333653.060    87357774.53348
  22506410.540   118272005.85608  22506411.640    92160023.30346
  23384222.880   122884926.21806  23384225.420    95754500.22845
  23218579.100   122014464.04207  23218581.000    95076213.39646
  24091454.260   126601492.81806  24091455.160    98650532.14144
  20553704.380   108010479.42509  20553704.060    84164018.83849
  21273450.600   111792785.68308  21273450.120    87111280.90148
  20444696.620   107437635.58609  20444700.280    83717664.85649
  21774982.520   114428331.33008  21774985.640    89164967.90947
 15 02 18 03 59 30.0000000  0 10G01G04G11G14G16G18G19G22G27G32
  23587686.840   123954141.45006  23587692.920    96587660.89246
  21323963.320   112058210.26008  21323965.860    87318107.16548
  22491481.760   118193554.95808  22491482.960    92098892.76046
  23372377.380   122822677.38007  23372379.780    95705994.67345
  23238057.800   122116825.72907  23238059.740    95155975.72746
  24108363.120   126690349.79406  24108364.040    98719771.33944
  20548941.580   107985450.71609  20548941.260    84144515.96049
  21283763.540   111846980.71708  21283763.100    87153510.80348
  20449591.140   107463356.45709  20449594.840    83737707.09449
  21757647.720   114337236.44108  21757650.880    89093984.90747
 15 02 18 04 00  0.0000000  0 10G01G04G11G14G16G18G19G22G27G32
  23573850.060   123881428.67505  23573856.000    96531001.64645
  21314319.820   112007533.39108  21314322.340    87278618.71048
  22476578.640   118115239.12707  22476579.940    92037867.45846
  23360588.140   122760724.31107  23360590.400    95657719.57045
  23257566.160   122219343.21807  23257568.180    95235859.46946
  24125294.240   126779323.34906  24125295.220    98789101.37644
  20544250.900   107960800.99209  20544250.540    84125308.39349
  21294148.520   111901554.47608  21294148.160    87196035.81248
  20454569.740   107489519.37409  20454573.480    83758093.77649
  21740385.280   114246521.98308  21740388.460    89023298.34347
 15 02 18 04 00 30.0000000  0 10G01G04G11G14G16G18G19G22G27G32
  23560034.720   123808828.79605  23560040.460    96474430.37546
  21304719.500   111957083.64208  21304722.040    87239307.24248
  22461700.940   118037056.94607  22461702.380    91976946.31646
  23348855.200   122699067.46807  23348857.380    95609675.30446
  23277103.120   122322010.73807  23277105.180    95315860.10346
  24142246.800   126868409.04406  24142247.760    98858518.84944
  20539632.160   107936529.23409  20539631.760    84106395.34549
  21304604.760   111956502.68708  21304604.500    87238852.60748
  20459632.060   107516122.24209  20459635.860    83778823.27749
  21723195.220   114156187.65708  21723198.380    88952908.00047
 15 02 18 04 01  0.0000000  0 10G01G04G11G14G16G18G19G22G27G32
  23546241.100   123736343.33006  23546246.760    96417948.26645
  21295162.760   111906862.73108  21295165.280    87200174.07548
  22446849.140   117959010.79307  22446850.660    91916131.16946
  23337179.340   122637710.85906  23337181.560    95561864.99045
  23296668.580   122424827.72807  23296670.700    95395977.20946
  24159220.580   126957606.31606  24159221.460    98928023.23145
  20535085.900   107912638.54509  20535085.520    84087779.22949
  21315132.140   112011824.72908  21315131.960    87281960.69748
  20464778.520   107543166.84909  20464782.280    83799896.98449
  21706078.200   114066237.01808  21706081.280    88882816.62247
 15 02 18 04 01 30.0000000  0 10G01G04G11G14G16G18G19G22G27G32
  23532468.940   123663970.76105  23532474.700    96361554.10945
  21285649.280   111856869.23008  21285651.780    87161218.12648
  22432023.020   117881099.68507  22432024.680    91855421.24546
  23325561.000   122576656.23107  23325563.140    95514289.99845
  23316261.600   122527789.57507  23316263.880    95476207.20946
  24176214.880   127046911.98906  24176215.760    98997612.06345
  20530612.120   107889128.77209  20530611.760    84069459.93649
  21325730.060   112067517.07408  21325729.860    87325357.33248
  20470008.820   107570652.04309  20470012.580    83821314.01049
  21689034.360   113976670.85308  21689037.260    88813024.84847
 15 02 18 04 02  0.0000000  0 10G01G04G11G14G16G18G19G22G27G32
  23518718.480   123591711.92706  23518724.200    96305248.61646
  21276179.260   111807103.95208  21276181.740    87122440.01048
  22417222.980   117803325.44607  22417224.720    91794817.97746
  23314000.800   122515906.89406  23314002.820    95466952.86645
  23335881.720   122630893.80907  23335884.100    95556548.13446
  24193229.420   127136324.56206  24193230.360    99067284.21343
  20526211.260   107866002.05209  20526210.900    84051439.12149
  21336398.240   112123578.61308  21336397.980    87369041.65248
  20475323.240   107598578.89309  20475326.920    83843075.18949
  21672064.220   113887492.05808  21672066.960    88743534.90847
 15 02 18 04 02 30.0000000  0 10G01G04G11G14G16G18G19G22G27G32
  23504989.860   123519567.73606  23504995.620    96249032.39745
  21266752.940   111757568.12508  21266755.360    87083840.68148
  22402449.280   117725689.59607  22402451.040    91734322.54546
  23302499.300   122455466.49507  23302501.300    95419856.48945
  23355528.660   122734138.71307  23355531.060    95636998.69346
  24210264.220   127225843.74405  24210265.340    99137039.43444
  20521883.800   107843260.84609  20521883.400    84033718.71249
  21347136.520   112180008.36108  21347136.140    87413012.89048
  20480721.920   107626948.63309  20480725.520    83865181.48049
  21655168.260   113798703.53808  21655170.960    88674349.09247
 15 02 18 04 03  0.0000000  0 10G01G04G11G14G16G18G19G22G27G32
  23491282.760   123447536.89406  23491288.700    96192904.52745
  21257370.020   111708260.47908  21257372.400    87045419.16348
  22387701.880   117648191.74907  22387703.620    91673934.64746
  23291056.740   122395336.42906  23291058.880    95373001.92345
  23375201.500   122837519.70407  23375203.860    95717555.28746
  24227318.680   127315465.81806  24227319.980    99206874.82044
  20517629.660   107820905.05609  20517629.240    84016298.61949
  21357944.180   112236802.70808  21357943.700    87457268.23448
  20486204.640   107655760.11909  20486208.180    83887631.98849
  21638346.760   113710306.18808  21638349.420    88605468.07047
 15 02 18 04 03 30.0000000  0 10G01G04G11G14G16G18G19G22G27G32
  23477597.180   123375618.93306  23477603.260    96136864.61745
  21248030.420   111659180.44008  21248032.780    87007175.00548
  22372980.900   117570832.61607  22372982.640    91613654.84846
  23279673.660   122335518.97806  23279675.960    95326390.94046
  23394899.640   122941033.78507  23394901.960    95798215.57646
  24244392.340   127405188.45906  24244393.540    99276788.58745
  20513449.040   107798935.64709  20513448.580    83999179.60649
  21368820.740   112293959.16508  21368820.220    87501805.73548
  20491771.360   107685013.20209  20491774.860    83910426.60049
  21621600.020   113622301.61208  21621602.720    88536893.12547
 15 02 18 04 04  0.0000000  0 10G01G04G11G14G16G18G19G22G27G32
  23463933.120   123303814.08106  23463939.260    96080912.83946
  21238734.180   111610328.51308  21238736.560    86969108.59648
  22358286.500   117493613.03607  22358288.200    91553483.76546
  23268350.680   122276017.04906  23268353.180    95280025.82445
  23414622.540   123044678.08507  23414624.800    95878977.36045
  24261484.900   127495010.24006  24261486.160    99346779.60545
  20509342.220   107777354.35109  20509341.780    83982363.01649
  21379765.940   112351476.28208  21379765.340    87546624.27648
  20497422.120   107714708.33009  20497425.660    83933565.65749
  21604928.380   113534692.11208  21604931.220    88468626.00547
 15 02 18 04 04 30.0000000  0 10G01G04G11G14G16G18G19G22G27G32
  23450290.820   123232123.51006  23450297.020    96025050.10446
  21229481.580   111561705.93208  21229483.980    86931220.89148
  22343619.040   117416535.05307  22343620.680    91493423.02846
  23257088.640   122216835.06306  23257091.320    95233910.01745
  23434369.840   123148450.58907  23434371.920    95959839.03745
  24278596.220   127584930.26306  24278597.480    99416847.18145
  20505309.720   107756163.67809  20505309.340    83965850.81349
  21390779.520   112409353.03008  21390778.920    87591723.04348
  20503157.260   107744846.93609  20503160.860    83957050.28949
  21588332.560   113447480.97308  21588335.560    88400669.31447
 15 02 18 04 05  0.0000000  0 10G01G04G11G14G16G18G19G22G27G32
  23436670.060   123160545.73906  23436676.240    95969275.27546
  21220272.340   111513311.34908  21220274.780    86893510.85748
  22328978.440   117339597.98407  22328980.000    91433472.09746
  23245887.640   122157973.80006  23245890.480    95188044.11246
  23454140.780   123252347.32207  23454142.640    96040797.48645
  24295725.580   127674945.07206  24295726.760    99486988.59845
  20501351.560   107735363.57009  20501351.200    83949642.94549
  21401860.800   112467585.60708  21401860.220    87637099.08548
  20508976.520   107775427.62909  20508980.180    83980879.39949
  21571812.700   113360668.61408  21571815.800    88333023.35147
 15 02 18 04 05 30.0000000  0 10G01G04G11G14G16G18G19G22G27G32
  23423071.000   123089082.15406  23423077.120    95913589.41646
  21211106.780   111465146.30608  21211109.240    86855979.68148
  22314365.060   117262804.00607  22314366.600    91373632.66946
  23234748.520   122099437.25807  23234751.460    95142431.25346
  23473935.040   123356366.82907  23473936.740    96121851.61445
  24312872.900   127765054.41306  24312874.040    99557203.68643
  20497468.200   107714956.58309  20497467.900    83933741.40349
  21413009.720   112526173.54908  21413009.100    87682752.03248
  20514880.260   107806452.00009  20514883.920    84005054.22749
  21555369.440   113274258.51308  21555372.540    88265690.83547
 15 02 18 04 06  0.0000000  0 10G01G04G11G14G16G18G19G22G27G32
  23409493.640   123017732.72506  23409499.660    95857992.50746
  21201984.940   111417210.90208  21201987.420    86818627.44148
  22299779.120   117186154.15108  22299780.620    91313905.53446
  23223671.840   122041228.47107  23223674.660    95097073.77646
  23493752.020   123460506.04107  23493753.680    96202999.02545
  24330037.780   127855256.42906  24330038.740    99627490.98544
  20493659.960   107694944.31809  20493659.700    83918147.44449
  21424225.840   112585114.53608  21424225.200    87728680.07948
  20520868.460   107837920.26909  20520872.140    84029574.95249
  21539003.120   113188252.71408  21539006.160    88198673.36847
 15 02 18 04 06 30.0000000  0 10G01G04G11G14G16G18G19G22G27G32
  23395937.920   122946497.30006  23395943.820    95802484.42546
  21192906.720   111369504.92508  21192909.240    86781453.97348
  22285220.700   117109648.98007  22285222.180    91254291.13546
  23212657.940   121983349.41007  23212660.540    95051973.24545
  23513591.140   123564761.90307  23513592.900    96284237.34345
  24347219.800   127945548.88006  24347220.760    99697848.73544
  20489927.080   107675327.83509  20489926.820    83902861.88149
  21435508.740   112644406.64708  21435508.120    87774881.73048
  20526941.120   107869832.35209  20526944.820    84054441.50449
  21522714.060   113102653.02308  21522717.040    88131972.33547
 15 02 18 04 07  0.0000000  0 10G01G04G11G14G16G18G19G22G27G32
  23382403.980   122875376.48906  23382409.820    95747065.66846
  21183872.340   111322029.24608  21183874.900    86744459.95748
  22270690.100   117033290.15407  22270691.580    91194790.78446
  23201707.360   121925803.45107  23201709.760    95007132.26445
  23533452.080   123669132.03607  23533454.040    96365564.71045
  24364418.800   128035930.76306  24364419.860    99768276.20144
  20486269.900   107656109.07509  20486269.620    83887886.23049
  21446858.100   112704048.34908  21446857.560    87821355.78548
  20533098.380   107902188.99809  20533102.120    84079654.47349
  21506502.680   113017462.03008  21506505.700    88065589.77847
 15 02 18 04 07 30.0000000  0 10G01G04G11G14G16G18G19G22G27G32
  23368891.540   122804368.82606  23368897.420    95691735.05645
  21174881.540   111274782.37208  21174884.100    86707644.23448
  22256187.200   116957076.88708  22256188.660    91135403.84346
  23190820.460   121868591.99007  23190822.640    94962551.93346
  23553334.020   123773612.16007  23553336.120    96446977.78345
  24381634.040   128126398.63905  24381635.140    99838770.66043
  20482688.360   107637287.80809  20482688.040    83873220.31049
  21458273.300   112764036.12908  21458272.840    87868099.51248
  20539340.020   107934988.92809  20539343.760    84105212.85949
  21490369.180   112932680.29308  21490372.220    87999526.13047
 15 02 18 04 08  0.0000000  0 10G01G04G11G14G16G18G19G22G27G32
  23355400.980   122733476.04006  23355406.840    95636494.01145
  21165934.680   111227766.21408  21165937.200    86671008.28748
  22241712.560   116881011.96108  22241713.980    91076132.49546
  23179997.980   121811719.45507  23180000.000    94918235.70945
  23573236.600   123878200.80607  23573238.860    96528475.42145
  24398865.500   128216952.12605  24398866.880    99909331.84744
  20479183.020   107618867.12409  20479182.680    83858866.54149
  21469754.320   112824369.56108  21469753.900    87915112.57048
  20545666.340   107968233.97409  20545670.080    84131118.08649
  21474314.240   112848311.45808  21474317.320    87933784.20947
 15 02 18 04 08 30.0000000  0 10G01G04G11G14G16G18G19G22G27G32
  23341931.940   122662696.31406  23341937.680    95581341.03145
  21157031.380   111180978.90408  21157033.840    86634550.67448
  22227265.940   116805094.31108  22227267.300    91016975.89946
  23169240.160   121755186.44307  23169242.020    94874184.04046
  23593159.060   123982893.59807  23593161.420    96610054.18945
  24416112.700   128307587.62705  24416114.220    99979956.89944
  20475753.840   107600846.65909  20475753.460    83844824.62449
  21481300.420   112885044.66108  21481300.000    87962391.86648
  20552077.040   108001922.34909  20552080.760    84157368.75749
  21458337.920   112764355.68508  21458341.020    87868364.16747
 15 02 18 04 09  0.0000000  0 10G01G04G11G14G16G18G19G22G27G32
  23328484.340   122592029.11706  23328490.060    95526275.75645
  21148171.540   111134420.07808  21148173.980    86598271.09248
  22212847.320   116729324.18508  22212848.700    90957934.26746
  23158547.440   121698995.51007  23158549.240    94830398.92546
  23613100.640   124087686.78306  23613103.060    96691711.17945
  24433375.200   128398303.00305  24433376.640   100050644.23144
  20472400.900   107583226.87209  20472400.520    83831094.92449
  21492911.100   112946058.97008  21492910.660    88009935.48648
  20558572.020   108036053.63309  20558575.760    84183964.56449
  21442440.500   112680814.28108  21442443.580    87803266.99647
 15 02 18 04 09 30.0000000  0 10G01G04G11G14G16G18G19G22G27G32
  23315058.640   122521476.94506  23315064.460    95471300.09745
  21139355.680   111088092.58908  21139358.120    86562171.78048
  22198457.480   116653705.25008  22198458.880    90899010.44146
  23147920.600   121643151.34707  23147922.600    94786884.01246
  23633061.300   124192580.29407  23633063.680    96773446.34246
  24450653.140   128489098.95405  24450654.660   100121394.32144
  20469125.000   107566011.90109  20469124.620    83817680.66749
  21504586.380   113007412.74908  21504585.920    88057743.62448
  20565151.760   108070630.36109  20565155.480    84210907.45849
  21426622.840   112597691.82808  21426625.880    87738496.27647
 15 02 18 04 10  0.0000000  0 10G01G04G11G14G16G18G19G22G27G32
  23301654.560   122451038.06606  23301660.440    95416412.70745
  21130583.480   111041994.69008  21130585.920    86526251.35648
  22184096.140   116578236.35608  22184097.580    90840203.53046
  23137359.840   121587654.98707  23137362.160    94743640.11045
  23653040.140   124297569.51506  23653042.420    96855256.11045
  24467945.820   128579972.02805  24467947.280   100192204.52543
  20465926.040   107549201.34509  20465925.660    83804581.54749
  21516325.500   113069102.07308  21516325.020    88105813.23148
  20571815.920   108105650.91809  20571819.640    84238196.20449
  21410884.900   112514988.42908  21410887.900    87674052.11447
 15 02 18 04 10 30.0000000  0 10G01G04G11G14G16G18G19G22G27G32
  23288272.200   122380712.93206  23288277.980    95361613.95346
  21121855.140   110996127.08808  21121857.560    86490510.39248
  22169763.640   116502918.93308  22169765.100    90781514.65146
  23126865.820   121532509.10007  23126868.440    94700669.31446
  23673036.560   124402651.67207  23673038.820    96937138.26745
  24485252.860   128670920.61105  24485254.220   100263073.56544
  20462804.300   107532796.66909  20462803.940    83791798.69149
  21528128.160   113131125.52808  21528127.680    88154143.20248
  20578564.640   108141115.71309  20578568.380    84265831.10149
  21395227.120   112432706.48108  21395230.120    87609936.34947
 15 02 18 04 11  0.0000000  0 10G01G04G11G14G16G18G19G22G27G32
  23274911.360   122310501.19406  23274917.100    95306903.54546
  21113170.520   110950489.31508  21113172.920    86454948.51348
  22155460.280   116427754.34808  22155461.740    90722944.86746
  23116439.120   121477716.43507  23116441.780    94657973.75546
  23693050.160   124507823.76006  23693052.360    97019090.53045
  24502573.960   128761942.59205  24502575.220   100333999.79644
  20459760.080   107516799.28009  20459759.740    83779333.19249
  21539993.960   113193480.83508  21539993.500    88202731.75548
  20585397.820   108177024.40309  20585401.560    84293811.88649
  21379649.800   112350847.40708  21379652.760    87546150.09247
 15 02 18 04 11 30.0000000  0 10G01G04G11G14G16G18G19G22G27G32
  23261572.300   122240404.03706  23261578.000    95252282.43746
  21104529.960   110905082.80508  21104532.280    86419566.84448
  22141186.220   116352743.74308  22141187.680    90664495.08447
  23106080.400   121423280.68607  23106082.980    94615556.30746
  23713080.420   124613083.80506  23713082.740    97101111.30945
  24519908.940   128853037.44706  24519910.200   100404982.78444
  20456793.780   107501211.24709  20456793.400    83767186.68049
  21551922.700   113256167.01608  21551922.280    88251578.12748
  20592315.720   108213378.23909  20592319.460    84322139.54249
  21364153.520   112269414.25008  21364156.480    87482695.72147
 15 02 18 04 12  0.0000000  0 10G01G04G11G14G16G18G19G22G27G32
  23248255.080   122170421.66806  23248260.680    95197750.75746
  21095933.440   110859907.74808  21095935.720    86384365.52948
  22126941.720   116277888.29808  22126943.160    90606166.18946
  23095790.000   121369204.24607  23095792.420    94573418.86446
  23733126.920   124718429.30506  23733129.420    97183198.69945
  24537257.440   128944203.45505  24537258.640   100476021.24444
  20453905.660   107486034.08209  20453905.240    83755360.31949
  21563914.020   113319181.88608  21563913.600    88300680.62148
  20599318.400   108250177.40509  20599322.100    84350814.21949
  21348738.700   112188409.24208  21348741.720    87419574.97247
 15 02 18 04 12 30.0000000  0 10G01G04G11G14G16G18G19G22G27G32
  23234959.440   122100552.76006  23234964.980    95143307.50446
  21087380.780   110814963.14608  21087383.040    86349343.79448
  22112726.720   116203187.94008  22112728.140    90547958.13846
  23085568.280   121315488.75007  23085570.560    94531562.67645
  23753188.900   124823856.24907  23753191.580    97265349.54845
  24554618.760   129035437.42605  24554619.860   100547112.66644
  20451095.720   107471267.84009  20451095.320    83743854.16049
  21575967.200   113382521.99508  21575966.800    88350036.55248
  20606405.520   108287420.49809  20606409.220    84379834.80949
  21333405.440   112107832.81308  21333408.520    87356788.15947
 15 02 18 04 13  0.0000000  0 10G01G04G11G14G16G18G19G22G27G32
  23221685.600   122030798.33706  23221691.040    95088953.43846
  21078872.160   110770249.96408  21078874.400    86314502.37448
  22098541.540   116128644.29008  22098542.940    90489872.20146
  23075415.800   121262137.26007  23075417.940    94489990.11746
  23773266.000   124929362.44207  23773268.660    97347562.14844
  24571992.780   129126738.62805  24571993.880   100618256.44644
  20448364.300   107456914.30709  20448363.920    83732669.59349
  21588082.080   113446186.32108  21588081.700    88399645.11648
  20613577.320   108325108.51209  20613581.000    84409202.08849
  21318154.280   112027687.69208  21318157.400    87294337.44848
 15 02 18 04 13 30.0000000  0 10G01G04G11G14G16G18G19G22G27G32
  23208433.440   121961157.91306  23208438.800    95034688.22245
  21070407.480   110725767.84408  21070409.720    86279841.00348
  22084386.320   116054258.07808  22084387.700    90431908.94846
  23065333.040   121209152.20607  23065335.120    94448703.08946
  23793357.720   125034944.85207  23793360.180    97429834.13545
  24589379.080   129218104.83405  24589380.240   100689450.92144
  20445711.560   107442974.21609  20445711.200    83721807.18349
  21600258.180   113510172.20308  21600257.780    88449504.24748
  20620833.700   108363240.88609  20620837.320    84438915.61649
  21302985.480   111947975.24108  21302988.600    87232223.86348
 15 02 18 04 14  0.0000000  0 10G01G04G11G14G16G18G19G22G27G32
  23195202.900   121891631.07706  23195208.100    94980511.51445
  21061986.680   110681516.45209  21061988.940    86245359.42548
  22070261.160   115980029.82708  22070262.460    90374068.77546
  23055320.380   121156535.75607  23055322.500    94407703.28046
  23813463.320   125140600.02006  23813465.600    97512162.81345
  24606777.340   129309534.09605  24606778.400   100760694.50144
  20443137.780   107429449.09209  20443137.460    83711268.12649
  21612495.060   113574477.24208  21612494.620    88499612.07448
  20628174.560   108401817.11309  20628178.140    84468975.00449
  21287899.340   111868696.89908  21287902.420    87170448.55548
 15 02 18 04 14 30.0000000  0 10G01G04G11G14G16G18G19G22G27G32
  23181994.020   121822218.30406  23181999.160    94926423.68646
  21053609.900   110637496.26808  21053612.140    86211058.00148
  22056166.340   115905960.95808  22056167.540    90316352.80247
  23045378.500   121104290.78707  23045380.660    94366992.93746
  23833582.280   125246325.13506  23833584.280    97594546.00144
  24624187.380   129401024.86005  24624188.460   100831986.01043
  20440643.240   107416340.19609  20440642.940    83701053.40749
  21624792.360   113639099.92408  21624791.900    88549967.41048
  20635599.920   108440837.56709  20635603.520    84499380.54449
  21272896.260   111789854.93108  21272899.260    87109013.28748
 15 02 18 04 15  0.0000000  0 10G01G04G11G14G16G18G19G22G27G32
  23168806.800   121752919.38406  23168811.820    94872424.56945
  21045277.140   110593707.48108  21045279.360    86176936.89148
  22042101.960   115832052.15808  22042103.160    90258761.56046
  23035507.880   121052419.55907  23035509.980    94326573.82546
  23853714.000   125352117.89106  23853715.860    97676981.86945
  24641608.780   129492575.17905  24641609.860   100903323.93344
  20438228.140   107403648.71009  20438227.820    83691163.94649
  21637149.620   113704037.72708  21637149.160    88600568.30048
  20643109.780   108480301.97409  20643113.340    84530132.02049
  21257976.500   111711450.80608  21257979.400    87047919.19048
 15 02 18 04 15 30.0000000  0 10G01G04G11G14G16G18G19G22G27G32
  23155641.480   121683735.31506  23155646.420    94818514.94045
  21036988.640   110550151.11508  21036990.820    86142996.88848
  22028068.380   115758305.35508  22028069.560    90201296.53146
  23025709.100   121000925.56407  23025711.060    94286448.65746
  23873858.140   125457975.84306  23873859.880    97759468.54645
  24659041.300   129584184.27105  24659042.220   100974707.63744
  20435892.920   107391376.79909  20435892.560    83681601.42049
  21649566.640   113769289.44208  21649566.140    88651413.79448
  20650704.260   108520211.19409  20650707.820    84561230.11249
  21243140.580   111633487.29708  21243143.360    86987168.42648
 15 02 18 04 16  0.0000000  0 10G01G04G11G14G16G18G19G22G27G32
  23142497.920   121614665.74106  23142502.840    94764694.54346
  21028744.280   110506826.83408  21028746.440    86109237.73348
  22014065.720   115684721.03808  22014066.900    90143958.12646
  23015982.480   120949810.61707  23015984.260    94246618.85046
  23894014.040   125563895.73406  23894015.840    97842003.50445
  24676484.540   129675850.02205  24676485.620   101046135.52044
  20433637.660   107379525.04209  20433637.220    83672366.28649
  21662042.840   113834852.44408  21662042.380    88702501.85048
  20658383.220   108560564.69309  20658386.860    84592674.39249
  21228388.720   111555965.79908  21228391.480    86926762.08748
 15 02 18 04 16 30.0000000  0 10G01G04G11G14G16G18G19G22G27G32
  23129376.040   121545709.87806  23129380.980    94710962.74946
  21020543.980   110463733.97409  21020546.060    86075658.89948
  22000093.940   115611299.16708  22000095.140    90086746.30347
  23006328.200   120899076.54707  23006329.920    94207085.84246
  23914181.020   125669874.05506  23914183.120    97924583.96045
  24693938.080   129767569.80905  24693939.480   101117605.46544
  20431462.380   107368093.73909  20431461.900    83663458.78649
  21674577.820   113900724.28208  21674577.400    88753830.55948
  20666146.580   108601361.47209  20666150.220    84624464.08249
  21213721.160   111478887.16708  21213723.860    86866700.83948
 15 02 18 04 17  0.0000000  0 10G01G04G11G14G16G18G19G22G27G32
  23116276.040   121476869.02907  23116281.000    94657320.58046
  21012388.000   110420874.06309  21012390.040    86042261.58448
  21986153.620   115538042.58308  21986154.880    90029663.27747
  22996746.940   120848727.25007  22996748.700    94167852.64046
  23934358.880   125775909.57706  23934361.260    98007209.01045
  24711401.880   129859343.29305  24711403.480   101189117.28544
  20429367.640   107357085.65909  20429367.120    83654881.06749
  21687171.360   113966903.92308  21687170.960    88805399.11448
  20673994.580   108642602.83609  20673998.180    84656600.21249
  21199138.460   111402254.46408  21199141.140    86806987.07848
 15 02 18 04 17 30.0000000  0 10G01G04G11G14G16G18G19G22G27G32
  23103197.560   121408141.05807  23103202.580    94603766.37046
  21004275.940   110378244.98408  21004277.980    86009044.14548
  21972244.460   115464949.76908  21972245.800    89972707.86546
  22987238.820   120798762.98807  22987240.600    94128919.46346
  23954546.740   125881997.03206  23954549.280    98089874.55445
  24728875.340   129951166.72705  24728877.060   101260668.00944
  20427353.260   107346499.97609  20427352.720    83646632.49249
  21699822.640   114033386.88208  21699822.240    88857204.02048
  20681926.720   108684286.29509  20681930.260    84689080.82349
  21184640.520   111326067.16208  21184643.160    86747620.37248
 15 02 18 04 18  0.0000000  0 10G01G04G11G14G16G18G19G22G27G32
  23090140.840   121339527.68607  23090145.900    94550301.43646
  20996208.160   110335848.73708  20996210.260    85976008.12748
  21958366.980   115392023.30608  21958368.340    89915882.08647
  22977804.680   120749187.86607  22977806.560    94090289.52545
  23974744.280   125988135.37706  23974746.940    98172579.73145
  24746358.360   130043039.70605  24746359.880   101332257.34144
  20425419.700   107336339.27009  20425419.220    83638715.05949
  21712531.580   114100172.80008  21712531.160    88909245.00148
  20689943.280   108726413.42109  20689946.760    84721907.14249
  21170228.020   111250328.79508  21170230.600    86688603.50348
 15 02 18 04 18 30.0000000  0 10G01G04G11G14G16G18G19G22G27G32
  23077105.840   121271028.32007  23077110.940    94496925.35146
  20988184.540   110293684.47908  20988186.700    85943152.88548
  21944521.340   115319263.98408  21944522.680    89859186.54447
  22968445.040   120700003.45107  22968446.940    94051964.03946
  23994950.540   126094320.18006  23994953.320    98255321.09245
  24763850.420   130134960.21405  24763851.840   101403883.70644
  20423567.080   107326603.98609  20423566.660    83631129.12149
  21725297.700   114167259.10308  21725297.260    88961520.04248
  20698044.060   108768983.34909  20698047.540    84755078.50949
  21155901.080   111175040.23908  21155903.620    86629937.12248
 15 02 18 04 19  0.0000000  0 10G01G04G11G14G16G18G19G22G27G32
  23064092.480   121202642.83507  23064097.660    94443638.01246
  20980205.140   110251752.51708  20980207.340    85910478.64848
  21930707.680   115246672.55408  21930708.960    89802621.82547
  22959160.320   120651212.11507  22959162.120    94013944.82945
  24015165.340   126200549.82806  24015168.200    98338097.43345
  24781351.200   130226926.49505  24781352.380   101475545.77543
  20421795.580   107317294.89309  20421795.220    83623875.28849
  21738120.580   114234643.53508  21738120.080    89014027.39148
  20706228.980   108811995.69909  20706232.540    84788594.61149
  21141660.000   111100203.03408  21141662.540    86571622.45048
 15 02 18 04 19 30.0000000  0 10G01G04G11G14G16G18G19G22G27G32
  23051101.020   121134372.51507  23051106.280    94390440.39546
  20972270.200   110210054.23708  20972272.460    85877986.50648
  21916926.380   115174251.02808  21916927.560    89746189.49547
  22949951.200   120602817.66607  22949952.960    93976234.89946
  24035388.260   126306822.38406  24035391.140    98420907.16445
  24798860.580   130318937.78305  24798861.420   101547242.86843
  20420105.780   107308414.92409  20420105.400    83616955.83549
  21750999.960   114302325.09108  21750999.460    89066766.26748
  20714498.300   108855451.56509  20714501.940    84822456.32249
  21127505.300   111025820.16208  21127507.900    86513661.80148
 15 02 18 04 20  0.0000000  0 10G01G04G11G14G16G18G19G22G27G32
  23038131.500   121066217.43207  23038136.820    94337332.57946
  20964379.720   110168589.62908  20964382.020    85845676.44248
  21903177.600   115102000.57808  21903178.680    89689890.46547
  22940818.060   120554822.32607  22940819.820    93938835.95546
  24055618.680   126413134.66006  24055621.640    98503747.86844
  24816378.100   130410992.73305  24816378.880   101618973.99843
  20418497.800   107299964.96909  20418497.420    83610371.45549
  21763935.500   114370301.66008  21763934.960    89119735.03048
  20722851.960   108899350.68409  20722855.700    84856663.41149
  21113437.340   110951893.08508  21113439.980    86456056.30548
 15 02 18 04 20 30.0000000  0 10G01G04G11G14G16G18G19G22G27G32
  23025183.640   120998176.48906  23025189.080    94284313.69547
  20956533.540   110127357.98508  20956535.840    85813547.90948
  21889461.280   115029921.05608  21889462.340    89633724.63647
  22931761.100   120507227.25407  22931762.900    93901748.92746
  24075856.020   126519483.06806  24075859.000    98586616.73045
  24833903.260   130503088.46705  24833903.980   101690736.93442
  20416971.700   107291945.14309  20416971.300    83604122.24249
  21776926.580   114438570.12308  21776926.020    89172931.24148
  20731289.680   108943691.64109  20731293.540    84891214.80349
  21099456.260   110878422.43108  21099458.960    86398806.47348
 15 02 18 04 21  0.0000000  0 10G01G04G11G14G16G18G19G22G27G32
  23012257.500   120930249.60606  23012263.040    94231383.68346
  20948731.680   110086359.16008  20948734.000    85781600.79348
  21875777.700   114958013.42408  21875778.760    89577692.74047
  22922780.740   120460035.09707  22922782.640    93864975.83246
  24096099.920   126625864.63906  24096102.660    98669511.43145
  24851435.800   130595223.21005  24851436.720   101762530.22842
  20415527.620   107284356.41009  20415527.220    83598208.95049
  21789972.720   114507127.97508  21789972.160    89226352.94448
  20739811.460   108988474.07509  20739815.380    84926110.20549
  21085562.300   110805409.60408  21085565.060    86341913.40248
