     2.11           OBSERVATION DATA    G                   RINEX VERSION / TYPE
SPIDER V4,0,0,3554                      2015 03 24 06:04    PGM / RUN BY / DATE 
CNAJ                                                        MARKER NAME         
CNAJ                                                        MARKER NUMBER       
                                                            OBSERVER / AGENCY   
496642              LEICA GRX1200+GNSS  8.10/4.007          REC # / TYPE / VERS 
10321018            LEIAR25         NONE                    ANT # / TYPE        
  5206098.7325   612081.0247  3621806.3029                  APPROX POSITION XYZ 
        0.0720        0.0000        0.0000                  ANTENNA: DELTA H/E/N
     1     1                                                WAVELENGTH FACT L1/2
     4    C1    L1    P2    L2                              # / TYPES OF OBSERV 
    30.000                                                  INTERVAL            
  2015    01    16    00    00    0.0000000     GPS         TIME OF FIRST OBS   
  2015    01    16    23    59   30.0000000     GPS         TIME OF LAST OBS    
    16                                                      LEAP SECONDS        
    30                                                      # OF SATELLITES     
   G 1   814   814   814   814                              PRN / # OF OBS      
   G 2   942   942   942   942                              PRN / # OF OBS      
   G 3   848   848   848   848                              PRN / # OF OBS      
   G 4   842   842   842   842                              PRN / # OF OBS      
   G 5   652   652   652   652                              PRN / # OF OBS      
   G 6   804   804   797   797                              PRN / # OF OBS      
   G 7   668   668   668   668                              PRN / # OF OBS      
   G 9   812   812   812   812                              PRN / # OF OBS      
   G10   761   759   759   759                              PRN / # OF OBS      
   G11   781   781   781   781                              PRN / # OF OBS      
   G12   842   842   840   840                              PRN / # OF OBS      
   G13   800   800   800   800                              PRN / # OF OBS      
   G14   947   947   947   947                              PRN / # OF OBS      
   G15   705   705   702   702                              PRN / # OF OBS      
   G16   664   664   664   664                              PRN / # OF OBS      
   G17   938   938   937   937                              PRN / # OF OBS      
   G18   901   900   897   896                              PRN / # OF OBS      
   G19   758   758   757   757                              PRN / # OF OBS      
   G20   847   847   846   846                              PRN / # OF OBS      
   G21   744   744   741   741                              PRN / # OF OBS      
   G22   655   655   655   655                              PRN / # OF OBS      
   G23   755   755   751   751                              PRN / # OF OBS      
   G24   837   837   837   837                              PRN / # OF OBS      
   G25   863   863   863   863                              PRN / # OF OBS      
   G27   802   802   802   802                              PRN / # OF OBS      
   G28   866   866   862   862                              PRN / # OF OBS      
   G29   786   786   780   780                              PRN / # OF OBS      
   G30   709   709   707   707                              PRN / # OF OBS      
   G31   849   849   847   847                              PRN / # OF OBS      
   G32   774   772   765   765                              PRN / # OF OBS      
BIT 2 OF LLI FLAGS DATA COLLECTED UNDER A/S CONDITION       COMMENT             
SNR is mapped to RINEX snr flag value [2-9]                 COMMENT             
Lx:     = 25dBHz -> 1; 26-27dBHz -> 2; 28-31dBHz -> 3       COMMENT             
       32-35dBHz -> 4; 36-38dBHz -> 5; 39-41dBHz -> 6       COMMENT             
       42-44dBHz -> 7; 45-48dBHz -> 8; >=49dBHz -> 9        COMMENT             
                                                            END OF HEADER       
 15 01 16 00 00  0.0000000  0  8G02G12G14G21G24G25G29G31
  23965644.440   125940334.59208  23965638.940    98135312.15645
  22890063.580   120288296.28607  22890064.120    93731249.54946
  23071695.660   121242593.00806  23071694.780    94474719.35145
  23507247.420   123531507.93907  23507247.960    96258298.78245
  24488247.880   128686668.84907  24488251.600   100275342.46744
  20803861.080   109325088.16009  20803861.240    85188408.41848
  20112173.660   105690285.67408  20112170.800    82356099.35848
  21896193.320   115065270.39809  21896186.020    89661254.11446
 15 01 16 00 00 30.0000000  0  8G02G12G14G21G24G25G29G31
  23978368.080   126007197.98207  23978362.760    98187413.49045
  22902076.900   120351422.14008  22902077.080    93780438.48546
  23084382.840   121309267.39506  23084382.660    94526673.36245
  23489648.920   123439027.16607  23489649.320    96186236.09245
  24508909.100   128795242.76708  24508912.320   100359945.26343
  20806998.260   109341573.89709  20806998.320    85201254.44348
  20114500.620   105702517.54708  20114498.240    82365630.70248
  21883237.820   114997187.54009  21883230.600    89608202.52846
 15 01 16 00 01  0.0000000  0  8G02G12G14G21G24G25G29G31
  23991159.400   126074417.98107  23991154.420    98239792.70045
  22914115.820   120414681.73108  22914115.220    93829731.67946
  23097125.340   121376233.02406  23097125.800    94578854.36944
  23472076.020   123346681.02107  23472076.080    96114278.27845
  24529589.440   128903916.03008  24529591.260   100444625.50943
  20810179.620   109358292.22509  20810179.620    85214281.69148
  20116905.200   105715156.90808  20116903.220    82375479.54248
  21870351.020   114929466.16609  21870344.180    89555432.61046
 15 01 16 00 01 30.0000000  0  8G02G12G14G21G24G25G29G31
  24004017.380   126141988.16507  24004012.720    98292444.76346
  22926179.020   120478070.28108  22926177.920    93879125.33047
  23109922.180   121443482.16407  23109923.000    94631256.27744
  23454528.300   123254467.63507  23454528.260    96042423.93745
  24550287.620   129012682.90508  24550288.900   100529378.71344
  20813404.380   109375238.91609  20813404.320    85227486.89448
  20119386.720   105728198.09808  20119384.660    82385641.50348
  21857532.360   114862103.95809  21857526.020    89502942.58646
 15 01 16 00 02  0.0000000  0  8G02G12G14G21G24G25G29G31
  24016942.400   126209910.86507  24016938.300    98345371.55645
  22938267.740   120541592.66908  22938265.940    93928623.30546
  23122773.740   121511016.75907  23122774.040    94683880.60944
  23437006.960   123162393.63807  23437006.760    95970678.15444
  24571003.900   129121545.54408  24571005.600   100614206.47645
  20816673.540   109392418.83509  20816673.440    85240873.82448
  20121945.680   105741643.78208  20121943.180    82396118.66548
  21844783.120   114795107.46909  21844777.500    89450737.55646
 15 01 16 00 02 30.0000000  0  8G02G12G14G21G24G25G29G31
  24029932.740   126278176.40007  24029929.220    98398565.48445
  22950380.240   120605241.59608  22950377.980    93978219.85146
  23135677.700   121578825.92407  23135677.000    94736718.93243
  23419510.940   123070453.70006  23419510.300    95899036.83043
  24591736.440   129230494.17408  24591738.680   100699101.22244
  20819985.740   109409824.85609  20819985.660    85254436.96048
  20124580.000   105755484.83608  20124577.000    82406903.90448
  21832102.440   114728471.25209  21832097.460    89398813.27046
 15 01 16 00 03  0.0000000  0  8G02G12G14G21G24G25G29G31
  24042989.460   126346790.56608  24042986.320    98452031.06745
  22962518.020   120669024.28108  22962515.460    94027920.66347
  23148634.980   121646914.15207  23148633.400    94789774.68044
  23402042.380   122978658.06006  23402041.840    95827507.94844
  24612486.220   129339533.72708  24612488.700   100784066.79844
  20823342.640   109427465.11109  20823342.500    85268182.61248
  20127290.840   105769728.08108  20127287.400    82418002.53348
  21819492.340   114662205.91909  21819487.820    89347177.97247
 15 01 16 00 03 30.0000000  0  8G02G12G14G21G24G25G29G31
  24056111.260   126415746.40008  24056108.320    98505762.89645
  22974680.160   120732936.20408  22974677.440    94077722.15346
  23161643.940   121715273.76807  23161641.700    94843041.89544
  23384600.820   122887004.21907  23384600.580    95756089.55344
  24633251.960   129448657.77907  24633254.640   100869098.27045
  20826743.340   109445335.26609  20826743.180    85282107.40848
  20130076.720   105784366.69208  20130073.020    82429409.25448
  21806952.280   114596308.21609  21806947.920    89295829.13546
 15 01 16 00 04  0.0000000  0  8G02G12G14G21G24G25G29G31
  24069298.220   126485044.70808  24069295.280    98559761.58844
  22986867.260   120796979.66008  22986864.320    94127626.11446
  23174704.460   121783904.44208  23174701.620    94896520.33444
  23367187.320   122795497.21207  23367187.220    95684785.56844
  24654033.920   129557867.17207  24654036.880   100954196.16545
  20830188.400   109463438.44309  20830188.140    85296213.76148
  20132937.820   105799401.66908  20132934.220    82441124.81748
  21794483.280   114530783.29909  21794478.820    89244770.77146
 15 01 16 00 04 30.0000000  0  8G02G12G14G21G24G25G29G31
  24082549.080   126554678.58107  24082546.000    98614021.76545
  22999078.640   120861150.45908  22999075.320    94177629.31645
  23187814.960   121852798.02508  23187811.860    94950203.61744
  23349801.480   122704134.28707  23349800.900    95613593.82244
  24674830.800   129667154.05808  24674833.920   101039354.52644
  20833676.960   109481770.08809  20833676.520    85310498.14448
  20135872.840   105814826.33108  20135869.720    82453144.04248
  21782084.700   114465628.31409  21782080.040    89194000.64246
 15 01 16 00 05  0.0000000  0  8G02G12G14G21G24G25G29G31
  24095864.740   126624653.49307  24095861.660    98668547.66545
  23011315.700   120925456.45408  23011311.840    94227737.85545
  23200976.260   121921958.83507  23200972.700    95004095.20243
  23332445.000   122612925.56307  23332443.980    95542522.25544
  24695643.740   129776524.39708  24695646.640   101124577.88245
  20837210.540   109500338.25409  20837210.020    85324966.83848
  20138883.100   105830646.93008  20138880.600    82465471.76848
  21769758.500   114400853.10709  21769753.200    89143526.46546
 15 01 16 00 05 30.0000000  0  8G02G12G14G21G24G25G29G31
  24109244.040   126694962.42007  24109240.900    98723333.83845
  23023577.560   120989892.14608  23023573.300    94277947.48945
  23214186.740   121991378.74408  23214182.760    95058188.60944
  23315117.200   122521868.11607  23315115.940    95471568.53744
  24716471.120   129885970.58708  24716473.560   101209860.37244
  20840788.200   109519138.32509  20840787.660    85339616.23648
  20141967.480   105846856.84708  20141965.600    82478102.85748
  21757504.040   114336454.79909  21757498.060    89093345.96046
 15 01 16 00 06  0.0000000  0  8G02G12G14G21G24G25G29G31
  24122686.560   126765602.60707  24122683.140    98778378.14145
  23035864.020   121054457.49108  23035859.640    94328258.11845
  23227445.720   122061054.01907  23227441.380    95112481.04844
  23297818.480   122430963.82207  23297816.900    95400734.18244
  24737312.340   129995490.06408  24737313.880   101295200.04343
  20844409.820   109538169.92409  20844409.380    85354446.05248
  20145125.620   105863453.93008  20145124.120    82491035.65748
  21745321.660   114272435.37709  21745315.160    89043460.70646
 15 01 16 00 06 30.0000000  0  8G02G12G14G21G24G25G29G31
  24136193.100   126836578.51108  24136189.360    98833684.03245
  23048176.480   121119159.15608  23048171.780    94378675.02145
  23240753.720   122130988.58807  23240749.620    95166975.48044
  23280550.560   122340221.68607  23280549.220    95330026.18544
  24758168.180   130105086.95308  24758169.100   101380600.16143
  20848076.880   109557440.35709  20848076.520    85369461.95948
  20148358.460   105880443.35208  20148357.200    82504274.17648
  21733212.880   114208803.21109  21733206.060    88993877.20046
 15 01 16 00 07  0.0000000  0  8G02G12G14G21G24G25G29G31
  24149761.900   126907881.24908  24149757.800    98889244.60844
  23060513.260   121183989.90808  23060508.720    94429192.47644
  23254109.040   122201172.09407  23254105.340    95221663.94244
  23263312.860   122249637.40707  23263311.460    95259441.17544
  24779037.080   130214752.88808  24779038.420   101466053.94043
  20851788.120   109576943.17309  20851787.840    85384658.95348
  20151664.140   105897816.55508  20151663.240    82517811.74148
  21721176.840   114145553.99309  21721169.800    88944592.08946
 15 01 16 00 07 30.0000000  0  7G02G12G14G21G25G29G31
  24163393.720   126979515.77807  24163389.280    98945063.69044
  23072876.060   121248957.19408  23072871.600    94479816.29844
  23267512.500   122271608.73707  23267509.180    95276549.59144
  23246107.080   122159220.22607  23246105.780    95188986.36845
  20855544.960   109596685.79809  20855544.800    85400042.78748
  20155043.660   105915578.90308  20155043.180    82531652.51348
  21709215.200   114082696.83809  21709208.260    88895612.47546
 15 01 16 00 08  0.0000000  0  7G02G12G14G21G25G29G31
  24177087.420   127051476.06607  24177082.620    99001136.61744
  23085264.100   121314057.03908  23085259.760    94530543.47844
  23280962.560   122342291.34706  23280959.940    95331626.98744
  23228932.900   122068968.37908  23228931.520    95118660.40045
  20859346.740   109616664.71709  20859346.740    85415610.77448
  20158496.240   105933724.75108  20158496.020    82545792.13748
  21697327.620   114020229.72709  21697321.120    88846936.81046
 15 01 16 00 08 30.0000000  0  7G02G12G14G21G25G29G31
  24190843.020   127123762.14007  24190837.780    99057463.41844
  23097677.820   121379291.51208  23097673.600    94581375.54044
  23294458.840   122413218.78906  23294457.340    95386895.04645
  23211791.040   121978886.27708  23211789.600    95048466.69045
  20863194.020   109636882.53609  20863194.080    85431364.91148
  20162022.080   105952254.08708  20162021.980    82560230.58548
  21685515.160   113958156.94309  21685509.200    88798568.39146
 15 01 16 00 09  0.0000000  0  7G02G12G14G21G25G29G31
  24204660.680   127196374.81907  24204654.940    99114044.70444
  23110117.760   121444663.19708  23110113.440    94632314.53344
  23308000.820   122484390.68305  23308001.320    95442353.53944
  23194682.340   121888979.18608  23194680.940    94978409.34344
  20867087.440   109657342.55709  20867087.460    85447307.76648
  20165621.700   105971169.17708  20165621.380    82574969.61048
  21673778.940   113896483.56309  21673773.600    88750511.21646
 15 01 16 00 09 30.0000000  0  7G02G12G14G21G25G29G31
  24218534.800   127269284.17707  24218528.900    99170857.20144
  23122578.540   121510145.08208  23122574.540    94683339.39944
  23321586.480   122555764.39305  23321586.080    95497998.69345
  23177602.080   121799221.55408  23177600.660    94908468.44245
  20871021.720   109678017.16509  20871021.600    85463417.84747
  20169289.240   105990440.04408  20169288.480    82589985.86848
  21662114.120   113835183.94509  21662109.440    88702745.28347
 15 01 16 00 10  0.0000000  0  7G02G12G14G21G25G29G31
  24232475.920   127342545.38107  24232470.180    99227943.84145
  23135071.060   121575794.25708  23135067.600    94734494.60845
  23335221.960   122627417.68706  23335221.520    95553832.41945
  23160561.460   121709672.75408  23160559.960    94838690.26744
  20875007.780   109698964.23509  20875007.420    85479740.23447
  20173035.160   106010122.27808  20173033.900    82605322.65748
  21650531.980   113774317.77209  21650527.820    88655317.09947
 15 01 16 00 10 30.0000000  0  7G02G12G14G21G25G29G31
  24246472.340   127416097.19607  24246466.880    99285256.91045
  23147584.320   121641552.21808  23147581.420    94785734.53545
  23348897.240   122699276.93707  23348895.880    95609826.55744
  23143549.800   121620276.68208  23143547.920    94769031.08044
  20879034.620   109720125.46709  20879034.020    85496229.48147
  20176847.900   106030155.24509  20176846.180    82620932.74748
  21639021.620   113713828.43609  21639017.820    88608182.54547
 15 01 16 00 11  0.0000000  0  7G02G12G14G21G25G29G31
  24260528.880   127489964.79407  24260523.700    99342816.06945
  23160123.200   121707445.73108  23160120.280    94837080.10545
  23362616.140   122771365.74507  23362614.060    95665999.68144
  23126572.880   121531062.75908  23126570.360    94699513.79743
  20883107.480   109741528.44109  20883106.780    85512907.11347
  20180732.240   106050564.59409  20180730.120    82636836.13648
  21627588.400   113653744.80609  21627584.860    88561364.14548
 15 01 16 00 11 30.0000000  0  7G02G12G14G21G25G29G31
  24274645.340   127564147.74907  24274640.680    99400620.94544
  23172688.360   121773477.10408  23172685.460    94888533.15445
  23376378.160   122843683.03307  23376375.380    95722350.78845
  23109631.220   121442034.71508  23109628.340    94630141.38744
  20887226.720   109763175.26909  20887226.020    85529774.75147
  20184688.200   106071350.62709  20184685.740    82653033.05348
  21616233.040   113594070.70709  21616229.580    88514864.84748
 15 01 16 00 12  0.0000000  0  7G02G12G14G21G25G29G31
  24288821.200   127638643.22607  24288816.960    99458669.34445
  23185279.420   121839645.22108  23185276.960    94940092.63745
  23390182.520   122916224.49707  23390179.560    95778876.58546
  23092725.420   121353194.48808  23092722.280    94560915.28644
  20891392.260   109785065.55609  20891391.560    85546832.09647
  20188715.180   106092510.50809  20188712.460    82669521.26848
  21604955.740   113534807.69909  21604952.380    88468685.87548
 15 01 16 00 12 30.0000000  0  7G02G12G14G21G25G29G31
  24303055.320   127713445.38207  24303051.200    99516956.69845
  23197896.040   121905946.37708  23197893.560    94991755.86645
  23404028.220   122988983.66308  23404025.260    95835571.99745
  23075854.900   121264540.24007  23075851.960    94491834.16244
  20895603.560   109807195.97409  20895602.740    85564076.57847
  20192812.160   106114039.18809  20192809.260    82686296.85448
  21593756.260   113475953.99809  21593752.960    88422825.84248
 15 01 16 00 13  0.0000000  0  7G02G12G14G21G25G29G31
  24317347.740   127788553.57307  24317343.720    99575482.56744
  23210538.260   121972382.20108  23210535.740    95043524.03445
  23417914.960   123061958.91907  23417912.180    95892435.82745
  23059020.640   121176076.02208  23059017.860    94422901.10745
  20899861.000   109829568.80109  20899860.020    85581509.96647
  20196979.180   106135936.45509  20196976.100    82703359.65448
  21582635.360   113417513.47309  21582632.120    88377287.77948
 15 01 16 00 13 30.0000000  0  7G02G12G14G21G25G29G31
  24331697.360   127863961.93907  24331693.220    99634242.34744
  23223205.660   122038949.07508  23223203.060    95095394.29545
  23431841.460   123135143.36007  23431838.760    95949462.64545
  23042222.340   121087800.58608  23042219.700    94354115.14745
  20904163.840   109852180.58809  20904162.960    85599129.53047
  20201215.120   106158196.69409  20201211.900    82720705.28648
  21571592.780   113359484.60009  21571589.580    88332070.48148
 15 01 16 00 14  0.0000000  0  7G02G12G14G21G25G29G31
  24346104.460   127939672.35707  24346100.340    99693237.48845
  23235898.620   122105651.61907  23235896.100    95147370.23845
  23445807.900   123208537.86307  23445805.100    96006653.14245
  23025461.220   120999720.35808  23025458.580    94285481.29145
  20908513.020   109875035.93309  20908512.300    85616938.88647
  20205520.460   106180822.35109  20205517.160    82738335.67748
  21560629.680   113301873.36709  21560626.440    88287178.62248
 15 01 16 00 14 30.0000000  0  7G02G12G14G21G25G29G31
  24360568.640   128015682.64107  24360564.520    99752466.27445
  23248617.340   122172489.21407  23248614.400    95199451.44245
  23459813.640   123282138.98307  23459810.800    96064004.65645
  23008737.460   120911837.00008  23008734.860    94217000.83245
  20912908.500   109898134.91409  20912908.000    85634938.07147
  20209895.020   106203811.82609  20209891.560    82756249.55948
  21549746.360   113244681.44209  21549743.120    88242613.49048
 15 01 16 00 15  0.0000000  0  7G02G12G14G21G25G29G31
  24375088.920   128091987.85507  24375084.980    99811924.86144
  23261361.280   122239459.78007  23261357.900    95251636.31545
  23473857.680   123355940.95107  23473854.440    96121512.66744
  22992051.180   120824150.40608  22992048.580    94148673.70644
  20917350.020   109921475.52709  20917349.660    85653125.55647
  20214337.920   106227160.24009  20214334.360    82774443.13348
  21538942.760   113187908.53209  21538939.440    88198374.87948
 15 01 16 00 15 30.0000000  0  7G02G12G14G21G25G29G31
  24389665.560   128168589.48007  24389661.580    99871614.40345
  23274131.360   122306566.72307  23274127.980    95303927.41444
  23487940.060   123429944.28607  23487936.640    96179177.57343
  22975403.420   120736666.62208  22975400.700    94080504.61044
  20921838.300   109945061.86809  20921838.020    85671504.51547
  20218849.540   106250870.14009  20218845.960    82792918.39048
  21528219.980   113131560.28009  21528216.480    88154467.16248
 15 01 16 00 16  0.0000000  0  7G02G12G14G21G25G29G31
  24404297.900   128245482.84607  24404293.920    99931531.30444
  23286926.800   122373807.67907  23286923.340    95356322.91144
  23502059.640   123504143.62106  23502055.680    96236995.23444
  22958794.180   120649385.53308  22958791.460    94012493.45244
  20926372.880   109968891.99909  20926372.680    85690073.43947
  20223429.180   106274937.49809  20223425.740    82811672.18248
  21517578.000   113075636.47609  21517574.180    88110890.18947
 15 01 16 00 16 30.0000000  0  7G02G12G14G21G25G29G31
  24418985.700   128322666.94107  24418981.460    99991674.73844
  23299748.060   122441183.56008  23299743.640    95408823.63543
  23516215.780   123578536.41006  23516211.280    96294963.64742
  22942224.140   120562310.32908  22942221.300    93944642.70945
  20930954.160   109992967.24209  20930953.940    85708833.35947
  20228076.660   106299361.08009  20228073.400    82830703.52948
  21507017.460   113020140.21709  21507013.080    88067646.33647
 15 01 16 00 17  0.0000000  0  7G02G12G14G21G25G29G31
  24433728.560   128400140.46807  24433723.740   100052043.72644
  23312595.240   122508695.78907  23312590.440    95461430.56344
  23530408.200   123653120.45806  23530403.600    96353081.09241
  22925693.940   120475443.97808  22925690.620    93876954.73344
  20935582.400   110017288.96809  20935582.100    85727785.35347
  20232791.940   106324140.42209  20232788.840    82850012.11448
  21496538.860   112965074.10309  21496533.780    88024737.67647
 15 01 16 00 17 30.0000000  0  7G02G12G14G21G25G29G31
  24448526.460   128477902.73607  24448520.880   100112637.68144
  23325468.640   122576345.66308  23325463.520    95514144.73844
  23544636.460   123727894.21605  23544633.620    96411346.42343
  22909204.360   120388790.49708  22909200.480    93809432.57844
  20940257.920   110041859.09909  20940257.600    85746930.90247
  20237574.980   106349275.08009  20237571.940    82869597.56248
  21486142.800   112910441.77709  21486136.980    87982167.02047
 15 01 16 00 18  0.0000000  0  7G02G12G14G21G25G29G31
  24463377.980   128555946.68107  24463371.560   100173451.13444
  23338367.500   122644128.09808  23338361.860    95566962.25244
  23558899.180   123802849.68505  23558897.500    96469753.25544
  22892754.880   120302347.38908  22892750.720    93742074.35744
  20944979.900   110066673.34509  20944979.580    85766266.66147
  20242424.440   106374758.49709  20242421.480    82889454.77648
  21475828.740   112856240.43509  21475822.360    87939932.18547
 15 01 16 00 18 30.0000000  0  7G02G12G14G21G25G29G31
  24478283.500   128634274.17007  24478276.040   100234485.51543
  23351292.180   122712047.27708  23351286.140    95619886.26944
  23573196.720   123877987.90305  23573196.240    96528302.47944
  22876346.800   120216120.94108  22876342.340    93674884.95845
  20949749.120   110091736.21209  20949748.780    85785796.14847
  20247340.600   106400592.94509  20247337.820    82909585.52548
  21465597.860   112802476.34309  21465591.180    87898038.06947
 15 01 16 00 19  0.0000000  0  7G02G12G14G21G25G29G31
  24493241.840   128712879.08507  24493233.580   100295736.07743
  23364242.320   122780099.80508  23364235.440    95672914.24243
  23587527.860   123953301.87605  23587528.360    96586988.64745
  22859979.500   120130109.63708  22859975.220    93607863.24645
  20954565.140   110117044.53409  20954564.580    85805516.90647
  20252322.520   106426773.58209  20252319.980    82929986.02148
  21455449.840   112749147.84109  21455443.120    87856483.38047
 15 01 16 00 19 30.0000000  0  7G02G12G14G21G25G29G31
  24508253.160   128791762.34107  24508244.140   100357203.57443
  23377218.260   122848288.75408  23377211.440    95726048.49044
  23601892.840   124028791.04405  23601893.700    96645811.31445
  22843653.980   120044318.36108  22843650.180    93541012.96445
  20959428.640   110142601.30309  20959427.560    85825431.26947
  20257370.360   106453300.98509  20257368.040    82950656.73548
  21445385.520   112696259.42409  21445379.040    87815271.61947
 15 01 16 00 20  0.0000000  0  7G02G12G14G21G25G29G31
  24523316.820   128870920.91307  24523307.620   100418885.55043
  23390219.980   122916613.64008  23390213.700    95779288.64244
  23616290.900   124104452.06705  23616291.720    96704767.94345
  22827370.640   119958748.92908  22827367.360    93474335.56545
  20964339.520   110168406.67009  20964337.900    85845539.33547
  20262483.780   106480172.93509  20262481.520    82971595.90948
  21435405.220   112643812.64109  21435399.100    87774403.97947
 15 01 16 00 20 30.0000000  0  7G02G12G14G21G25G29G31
  24538432.100   128950351.42607  24538422.880   100480779.46044
  23403247.280   122985072.75308  23403241.320    95832633.38944
  23630721.080   124180280.11707  23630721.200    96763854.62644
  22811129.660   119873402.37608  22811126.820    93407831.82745
  20969297.540   110194459.76909  20969295.540    85865840.44747
  20267662.160   106507386.40209  20267659.880    82992801.21348
  21425509.060   112591808.29309  21425503.400    87733881.10847
 15 01 16 00 21  0.0000000  0  7G02G12G14G21G25G29G31
  24553599.320   129030055.51606  24553590.860   100542886.57044
  23416300.680   123053670.07308  23416295.060    95886085.81045
  23645183.280   124256276.26406  23645182.720    96823072.38544
  22794932.280   119788284.79008  22794929.780    93341506.52045
  20974303.400   110220764.77909  20974301.160    85886337.86247
  20272905.960   106534943.60509  20272903.560    83014274.37348
  21415698.120   112540251.96709  21415692.960    87693707.34847
 15 01 16 00 21 30.0000000  0  7G02G12G14G21G25G29G31
  24568817.540   129110027.28906  24568809.620   100605202.17444
  23429379.920   123122402.26908  23429374.980    95939643.35545
  23659676.100   124332433.53606  23659674.880    96882415.66445
  22778778.240   119703394.55908  22778775.860    93275358.36345
  20979356.540   110247318.41609  20979354.320    85907029.00547
  20278214.200   106562838.82309  20278211.660    83036010.91948
  21405972.040   112489141.88409  21405967.360    87653881.31748
 15 01 16 00 22  0.0000000  0  7G02G12G14G21G25G29G31
  24584086.960   129190267.81607  24584079.400   100667727.21444
  23442485.440   123191272.74808  23442481.040    95993308.59845
  23674199.520   124408751.78806  23674197.520    96941884.40045
  22762668.580   119618737.33208  22762665.840    93209391.74445
  20984457.700   110274124.62209  20984455.620    85927916.95247
  20283587.300   106591073.99709  20283584.620    83058012.35248
  21396331.900   112438483.61509  21396327.700    87614407.33248
 15 01 16 00 22 30.0000000  0  7G02G12G14G21G25G29G31
  24599406.320   129270771.00007  24599399.220   100730456.95644
  23455616.520   123260277.26008  23455612.560    96047078.33145
  23688752.440   124485224.14107  23688749.720    97001473.18344
  22746602.980   119534311.48608  22746599.660    93143605.40145
  20989606.220   110301179.91009  20989604.300    85948998.98647
  20289024.040   106619643.39509  20289021.380    83080274.22148
  21386777.320   112388274.96509  21386773.500    87575283.71848
 15 01 16 00 23  0.0000000  0  7G02G12G14G21G25G29G31
  24614776.420   129351541.75907  24614770.040   100793395.19844
  23468774.520   123329423.13508  23468770.900    96100958.20545
  23703335.320   124561854.55607  23703331.960    97061185.15944
  22730583.120   119450126.46908  22730579.340    93078006.72744
  20994803.560   110328491.89209  20994801.820    85970281.03448
  20294525.380   106648552.18809  20294522.760    83102800.55448
  21377310.120   112338525.14209  21377306.560    87536517.62648
 15 01 16 00 23 30.0000000  0  7G02G12G14G21G25G29G31
  24630195.660   129432571.71007  24630189.920   100856535.42944
  23481958.200   123398704.40308  23481955.000    96154943.58045
  23717946.300   124638633.49308  23717942.320    97121012.87444
  22714608.200   119366178.34108  22714604.080    93012592.65145
  21000048.660   110356054.74509  21000047.160    85991758.58448
  20300089.660   106677792.80609  20300087.220    83125585.46148
  21367929.420   112289229.60909  21367925.980    87498105.54348
 15 01 16 00 24  0.0000000  0  7G02G12G14G21G25G29G31
  24645664.380   129513862.88707  24645659.480   100919879.18745
  23495168.560   123468125.19008  23495165.320    96209037.66145
  23732585.640   124715562.54307  23732581.300    97180957.61343
  22698679.340   119282473.29108  22698675.260    92947367.97344
  21005342.380   110383873.22109  21005341.080    86013435.31448
  20305717.420   106707367.39909  20305715.180    83148630.59948
  21358636.420   112240394.68309  21358633.040    87460052.36048
 15 01 16 00 24 30.0000000  0  7G02G12G14G21G25G29G31
  24661181.940   129595411.13107  24661178.020   100983423.28844
  23508405.100   123537683.74308  23508401.600    96263239.08144
  23747252.480   124792636.75307  23747247.900    97241015.40844
  22682796.880   119199012.07708  22682792.800    92882333.30445
  21010684.460   110411945.93109  21010683.380    86035310.13948
  20311408.080   106737272.40309  20311405.900    83171933.20348
  21349431.060   112192020.15009  21349427.640    87422357.92348
 15 01 16 00 25  0.0000000  0  7G02G12G14G21G25G29G31
  24676747.560   129677212.55306  24676744.600   101047164.66844
  23521667.780   123607378.36208  23521664.000    96317546.56845
  23761945.700   124869850.37407  23761941.280    97301181.85843
  22666960.940   119115794.64108  22666957.060    92817488.60845
  21016074.600   110440271.31009  21016073.700    86057381.85148
  20317161.120   106767504.47509  20317158.840    83195490.66048
  21340313.440   112144106.45009  21340309.920    87385022.57848
 15 01 16 00 25 30.0000000  0  7G02G12G14G21G25G29G31
  24692361.500   129759267.88006  24692359.680   101111103.87144
  23534957.180   123677212.22108  23534952.860    96371962.53845
  23776665.480   124947203.97607  23776661.620    97361457.35743
  22651172.540   119032826.33008  22651168.680    92752838.02245
  21021513.460   110468853.14109  21021512.760    86079653.38848
  20322976.840   106798065.13109  20322974.320    83219304.16448
  21331284.520   112096658.47209  21331280.840    87348050.13248
 15 01 16 00 26  0.0000000  0  7G02G12G14G21G25G29G31
  24708023.500   129841576.22906  24708022.820   101175240.21445
  23548273.280   123747186.56008  23548268.300    96426487.94644
  23791411.320   125024695.72507  23791408.320    97421840.50542
  22635432.360   118950110.83208  22635428.160    92688384.41945
  21027001.320   110497693.18509  21027000.800    86102126.13648
  20328855.060   106828953.91709  20328852.280    83243373.34248
  21322344.860   112049679.43209  21322341.120    87311443.07648
 15 01 16 00 26 30.0000000  0  7G02G12G14G21G25G29G31
  24723732.540   129924130.51606  24723732.840   101239568.24745
  23561615.280   123817296.76009  23561609.760    96481119.25845
  23806181.620   125102317.52005  23806179.280    97482324.96643
  22619739.780   118867645.57608  22619735.400    92624125.83145
  21032537.500   110526787.16909  21032537.120    86124796.76948
  20334794.320   106860163.90109  20334791.360    83267692.80648
  21313493.860   112003166.39609  21313490.240    87275199.16448
 15 01 16 00 27  0.0000000  0  7G02G12G14G21G25G29G31
  24739488.500   130006929.12307  24739488.940   101304086.63345
  23574983.120   123887543.26009  23574977.160    96535856.77045
  23820975.900   125180066.61105  23820973.660    97542908.72644
  22604095.300   118785433.24708  22604091.060    92560064.33645
  21038122.220   110556135.94809  21038121.940    86147665.92548
  20340794.300   106891693.54309  20340791.140    83292261.34648
  21304731.900   111957121.75709  21304728.580    87239320.22848
 15 01 16 00 27 30.0000000  0  7G02G12G14G21G25G29G31
  24755290.420   130089966.80007  24755290.320   101368791.34545
  23588376.060   123957922.74408  23588370.420    96590697.88645
  23835793.420   125257937.14505  23835791.180    97603587.00343
  22588498.700   118703472.86008  22588494.700    92496199.14445
  21043755.020   110585736.95409  21043754.840    86170731.64748
  20346854.240   106923538.96909  20346850.820    83317075.97248
  21296058.700   111911544.09609  21296055.740    87203805.18048
 15 01 16 00 28  0.0000000  0  7G02G12G14G21G25G29G31
  24771137.960   130173242.81107  24771136.940   101433681.74146
  23601794.560   124028437.07509  23601789.480    96645644.10344
  23850634.360   125335926.99806  23850632.540    97664358.27644
  22572950.580   118621768.01308  22572946.860    92432533.07244
  21049436.180   110615591.79309  21049436.000    86193995.13448
  20352974.020   106955699.41609  20352970.440    83342136.06048
  21287474.800   111866436.23209  21287472.060    87168656.20848
 15 01 16 00 28 30.0000000  0  7G02G12G14G21G25G29G31
  24787030.580   130256754.55208  24787028.140   101498755.83645
  23615238.580   124099086.56808  23615234.000    96700695.65644
  23865497.960   125414033.42307  23865496.740    97725220.34744
  22557451.600   118540321.02008  22557448.040    92369067.91245
  21055165.840   110645701.34909  21055165.700    86217457.10748
  20359153.400   106988173.18008  20359149.740    83367440.30548
  21278980.760   111821800.55209  21278978.020    87133875.16947
 15 01 16 00 29  0.0000000  0  7G02G12G14G21G25G29G31
  24802968.380   130340503.53507  24802964.620   101564014.76346
  23628708.720   124169873.68508  23628704.460    96755854.44945
  23880384.000   125492256.52808  23880382.920    97786173.31244
  22542002.860   118459137.28508  22541999.740    92305807.88145
  21060944.660   110676069.29209  21060944.600    86241120.42548
  20365392.660   107020961.61208  20365389.120    83392989.71548
  21270577.660   111777641.98709  21270574.680    87099465.89147
 15 01 16 00 29 30.0000000  0  6G12G14G21G25G29G31
  23642205.480   124240800.68408  23642201.620    96811122.21945
  23895291.840   125570594.73708  23895290.740    97847216.03344
  22526605.060   118378220.55408  22526602.220    92242755.91845
  21066773.060   110706697.47309  21066772.940    86264986.54248
  20371691.780   107054064.53609  20371688.460    83418784.19848
  21262266.040   111733963.81409  21262262.560    87065430.94347
 15 01 16 00 30  0.0000000  0  6G12G14G21G25G29G31
  23655730.180   124311876.13908  23655727.100    96866505.64045
  23910222.460   125649053.62508  23910221.200    97908352.78844
  22511260.240   118297581.74808  22511257.460    92179920.53446
  21072652.800   110737595.25009  21072652.520    86289062.74048
  20378052.060   107087489.34108  20378049.080    83444829.49048
  21254047.860   111690776.79209  21254043.680    87031778.71247
 15 01 16 00 30 30.0000000  0  6G12G14G21G25G29G31
  23669280.760   124383088.37608  23669278.600    96921995.64144
  23925172.960   125727618.03508  23925171.540    97969571.71644
  22495966.380   118217210.84908  22495963.340    92117293.88846
  21078581.540   110768750.91609  21078581.040    86313339.87248
  20384470.860   107121221.84508  20384468.160    83471114.54248
  21245921.160   111648070.64009  21245916.180    86998501.18147
 15 01 16 00 31  0.0000000  0  6G12G14G21G25G29G31
  23682857.360   124454435.84208  23682856.080    96977591.09445
  23940142.580   125806283.40907  23940141.140    98030869.33544
  22480723.740   118137108.94008  22480720.280    92054876.83645
  21084559.220   110800163.66509  21084558.280    86337817.33548
  20390947.800   107155259.36108  20390945.260    83497637.29048
  21237885.920   111605845.46909  21237880.400    86965598.42947
 15 01 16 00 31 30.0000000  0  6G12G14G21G25G29G31
  23696460.740   124525923.95508  23696460.120    97033296.07845
  23955131.780   125885052.16808  23955130.060    98092247.49743
  22465533.440   118057283.29108  22465529.720    91992675.05445
  21090586.860   110831839.30109  21090585.500    86362499.64648
  20397483.480   107189605.00908  20397480.880    83524400.14948
  21229943.580   111564108.45309  21229937.960    86933076.07947
 15 01 16 00 32  0.0000000  0  6G12G14G21G25G29G31
  23710089.680   124597546.00308  23710089.460    97089105.38245
  23970138.860   125963914.44907  23970136.400    98153698.61444
  22450394.760   117977729.40808  22450390.900    91930685.05945
  21096663.240   110863771.61809  21096661.700    86387381.95948
  20404076.420   107224251.03208  20404073.720    83551397.05448
  21222093.280   111522854.75609  21222087.740    86900930.33347
 15 01 16 00 32 30.0000000  0  6G12G14G21G25G29G31
  23723744.360   124669301.34408  23723743.740    97145018.62544
  23985163.220   126042866.51107  23985160.140    98215219.64544
  22435307.900   117898448.65608  22435304.320    91868907.90745
  21102788.320   110895960.35009  21102786.780    86412464.08848
  20410726.020   107259194.62708  20410723.340    83578625.84048
  21214335.100   111482085.22409  21214329.640    86869161.85247
 15 01 16 00 33  0.0000000  0  6G12G14G21G25G29G31
  23737425.080   124741193.23808  23737423.840    97201038.27845
  24000204.800   126121908.83707  24000201.200    98276810.97743
  22420274.000   117819446.81008  22420270.720    91807348.06145
  21108962.920   110928409.46109  21108961.680    86437749.08548
  20417432.580   107294437.64308  20417429.940    83606087.91848
  21206669.960   111441804.98809  21206664.620    86837774.65447
 15 01 16 00 33 30.0000000  0  6G12G14G21G25G29G31
  23751133.020   124813228.87308  23751131.080    97257169.91345
  24015264.160   126201044.98407  24015260.780    98338475.38243
  22405294.780   117740732.62908  22405291.880    91746012.34045
  21115188.580   110961126.22709  21115187.600    86463242.65448
  20424197.120   107329984.91808  20424194.540    83633787.08348
  21199099.440   111402022.67208  21199094.400    86806775.42847
 15 01 16 00 34  0.0000000  0  6G12G14G21G25G29G31
  23764867.080   124885401.39108  23764864.280    97313408.23244
  24030339.340   126280265.02707  24030336.480    98400205.17844
  22390369.380   117662300.89408  22390366.820    91684896.76245
  21121464.120   110994103.98609  21121463.180    86488939.60447
  20431018.000   107365827.87808  20431015.440    83661716.66248
  21191622.640   111362732.84008  21191618.000    86776159.95447
 15 01 16 00 34 30.0000000  0  6G12G14G21G25G29G31
  23778627.960   124957714.00008  23778624.440    97369755.73644
  24045430.300   126359569.50306  24045427.980    98462000.73244
  22375499.220   117584158.08808  22375496.420    91624006.27445
  21127790.300   111027347.03109  21127789.180    86514843.26647
  20437895.640   107401968.60708  20437893.000    83689878.26748
  21184240.600   111323940.80908  21184236.320    86745932.39747
 15 01 16 00 35  0.0000000  0  6G12G14G21G25G29G31
  23792416.620   125030172.99608  23792413.140    97426217.24945
  24060537.600   126438961.02906  24060536.260    98523864.09944
  22360685.620   117506311.79808  22360681.940    91563346.82344
  21134168.180   111060861.36109  21134166.740    86540958.31948
  20444830.520   107438410.72508  20444827.840    83718274.72048
  21176954.560   111285653.95308  21176950.840    86716098.47748
 15 01 16 00 35 30.0000000  0  6G12G14G21G25G29G31
  23806230.840   125102765.70408  23806227.680    97482782.96945
  24075658.680   126518424.62706  24075657.880    98585783.65144
  22345926.580   117428751.85208  22345922.160    91502910.51644
  21140595.460   111094635.46909  21140593.580    86567275.79748
  20451820.180   107475140.97708  20451817.500    83746895.67348
  21169762.580   111247862.06308  21169759.720    86686650.26448
 15 01 16 00 36  0.0000000  0  6G12G14G21G25G29G31
  23820071.460   125175496.67908  23820068.360    97539456.45045
  24090793.800   126597960.80607  24090793.340    98647759.76944
  22331223.320   117351484.53808  22331218.420    91442702.23145
  21147072.880   111128673.57109  21147070.760    86593798.99248
  20458865.100   107512161.17509  20458862.420    83775742.58948
  21162665.680   111210570.07508  21162663.680    86657591.59048
 15 01 16 00 36 30.0000000  0  6G12G14G21G25G29G31
  23833937.880   125248363.74808  23833934.700    97596235.96744
  24105942.060   126677564.71908  24105941.820    98709788.66343
  22316575.780   117274510.02308  22316570.780    91382722.09945
  21153600.120   111162974.48509  21153598.080    86620526.96748
  20465964.640   107549467.61809  20465961.680    83804812.53248
  21155664.140   111173778.19208  21155662.680    86628922.60048
 15 01 16 00 37  0.0000000  0  6G12G14G21G25G29G31
  23847830.620   125321369.67508  23847827.380    97653123.71345
  24121103.360   126757236.35908  24121102.720    98771870.40743
  22301984.880   117197832.76308  22301979.900    91322973.59245
  21160177.860   111197541.15509  21160176.040    86647462.02848
  20473118.940   107587061.56109  20473115.520    83834106.52648
  21148758.800   111137490.70308  21148757.540    86600646.64148
 15 01 16 00 37 30.0000000  0  6G12G14G21G25G29G31
  23861749.520   125394513.08108  23861746.320    97710118.56945
  24136276.740   126836971.15408  24136275.280    98834001.34543
  22287450.540   117121453.47408  22287445.740    91263457.29345
  21166806.120   111232372.78309  21166804.520    86674603.54048
  20480327.420   107624940.29309  20480323.500    83863622.42748
  21141949.560   111101707.71108  21141948.280    86572763.79948
 15 01 16 00 38  0.0000000  0  6G12G14G21G25G29G31
  23875694.100   125467792.24108  23875691.240    97767219.20145
  24151461.280   126916764.35908  24151457.580    98896177.87441
  22272972.800   117045372.62308  22272968.460    91204173.54245
  21173484.640   111267468.07009  21173483.200    86701950.51348
  20487589.120   107663099.56709  20487584.740    83893356.92948
  21135236.360   111066428.92108  21135234.980    86545273.85148
 15 01 16 00 38 30.0000000  0  6G12G14G21G25G29G31
  23889665.160   125541212.12108  23889662.700    97824429.49044
  24166657.160   126996617.77007  24166651.060    98958401.27541
  22258553.020   116969597.25308  22258549.320    91145127.82445
  21180214.380   111302832.36409  21180213.020    86729507.10848
  20494904.660   107701543.00509  20494899.960    83923312.85948
  21128620.420   111031660.82608  21128618.820    86518181.83548
 15 01 16 00 39  0.0000000  0  6G12G14G21G25G29G31
  23903662.280   125614769.93908  23903660.240    97881747.30645
  24181863.320   127076525.73207  24181857.480    99020667.13741
  22244190.940   116894126.72507  22244188.000    91086319.68645
  21186994.880   111338463.42809  21186993.600    86757271.56748
  20502273.380   107740266.29209  20502268.540    83953486.83848
  21122101.580   110997402.29108  21122099.640    86491486.87848
 15 01 16 00 39 30.0000000  0  6G12G14G21G25G29G31
  23917685.680   125688465.84008  23917684.200    97939172.66045
  24197079.280   127156485.43507  24197074.360    99082973.29741
  22229887.140   116818963.20607  22229884.920    91027750.76546
  21193826.200   111374361.72409  21193825.080    86785244.23648
  20509694.960   107779267.71809  20509690.320    83983877.55948
  21115680.180   110963655.13608  21115677.900    86465190.41148
 15 01 16 00 40  0.0000000  0  6G12G14G21G25G29G31
  23931735.200   125762297.84808  23931734.320    97996704.08745
  24212304.120   127236491.60207  24212300.240    99145315.57042
  22215641.920   116744106.52708  22215639.920    90969420.89845
  21200707.980   111410525.60409  21200707.040    86813423.86848
  20517168.780   107818543.42209  20517164.280    84014482.01048
  21109356.000   110930418.19808  21109353.300    86439291.49448
 15 01 16 00 40 30.0000000  0  6G12G14G21G25G29G31
  23945812.000   125836272.41207  23945811.460    98054346.57445
  24227538.460   127316547.79807  24227534.640    99207696.90543
  22201456.960   116669565.37508  22201454.960    90911336.94145
  21207641.620   111446962.06209  21207640.900    86841815.90448
  20524695.540   107858098.21308  20524691.400    84045303.92648
  21103130.460   110897700.00108  21103127.340    86413796.80748
 15 01 16 00 41  0.0000000  0  6G12G14G21G25G29G31
  23959915.460   125910387.06708  23959914.940    98112098.23944
  24242781.180   127396648.49906  24242777.740    99270112.86343
  22187332.120   116595339.25208  22187329.820    90853498.42245
  21214626.740   111483669.19909  21214626.240    86870418.84748
  20532274.220   107897927.71108  20532270.700    84076339.89647
  21097003.340   110865499.42109  21096999.860    86388705.44648
 15 01 16 00 41 30.0000000  0  6G12G14G21G25G29G31
  23974045.200   125984638.90308  23974044.600    98169956.83745
  24258031.260   127476787.84706  24258027.140    99332559.01143
  22173267.060   116521426.97608  22173264.500    90795904.44345
  21221662.840   111520644.37509  21221662.520    86899230.66448
  20539904.180   107938028.03808  20539901.600    84107586.88247
  21090974.400   110833814.73709  21090970.440    86364016.08448
 15 01 16 00 42  0.0000000  0  6G12G14G21G25G29G31
  23988205.680   126059052.10208  23988205.300    98227941.13845
  24273292.440   127556987.15906  24273285.300    99395048.84643
  22159266.940   116447854.94808  22159264.020    90738575.60445
  21228754.540   111557912.20709  21228754.400    86928270.53148
  20547590.260   107978421.29408  20547588.200    84139062.13447
  21085048.460   110802671.65209  21085044.100    86339748.74148
 15 01 16 00 42 30.0000000  0  6G12G14G21G25G29G31
  24002377.880   126133527.04008  24002377.500    98285973.54745
  24288545.240   127637143.59106  24288538.860    99457508.25042
  22145313.080   116374525.56808  22145309.940    90681435.82745
  21235883.040   111595373.61509  21235883.000    86957461.22948
  20555313.160   108019006.08808  20555311.100    84170686.67947
  21079206.840   110771972.17609  21079202.180    86315827.06148
 15 01 16 00 43  0.0000000  0  6G12G14G21G25G29G31
  24016590.080   126208211.78808  24016589.480    98344169.43845
  24303817.820   127717402.99406  24303813.120    99520047.86943
  22131434.160   116301589.33608  22131430.760    90624602.41845
  21243076.600   111633177.50708  21243076.720    86986918.78448
  20563100.600   108059929.45308  20563098.480    84202575.01447
  21073477.980   110741866.01509  21073473.040    86292367.68648
 15 01 16 00 43 30.0000000  0  6G12G14G21G25G29G31
  24030826.960   126283025.83108  24030825.980    98402466.09345
  24319094.220   127797680.82907  24319091.060    99582601.92343
  22117614.880   116228966.80308  22117611.220    90568013.44445
  21250319.960   111671243.01409  21250320.160    87016580.19148
  20570936.600   108101108.56308  20570934.660    84234662.63247
  21067846.580   110712273.23909  21067841.600    86269308.38448
 15 01 16 00 44  0.0000000  0  6G12G14G21G25G29G31
  24045090.480   126357980.42008  24045089.120    98460872.29745
  24334375.980   127877986.00307  24334374.040    99645177.25443
  22103857.820   116156671.82708  22103854.280    90511679.69246
  21257615.560   111709582.25209  21257615.880    87046454.90848
  20578823.160   108142552.92608  20578821.380    84266956.93247
  21062315.160   110683206.87809  21062310.400    86246659.26048
 15 01 16 00 44 30.0000000  0  6G12G14G21G25G29G31
  24059378.340   126433063.79908  24059376.900    98519378.83045
  24349660.220   127958303.67607  24349658.760    99707762.32943
  22090160.860   116084694.41508  22090157.600    90455593.44645
  21264961.220   111748183.69309  21264961.620    87076533.95948
  20586757.940   108184249.25408  20586756.060    84299447.57447
  21056881.820   110654656.51509  21056877.400    86224412.22147
 15 01 16 00 45  0.0000000  0  6G12G14G21G25G29G31
  24073692.660   126508286.85708  24073691.400    98577994.17545
  24364948.320   128038641.82207  24364947.100    99770363.33344
  22076526.620   116013047.24608  22076523.620    90399764.50646
  21272359.020   111787058.73809  21272359.460    87106826.19848
  20594742.860   108226206.96309  20594740.240    84332141.90847
  21051549.060   110626634.35109  21051544.900    86202576.76547
 15 01 16 00 45 30.0000000  0  6G12G14G21G25G29G31
  24088032.720   126583644.30008  24088031.440    98636714.23245
  24380238.780   128118992.45006  24380237.640    99832974.06844
  22062954.720   115941727.50208  22062951.840    90344190.70646
  21279808.000   111826202.85609  21279808.440    87137328.09048
  20602776.420   108268419.48309  20602772.780    84365034.80047
  21046316.300   110599136.92309  21046312.180    86181150.18247
 15 01 16 00 46  0.0000000  0  6G12G14G21G25G29G31
  24102399.320   126659140.02808  24102397.680    98695542.07645
  24395531.720   128199356.04406  24395530.480    99895594.88545
  22049446.320   115870740.31808  22049443.180    90288875.99046
  21287308.780   111865619.92309  21287309.160    87168042.67748
  20610858.560   108310887.87909  20610854.000    84398127.07947
  21041184.460   110572168.85109  21041180.160    86160136.09347
 15 01 16 00 46 30.0000000  0  5G12G21G25G29G31
  24116793.220   126734779.60907  24116791.340    98754482.05245
  22036002.900   115800093.70808  22035999.180    90233826.69645
  21294862.680   111905316.21909  21294863.020    87198974.83448
  20618990.080   108353617.34509  20618984.960    84431422.76447
  21036154.740   110545736.95809  21036150.180    86139539.79448
 15 01 16 00 47  0.0000000  0  5G12G21G25G29G31
  24131214.940   126810567.14206  24131213.260    98813537.24845
  22022625.300   115729793.53008  22022621.160    90179047.35945
  21302470.620   111945296.02209  21302470.980    87230127.91248
  20627171.240   108396609.75709  20627166.000    84464923.34747
  21031228.060   110519846.51509  21031223.160    86119365.41347
 15 01 16 00 47 30.0000000  0  5G12G21G25G29G31
  24145660.500   126886480.33607  24145659.220    98872690.35345
  22009309.420   115659819.42708  22009305.420    90124522.10545
  21310128.420   111985537.74109  21310128.820    87261485.09648
  20635397.720   108439841.59908  20635392.700    84498610.47047
  21026400.480   110494477.05609  21026395.260    86099596.98947
 15 01 16 00 48  0.0000000  0  6G12G14G21G25G29G31
  24160124.740   126962490.40108  24160123.740    98931918.99445
  24456718.320   128520933.72206  24456709.400   100146160.72043
  21996050.480   115590145.14808  21996046.820    90070230.48545
  21317830.620   112026013.39809  21317831.100    87293024.56548
  20643663.840   108483282.24709  20643659.240    84532460.33047
  21021666.740   110469601.39209  21021661.340    86080213.36147
 15 01 16 00 48 30.0000000  0  6G12G14G21G25G29G31
  24174624.120   127038684.65307  24174623.300    98991291.10545
  24472015.940   128601328.25306  24472007.240   100208805.74342
  21982865.600   115520859.20008  21982862.340    90016241.45546
  21325593.940   112066810.34609  21325594.500    87324814.36648
  20651986.200   108527017.88709  20651982.080    84566540.05748
  21017043.440   110445307.20009  21017038.100    86061282.81847
 15 01 16 00 49  0.0000000  0  6G12G14G21G25G29G31
  24189149.560   127115017.24006  24189149.000    99050770.97444
  24487312.540   128681718.38506  24487305.460   100271447.25943
  21969746.560   115451917.68308  21969743.380    89962520.78946
  21333409.640   112107882.59209  21333410.300    87356818.70548
  20660355.600   108571000.11409  20660351.920    84600811.94747
  21012522.060   110421549.50808  21012517.020    86042770.32247
 15 01 16 00 49 30.0000000  0  6G12G14G21G25G29G31
  24203701.400   127191489.75407  24203701.020    99110359.84844
  24502608.420   128762103.55606  24502603.260   100334084.96144
  21956694.020   115383324.44108  21956691.080    89909071.53346
  21341278.220   112149232.85009  21341278.960    87389039.67548
  20668772.000   108615228.99108  20668768.660    84635276.01347
  21008103.380   110398332.15208  21008098.880    86024678.87847
 15 01 16 00 50  0.0000000  0  6G12G14G21G25G29G31
  24218279.200   127268095.45408  24218278.380    99170052.67343
  24517901.720   128842474.11906  24517898.580   100396711.23243
  21943706.900   115315074.44908  21943703.920    89855889.73246
  21349198.520   112190854.78509  21349199.320    87421472.33048
  20677233.900   108659697.42208  20677230.980    84669926.74147
  21003786.420   110375649.34608  21003782.580    86007003.96447
 15 01 16 00 50 30.0000000  0  5G12G21G25G29G31
  24232886.520   127344855.27108  24232885.020    99229865.63644
  21930789.540   115247190.96508  21930786.480    89802993.52947
  21357174.720   112232770.18609  21357175.500    87454133.65848
  20685744.920   108704424.40008  20685742.480    84704778.91148
  20999575.360   110353523.26308  20999572.220    85989762.86547
 15 01 16 00 51  0.0000000  0  5G12G21G25G29G31
  24247515.640   127421730.06007  24247513.540    99289768.06945
  21917934.560   115179635.75808  21917931.180    89750353.11947
  21365199.320   112274939.47509  21365199.920    87486992.82848
  20694297.340   108749368.40108  20694295.300    84739800.20248
  20995463.080   110331915.31908  20995460.480    85972925.50247
 15 01 16 00 51 30.0000000  0  5G12G21G25G29G31
  24262169.980   127498740.60006  24262168.120    99349776.19044
  21905146.280   115112431.89208  21905142.580    89697986.48046
  21373276.440   112317384.09509  21373276.740    87520066.52948
  20702894.900   108794549.20408  20702893.160    84775006.01348
  20991453.900   110310847.68808  20991451.560    85956509.15148
 15 01 16 00 52  0.0000000  0  5G12G21G25G29G31
  24276851.740   127575895.70407  24276850.260    99409896.92945
  21892426.740   115045589.97708  21892422.900    89645901.88346
  21381407.760   112360113.42409  21381407.680    87553362.10648
  20711538.940   108839974.20408  20711537.480    84810402.11248
  20987549.720   110290330.58208  20987547.460    85940521.78147
 15 01 16 00 52 30.0000000  0  5G12G21G25G29G31
  24291557.420   127653173.40408  24291555.180    99470113.30944
  21879772.240   114979090.90308  21879768.360    89594084.43746
  21389589.240   112403106.37509  21389588.820    87586863.09548
  20720224.880   108885619.97808  20720223.660    84845970.22848
  20983746.480   110270343.19609  20983744.220    85924947.17548
 15 01 16 00 53  0.0000000  0  5G12G21G25G29G31
  24306289.580   127730589.21809  24306285.720    99530437.36243
  21867185.940   114912951.57908  21867182.200    89542547.32846
  21397823.880   112446378.78309  21397823.080    87620581.84848
  20728955.340   108931500.60508  20728954.320    84881721.37248
  20980047.300   110250902.11309  20980045.040    85909798.26748
 15 01 16 00 53 30.0000000  0  5G12G21G25G29G31
  24321047.660   127808141.45508  24321042.680    99590867.82043
  21854667.940   114847171.57508  21854664.260    89491290.19446
  21406111.260   112489928.86209  21406110.140    87654516.97748
  20737730.020   108977612.47208  20737729.100    84917652.67248
  20976451.940   110232006.52509  20976449.680    85895074.42348
 15 01 16 00 54  0.0000000  0  5G12G21G25G29G31
  24335832.520   127885835.48108  24335828.080    99651408.64444
  21842219.740   114781757.93108  21842216.020    89440318.54946
  21414452.500   112533762.42109  21414451.300    87688672.97648
  20746549.700   109023958.94408  20746548.600    84953766.81248
  20972961.500   110213662.53809  20972959.140    85880780.41248
 15 01 16 00 54 30.0000000  0  5G12G21G25G29G31
  24350644.200   127963672.66406  24350640.560    99712060.92745
  21829842.100   114716714.05008  21829838.500    89389635.01746
  21422848.100   112577881.44709  21422846.900    87723051.42048
  20755414.500   109070540.91308  20755412.920    84990064.46348
  20969576.460   110195872.91909  20969573.940    85866918.36148
 15 01 16 00 55  0.0000000  0  5G12G21G25G29G31
  24365482.260   128041649.03207  24365479.380    99772821.59445
  21817534.640   114652038.65008  21817531.240    89339238.62446
  21431297.420   112622282.99209  21431296.220    87757650.00147
  20764323.040   109117353.01908  20764321.060    85026541.43148
  20966296.340   110178635.15709  20966293.640    85853486.33548
 15 01 16 00 55 30.0000000  0  5G12G21G25G29G31
  24380346.580   128119761.07008  24380343.580    99833688.09045
  21805296.920   114587729.42308  21805293.920    89289127.56046
  21439799.680   112666963.13509  21439798.580    87792465.68548
  20773274.000   109164389.26008  20773271.820    85063193.04548
  20963120.620   110161946.07409  20963117.620    85840481.84848
 15 01 16 00 56  0.0000000  0  5G12G21G25G29G31
  24395232.720   128197986.76608  24395229.380    99894643.14944
  21793125.300   114523766.48708  21793122.440    89239286.33846
  21448350.820   112711900.59908  21448349.880    87827481.88247
  20782262.940   109211626.77608  20782260.820    85100001.49147
  20960045.440   110145785.03709  20960042.000    85827888.84048
 15 01 16 00 56 30.0000000  0  5G12G21G25G29G31
  24410146.880   128276359.79508  24410142.820    99955713.03843
  21781026.460   114460184.84808  21781023.240    89189742.21746
  21456957.380   112757129.55609  21456956.580    87862725.19147
  20791296.180   109259097.97908  20791294.280    85136992.02847
  20957077.280   110130186.42609  20957073.460    85815734.08148
 15 01 16 00 57  0.0000000  0  5G12G21G25G29G31
  24425087.380   128354871.23008  24425078.900   100016890.95841
  21768998.880   114396977.09508  21768995.000    89140489.41046
  21465617.860   112802641.46609  21465617.220    87898189.00347
  20800371.960   109306792.07108  20800370.000    85174156.25047
  20954214.660   110115142.58909  20954210.680    85804011.60648
 15 01 16 00 57 30.0000000  0  5G12G21G25G29G31
  24440053.860   128433519.29704                                
  21757042.480   114334143.81908  21757037.900    89091528.41546
  21474332.060   112848434.96009  21474331.480    87933872.22647
  20809489.800   109354706.07608  20809487.260    85211491.84846
  20951457.360   110100652.38109  20951453.420    85792720.53248
 15 01 16 00 58  0.0000000  0  5G12G21G25G29G31
  24455047.680   128512317.16207  24455045.000   100139306.97344
  21745160.060   114271700.04008  21745155.040    89042870.93546
  21483102.580   112894523.67309  21483101.940    87969785.50947
  20818651.700   109402851.76508  20818648.220    85249008.01146
  20948808.140   110086730.21309  20948804.360    85781872.09048
 15 01 16 00 58 30.0000000  0  5G12G21G25G29G31
  24470068.200   128591252.36408  24470066.280   100200814.88145
  21733349.600   114209635.07808  21733344.360    88994508.63646
  21491927.140   112940895.94209  21491926.340    88005919.73047
  20827854.960   109451215.50908  20827850.620    85286694.05146
  20946264.840   110073364.51609  20946261.220    85771457.26148
 15 01 16 00 59  0.0000000  0  5G12G21G25G29G31
  24485111.360   128670304.08509  24485109.740   100262413.60546
  21721607.560   114147930.14208  21721602.340    88946426.88746
  21500801.740   112987531.33709  21500800.800    88042258.97647
  20837095.300   109499775.12708  20837090.800    85324532.71846
  20943823.720   110060535.71309  20943820.240    85761460.78348
 15 01 16 00 59 30.0000000  0  5G12G21G25G29G31
  24500180.220   128749489.56908  24500178.480   100324116.56945
  21709937.340   114086603.37608  21709932.140    88898639.82446
  21509729.660   113034446.88809  21509728.660    88078816.55547
  20846375.720   109548545.44808  20846371.740    85362535.55846
  20941487.920   110048261.10609  20941484.620    85751896.16148
 15 01 16 01 00  0.0000000  0  5G12G21G25G29G31
  24515274.340   128828807.68208  24515272.300   100385922.84844
  21698339.180   114025655.98408  21698334.220    88851148.37246
  21518710.780   113081642.58209  21518709.860    88115592.40647
  20855696.200   109597525.12708  20855692.740    85400701.53747
  20939257.520   110036540.84309  20939254.440    85742763.47248
 15 01 16 01 00 30.0000000  0  5G12G21G25G29G31
  24530394.340   128908262.23604  24530392.140   100447835.42043
  21686814.260   113965093.33008  21686809.420    88803956.69945
  21527745.760   113129122.12209  21527745.000    88152589.43447
  20865057.000   109646716.16308  20865054.040    85439032.19947
  20937133.440   110025379.47909  20937130.560    85734066.30348
 15 01 16 01 01  0.0000000  0  5G12G21G25G29G31
  24545595.800   128987969.17206  24545595.700   100510131.75641
  21675420.060   113905216.83008  21675415.280    88757299.70946
  21536891.860   113177185.81609  21536891.200    88190041.65747
  20874514.860   109696416.78608  20874512.180    85477759.95847
  20935172.840   110015077.73309  20935170.120    85726038.96848
 15 01 16 01 01 30.0000000  0  5G12G21G25G29G31
  24560741.540   129067558.35208                                
  21664016.560   113845290.62608  21664011.760    88710603.96646
  21546008.900   113225096.57409  21546008.320    88227374.67847
  20883929.180   109745888.15708  20883926.560    85516309.05747
  20933235.520   110004898.61109  20933233.020    85718107.17548
 15 01 16 01 02  0.0000000  0  5G12G21G25G29G31
  24575905.940   129147246.09408  24575900.460   100634194.15143
  21652680.160   113785716.29608  21652675.440    88664182.40846
  21555173.180   113273254.89309  21555172.600    88264900.64347
  20893375.640   109795528.87808  20893373.120    85554990.13347
  20931397.880   109995243.06909  20931395.640    85710583.38048
 15 01 16 01 02 30.0000000  0  5G12G21G25G29G31
  24591126.880   129227231.66208  24591121.080   100696520.54744
  21641449.060   113726694.90909  21641444.140    88618191.71146
  21564422.600   113321860.27709  21564421.940    88302774.95047
  20902891.760   109845536.61508  20902889.540    85593957.18147
  20929698.180   109986311.06409  20929695.960    85703623.38348
 15 01 16 01 03  0.0000000  0  5G12G21G25G29G31
  24606373.520   129307353.04608  24606367.680   100758952.77744
  21630292.680   113668066.32809  21630287.620    88572507.09646
  21573726.460   113370751.34809  21573725.640    88340871.87047
  20912446.660   109895748.94708  20912444.860    85633083.65347
  20928105.800   109977941.61909  20928103.320    85697101.74348
 15 01 16 01 03 30.0000000  0  5G12G21G25G29G31
  24621647.420   129387618.25807  24621641.760   100821497.04944
  21619212.880   113609840.47209  21619207.720    88527136.30546
  21583086.320   113419936.66209  21583085.420    88379198.07248
  20922041.840   109946171.99708  20922040.280    85672374.31148
  20926622.180   109970143.24409  20926619.300    85691025.09148
 15 01 16 01 04  0.0000000  0  5G12G21G25G29G31
  24636947.820   129468026.54106  24636942.520   100884152.71644
  21608209.740   113552017.89008  21608204.560    88482079.74846
  21592502.020   113469415.64609  21592501.160    88417753.10448
  20931677.000   109996803.92008  20931675.340    85711827.75548
  20925247.120   109962915.94109  20925243.940    85685393.42648
 15 01 16 01 04 30.0000000  0  5G12G21G25G29G31
  24652272.860   129548564.41607  24652268.060   100946909.38543
  21597280.960   113494586.67408  21597275.860    88437328.15547
  21601971.120   113519175.20309  21601970.300    88456526.77748
  20941349.160   110047629.73208  20941347.160    85751432.28448
  20923978.060   109956246.89609  20923974.680    85680196.76847
 15 01 16 01 05  0.0000000  0  5G12G21G25G29G31
  24667621.380   129629221.72708  24667615.280   101009759.25941
  21586425.000   113437538.70608  21586420.080    88392875.21546
  21611491.700   113569205.91009  21611491.000    88495511.71548
  20951056.040   110098638.08108  20951053.620    85791179.05347
  20922813.380   109950126.66409  20922809.800    85675427.75447
 15 01 16 01 05 30.0000000  0  5G12G21G25G29G31
  24682993.300   129709999.89708  24682986.040   101072703.43241
  21575642.420   113380876.90308  21575637.780    88348723.18047
  21621064.100   113619509.43309  21621063.560    88534709.23648
  20960797.400   110149828.70808  20960794.780    85831067.83947
  20921753.600   109944557.54509  20921749.820    85671088.17547
 15 01 16 01 06  0.0000000  0  5G12G21G25G29G31
  24698391.320   129790914.67308  24698385.500   101135754.02843
  21564936.540   113324618.42508  21564932.240    88304885.41947
  21630691.460   113670101.85109  21630690.980    88574131.88748
  20970576.200   110201216.95408  20970573.460    85871110.63247
  20920801.740   109939556.05709  20920797.840    85667190.90147
 15 01 16 01 06 30.0000000  0  5G12G21G25G29G31
  24713815.240   129871965.69908  24713810.840   101198910.65144
  21554307.640   113268764.93108  21554303.900    88261363.22847
  21640373.780   113720983.27409  21640373.380    88613779.72348
  20980392.060   110252800.68708  20980389.320    85911305.74347
  20919957.820   109935121.92209  20919953.760    85663735.72447
 15 01 16 01 07  0.0000000  0  5G12G21G25G29G31
  24729264.980   129953152.75507  24729261.200   101262173.25144
  21543755.920   113213317.28308  21543752.860    88218157.29347
  21650111.300   113772154.05309  21650110.780    88653653.05147
  20990244.820   110304578.67508  20990242.080    85951652.21747
  20919222.080   109931255.79209  20919217.820    85660723.15447
 15 01 16 01 07 30.0000000  0  5G12G21G25G29G31
  24744739.320   130034470.70606  24744735.940   101325537.80645
  21533280.660   113158272.35807  21533278.500    88175265.19347
  21659903.000   113823609.12209  21659902.100    88693747.89147
  21000133.200   110356544.17008  21000130.540    85992144.81947
  20918593.760   109927952.96309  20918589.040    85658149.52747
 15 01 16 01 08  0.0000000  0  4G21G25G29G31
  21522881.120   113103625.83008  21522879.760    88132683.53047
  21669747.900   113875343.27009  21669746.560    88734060.21047
  21010055.900   110408690.81507  21010053.580    86032778.56346
  20918071.780   109925208.36309  20918066.520    85656010.87347
 15 01 16 01 08 30.0000000  0  4G21G25G29G31
  21512551.540   113049346.20908  21512550.660    88090387.75846
  21679639.620   113927323.61609  21679637.980    88774564.36247
  21020006.260   110460983.38107  21020004.400    86073526.01046
  20917649.860   109922989.13809  20917643.940    85654281.61747
 15 01 16 01 09  0.0000000  0  4G21G25G29G31
  21502306.080   112995379.91608  21502305.020    88048344.87046
  21689592.080   113979575.54309  21689590.100    88815245.54147
  21029997.260   110513382.14606  21029996.960    86114320.47246
  20917342.100   109921374.20209  20917335.320    85652991.33147
 15 01 16 01 09 30.0000000  0  4G21G25G29G31
  21492143.440   112941974.14708  21492142.060    88006730.00646
  21699603.280   114032185.17709  21699601.420    88856240.05947
  21040028.880   110566099.54806  21040028.700    86155398.95746
  20917145.940   109920343.46709  20917139.320    85652188.14247
 15 01 16 01 10  0.0000000  0  4G21G25G29G31
  21482049.060   112888928.75708  21482046.200    87965387.82846
  21709658.400   114085024.03309  21709656.760    88897414.52947
  21050085.320   110618944.19507  21050084.620    86196577.56746
  20917047.080   109919823.73309  20917041.260    85651786.92447
 15 01 16 01 10 30.0000000  0  4G21G25G29G31
  21472042.640   112836343.29908  21472039.260    87924412.15946
  21719778.280   114138204.85509  21719776.640    88938854.12547
  21060186.120   110672021.48307  21060185.100    86237936.51446
  20917065.900   109919923.52609  20917060.480    85651864.68347
 15 01 16 01 11  0.0000000  0  4G21G25G29G31
  21462112.300   112784156.86608  21462108.240    87883747.42046
  21729950.080   114191658.50109  21729948.380    88980506.31647
  21070318.560   110725263.94908  21070317.080    86279424.14947
  20917189.800   109920575.91509  20917184.860    85652373.03847
 15 01 16 01 11 30.0000000  0  4G21G25G29G31
  21452261.100   112732386.90808  21452256.540    87843407.18346
  21740176.880   114245401.04709  21740175.200    89022383.59647
  21080485.040   110778685.79708  21080483.220    86321051.56447
  20917422.000   109921797.38009  20917417.380    85653324.81747
 15 01 16 01 12  0.0000000  0  4G21G25G29G31
  21442485.900   112681017.00208  21442480.800    87803378.68545
  21750455.300   114299414.91609  21750453.700    89064472.30847
  21090681.800   110832268.18808  21090679.920    86362804.07547
  20917759.080   109923569.85609  20917754.580    85654705.95947
 15 01 16 01 12 30.0000000  0  4G21G25G29G31
  21432803.000   112630132.52008  21432797.360    87763728.41645
  21760801.380   114353784.56409  21760800.000    89106838.26047
  21100924.800   110886094.06308  21100922.860    86404746.30747
  20918217.180   109925977.76309  20918212.600    85656582.24447
 15 01 16 01 13  0.0000000  0  4G21G25G29G31
  21423218.460   112579765.35908  21423212.360    87724481.27244
  21771221.040   114408541.12909  21771219.920    89149505.71147
  21111219.840   110940193.15508  21111217.640    86446901.44447
  20918802.320   109929052.67909  20918797.600    85658978.28447
 15 01 16 01 13 30.0000000  0  4G21G25G29G31
  21412394.960   112522888.10808  21412388.740    87680161.35945
  21780376.680   114456655.32209  21780375.760    89186997.28047
  21120228.940   110987534.71108  21120226.360    86483790.97047
  20918176.700   109925764.93409  20918171.860    85656416.40747
 15 01 16 01 14  0.0000000  0  4G21G25G29G31
  21402924.820   112473124.27307  21402918.980    87641384.32445
  21790860.760   114511749.84209  21790859.960    89229928.05047
  21130543.980   111041739.63508  21130541.100    86526028.56947
  20918932.640   109929737.51009  20918927.700    85659511.90647
 15 01 16 01 14 30.0000000  0  4G21G25G29G31
  21400857.920   112462266.40307  21400853.040    87632923.67646
  21808723.100   114605616.52309  21808722.340    89303070.89847
  21148214.420   111134598.52108  21148211.580    86598386.13647
  20927119.880   109972762.02509  20927114.840    85693037.48447
 15 01 16 01 15  0.0000000  0  4G21G25G29G31
  21391441.280   112412785.44307  21391437.600    87594367.09546
  21819210.160   114660724.90009  21819209.180    89346012.48347
  21158486.360   111188579.35908  21158483.780    86640449.11747
  20927984.900   109977307.89109  20927979.840    85696579.71347
 15 01 16 01 15 30.0000000  0  4G21G25G29G31
  21375235.480   112327625.77008  21375232.820    87528008.93646
  21822881.940   114680018.80209  21822880.720    89361046.67847
  21161919.940   111206624.70408  21161917.720    86654510.40047
  20922087.800   109946319.04909  20922082.960    85672432.55148
 15 01 16 01 16  0.0000000  0  4G21G25G29G31
  21368267.600   112291009.29808  21368265.460    87499476.65747
  21835764.980   114747718.12909  21835763.480    89413799.39247
  21174541.680   111272953.09708  21174539.640    86706194.85047
  20925455.100   109964015.13709  20925450.620    85686221.71548
 15 01 16 01 16 30.0000000  0  4G21G25G29G31
  21361411.660   112254978.73308  21361409.560    87471400.91947
  21848733.120   114815864.84309  21848731.480    89466900.71147
  21187225.200   111339604.94808  21187222.900    86758131.33947
  20928960.800   109982438.10309  20928956.660    85700577.25548
 15 01 16 01 17  0.0000000  0  4G21G25G29G31
  21348150.520   112185287.11508  21348148.040    87417095.77846
  21855269.140   114850211.46109  21855267.600    89493664.28847
  21193453.060   111372331.63808  21193450.380    86783632.63747
  20926087.800   109967340.23909  20926083.900    85688812.67748
 15 01 16 01 17 30.0000000  0  4G21G25G29G31
  21340991.740   112147663.01808  21340988.680    87387778.32546
  21867880.640   114916485.00709  21867879.200    89545305.99647
  21205732.280   111436858.50508  21205729.120    86833913.30647
  20929343.400   109984448.49609  20929339.840    85702143.77048
 15 01 16 01 18  0.0000000  0  4G21G25G29G31
  21343903.540   112162960.36309  21343899.720    87399698.35946
  21890535.820   115035538.59709  21890534.480    89638075.01347
  21228030.900   111554037.54808  21228027.260    86925221.66047
  20942695.760   110054615.75009  20942692.560    85756819.54848
 15 01 16 01 18 30.0000000  0  4G21G25G29G31
  21331175.740   112096072.16709  21331171.160    87347577.68346
  21897524.500   115072264.60009  21897523.260    89666692.65447
  21234638.480   111588759.81108  21234634.620    86952277.95047
  20940434.800   110042734.15409  20940431.880    85747561.13748
 15 01 16 01 19  0.0000000  0  4G21G25G29G31
  21286279.120   111860136.99809  21286273.740    87163732.10646
  21872317.320   114939800.34009  21872316.180    89563473.74847
  21209025.380   111454161.50808  21209021.540    86847396.17247
  20906031.060   109861940.81509  20906028.360    85606683.21148
 15 01 16 01 19 30.0000000  0  4G21G25G29G31
  21200555.400   111409655.32009  21200549.360    86812707.42846
  21806255.880   114592645.54009  21806254.780    89292963.49947
  21142532.880   111104740.84908  21142529.240    86575120.33447
  20830826.060   109466735.12109  20830823.460    85298730.71648
 15 01 16 01 20  0.0000000  0  4G21G25G29G31
  21085986.880   110807593.74909  21085980.460    86343568.54246
  21711322.120   114093765.84709  21711321.080    88904226.05847
  21047142.560   110603461.99108  21047139.240    86184513.42547
  20726801.740   108920082.51109  20726799.080    84872767.63948
 15 01 16 01 20 30.0000000  0  4G21G25G29G31
  20998131.940   110345913.38109  20998125.040    85983817.60145
  21643074.100   113735120.71509  21643073.200    88624762.32147
  20978412.300   110242283.16708  20978409.380    85903075.37247
  20649516.180   108513942.59409  20649513.280    84556294.97448
 15 01 16 01 21  0.0000000  0  4G21G25G29G31
  20950981.080   110098134.44609  20950973.860    85790743.11146
  21615501.960   113590229.20009  21615501.280    88511859.83147
  20950332.160   110094722.28308  20950329.620    85788092.86247
  20612959.500   108321834.13309  20612956.200    84406600.05848
 15 01 16 01 21 30.0000000  0  4G21G25G29G31
  20947802.960   110081434.00408  20947795.420    85777729.76745
  21631874.260   113676267.29509  21631873.780    88578902.49247
  20966170.360   110177953.70808  20966168.060    85852948.51947
  20620400.000   108360932.83009  20620396.380    84437066.56248
 15 01 16 01 22  0.0000000  0  4G21G25G29G31
  20992311.780   110315330.46208  20992303.820    85959986.73745
  21695905.120   114012752.58409  21695904.780    88841098.79747
  21029640.680   110511494.54307  21029638.640    86112850.45846
  20675551.720   108650756.14209  20675547.880    84662902.88048
 15 01 16 01 22 30.0000000  0  4G21G25G29G31
  21070355.600   110725454.79108  21070347.060    86279564.13145
  21793442.360   114525314.94609  21793442.280    89240498.02247
  21126590.780   111020973.56307  21126589.260    86509847.07947
  20764262.400   109116933.60909  20764258.460    85026158.05448
 15 01 16 01 23  0.0000000  0  4G21G25G29G31
  21147028.560   111128375.80508  21147019.720    86593528.55945
  21889580.260   115030523.03909  21889580.240    89634166.64747
  21222114.540   111522957.57907  21222113.760    86901003.43047
  20851626.200   109576033.26109  20851622.120    85383898.03448
 15 01 16 01 23 30.0000000  0  4G21G25G29G31
  21179538.260   111299218.20608  21179529.660    86726652.50445
  21941526.400   115303501.19809  21941526.360    89846876.90747
  21273419.560   111792569.38608  21273419.280    87111090.54047
  20894850.500   109803178.60409  20894846.380    85560894.39948
 15 01 16 01 24  0.0000000  0  4G21G25G29G31
  21232105.720   111575468.14218  21232098.860    86941894.72655
  22013502.080   115681733.56419  22013501.760    90141608.92757
  21344727.340   112167298.78918  21344727.180    87403089.32156
  20958156.680   110135855.98119  20958152.400    85820130.48858
 15 01 16 01 24 30.0000000  0  4G21G25G29G31
  21224367.000   111534802.04508  21224360.980    86910206.87646
  22025141.060   115742896.68209  22025140.680    90189268.49847
  21355671.540   112224809.02808  21355671.060    87447902.48147
  20961178.720   110151737.08009  20961174.420    85832505.35148
 15 01 16 01 25  0.0000000  0  4G21G25G29G31
  21216714.620   111494588.41708  21216709.420    86878871.59046
  22036836.600   115804357.15709  22036836.040    90237159.77947
  21366644.760   112282471.62008  21366643.940    87492834.38647
  20964309.600   110168190.65909  20964305.280    85845326.32248
 15 01 16 01 25 30.0000000  0  4G21G25G29G31
  21209146.720   111454817.34408  21209142.220    86847881.15047
  22048586.800   115866104.50409  22048586.040    90285274.60147
  21377644.640   112340274.88508  21377643.540    87537875.89147
  20967547.160   110185205.57309  20967542.800    85858584.68447
 15 01 16 01 26  0.0000000  0  4G21G25G29G31
  21201663.180   111415488.63008  21201659.160    86817235.40847
  22060391.360   115928137.65509  22060390.600    90333612.12947
  21388670.660   112398216.44908  21388669.320    87583025.15147
  20970891.260   110202780.69709  20970886.940    85872279.56647
 15 01 16 01 26 30.0000000  0  4G21G25G29G31
  21194273.800   111376654.02309  21194269.900    86786974.69047
  22072259.920   115990507.46108  22072259.280    90382211.96847
  21399732.400   112456346.27908  21399730.900    87628321.10947
  20974351.380   110220966.08109  20974347.400    85886449.96647
 15 01 16 01 27  0.0000000  0  4G21G25G29G31
  21186960.400   111338219.02709  21186956.400    86757025.33947
  22084174.360   116053118.55709  22084173.760    90430999.80147
  21410811.520   112514567.99207  21410809.960    87673688.62847
  20977909.500   110239666.10108  20977905.820    85901021.40047
 15 01 16 01 27 30.0000000  0  5G16G21G25G29G31
  24563171.600   129080330.08607  24563167.500   100582070.03744
  21179730.400   111300222.51209  21179726.280    86727417.68047
  22096142.000   116116008.82509  22096141.400    90480005.19047
  21421915.120   112572918.28508  21421913.540    87719156.42147
  20981572.600   110258918.00008  20981569.180    85916022.87747
 15 01 16 01 28  0.0000000  0  5G16G21G25G29G31
  24546187.920   128991081.94507  24546184.720   100512526.07243
  21172561.520   111262547.47309  21172557.140    86698060.50347
  22108140.440   116179060.75909  22108139.840    90529136.56447
  21433020.480   112631278.76708  21433019.000    87764632.08748
  20985318.340   110278603.80208  20985315.100    85931362.44347
 15 01 16 01 28 30.0000000  0  5G16G21G25G29G31
  24529220.020   128901916.44708  24529217.180   100443046.49743
  21165498.040   111225427.02709  21165493.480    86669135.48948
  22120213.740   116242506.14709  22120213.180    90578574.51347
  21444171.520   112689879.86107  21444170.280    87810295.25947
  20989190.880   110298954.87808  20989187.620    85947220.41447
 15 01 16 01 29  0.0000000  0  5G16G21G25G29G31
  24512247.440   128812725.90408  24512244.980   100373547.33444
  21158519.300   111188752.40809  21158514.600    86640557.87648
  22132341.140   116306236.03509  22132340.620    90628234.16047
  21455347.560   112748611.93208  21455346.520    87856060.48047
  20993169.360   110319861.84708  20993165.780    85963511.54447
 15 01 16 01 29 30.0000000  0  5G16G21G25G29G31
  24495270.500   128723512.08908  24495267.240   100304030.08343
  21151625.740   111152525.90909  21151620.940    86612329.44748
  22144522.740   116370251.28508  22144522.340    90678116.17747
  21466548.680   112807474.72508  21466547.680    87901927.57147
  20997253.800   110341324.97808  20997249.880    85980236.06847
 15 01 16 01 30  0.0000000  0  5G16G21G25G29G31
  24478288.940   128634274.02008  24478285.460   100234493.89543
  21144816.900   111116745.33409  21144812.080    86584448.47448
  22156758.140   116434549.59208  22156757.900    90728218.73147
  21477774.320   112866465.00508  21477773.040    87947894.00247
  21001443.600   110363341.23508  21001439.340    85997391.59647
 15 01 16 01 30 30.0000000  0  5G16G21G25G29G31
  24461303.240   128545014.12108  24461299.340   100164940.68044
  21138093.420   111081413.89109  21138088.760    86556917.48347
  22169047.560   116499132.42508  22169047.620    90778542.99446
  21489024.520   112925583.54408  21489022.680    87993960.37246
  21005738.940   110385911.81809  21005734.200    86014979.05646
 15 01 16 01 31  0.0000000  0  5G16G21G25G29G31
  24444313.940   128455734.75708  24444310.300   100095372.37544
  21131455.580   111046532.89209  21131451.080    86529737.49047
  22181391.400   116564000.75408  22181391.600    90829089.73646
  21500299.220   112984830.07808  21500296.600    88040126.50046
  21010139.820   110409036.81909  21010134.640    86032998.53046
 15 01 16 01 31 30.0000000  0  5G16G21G25G29G31
  24427319.360   128366427.70208  24427315.860   100025782.50744
  21124901.680   111012093.84608  21124897.320    86502901.87847
  22193787.940   116629145.17908  22193788.040    90879851.61546
  21511596.280   113044193.96708  21511592.580    88086384.09646
  21014644.300   110432706.41109  21014638.940    86051442.36347
 15 01 16 01 32  0.0000000  0  5G16G21G25G29G31
  24410322.340   128277107.75908  24410319.020    99956182.59045
  21118434.500   110978110.83808  21118430.360    86476421.64547
  22206239.540   116694579.38908  22206239.660    90930839.31747
  21522918.220   113103688.58308  21522913.460    88132743.57646
  21019254.900   110456933.64609  21019249.460    86070320.73247
 15 01 16 01 32 30.0000000  0  5G16G21G25G29G31
  24393320.760   128187763.43808  24393317.340    99886563.64544
  21112051.900   110944571.74808  21112047.900    86450287.29547
  22218743.900   116760290.39108  22218744.120    90982042.68146
  21534262.220   113163299.99508  21534256.920    88179194.01946
  21023969.000   110481705.15009  21023963.540    86089623.20147
 15 01 16 01 33  0.0000000  0  5G16G21G25G29G31
  24376316.700   128098406.47407  24376313.380    99816934.88644
  21105756.040   110911488.39408  21105752.160    86424508.08747
  22231302.940   116826288.90208  22231303.400    91033470.08847
  21545630.240   113223038.00308  21545624.300    88225743.16646
  21028788.460   110507030.72909  21028782.940    86109357.42547
 15 01 16 01 33 30.0000000  0  5G16G21G25G29G31
  24359308.340   128009026.80707  24359305.140    99747288.44044
  21099544.860   110878849.75208  21099541.000    86399075.38747
  22243914.600   116892563.42808  22243915.160    91085112.57046
  21557019.800   113282890.06908  21557013.800    88272381.12146
  21033711.060   110532898.37609  21033705.360    86129514.02047
 15 01 16 01 34  0.0000000  0  5G16G21G25G29G31
  24342296.240   127919627.26607  24342292.840    99677626.48944
  21093418.760   110846658.40608  21093414.980    86373991.22346
  22256579.200   116959115.53308  22256579.780    91136971.34947
  21568431.140   113342856.96108  21568425.360    88319108.55846
  21038736.940   110559309.12509  21038731.100    86150093.81047
 15 01 16 01 34 30.0000000  0  5G16G21G25G29G31
  24325281.640   127830215.67606  24325278.120    99607955.18144
  21087379.080   110814921.41508  21087375.220    86349261.08746
  22269297.920   117025951.71708  22269298.440    91189051.46846
  21579865.280   113402943.72508  21579860.000    88365929.42846
  21043867.020   110586268.46109  21043861.280    86171101.09746
 15 01 16 01 35  0.0000000  0  5G16G21G25G29G31
  24308265.060   127740795.02506  24308261.700    99538276.79745
  21081426.360   110783640.92708  21081422.340    86324886.69246
  22282070.960   117093073.64208  22282071.380    91241354.26447
  21591322.660   113463152.58708  21591317.920    88412845.40047
  21049101.700   110613777.55709  21049096.300    86192536.74347
 15 01 16 01 35 30.0000000  0  5G16G21G25G29G31
  24291245.780   127651360.57706  24291243.040    99468587.69744
  21075559.680   110752811.85208  21075555.400    86300864.04246
  22294897.080   117160475.16308  22294897.480    91293874.92247
  21602801.900   113523475.90108  21602797.640    88459850.56547
  21054439.800   110641829.36009  21054434.780    86214395.30047
 15 01 16 01 36  0.0000000  0  5G16G21G25G29G31
  24274223.780   127561910.12308  24274221.160    99398886.09744
  21069778.500   110722430.92608  21069773.720    86277190.59146
  22307775.740   117228152.75408  22307775.980    91346610.69347
  21614302.040   113583909.28408  21614298.180    88506941.47847
  21059880.520   110670419.71109  21059875.680    86236673.49247
 15 01 16 01 36 30.0000000  0  5G16G21G25G29G31
  24257199.900   127472448.42807  24257196.800    99329175.66344
  21064083.740   110692502.88108  21064078.480    86253870.03946
  22320707.580   117296109.75908  22320707.640    91399564.20147
  21625823.580   113644455.58008  21625820.040    88554120.39047
  21065424.280   110699551.35309  21065419.460    86259373.48247
 15 01 16 01 37  0.0000000  0  5G16G21G25G29G31
  24240173.320   127382970.98408  24240169.740    99259453.02443
  21058474.040   110663021.99808  21058468.520    86230897.91546
  22333691.460   117364340.15408  22333691.360    91452730.73147
  21637365.120   113705108.02008  21637362.020    88601381.99447
  21071069.720   110729217.45409  21071064.960    86282489.92347
 15 01 16 01 37 30.0000000  0  5G16G21G25G29G31
  24223145.280   127293485.03408  24223140.960    99189723.66443
  21052950.520   110633994.95108  21052945.140    86208279.45047
  22346728.580   117432849.91508  22346728.240    91506114.95647
  21648927.580   113765871.40408  21648925.100    88648730.05547
  21076817.780   110759423.17809  21076813.060    86306026.85548
 15 01 16 01 38  0.0000000  0  5G16G21G25G29G31
  24206115.560   127203990.37708  24206110.740    99119987.57044
  21047513.020   110605420.74808  21047507.980    86186013.83646
  22359818.520   117501637.27008  22359818.040    91559715.49447
  21660510.840   113826743.55908  21660508.820    88696162.87647
  21082667.880   110790165.93709  21082663.240    86329982.23748
 15 01 16 01 38 30.0000000  0  5G16G21G25G29G31
  24189086.000   127114497.14408  24189080.740    99050252.59544
  21042163.380   110577308.64408  21042158.660    86164108.30446
  22372962.860   117570711.00408  22372962.380    91613539.18147
  21672116.600   113887732.75408  21672114.720    88743686.90647
  21088621.680   110821453.89209  21088617.080    86354362.45648
 15 01 16 01 39  0.0000000  0  5G16G21G25G29G31
  24172055.120   127024997.98608  24172049.440    98980513.00244
  21036900.100   110549650.41708  21036895.660    86142556.44847
  22386159.880   117640062.27008  22386159.560    91667579.13047
  21683742.960   113948829.28908  21683741.040    88791294.58847
  21094677.380   110853277.43109  21094672.960    86379160.00848
 15 01 16 01 39 30.0000000  0  5G16G21G25G29G31
  24155024.100   126935499.30108  24155018.180    98910773.80544
  21031724.100   110522451.16608  21031719.760    86121362.24047
  22399410.520   117709695.86208  22399410.560    91721839.05847
  21695390.720   114010037.29108  21695388.500    88838989.11647
  21100835.760   110885640.40109  21100831.520    86404377.89948
 15 01 16 01 40  0.0000000  0  5G16G21G25G29G31
  24137993.000   126846001.93007  24137987.500    98841035.63745
  21026635.700   110495711.85608  21026631.320    86100526.42047
  22412714.660   117779611.32908  22412715.240    91776318.62047
  21707059.380   114071355.75908  21707056.800    88886769.72847
  21107096.560   110918541.35809  21107092.660    86430014.99048
 15 01 16 01 40 30.0000000  0  5G16G21G25G29G31
  24120961.120   126756501.51307  24120956.360    98771295.08545
  21021633.860   110469426.98308  21021629.300    86080044.70346
  22426071.240   117849802.62208  22426072.260    91831013.12447
  21718747.700   114132777.79308  21718744.760    88934631.03546
  21113458.520   110951973.52309  21113454.900    86456066.03048
 15 01 16 01 41  0.0000000  0  6G16G18G21G25G29G31
  24103929.700   126667003.86107  24103925.540    98701556.69644
  24456230.700   128518352.04705  24456225.840   100144157.78743
  21016719.460   110443601.04008  21016714.780    86059920.59447
  22439480.960   117920273.83008  22439482.540    91885925.72747
  21730456.320   114194307.00208  21730453.020    88982575.86946
  21119922.200   110985940.28109  21119918.740    86482533.62148
 15 01 16 01 41 30.0000000  0  6G16G18G21G25G29G31
  24086897.920   126577503.29207  24086894.200    98631816.01545
  24441628.280                    24441616.860                  
  21011891.120   110418227.29308  21011886.460    86040148.83747
  22452942.720   117991017.87208  22452944.660    91941050.93847
  21742183.680   114255935.36708  21742179.660    89030597.97046
  21126486.080   111020433.64809  21126482.840    86509411.55348
 15 01 16 01 42  0.0000000  0  6G16G18G21G25G29G31
  24069865.620   126487998.62908  24069862.280    98562072.20645
  24427000.380   128364769.08204  24426995.080   100024455.08543
  21007148.480   110393303.94708  21007143.960    86020728.05447
  22466456.080   118062031.81408  22466458.040    91996386.44347
  21753929.420   114317660.56208  21753924.600    89078695.52845
  21133149.320   111055449.78009  21133146.400    86536696.84348
 15 01 16 01 42 30.0000000  0  6G16G18G21G25G29G31
  24052821.760   126398432.31908  24052818.500    98492280.30345
  24412354.080   128287801.99605  24412346.640    99964480.89643
  21002480.460   110368772.45108  21002476.100    86001612.60747
  22480009.860   118133256.68408  22480011.640    92051886.33546
  21765681.960   114379421.85308  21765676.400    89126821.22245
  21139900.400   111090928.59008  21139898.000    86564342.66048
 15 01 16 01 43  0.0000000  0  6G16G18G21G25G29G31
  24035791.600   126308937.15007  24035788.240    98422543.84445
  24397708.140   128210840.46705  24397700.980    99904510.90244
  20997911.920   110344764.07308  20997907.760    85982904.80047
  22493629.020   118204823.40608  22493630.180    92107652.61446
  21777466.280   114441350.52307  21777460.580    89175077.31646
  21146764.240   111127000.44608  21146762.360    86592450.59048
 15 01 16 01 43 30.0000000  0  6G16G18G21G25G29G31
  24018763.340   126219452.26207  24018760.000    98352815.37045
  24383051.400   128133824.90306  24383044.900    99844498.89544
  20993431.060   110321216.72708  20993427.060    85964556.23148
  22507301.520   118276669.67608  22507302.100    92163636.72747
  21789270.440   114503383.07708  21789264.900    89223414.34845
  21153728.900   111163601.79508  21153727.400    86620971.10348
 15 01 16 01 44  0.0000000  0  6G16G18G21G25G29G31
  24001736.420   126129974.63108  24001733.040    98283092.59644
  24368384.140   128056753.75106  24368378.580    99784443.55143
  20989037.180   110298126.95208  20989033.320    85946564.20547
  22521026.280   118348790.50309  22521026.320    92219834.78247
  21801093.660   114565514.26208  21801088.500    89271828.27446
  21160793.340   111200726.97308  21160792.100    86649899.77848
 15 01 16 01 44 30.0000000  0  6G16G18G21G25G29G31
  23984710.580   126040502.96708  23984707.160    98213374.44845
  24353706.220   127979627.02006  24353702.140    99724344.88344
  20984729.820   110275492.31908  20984726.120    85928926.83847
  22534802.720   118421183.50908  22534802.400    92276244.91647
  21812935.280   114627741.33408  21812930.780    89320316.86646
  21167956.760   111238372.49108  21167955.740    86679233.91148
 15 01 16 01 45  0.0000000  0  6G16G18G21G25G29G31
  23967686.480   125951041.24608  23967683.380    98143664.05044
  24339018.840   127902449.68307  24339015.520    99664206.84143
  20980509.360   110253315.21308  20980505.900    85911645.99147
  22548631.240   118493850.47009  22548630.600    92332868.51447
  21824795.480   114690065.50308  21824791.400    89368881.13947
  21175219.500   111276539.28808  21175218.520    86708974.24848
 15 01 16 01 45 30.0000000  0  6G16G18G21G25G29G31
  23950663.900   125861588.30607  23950661.080    98073960.46945
  24324322.080   127825221.65807  24324318.660    99604029.25444
  20976375.560   110231593.49208  20976372.380    85894719.98347
  22562511.220   118566788.48409  22562510.220    92389703.33447
  21836673.420   114752483.39808  21836669.640    89417518.46647
  21182580.740   111315223.42808  21182579.720    86739117.72348
 15 01 16 01 46  0.0000000  0  6G16G18G21G25G29G31
  23933642.600   125772142.80207  23933639.740    98004262.68244
  24309615.980   127747942.76907  24309611.720    99543812.02242
  20972328.000   110210324.77408  20972325.140    85878146.96647
  22576442.040   118639994.46509  22576440.820    92446746.93747
  21848568.440   114814991.35108  21848564.920    89466225.96247
  21190039.640   111354420.85608  21190038.540    86769661.14948
 15 01 16 01 46 30.0000000  0  6G16G18G21G25G29G31
  23916623.700   125682710.39307  23916621.060    97934575.06643
  24294901.940   127670620.52208  24294897.100    99483560.94242
  20968367.480   110189512.85208  20968364.840    85861929.88847
  22590424.480   118713472.56508  22590423.140    92504002.58546
  21860481.340   114877593.29608  21860478.000    89515006.68847
  21197596.980   111394134.77008  21197595.660    86800607.04048
 15 01 16 01 47  0.0000000  0  6G16G18G21G25G29G31
  23899607.780   125593293.77306  23899604.820    97864899.78444
  24280180.520   127593258.33607  24280176.320    99423278.79543
  20964494.200   110169159.51408  20964491.760    85846070.16847
  22604458.700   118787223.66408  22604457.320    92561470.96046
  21872412.140   114940289.59008  21872408.920    89563860.93748
  21205252.740   111434364.91208  21205251.240    86831955.18648
 15 01 16 01 47 30.0000000  0  6G16G18G21G25G29G31
  23882594.660   125503891.40506  23882591.640    97795235.53343
  24265451.420   127515855.76206  24265448.440    99362965.23944
  20960707.700   110149262.41808  20960705.500    85830565.96048
  22618544.020   118861244.14108  22618542.840    92619149.22746
  21884360.140   115003076.47208  21884356.960    89612785.77247
  21213005.900   111475106.85008  21213004.280    86863702.12248
 15 01 16 01 48  0.0000000  0  6G16G18G21G25G29G31
  23865585.700   125414510.33807  23865582.260    97725587.94343
  24250715.920   127438420.95406  24250714.100    99302626.59544
  20957009.180   110129826.98708  20957007.080    85815421.47947
  22632681.640   118935539.56708  22632680.820    92677041.74546
  21896326.320   115065958.85508  21896323.280    89661785.02547
  21220857.240   111516364.92908  21220855.580    86895851.25648
 15 01 16 01 48 30.0000000  0  6G16G18G21G25G29G31
  23848580.640   125325149.40105  23848577.460    97655956.08244
  24235973.880   127360954.73406  24235973.500    99242263.53245
  20953398.180   110110850.65708  20953395.960    85800634.74548
  22646871.080   119010106.84908  22646870.500    92735146.10446
  21908309.780   115128933.56008  21908306.960    89710856.20047
  21228806.100   111558135.12308  21228804.300    86928399.43448
 15 01 16 01 49  0.0000000  0  6G16G18G21G25G29G31
  23831579.500   125235808.55306  23831576.540    97586339.77044
  24221225.660   127283457.81706  24221227.200    99181876.51144
  20949874.380   110092331.93608  20949871.980    85786204.57448
  22661111.860   119084943.95708  22661111.500    92793460.71746
  21920310.160   115191997.75608  21920307.600    89759997.11347
  21236851.780   111600414.17408  21236849.840    86961344.14647
 15 01 16 01 49 30.0000000  0  6G16G18G21G25G29G31
  23814582.240   125146488.31605  23814579.960    97516739.64245
  24206472.100   127205931.83706  24206474.660    99121466.84645
  20946437.440   110074269.72708  20946434.900    85772130.13047
  22675403.740   119160049.62208  22675403.560    92851984.60046
  21932327.340   115255150.61307  21932325.020    89809207.10947
  21244993.840   111643199.94008  21244991.660    86994683.68547
 15 01 16 01 50  0.0000000  0  6G16G18G21G25G29G31
  23797588.360   125057185.80707  23797586.840    97447153.32544
  24191713.140   127128375.01206  24191716.060    99061033.16845
  20943086.600   110056660.23208  20943083.980    85758408.45648
  22689745.860   119235419.04608  22689745.800    92910714.01346
  21944360.240   115318386.56707  21944358.220    89858481.83946
  21253231.180   111686486.50809  21253228.540    87028413.48047
 15 01 16 01 50 30.0000000  0  6G16G18G21G25G29G31
  23780599.140   124967906.94206  23780598.340    97377585.35845
  24176950.060   127050794.54307  24176952.680    99000581.07345
  20939822.540   110039507.36808  20939819.920    85745042.60048
  22704138.980   119311056.20708  22704139.020    92969652.03946
  21956409.580   115381709.53107  21956407.720    89907824.36246
  21261564.340   111730277.01008  21261560.780    87062535.94946
 15 01 16 01 51  0.0000000  0  6G16G18G21G25G29G31
  23763613.800   124878647.49807  23763613.540    97308032.60544
  24162182.020   126973187.24907  24162184.040    98940108.06844
  20936644.360   110022806.06908  20936641.700    85732028.61748
  22718581.940   119386955.03608  22718581.800    93028793.98446
  21968474.600   115445112.89007  21968472.400    89957229.55046
  21269992.000   111774564.01809  21269986.900    87097045.32146
 15 01 16 01 51 30.0000000  0  6G16G18G21G25G29G31
  23746633.840   124789415.36707  23746633.460    97238501.08545
  24147410.800   126895562.23207  24147412.060    98879621.22845
  20933553.200   110006562.27408  20933550.520    85719371.13548
  22733075.820   119463121.32008  22733075.600    93088144.34046
  21980556.420   115508602.33408  21980553.420    90006701.84245
  21278515.080   111819351.99709  21278508.260    87131945.07646
 15 01 16 01 52  0.0000000  0  6G16G18G21G25G29G31
  23729658.940   124700210.04907  23729658.440    97168990.50945
  24132636.400   126817920.35507  24132636.920    98819121.25744
  20930548.620   109990773.58308  20930545.920    85707068.27547
  22747620.060   119539552.74208  22747619.900    93147701.26946
  21992654.460   115572175.12608  21992650.300    90056239.07445
  21287133.000   111864637.89109  21287125.220    87167232.80146
 15 01 16 01 52 30.0000000  0  6G16G18G21G25G29G31
  23712689.560   124611033.91807  23712688.680    97099502.60345
  24117859.340   126740264.94608  24117859.000    98758610.72444
  20927631.040   109975441.73008  20927628.240    85695121.38147
  22762214.900   119616249.59108  22762215.020    93207465.02746
  22004768.700   115635831.64608  22004763.040    90105841.58645
  21295845.460   111910420.90509  21295837.560    87202907.87146
 15 01 16 01 53  0.0000000  0  6G16G18G21G25G29G31
  23695726.220   124521889.71407  23695725.080    97030039.62745
  24103080.340   126662600.05708  24103079.120    98698092.79344
  20924800.680   109960567.45008  20924797.560    85683531.04347
  22776860.600   119693212.62308  22776860.900    93267436.20646
  22016899.020   115699572.34608  22016892.520    90155509.68746
  21304652.380   111956700.26909  21304644.580    87238969.70946
 15 01 16 01 53 30.0000000  0  6G16G18G21G25G29G31
  23678768.740   124432776.33607  23678767.380    96960600.63845
  24088299.460   126584925.58008  24088297.860    98637567.39843
  20922056.940   109946147.82708  20922053.360    85672294.97147
  22791556.440   119770438.71908  22791556.920    93327612.37546
  22029044.640   115763393.98809  22029038.140    90205240.84046
  21313552.840   112003471.79509  21313545.320    87275415.05447
 15 01 16 01 54  0.0000000  0  6G16G18G21G25G29G31
  23661817.660   124343696.84307  23661816.360    96891188.07045
  24073517.580   126507245.79008  24073515.740    98577037.87443
  20919400.120   109932184.51208  20919396.040    85661414.47847
  22806302.480   119847928.85708  22806302.980    93387994.29346
  22041205.660   115827297.38109  22041199.280    90255035.69646
  21322546.800   112050735.39209  21322539.600    87312243.83947
 15 01 16 01 54 30.0000000  0  6G16G18G21G25G29G31
  23644873.000   124254650.96307  23644871.660    96821801.69345
  24058734.860   126429561.58608  24058732.520    98516504.90443
  20916829.700   109918675.63408  20916825.280    85650888.08647
  22821098.420   119925680.83308  22821098.900    93448580.21746
  22053381.500   115891279.81609  22053375.320    90304892.13146
  21331633.760   112098487.74409  21331626.820    87349453.46047
 15 01 16 01 55  0.0000000  0  6G16G18G21G25G29G31
  23627935.280   124165641.96808  23627933.820    96752444.05745
  24043952.180   126351877.52708  24043949.280    98455971.99243
  20914345.960   109905622.56208  20914341.400    85640716.86747
  22835944.500   120003695.87508  22835944.720    93509371.12946
  22065572.480   115955342.98408  22065566.540    90354811.46647
  21340813.740   112146729.14309  21340807.060    87387044.16347
 15 01 16 01 55 30.0000000  0  6G16G18G21G25G29G31
  23611004.520   124076669.80108  23611002.960    96683115.11245
  24029169.700   126274194.38108  24029166.460    98395439.81443
  20911948.600   109893023.64608  20911943.940    85630899.53247
  22850840.220   120081971.55208  22850839.880    93570365.14046
  22077778.260   116019484.37608  22077772.620    90404791.75147
  21350086.000   112195455.69209  21350079.720    87425012.89047
 15 01 16 01 56  0.0000000  0  6G16G18G21G25G29G31
  23594081.180   123987736.67108  23594079.720    96613816.59544
  24014387.880   126196515.34108  24014384.840    98334910.88444
  20909637.720   109880879.04608  20909632.900    85621436.22047
  22865785.660   120160508.12308  22865784.600    93631562.47845
  22089998.680   116083703.62608  22089993.380    90454832.70647
  21359450.280   112244666.39608  21359444.640    87463358.89547
 15 01 16 01 56 30.0000000  0  7G16G18G21G25G27G29G31
  23577165.840   123898845.92708  23577164.700    96544551.08745
  23999607.660   126118845.54808  23999604.840    98274389.15444
  20907413.780   109869191.31908  20907408.920    85612328.90048
  22880781.020   120239307.24308  22880779.200    93692964.38445
  24632940.880   129446994.48406  24632946.200   100867796.37556
  22102234.100   116148002.60608  22102229.200    90504935.77747
  21368906.600   112294361.64808  21368901.800    87502082.45947
 15 01 16 01 57  0.0000000  0  7G16G18G21G25G27G29G31
  23560259.380   123810001.95908  23560258.240    96475322.05244
  23984830.080   126041189.90308  23984826.960    98213878.41743
  20905277.160   109857962.45408  20905272.320    85603579.14148
  22895826.620   120318370.61308  22895824.080    93754572.22145
  24618556.420   129371399.13806  24618560.000   100808890.95046
  22114484.760   116212382.94608  22114480.460    90555102.22947
  21378455.180   112344542.19408  21378451.280    87541184.15947
 15 01 16 01 57 30.0000000  0  7G16G18G21G25G27G29G31
  23543359.300   123721192.23808  23543358.180    96406119.69244
  23970053.020   125963537.24008  23970049.700    98153369.98344
  20903225.040   109847177.77808  20903220.160    85595175.50048
  22910919.580   120397683.68108  22910916.680    93816374.61945
  24604187.360   129295886.81608  24604190.080   100750050.25446
  22126747.860   116276829.78707  22126744.360    90605320.50347
  21388093.060   112395192.13608  21388090.060    87580651.62448
 15 01 16 01 58  0.0000000  0  7G16G18G21G25G27G29G31
  23526468.560   123632431.96408  23526467.080    96336955.84944
  23955279.540   125885903.78308  23955276.200    98092876.50441
  20901259.960   109836850.73008  20901255.020    85587128.46048
  22926062.440   120477259.25908  22926059.300    93878381.56545
  24589836.720   129220471.39208  24589839.320   100691285.11945
  22139025.920   116341356.45207  22139023.300    90655600.94347
  21397822.560   112446322.98008  21397820.140    87620493.82648
 15 01 16 01 58 30.0000000  0  7G16G18G21G25G27G29G31
  23509586.480   123543717.78808  23509584.440    96267827.92944
  23940508.940   125808286.92807  23940506.220    98032395.99543
  20899380.920   109826976.09808  20899375.920    85579433.95348
  22941253.980   120557091.84508  22941250.640    93940588.79645
  24575503.600   129145147.83208  24575505.100   100632591.45646
  22151318.460   116405956.97807  22151316.340    90705938.99646
  21407642.740   112497928.40808  21407640.440    87660705.84648
 15 01 16 01 59  0.0000000  0  7G16G18G21G25G27G29G31
  23492713.300   123455050.55707  23492710.240    96198736.56644
  23925741.780   125730688.78007  23925740.320    97971930.10544
  20897587.740   109817553.17008  20897582.680    85572091.41047
  22956494.020   120637180.26908  22956490.820    94002995.34645
  24561187.820   129069915.63507  24561188.940   100573968.98246
  22163625.240   116470630.29208  22163622.980    90756333.77046
  21417552.940   112550005.35809  21417550.440    87701285.27748
 15 01 16 01 59 30.0000000  0  7G16G18G21G25G27G29G31
  23475849.340   123366431.20207  23475845.460    96129682.56243
  23910979.140   125653112.27308  23910977.840    97911481.04642
  20895880.220   109808581.20608  20895875.180    85565100.26547
  22971782.340   120717523.44808  22971779.560    94065600.41045
  24546889.140   128994774.50608  24546889.640   100515417.49945
  22175946.040   116535375.46908  22175943.360    90806784.51646
  21427552.480   112602551.58708  21427549.720    87742230.35248
 15 01 16 02 00  0.0000000  0  7G16G18G21G25G27G29G31
  23458994.780   123277860.78207  23458990.420    96060666.67744
  23896221.200   125575558.53308  23896218.760    97851049.66742
  20894258.140   109800058.51608  20894253.080    85558459.21847
  22987118.740   120798119.62508  22987116.440    94128402.62845
  24532607.360   128919723.26907  24532607.540   100456936.07245
  22188280.460   116600190.81908  22188277.160    90857289.98946
  21437640.620   112655564.30408  21437637.800    87783538.93948
 15 01 16 02 00 30.0000000  0  7G16G18G21G25G27G29G31
  23442150.880   123189345.83508  23442145.940    95991693.96444
  23881469.300   125498035.21508  23881466.140    97790641.97243
  20892722.540   109791989.62208  20892717.260    85552171.76447
  23002504.100   120878973.07508  23002502.500    94191405.29245
  24518343.480   128844766.86708  24518343.680   100398528.57645
  22200629.140   116665080.65408  22200625.180    90907853.51146
  21447818.080   112709046.65509  21447815.340    87825213.48048
 15 01 16 02 01  0.0000000  0  7G16G18G21G25G27G29G31
  23425316.820   123100882.07108  23425311.680    95922761.20644
  23866722.660   125420539.24608  23866719.620    97730255.63841
  20891272.260   109784368.73008  20891266.700    85546233.40747
  23017937.440   120960077.47708  23017936.520    94254603.49645
  24504096.540   128769899.68008  24504096.300   100340190.57345
  22212990.800   116730038.49708  22212986.120    90958470.02145
  21458083.500   112762990.73409  21458080.760    87867247.81748
 15 01 16 02 01 30.0000000  0  7G16G18G21G25G27G29G31
  23408494.120   123012477.02408  23408488.780    95853874.16344
  23851982.920   125343079.61308  23851979.980    97669897.60443
  20889908.340   109777201.14008  20889902.380    85540648.27447
  23033419.500   121041438.04308  23033419.240    94318001.35445
  24489865.980   128695110.68007  24489866.980   100281891.68145
  22225366.400   116795069.87908  22225361.140    91009143.85346
  21468437.600   112817400.56709  21468434.820    87909645.06948
 15 01 16 02 02  0.0000000  0  7G16G18G21G25G27G29G31
  23391682.420   122924129.14708  23391677.060    95785031.65844
  23837249.920   125265655.54408  23837246.700    97609567.22043
  20888630.180   109770483.72608  20888623.760    85535413.91947
  23048949.600   121123050.91408  23048950.100    94381595.76545
  24475654.840   128620430.73005  24475655.100   100223699.51046
  22237755.080   116860171.16908  22237749.760    91059872.13346
  21478879.340   112872270.83409  21478876.480    87952401.11348
 15 01 16 02 02 30.0000000  0  7G16G18G21G25G27G29G31
  23374881.600   122835837.96208  23374876.200    95716233.33544
  23822523.600   125188267.42708  23822520.180    97549264.92441
  20887437.080   109764213.63008  20887430.300    85530528.12847
  23064527.460   121204913.19508  23064528.440    94445384.53446
  24461460.860   128545840.46007  24461461.160   100165577.33245
  22250156.400   116925339.43608  22250151.160    91110652.60546
  21489407.800   112927597.33409  21489404.720    87995512.65847
 15 01 16 02 03  0.0000000  0  7G16G18G21G25G27G29G31
  23358091.660   122747604.38708  23358086.480    95647479.90244
  23807804.240   125110917.48307  23807800.380    97488992.33643
  20886328.760   109758389.35908  20886321.940    85525989.74147
  23080152.700   121287023.41008  23080153.860    94509366.50046
  24447284.080   128471339.38808  24447284.020   100107524.56145
  22262570.000   116990573.48908  22262565.280    91161484.31246
  21500022.460   112983377.62309  21500019.020    88038977.82447
 15 01 16 02 03 30.0000000  0  7G16G18G21G25G27G29G31
  23341313.740   122659434.30108  23341309.020    95578775.98044
  23793093.280   125033612.40307  23793090.380    97428754.69441
  20885305.900   109753014.73708  20885299.300    85521801.73047
  23095825.800   121369385.00008  23095827.000    94573544.35646
  24433124.880   128396931.53108  24433123.900   100049544.46044
  22274996.480   117055876.85008  22274992.500    91212370.03046
  21510723.560   113039613.57308  21510719.640    88082798.03846
 15 01 16 02 04  0.0000000  0  7G16G18G21G25G27G29G31
  23324548.160   122571328.77808  23324543.620    95510122.32844
  23778391.300   124956354.38008  23778388.660    97368553.73743
  20884368.520   109748089.02708  20884362.100    85517963.50647
  23111546.560   121451996.65108  23111547.180    94637917.06345
  24418983.280   128322616.24107  24418981.880    99991636.44346
  22287435.860   117121248.14408  22287432.720    91263308.67447
  21521510.760   113096302.81709  21521506.140    88126971.47146
 15 01 16 02 04 30.0000000  0  7G16G18G21G25G27G29G31
  23307794.480   122483286.36908  23307789.900    95441517.85544
  23763698.300   124879143.03708  23763695.880    97308389.13843
  20883516.000   109743608.84408  20883509.680    85514472.46147
  23127314.220   121534854.58808  23127314.240    94702481.68745
  24404859.060   128248390.65908  24404857.500    99933798.36545
  22299887.540   117186683.80108  22299885.220    91314297.47147
  21532383.120   113153439.99508  21532378.140    88171493.95246
 15 01 16 02 05  0.0000000  0  7G16G18G21G25G27G29G31
  23291053.440   122395311.20808  23291049.080    95372965.79644
  23749015.260   124801983.32308  23749013.040    97248264.80443
  20882748.500   109739575.25208  20882742.340    85511329.41047
  23143128.960   121617960.47508  23143128.560    94767239.51045
  24390752.360   128174257.00408  24390750.760    99876031.92346
  22312351.960   117252185.92908  22312349.960    91365338.05946
  21543340.780   113211025.27608  21543335.900    88216365.59746
 15 01 16 02 05 30.0000000  0  7G16G18G21G25G27G29G31
  23274325.220   122307404.58007  23274321.140    95304467.16644
  23734342.700   124724878.19507  23734340.140    97188183.08943
  20882065.940   109735987.90408  20882059.920    85508534.07347
  23158990.600   121701313.09908  23158989.780    94832189.58345
  24376662.980   128100214.94208  24376661.800    99818336.85346
  22324828.980   117317753.51108  22324827.220    91416429.65547
  21554383.460   113269056.17509  21554378.820    88261584.48447
 15 01 16 02 06  0.0000000  0  7G16G18G21G25G27G29G31
  23257610.720   122219571.78607  23257607.440    95236026.06144
  23719681.740   124647833.44707  23719678.340    97128148.31344
  20881468.820   109732849.87308  20881462.960    85506088.84147
  23174899.700   121784915.29808  23174898.400    94897334.14145
  24362591.540   128026267.96108  24362590.560    99760715.85646
  22337319.120   117383389.82108  22337317.680    91467574.78647
  21565511.620   113327534.28609  21565507.220    88307151.84547
 15 01 16 02 06 30.0000000  0  7G16G18G21G25G27G29G31
  23240909.540   122131810.72607  23240907.160    95167640.90944
  23705032.040   124570847.90306  23705027.840    97068159.59942
  20880956.280   109730156.78808  20880950.500    85503990.33847
  23190855.420   121868762.67108  23190854.320    94962669.73845
  24348537.420   127952412.54408  24348536.460    99703166.22146
  22349821.620   117449090.64708  22349820.240    91518770.22347
  21576724.040   113386453.87009  21576719.940    88353063.20947
 15 01 16 02 07  0.0000000  0  7G16G18G21G25G27G29G31
  23224222.120   122044122.41906  23224220.820    95099312.35644
  23690393.620   124493923.44806  23690389.620    97008218.59344
  20880527.960   109727906.27708  20880522.320    85502236.69948
  23206857.520   121952853.48008  23206856.720    95028195.03245
  24334500.460   127878647.62208  24334499.840    99645687.12946
  22362336.040   117514854.29408  22362334.600    91570014.60946
  21588019.920   113445811.64009  21588015.860    88399315.95548
 15 01 16 02 07 30.0000000  0  7G16G18G21G25G27G29G31
  23207549.200   121956510.35207  23207549.200    95031043.25244
  23675767.700   124417064.89407  23675764.300    96948328.90943
  20880184.260   109726100.47408  20880178.780    85500829.57747
  23222906.200   122037188.58908  23222905.260    95093910.72545
  24320480.860   127804974.94907  24320480.560    99588279.82447
  22374862.680   117580681.92708  22374860.960    91621308.87346
  21599399.080   113505607.22209  21599394.900    88445909.92448
 15 01 16 02 08  0.0000000  0  7G16G18G21G25G27G29G31
  23190891.120   121868974.73507  23190891.620    94962833.74644
  23661154.460   124340273.52905  23661151.080    96888491.60243
  20879924.800   109724737.86908  20879919.480    85499767.81647
  23239000.900   122121765.85408  23239000.140    95159815.07345
  24306478.400   127731392.99708  24306478.540    99530943.34247
  22387401.080   117646571.71108  22387399.080    91672651.54346
  21610860.760   113565837.01009  21610856.480    88492842.21348
 15 01 16 02 08 30.0000000  0  7G16G18G21G25G27G29G31
  23174247.980   121781514.53307  23174248.480    94894682.95044
  23646554.080   124263549.19107  23646551.380    96828706.49044
  20879748.980   109723814.65908  20879743.800    85499048.45247
  23255140.980   122206581.87208  23255140.440    95225905.46645
  24292492.680   127657899.30008  24292493.420    99473675.57246
  22399950.680   117712520.27508  22399948.480    91724040.04345
  21622404.120   113626496.32809  21622399.620    88540109.20148
 15 01 16 02 09  0.0000000  0  7G16G18G21G25G27G29G31
  23157620.440   121694134.75208  23157620.280    94826594.79443
  23631968.040   124186897.50908  23631964.680    96768977.88843
  20879657.280   109723332.99608  20879652.160    85498673.13647
  23271326.900   122291638.77008  23271326.380    95292183.55645
  24278524.120   127584496.75707  24278525.340    99416478.81646
  22412512.040   117778530.84108  22412509.120    91775476.84145
  21634029.300   113687585.77109  21634024.540    88587711.34848
 15 01 16 02 09 30.0000000  0  7G16G18G21G25G27G29G31
  23141008.540   121606835.94608  23141007.360    94758569.77143
  23617396.280   124110320.00008  23617392.080    96709307.13343
  20879649.400   109723291.41308  20879644.140    85498640.73947
  23287558.160   122376934.49808  23287557.620    95358647.74244
  24264572.600   127511184.06707  24264574.080    99359352.11846
  22425084.820   117844601.67908  22425080.680    91826960.66044
  21645735.600   113749101.94709  21645730.580    88635646.02048
 15 01 16 02 10  0.0000000  0  7G16G18G21G25G27G29G31
  23124412.220   121519618.64508  23124409.420    94690608.16444
  23602838.940   124033818.47308  23602834.640    96649695.67443
  20879724.760   109723687.39008  20879719.340    85498949.29747
  23303834.360   122462466.79008  23303833.920    95425296.30845
  24250638.140   127437959.87007  24250639.780    99302294.33046
  22437668.700   117910730.34408  22437663.980    91878489.51945
  21657522.360   113811040.91609  21657517.120    88683910.15248
 15 01 16 02 10 30.0000000  0  7G16G18G21G25G27G29G31
  23107831.880   121432485.39308  23107827.540    94622712.12144
  23588296.600   123957396.52407  23588292.660    96590146.16844
  20879883.400   109724521.29408  20879877.880    85499599.10047
  23320155.560   122548235.87208  23320155.220    95492129.35845
  24236720.940   127364825.18907  24236722.520    99245306.34346
  22450263.620   117976917.81007  22450258.860    91930064.15145
  21669389.360   113873401.97809  21669383.900    88732503.19548
 15 01 16 02 11  0.0000000  0  7G16G18G21G25G27G29G31
  23091268.480   121345441.79008  23091263.580    94554885.97244
  23573770.320   123881060.45707  23573767.060    96530663.59144
  20880125.980   109725796.39408  20880120.400    85500592.67147
  23336522.340   122634244.68008  23336522.040    95559149.20745
  24222821.780   127291783.79307  24222823.120    99188390.98847
  22462870.300   118043167.33807  22462866.340    91981687.11746
  21681336.860   113936186.57509  21681331.260    88781426.23748
 15 01 16 02 11 30.0000000  0  7G16G18G21G25G27G29G31
  23074721.960   121258487.49008  23074716.100    94487129.37144
  23559260.280   123804810.62808  23559257.540    96471248.23644
  20880452.060   109727510.01108  20880446.440    85501927.96747
  23352934.040   122720490.08008  23352933.920    95626353.39045
  24208940.120   127218833.38507  24208940.680    99131546.52746
  22475488.300   118109476.04307  22475485.220    92033356.19746
  21693363.980   113999389.87709  21693358.320    88830675.55547
 15 01 16 02 12  0.0000000  0  7G16G18G21G25G27G29G31
  23058191.860   121171619.52108  23058185.380    94419440.06644
  23544766.420   123728645.32608  23544764.000    96411898.70343
  20880860.520   109729656.36208  20880854.820    85503600.46047
  23369389.780   122806966.46608  23369389.500    95693737.57145
  24195074.680   127145969.16507  24195074.300    99074769.27045
  22488116.680   118175838.86408  22488114.100    92085067.44546
  21705469.380   114063004.91909  21705463.700    88880245.71047
 15 01 16 02 12 30.0000000  0  7G16G18G21G25G27G29G31
  23041679.460   121084844.95708  23041672.880    94351823.55144
  23530290.240   123652572.81008  23530287.460    96352621.43243
  20881352.100   109732239.94208  20881346.300    85505613.65047
  23385890.380   122893678.60508  23385890.020    95761305.45544
  24181226.620   127073196.73507  24181225.660    99018063.52046
  22500756.460   118242261.11208  22500754.140    92136825.01446
  21717653.560   114127034.98309  21717648.120    88930139.24747
 15 01 16 02 13  0.0000000  0  7G16G18G21G25G27G29G31
  23025184.760   120998163.87708  23025178.540    94284279.87144
  23515831.680   123576593.41808  23515828.420    96293416.73243
  20881926.440   109735258.44208  20881920.580    85507965.73947
  23402435.300   122980623.20108  23402434.840    95829054.49545
  24167395.700   127000513.77208  24167394.640    98961427.51646
  22513407.120   118308739.84608  22513404.900    92188626.59947
  21729915.740   114191475.57808  21729910.580    88980352.67847
 15 01 16 02 13 30.0000000  0  7G16G18G21G25G27G29G31
  23008708.180   120911578.85908  23008702.520    94216811.07645
  23501391.660   123500711.11908  23501387.740    96234287.71643
  20882583.520   109738711.91808  20882577.720    85510656.77547
  23419024.500   123067800.41108  23419023.900    95896984.75244
  24153581.860   126927921.23308  24153580.740    98904861.87246
  22526068.640   118375275.59508  22526066.520    92240472.62447
  21742255.780   114256325.03109  21742250.820    89030884.69847
 15 01 16 02 14  0.0000000  0  7G16G18G21G25G27G29G31
  22992250.180   120825091.98508  22992245.180    94149418.69845
  23486970.540   123424928.46008  23486965.420    96175236.29443
  20883323.200   109742599.24908  20883317.420    85513685.86447
  23435657.920   123155209.48208  23435657.200    95965095.70745
  24139785.280   126855419.19008  24139784.360    98848366.77646
  22538740.940   118441868.08008  22538738.840    92292362.85247
  21754673.400   114321581.38009  21754668.480    89081733.79447
 15 01 16 02 14 30.0000000  0  7G16G18G21G25G27G29G31
  22975810.940   120738703.99708  22975806.560    94082103.39545
  23472568.680   123349246.94508  23472561.560    96116263.65643
  20884145.140   109746918.69908  20884139.540    85517051.67747
  23452335.100   123242848.19908  23452334.000    96033385.59744
  24126005.520   126783006.38008  24126004.740    98791941.23246
  22551423.840   118508516.20708  22551421.760    92344296.43747
  21767168.000   114387241.12509  21767163.020    89132897.23147
 15 01 16 02 15  0.0000000  0  7G16G18G21G25G27G29G31
  22959391.300   120652418.96308  22959387.580    94014868.32445
  23458187.060   123273672.01208  23458180.100    96057374.13344
  20885049.720   109751672.22508  20885044.220    85520755.72447
  23469056.300   123330718.08108  23469055.300    96101855.63044
  24112243.220   126710685.17908  24112242.720    98735587.07646
  22564117.700   118575221.54408  22564115.540    92396274.59347
  21779739.340   114453304.12809  21779734.400    89184374.88447
 15 01 16 02 15 30.0000000  0  7G16G18G21G25G27G29G31
  22942990.940   120566235.41708  22942987.960    93947712.31445
  23443825.540   123198203.07308  23443819.460    95998567.21744
  20886036.020   109756854.90708  20886030.540    85524794.18747
  23485820.680   123418814.82808  23485819.900    96170502.44445
  24098497.780   126638452.25708  24098497.280    98679301.68946
  22576821.620   118641980.16908  22576819.340    92448294.29746
  21792386.460   114519764.59609  21792381.460    89236162.26347
 15 01 16 02 16  0.0000000  0  7G16G18G21G25G27G29G31
  22926610.500   120480156.65108  22926607.960    93880637.95345
  23429484.920   123122843.81308  23429479.780    95939845.74844
  20887104.200   109762467.91808  20887098.720    85529167.97047
  23502628.360   123507138.96508  23502627.980    96239326.41645
  24084769.360   126566308.87308  24084769.120    98623086.11846
  22589535.880   118708793.61808  22589533.560    92500356.72046
  21805109.020   114586621.61109  21805104.000    89288258.64547
 15 01 16 02 16 30.0000000  0  7G16G18G21G25G27G29G31
  22910250.640   120394185.89508  22910248.360    93813647.76845
  23415165.960   123047598.74908  23415161.880    95881213.28645
  20888254.360   109768511.72408  20888248.820    85533877.45247
  23519479.280   123595691.00008  23519479.420    96308327.99845
  24071058.200   126494256.54807  24071057.800    98566941.45846
  22602260.780   118775662.72008  22602258.320    92552462.49146
  21817906.860   114653874.12909  21817901.940    89340663.17748
 15 01 16 02 17  0.0000000  0  7G16G18G21G25G27G29G31
  22893911.720   120308324.60308  22893909.680    93746742.86944
  23400869.220   122972470.15308  23400865.980    95822671.55445
  20889486.120   109774984.60008  20889480.560    85538921.26847
  23536373.160   123684469.23308  23536373.880    96377505.83445
  24057363.980   126422294.48907  24057363.800    98510867.17147
  22614995.860   118842586.46107  22614993.360    92604610.84545
  21830779.420   114721519.10009  21830774.680    89393373.54848
 15 01 16 02 17 30.0000000  0  7G16G18G21G25G27G29G31
  22877593.520   120222572.01208  22877591.520    93679922.65444
  23386594.660   122897457.62708  23386591.940    95764220.29045
  20890798.960   109781883.53708  20890793.320    85544297.06747
  23553309.300   123773470.15108  23553310.620    96446857.17044
  24043686.380   126350420.13407  24043686.020    98454861.24446
  22627740.720   118909561.92707  22627737.960    92656799.51445
  21843725.600   114789551.42009  21843720.980    89446385.71148
 15 01 16 02 18  0.0000000  0  7G16G18G21G25G27G29G31
  22861296.840   120136932.13108  22861294.840    93613190.29044
  23372343.400   122822566.63008  23372341.040    95705863.74045
  20892193.040   109789209.47208  20892187.460    85550005.60047
  23570288.080   123862694.86208  23570289.460    96516382.94144
  24030025.860   126278635.59307  24030025.940    98398925.27846
  22640495.580   118976590.62707  22640492.780    92709029.64944
  21856745.340   114857970.74609  21856740.980    89499699.45647
 15 01 16 02 18 30.0000000  0  7G16G18G21G25G27G29G31
  22845021.500   120051404.08008  22845019.380    93546545.06345
  23358115.280   122747796.81108  23358113.100    95647601.57845
  20893667.620   109796958.57608  20893662.160    85556043.86547
  23587308.720   123952139.54908  23587310.000    96586080.08144
  24016381.980   126206937.88908  24016382.120    98343056.94445
  22653260.200   119043669.42907  22653256.600    92761298.87444
  21869837.680   114926771.97209  21869833.600    89553310.77847
 15 01 16 02 19  0.0000000  0  7G16G18G21G25G27G29G31
  22828767.740   119965989.91908  22828765.320    93479988.60045
  23343910.960   122673151.18908  23343908.760    95589436.18145
  20895222.500   109805129.58608  20895217.240    85562410.89847
  23604371.160   124041803.45008  23604372.100    96655948.04044
  24002754.800   126135327.25508  24002755.260    98287256.50745
  22666034.200   119110798.35307  22666029.800    92813607.10645
  21883002.260   114995952.47509  21882998.420    89607217.65147
 15 01 16 02 19 30.0000000  0  7G16G18G21G25G27G29G31
  22812535.880   119880691.53608  22812533.420    93413522.33845
  23329730.740   122598632.26108  23329728.620    95531369.52346
  20896857.700   109813722.28108  20896852.420    85569106.52147
  23621475.180   124131685.32908  23621474.580    96725985.87443
  23989144.340   126063803.40308  23989144.760    98231523.64645
  22678817.700   119177977.05807  22678812.580    92865954.20045
  21896238.560   115065509.54909  21896234.820    89661417.95247
 15 01 16 02 20  0.0000000  0  7G16G18G21G25G27G29G31
  22796326.840   119795512.41708  22796323.840    93347149.03345
  23315575.340   122524243.92109  23315573.240    95473404.61745
  20898573.260   109822737.14208  20898567.820    85576131.09047
  23638620.840   124221785.70608  23638619.300    96796194.05143
  23975550.820   125992367.80908  23975551.120    98175859.58746
  22691610.620   119245206.60507  22691605.980    92918340.78845
  21909546.420   115135442.66208  21909542.800    89715911.27947
 15 01 16 02 20 30.0000000  0  7G16G18G21G25G27G29G31
  22780141.300   119710456.93508  22780137.900    93280872.08445
  23301445.980   122449992.57909  23301443.760    95415546.42746
  20900369.520   109832176.03208  20900363.880    85583486.08347
  23655808.520   124312106.80108  23655807.240    96866574.12644
  23961974.760   125921023.63508  23961974.860    98120266.74746
  22704413.980   119312489.75408  22704409.600    92970769.23045
  21922925.800   115205752.26008  21922922.360    89770697.96247
 15 01 16 02 21  0.0000000  0  7G16G18G21G25G27G29G31
  22763979.660   119625526.65708  22763975.800    93214692.65745
  23287342.820   122375879.36108  23287340.520    95357795.88245
  20902246.040   109842036.64908  20902240.280    85591169.69947
  23673037.660   124402645.97007  23673037.000    96937124.09144
  23948415.780   125849769.21408  23948415.740    98064743.89146
  22717227.320   119379824.54708  22717223.300    93023237.89045
  21936376.080   115276434.16608  21936372.720    89825774.77446
 15 01 16 02 21 30.0000000  0  7G16G18G21G25G27G29G31
  22747841.520   119540719.73908  22747837.140    93148609.35445
  23273265.520   122301903.35908  23273263.340    95300152.28545
  20904201.960   109852314.72808  20904196.100    85599178.60347
  23690307.260   124493398.78507  23690307.220    97007840.50344
  23934873.240   125778601.13308  23934872.920    98009288.30346
  22730049.900   119447207.43908  22730046.300    93075744.01745
  21949896.200   115347482.59709  21949892.760    89881137.20046
 15 01 16 02 22  0.0000000  0  7G16G18G21G25G27G29G31
  22731727.100   119456038.18908  22731722.380    93082623.76445
  23259214.940   122228067.73108  23259212.500    95242618.03345
  20906236.940   109863008.78308  20906230.980    85607511.62647
  23707617.380   124584364.44008  23707617.720    97078722.80844
  23921347.220   125707519.68609  23921346.360    97953900.17946
  22742881.740   119514638.35608  22742878.200    93128287.61046
  21963485.740   115418895.25308  21963481.720    89936783.39046
 15 01 16 02 22 30.0000000  0  7G16G18G21G25G27G29G31
  22715637.280   119371486.23208  22715632.340    93016739.11245
  23245192.100   122154377.57908  23245189.100    95185197.13645
  20908351.360   109874120.97608  20908345.440    85616170.48446
  23724968.400   124675544.17908  23724968.840    97149771.95844
  23907838.020   125636526.99809  23907836.660    97898581.22745
  22755722.880   119582119.43308  22755719.900    93180870.24046
  21977144.580   115490671.62809  21977139.920    89992713.05846
 15 01 16 02 23  0.0000000  0  7G16G18G21G25G27G29G31
  22699572.700   119287067.14808  22699567.380    92950958.04844
  23231197.540   122080836.50108  23231193.800    95127892.41844
  20910545.040   109885650.99908  20910539.300    85625154.90847
  23742360.100   124766937.99608  23742361.000    97220987.91144
  23894345.820   125565624.04109  23894343.900    97843332.17445
  22768573.760   119649650.98808  22768571.220    93233492.21646
  21990872.480   115562810.15309  21990866.540    90048924.91646
 15 01 16 02 23 30.0000000  0  7G16G18G21G25G27G29G31
  22683531.920   119202773.01408  22683526.280    92885274.30944
  23217230.040   122007437.32908  23217225.740    95070698.27844
  20912816.020   109897587.57108  20912810.600    85634456.13447
  23759790.420   124858535.04508  23759791.460    97292362.20444
  23880868.820   125494801.12409  23880866.380    97788145.47245
  22781432.280   119717223.37108  22781430.500    93286145.97946
  22004666.720   115635298.57009  22004660.140    90105409.39346
 15 01 16 02 24  0.0000000  0  7G16G18G21G25G27G29G31
  22667517.880   119118618.98108  22667512.100    92819699.75244
  23203292.600   121934196.11308  23203288.100    95013627.20144
  20915166.800   109909943.22608  20915161.620    85644083.92647
  23777261.760   124950347.31008  23777262.740    97363904.21844
  23867409.480   125424071.15809  23867406.540    97733031.21645
  22794301.080   119784849.24308  22794299.780    93338841.46546
  22018529.340   115708147.69708  22018522.360    90162174.98346
 15 01 16 02 24 30.0000000  0  7G16G18G21G25G27G29G31
  22651529.520   119034599.76608  22651522.940    92754230.22844
  23189384.180   121861108.05508  23189379.820    94956675.50044
  20917595.860   109922709.93208  20917590.820    85654032.00947
  23794772.520   125042366.47008  23794773.240    97435607.44044
  23853966.360   125353426.90709  23853962.960    97677983.74644
  22807178.740   119852521.17008  22807177.700    93391572.79846
  22032458.460   115781347.42708  22032451.420    90219213.71046
 15 01 16 02 25  0.0000000  0  7G16G18G21G25G27G29G31
  22635567.840   118950720.47408  22635560.540    92688869.73943
  23175505.980   121788179.25808  23175502.000    94899847.89344
  20920103.620   109935889.19908  20920098.500    85664301.58147
  23812323.020   125134594.45208  23812323.240    97507473.39244
  23840540.100   125282871.35809  23840536.320    97623005.38644
  22820065.760   119920241.76908  22820064.760    93444342.09246
  22046454.120   115854898.01008  22046447.740    90276525.85246
 15 01 16 02 25 30.0000000  0  7G16G18G21G25G27G29G31
  22619633.600   118866985.56408  22619626.080    92623621.75744
  23161659.040   121715414.85308  23161655.680    94843148.40445
  20922690.240   109949481.78208  20922684.780    85674893.21446
  23829913.360   125227032.65508  23829912.900    97579503.14944
  23827131.080   125212406.83708  23827127.360    97568097.97744
  22832962.420   119988013.55207  22832961.580    93497151.23445
  22060516.500   115928799.50508  22060511.200    90334111.38246
 15 01 16 02 26  0.0000000  0  7G16G18G21G25G27G29G31
  22603726.420   118783392.77408  22603719.140    92558484.51644
  23147843.180   121642813.67108  23147840.440    94786576.08745
  20925354.960   109963483.95208  20925349.260    85685804.00547
  23847542.800   125319676.06908  23847542.100    97651692.83944
  23813738.480   125142029.46608  23813735.640    97513258.50844
  22845867.860   120055831.96007  22845866.940    93549996.72946
  22074644.800   116003045.35308  22074640.240    90391965.28246
 15 01 16 02 26 30.0000000  0  7G16G18G21G25G27G29G31
  22587847.140   118699946.31108  22587840.560    92493461.31244
  23134059.320   121570380.32208  23134057.200    94730134.56145
  20928097.760   109977896.39408  20928092.060    85697034.48747
  23865211.480   125412525.60107  23865211.060    97724043.11445
  23800362.660   125071741.25108  23800360.240    97458488.49345
  22858782.700   120123698.86707  22858781.500    93602880.02345
  22088838.960   116077634.93708  22088834.640    90450087.04546
 15 01 16 02 27  0.0000000  0  7G16G18G21G25G27G29G31
  22571995.440   118616643.90108  22571989.020    92428550.36044
  23120307.160   121498111.92108  23120305.300    94673821.54045
  20930917.280   109992712.19708  20930911.840    85708579.26447
  23882918.120   125505574.88207  23882917.940    97796548.99644
  23787002.760   125001536.87008  23787000.360    97403783.78545
  22871705.620   120191608.93908  22871704.020    93655796.96645
  22103097.240   116152560.27709  22103093.040    90508470.43846
 15 01 16 02 27 30.0000000  0  7G16G18G21G25G27G29G31
  22556172.080   118533489.98308  22556165.740    92363755.12245
  23106587.760   121426015.09408  23106585.940    94617642.22545
  20933813.940   110007933.68808  20933808.920    85720440.17947
  23900663.080   125598826.12507  23900663.180    97869212.27344
  23773659.480   124931419.60708  23773657.320    97349147.01445
  22884637.460   120259565.35208  22884635.700    93708750.01145
  22117419.620   116227822.02809  22117415.660    90567115.96747
 15 01 16 02 28  0.0000000  0  7G16G18G21G25G27G29G31
  22540377.000   118450484.20409  22540370.620    92299075.33345
  23092900.820   121354089.33708  23092898.960    94561596.18545
  20936787.100   110023557.11408  20936782.500    85732614.28347
  23918445.860   125692275.34407  23918445.700    97942029.84844
  23760332.480   124861386.67708  23760330.220    97294575.93045
  22897577.660   120327565.08308  22897575.860    93761736.82945
  22131804.880   116303414.84809  22131801.320    90626019.44347
 15 01 16 02 28 30.0000000  0  7G16G18G21G25G27G29G31
  22524611.020   118367631.37309  22524604.600    92234514.66545
  23079247.440   121282341.03408  23079245.480    94505688.43145
  20939836.960   110039584.00508  20939832.860    85745102.77047
  23936266.620   125785924.56107  23936266.180    98015003.24644
  23747022.380   124791441.00208  23747019.920    97240072.85245
  22910526.520   120395610.76408  22910524.860    93814759.43144
  22146252.940   116379339.02509  22146249.960    90685181.13148
 15 01 16 02 29  0.0000000  0  7G16G18G21G25G27G29G31
  22508873.720   118284929.83209  22508867.400    92170071.90845
  23065627.560   121210768.70508  23065625.240    94449917.82145
  20942962.480   110056009.34107  20942958.920    85757901.72947
  23954124.280   125879768.42207  23954124.020    98088128.29644
  23733728.340   124721578.48408  23733725.620    97185634.54346
  22923483.420   120463698.25108  22923481.680    93867814.62045
  22160762.480   116455587.80609  22160760.200    90744595.78048
 15 01 16 02 29 30.0000000  0  7G16G18G21G25G27G29G31
  22493165.900   118202383.86709  22493159.580    92105750.38445
  23052042.240   121139376.92508  23052039.460    94394287.90645
  20946164.020   110072834.62407  20946160.820    85771012.33947
  23972019.300   125973808.10408  23972019.060    98161405.95843
  23720450.680   124651801.40308  23720447.420    97131262.83046
  22936448.520   120531829.37608  22936446.680    93920903.77945
  22175333.580   116532160.97509  22175331.940    90804263.16348
 15 01 16 02 30  0.0000000  0  7G16G18G21G25G27G29G31
  22477488.640   118119999.49809  22477482.500    92041554.78145
  23038492.740   121068172.47908  23038489.280    94338803.91845
  20949442.120   110090062.19407  20949439.080    85784436.41547
  23989952.200   126068046.37708  23989951.800    98234838.38443
  23707190.060   124582113.63208  23707186.780    97076960.72846
  22949422.480   120600008.22208  22949420.600    93974030.13945
  22189966.520   116609059.58808  22189965.500    90864184.12848
 15 01 16 02 30 30.0000000  0  7G16G18G21G25G27G29G31
  22461841.780   118037775.67209  22461835.880    91977484.26045
  23024979.000   120997154.91808  23024974.700    94283465.56744
  20952796.080   110107687.61708  20952792.920    85798170.51947
  24007922.180   126162478.93808  24007921.960    98308422.25644
  23693945.740   124512511.96708  23693942.400    97022725.70346
  22962404.800   120668231.26008  22962402.800    94027190.93145
  22204660.440   116686277.90109  22204659.680    90924354.21848
 15 01 16 02 31  0.0000000  0  7G16G18G21G25G27G29G31
  22446226.100   117955716.10708  22446220.420    91913541.75145
  23011501.640   120926328.45408  23011496.440    94228276.10444
  20956226.040   110125711.43508  20956222.540    85812215.04347
  24025929.220   126257106.06008  24025929.340    98382157.67344
  23680717.980   124442997.90308  23680714.160    96968558.90645
  22975395.840   120736499.92708  22975393.740    94080387.28545
  22219415.140   116763814.65409  22219414.260    90984772.44247
 15 01 16 02 31 30.0000000  0  7G16G18G21G25G27G29G31
  22430642.260   117873823.87008  22430636.900    91849729.63045
  22998061.200   120855697.27708  22998055.780    94173238.84645
  20959731.920   110144133.81308  20959728.040    85826570.14547
  24043973.300   126351928.06408  24043973.900    98456044.92545
  23667506.940   124373572.73908  23667503.260    96914461.41745
  22988395.540   120804815.50707  22988393.600    94133620.17846
  22234230.240   116841668.51708  22234229.080    91045437.77647
 15 01 16 02 32  0.0000000  0  7G16G18G21G25G27G29G31
  22415090.380   117792099.58908  22415085.420    91786048.36546
  22984657.940   120785261.98508  22984652.540    94118354.20945
  20963312.980   110162951.19108  20963308.760    85841233.03547
  24062053.780   126446941.60407  24062054.600    98530081.42145
  23654312.200   124304234.43708  23654308.140    96860431.60845
  23001403.600   120873175.47308  23001401.900    94186887.67945
  22249104.620   116919834.87808  22249103.240    91106346.62247
 15 01 16 02 32 30.0000000  0  7G16G18G21G25G27G29G31
  22399570.940   117710545.81408  22399566.340    91722499.99545
  22971292.420   120715025.93708  22971287.100    94063624.82745
  20966969.340   110182163.71708  20966964.700    85856203.84847
  24080170.500   126542146.39107  24080171.580    98604266.94245
  23641133.960   124234983.82708  23641129.700    96806470.09644
  23014420.360   120941580.51907  23014418.840    94240190.30145
  22264037.980   116998311.63108  22264036.520    91167497.30846
 15 01 16 02 33  0.0000000  0  7G16G18G21G25G27G29G31
  22384083.940   117629162.80008  22384079.620    91659084.66245
  22957964.760   120644990.03008  22957959.880    94009051.42245
  20970700.160   110201767.81808  20970695.180    85871479.77547
  24098323.000   126637539.24707  24098324.160    98678598.98944
  23627971.860   124165818.82608  23627967.440    96752575.31144
  23027445.540   121010028.98007  23027444.260    94293526.72145
  22279029.580   117077093.85608  22279028.100    91228886.02247
 15 01 16 02 33 30.0000000  0  7G16G18G21G25G27G29G31
  22368629.120   117547949.29108  22368625.100    91595801.39145
  22944675.060   120575153.40908  22944670.640    93954633.27845
  20974504.520   110221758.86608  20974499.460    85887057.22447
  24116510.420   126733115.34107  24116511.660    98753073.83944
  23614825.420   124096735.93008  23614820.700    96698744.45643
  23040478.400   121078516.70607  23040476.920    94346893.77046
  22294078.320   117156175.41409  22294076.740    91290508.00746
 15 01 16 02 34  0.0000000  0  7G16G18G21G25G27G29G31
  22353208.240   117466914.39508  22353204.460    91532657.32045
  22931425.060   120505525.90808  22931421.320    93900378.10445
  20978383.400   110242142.46108  20978378.560    85902940.55848
  24134734.000   126828880.49307  24134735.000    98827696.00445
  23601695.880   124027741.98708  23601691.880    96644982.96045
  23053519.980   121147050.78507  23053518.340    94400296.91145
  22309185.040   117235560.81709  22309183.100    91352366.76346
 15 01 16 02 34 30.0000000  0  8G16G18G21G22G25G27G29G31
  22337820.800   117386055.31708  22337817.300    91469650.24644
  22918214.720   120436105.06808  22918211.240    93846283.95045
  20982335.580   110262912.33908  20982331.160    85919124.87748
  24549746.920   129009786.41107  24549738.900   100527098.42841
  24152992.440   126924828.35807  24152993.060    98902460.57844
  23588582.260   123958831.95208  23588579.420    96591286.84344
  23066569.060   121215625.97806  23066567.560    94453732.09645
  22324348.160   117315242.23409  22324345.740    91414456.16646
 15 01 16 02 35  0.0000000  0  8G16G18G21G22G25G27G29G31
  22322465.300   117305363.26208  22322462.240    91406773.34545
  22905042.260   120366882.74808  22905038.800    93792344.49645
  20986358.920   110284056.38208  20986354.940    85935600.76348
  24532013.900   128916600.55307  24532005.840   100454486.16043
  24171283.240   127020947.03707  24171283.620    98977358.25243
  23575482.740   123889995.20208  23575481.220    96537647.83644
  23079623.240   121284231.43606  23079622.200    94507190.86845
  22339564.920   117395205.83409  22339561.860    91476765.46946
 15 01 16 02 35 30.0000000  0  8G16G18G21G22G25G27G29G31
  22307147.920   117224870.48308  22307145.340    91344051.69746
  22891913.820   120297891.69508  22891910.240    93738585.24445
  20990459.060   110305603.26508  20990455.340    85952390.53748
  24514268.180   128823348.55106  24514258.540   100381822.30741
  24189611.880   127117265.57306  24189612.400    99052411.63044
  23562403.040   123821261.77108  23562402.340    96484089.34545
  23092688.900   121352897.18506  23092688.580    94560696.57845
  22354840.600   117475479.34909  22354836.980    91539316.25346
 15 01 16 02 36  0.0000000  0  8G16G18G21G22G25G27G29G31
  22291863.160   117144547.34708  22291860.640    91281462.26346
  22878823.880   120229102.84408  22878819.920    93684983.56145
  20994629.760   110327519.64808  20994625.900    85969468.24548
  24496504.400   128730000.87107  24496492.700   100309083.97941
  24207972.100   127213750.50507  24207973.020    99127594.67244
  23549337.140   123752599.63008  23549337.040    96430586.39645
  23105760.540   121421590.94306  23105760.120    94614224.15344
  22370168.700   117556028.03009  22370164.240    91602081.47045
 15 01 16 02 36 30.0000000  0  8G16G18G21G22G25G27G29G31
  22276617.740   117064429.80708  22276614.960    91219033.00746
  22865779.200   120160552.70908  22865775.120    93631567.86944
  20998877.160   110349838.32208  20998872.920    85986859.43048
  24478729.680   128636594.00807  24478716.660   100236250.59842
  24226370.480   127310434.50507  24226371.220    99202932.81144
  23536291.340   123684042.57208  23536291.540    96377165.33046
  23118844.460   121490346.53907  23118843.260    94667799.91444
  22385554.980   117636882.52109  22385549.820    91665084.98246
 15 01 16 02 37  0.0000000  0  8G16G18G21G22G25G27G29G31
  22261402.120   116984468.46209  22261398.920    91156725.47446
  22852770.360   120092191.72608  22852766.280    93578299.58544
  21003191.020   110372506.39008  21003186.420    86004522.87448
  24460934.460   128543078.38407  24460924.120   100163381.25342
  24244796.880   127407264.52908  24244797.380    99278384.78044
  23523255.720   123615538.79908  23523256.140    96323785.77546
  23131930.640   121559111.95707  23131928.460    94721383.32043
  22400989.040   117717988.48909  22400983.420    91728284.43545
 15 01 16 02 37 30.0000000  0  8G16G18G21G22G25G27G29G31
  22246226.440   116904716.89309  22246222.720    91094581.38646
  22839807.920   120024074.51708  22839803.320    93525221.24644
  21007580.840   110395574.04108  21007575.920    86022497.68147
  24443128.940   128449508.23407  24443121.140   100090469.57842
  24263260.720   127504291.04208  24263260.760    99353989.85344
  23510239.980   123547140.06708  23510240.560    96270488.09246
  23145028.840   121627939.05408  23145025.180    94775014.80444
  22416480.240   117799394.99209  22416474.360    91791718.06645
 15 01 16 02 38  0.0000000  0  8G16G18G21G22G25G27G29G31
  22231086.720   116825155.10409  22231082.500    91032585.17246
  22826888.200   119956181.35007  22826883.120    93472317.44345
  21012041.960   110419017.14908  21012036.840    86040765.04248
  24425309.220   128355863.76507  24425302.460   100017499.97743
  24281757.440   127601490.28008  24281757.080    99429729.49044
  23497239.760   123478823.73608  23497240.580    96217254.63146
  23158134.520   121696805.23008  23158129.880    94828676.75344
  22432023.720   117881076.43408  22432018.240    91855365.93646
 15 01 16 02 38 30.0000000  0  8G16G18G21G22G25G27G29G31
  22215983.760   116745787.08209  22215979.280    90970739.96846
  22814011.920   119888517.30108  22814006.540    93419592.22843
  21016574.580   110442836.87408  21016569.360    86059325.86847
  24407476.040   128262149.41907  24407470.220    99944475.95743
  24300287.100   127698863.04007  24300286.220    99505604.36144
  23484255.540   123410591.97208  23484256.460    96164087.03347
  23171247.860   121765712.24208  23171241.780    94882370.51643
  22447619.460   117963032.37709  22447614.280    91919227.68646
 15 01 16 02 39  0.0000000  0  8G16G18G21G22G25G27G29G31
  22200918.060   116666615.68708  22200913.600    90909047.99946
  22801179.680   119821084.76708  22801174.340    93367047.41944
  21021178.480   110467032.30807  21021173.340    86078179.44947
  24389629.900   128168368.01707  24389624.860    99871399.73044
  24318849.500   127796408.34307  24318848.360    99581613.72544
  23471287.440   123342445.08208  23471288.480    96110985.59546
  23184368.900   121834660.64108  23184361.520    94936096.54343
  22463267.000   118045260.12209  22463262.260    91983301.24946
 15 01 16 02 39 30.0000000  0  8G16G18G21G22G25G27G29G31
  22185889.960   116587642.22308  22185885.640    90847510.26546
  22788392.080   119753885.83308  22788387.000    93314684.59744
  21025853.420   110491601.14407  21025848.460    86097323.99347
  24371771.240   128074521.21807  24371766.880    99798272.48344
  24337444.140   127894124.17206  24337442.840    99657755.90144
  23458335.380   123274382.23807  23458336.680    96057949.60247
  23197497.480   121903649.17508  23197488.540    94989853.82842
  22478965.740   118127756.22509  22478961.340    92047583.89447
 15 01 16 02 40  0.0000000  0  8G16G18G21G22G25G27G29G31
  22170900.360   116508871.24108  22170896.240    90786130.30446
  22775649.980   119686925.58508  22775645.400    93262507.79244
  21030599.640   110516544.02007  21030594.820    86116760.00647
  24353901.120   127980614.32007  24353897.180    99725098.44944
  24356071.280   127992011.56507  24356070.540    99734031.74044
  23445399.800   123206405.88408  23445400.880    96004981.02946
  23210634.100   121972680.32208  23210622.140    95043644.30641
  22494715.480   118210520.53209  22494711.320    92112075.58747
 15 01 16 02 40 30.0000000  0  8G16G18G21G22G25G27G29G31
  22155949.480   116430303.94408  22155945.520    90724909.04645
  22762953.660   119620205.39008  22762949.400    93210518.02044
  21035416.780   110541859.20207  21035411.960    86136486.11247
  24336019.600   127886648.54006  24336016.080    99651878.53644
  24374730.760   128090068.28807  24374730.800    99810439.53845
  23432480.560   123138514.93308  23432481.800    95952079.00646
  23223778.600   122041753.08908                                
  22510515.380   118293548.97109  22510511.440    92176773.06146
 15 01 16 02 41  0.0000000  0  8G16G18G21G22G25G27G29G31
  22141037.420   116351940.68108  22141033.500    90663846.78445
  22750303.100   119553725.95408  22750299.300    93158715.87645
  21040303.920   110567542.25807  21040299.100    86156498.90547
  24318127.020   127792624.48606  24318123.520    99578613.18944
  24393421.880   128188290.73708  24393422.140    99886976.47644
  23419577.260   123070707.26808  23419578.060    95899241.89546
  23236930.480   122110865.37308  23236940.460    95151376.35041
  22526364.400   118376836.28009  22526360.700    92241672.25946
 15 01 16 02 41 30.0000000  0  8G16G18G21G22G25G27G29G31
  22126171.400   116273819.29508  22126167.400    90602972.98145
  22737705.640   119487525.55508  22737702.140    93107131.15844
  21045267.640   110593628.39807  21045263.080    86176825.76847
  24300230.780   127698580.12407  24300227.280    99505332.10243
  24412151.160   128286713.42307  24412151.280    99963669.41744
  23406696.600   123003018.54708  23406697.100    95846497.45146
  23250096.540   122180052.71308  23250104.560    95205288.53443
  22542268.840   118460415.57508  22542265.420    92306798.95446
 15 01 16 02 42  0.0000000  0  8G16G18G21G22G25G27G29G31
  22111336.720   116195862.56809  22111332.480    90542227.48545
  22725146.720   119421527.54408  22725143.300    93055704.13445
  21050292.600   110620036.64907  21050288.500    86197403.62147
  24282316.320   127604438.90207  24282312.360    99431975.42443
  24430903.140   128385255.66207  24430903.120   100040455.53844
  23393823.360   122935369.54207  23393823.420    95793783.93946
  23263261.640   122249235.72808  23263267.300    95259197.31743
  22558213.060   118544204.75608  22558209.900    92372089.19846
 15 01 16 02 42 30.0000000  0  8G16G18G21G22G25G27G29G31
  22096543.360   116118123.04909  22096538.760    90481651.22245
  22712636.440   119355784.87408  22712633.080    93004476.07645
  21055388.080   110646815.61107  21055384.460    86218270.34547
  24264393.400   127510253.51907  24264389.120    99358584.35744
  24449687.080   128483966.34007  24449686.980   100117372.93344
  23380967.020   122867810.29608  23380967.080    95741140.42646
  23276435.200   122318464.53508  23276438.960    95313141.76543
  22574206.180   118628251.10008  22574203.060    92437579.84146
 15 01 16 02 43  0.0000000  0  8G16G18G21G22G25G27G29G31
  22081790.980   116040598.91109  22081786.100    90421242.81145
  22700174.400   119290295.94208  22700170.860    92953445.75344
  21060553.200   110673959.82407  21060550.000    86239421.69247
  24246461.720   127416022.63707  24246457.180    99285157.79744
  24468501.940   128582840.26007  24468501.900   100194417.52443
  23368126.840   122800336.99907  23368126.740    95688563.85446
  23289616.600   122387735.28008  23289618.200    95367118.92843
  22590246.920   118712547.93608  22590243.960    92503265.67146
 15 01 16 02 43 30.0000000  0  8G16G18G21G22G25G27G29G31
  22067079.640   115963290.46009  22067074.440    90361002.44645
  22687760.580   119225061.21708  22687756.920    92902613.50245
  21065787.200   110701465.91707  21065784.340    86260855.00747
  24228521.400   127321746.64107  24228516.860    99211696.11943
  24487347.180   128681873.98707  24487346.980   100271586.61643
  23355302.720   122732947.63608  23355302.840    95636052.68845
  23302805.420   122457045.36208  23302805.720    95421126.71044
  22606334.460   118797090.21908  22606331.740    92569142.71545
 15 01 16 02 44  0.0000000  0  8G16G18G21G22G25G27G29G31
  22052410.180   115886202.01209  22052404.820    90300933.50845
  22675396.140   119160085.63508  22675392.340    92851983.19345
  21071090.340   110729334.82607  21071087.600    86282571.03047
  24210573.240   127227430.20306  24210568.900    99138202.91143
  24506223.300   128781068.17808  24506223.120   100348880.74443
  23342495.080   122665644.09008  23342495.100    95583608.38945
  23316002.040   122526397.29007  23316001.100    95475167.11344
  22622468.860   118881877.17308  22622466.040    92635210.48045
 15 01 16 02 44 30.0000000  0  8G16G18G21G22G25G27G29G31
  22037782.340   115809332.32509  22037777.060    90241035.04345
  22663080.920   119095368.15008  22663077.040    92801554.00044
  21076461.620   110757561.35307  21076458.820    86304565.73047
  24192617.140   127133072.43606  24192613.000    99064677.47543
  24525129.280   128880417.86108  24525129.060   100426296.09842
  23329703.340   122598422.99808  23329703.120    95531228.32746
  23329206.120   122595787.66308  23329204.800    95529237.48543
  22638648.840   118966902.44409  22638645.840    92701463.94845
 15 01 16 02 45  0.0000000  0  8G16G18G21G22G25G27G29G31
  22023196.880   115732685.48608  22023191.840    90181310.22745
  22650815.560   119030913.29008  22650811.620    92751329.45944
  21081901.000   110786145.60307  21081898.060    86326839.18647
  24174653.700   127038677.70506  24174650.160    98991123.26043
  24544065.040   128979923.63108  24544064.600   100503833.05844
  23316927.840   122531286.10708  23316927.060    95478913.85546
  23342418.080   122665217.93508  23342416.340    95583338.92644
  22654874.040   119052164.76909  22654870.720    92767902.15046
 15 01 16 02 45 30.0000000  0  8G16G18G21G22G25G27G29G31
  22008654.260   115656264.55608  22008649.720    90121761.47346
  22638600.220   118966724.20408  22638596.640    92701312.03645
  21087408.500   110815087.42507  21087405.480    86349391.25147
  24156683.880   126944249.49706  24156680.820    98917543.02744
  24563030.300   129079584.83008  24563029.800   100581491.11443
  23304168.500   122464234.16908  23304167.560    95426665.58946
  23355637.920   122734688.99408  23355636.240    95637472.18244
  22671144.060   119137662.39609  22671140.480    92834523.69246
 15 01 16 02 46  0.0000000  0  8G16G18G21G22G25G27G29G31
  21994154.280   115580068.18108  21994150.380    90062387.70546
  22626435.420   118902800.27808  22626432.080    92651501.16545
  21092983.280   110844382.21407  21092980.140    86372218.35747
  24138707.800   126849786.88506  24138705.120    98843935.85143
  24582024.260   129179397.03407  24582023.760   100659266.78644
  23291424.660   122397264.10808  23291423.540    95374481.16746
  23368865.100   122804197.73708  23368863.220    95691634.79643
  22687457.600   119223389.43509  22687454.060    92901323.98246
 15 01 16 02 46 30.0000000  0  8G16G18G21G22G25G27G29G31
  21979698.360   115504104.17408  21979695.320    90003195.01946
  22614322.780   118839149.05308  22614319.860    92601902.83445
  21098625.760   110874031.74607  21098622.420    86395321.89847
  24120726.880   126755297.81806  24120724.160    98770308.15144
  24601047.580   129279363.52407  24601046.940   100737162.69543
  23278697.280   122330380.75708  23278696.100    95322364.26646
  23382100.400   122873748.72008  23382098.160    95745830.33744
  22703814.940   119309347.62608  22703811.440    92968304.40946
 15 01 16 02 47  0.0000000  0  8G16G18G21G22G25G27G29G31
  21965286.440   115428372.26508  21965284.280    89944183.17346
  22602262.200   118775770.55308  22602259.800    92552517.00845
  21104335.540   110904034.43108  21104331.800    86418700.60547
  24102740.980   126660782.08306  24102738.220    98696659.64644
  24620099.420   129379480.63907  24620098.960   100815175.92344
  23265985.880   122263581.64108  23265984.660    95270313.04046
  23395343.200   122943339.60708  23395340.760    95800056.98743
  22720215.020   119395531.48008  22720211.780    93035460.64646
 15 01 16 02 47 30.0000000  0  8G16G18G21G22G25G27G29G31
  21950918.860   115352872.87908  21950917.480    89885352.50546
  22590253.800   118712665.32308  22590251.620    92503344.10345
  21110111.520   110934385.45008  21110107.380    86442350.74147
  24084750.380   126566240.37407  24084746.960    98622990.87444
  24639178.980   129479745.07307  24639179.040   100893303.96943
  23253290.180   122196864.95108  23253289.000    95218326.00946
  23408593.360   123012968.43308  23408590.260    95854313.19943
  22736656.900   119481936.38408  22736654.220    93102789.15746
 15 01 16 02 48  0.0000000  0  8G16G18G21G22G25G27G29G31
  21936596.520   115277609.98008  21936595.660    89826706.12546
  22578298.520   118649837.97108  22578296.080    92454387.71145
  21115953.820   110965085.95107  21115949.420    86466273.20147
  24066755.940   126471677.38207  24066751.620    98549305.52344
  24658286.600   129580157.13507  24658287.160   100971546.99942
  23240610.640   122130232.43908  23240609.300    95166404.58146
  23421850.900   123082637.22408  23421847.560    95908600.53943
  22753140.520   119568561.33407  22753138.420    93170289.09046
 15 01 16 02 48 30.0000000  0  8G16G18G21G22G25G27G29G31
  21922318.820   115202580.00508  21922318.020    89768241.24046
  22566395.520   118587285.44809  22566392.700    92405645.47545
  21121860.940   110996128.49107  21121856.680    86490462.19647
  24048756.980   126377090.02507  24048751.980    98475601.18945
  24677421.180   129680709.79508  24677421.380   101049899.72142
  23227946.040   122063678.55008  23227944.440    95114544.39746
  23435114.800   123152340.31408  23435111.300    95962914.65244
  22769664.260   119655398.02307  22769663.060    93237953.98746
 15 01 16 02 49  0.0000000  0  8G16G18G21G22G25G27G29G31
  21908087.740   115127794.15508  21908086.740    89709966.55646
  22554546.840   118525018.64808  22554543.740    92357125.87845
  21127834.240   111027520.09207  21127830.320    86514923.18747
  24030755.500   126282489.59208  24030750.240    98401886.68045
  24696584.020   129781410.33708  24696582.440   101128367.68042
  23215297.980   121997211.93108  23215296.500    95062752.28045
  23448386.760   123222086.21108  23448383.520    96017262.07044
  22786229.700   119742451.41208  22786229.060    93305787.73546
 15 01 16 02 49 30.0000000  0  8G16G18G21G22G25G27G29G31
  21893902.580   115053249.61208  21893901.320    89651879.90546
  22542751.920   118463035.12609  22542748.960    92308827.04945
  21133872.700   111059254.28207  21133869.220    86539651.12547
  24012751.160   126187873.49808  24012745.700    98328159.92945
  24715773.860   129882252.36008  24715769.440   101206945.91741
  23202665.540   121930827.59808  23202663.800    95011024.23246
  23461665.860   123291870.05008  23461662.900    96071639.06244
  22802835.620   119829714.40208  22802835.080    93373784.85846
 15 01 16 02 50  0.0000000  0  8G16G18G21G22G25G27G29G31
  21879764.020   114978949.76409  21879762.460    89593983.94445
  22531011.420   118401338.24809  22531008.280    92260751.58245
  21139976.180   111091329.73307  21139973.080    86564644.98647
  23994744.540   126093245.39408  23994738.980    98254423.83045
  24734990.540   129983235.30308  24734985.000   101285633.94943
  23190048.940   121864526.43208  23190047.020    94959360.98245
  23474952.440   123361692.58408  23474950.040    96126046.21644
  22819481.340   119917184.80408  22819480.500    93441943.57646
 15 01 16 02 50 30.0000000  0  8G16G18G21G22G25G27G29G31
  21865672.920   114904898.88808  21865670.900    89536281.94745
  22519326.520   118339932.94109  22519322.680    92212903.29645
  21146144.960   111123748.21307  21146142.260    86589906.13947
  23976736.400   125998610.21108  23976731.080    98180682.24245
  24754234.100   130084360.00507  24754229.200   101364432.31243
  23177448.560   121798310.86208  23177446.700    94907764.43446
  23488247.020   123431556.26608  23488245.040    96180485.43444
  22836166.420   120004861.96508  22836165.180    93510263.46046
 15 01 16 02 51  0.0000000  0  8G16G18G21G22G25G27G29G31
  21851629.120   114831096.74709  21851626.600    89478773.78745
  22507697.040   118278819.11909  22507692.720    92165282.13745
  21152378.240   111156505.21307  21152375.820    86615431.06447
  23958726.760   125903967.93408  23958721.680    98106935.11645
  24773503.700   130185622.33907  24773500.220   101443337.92043
  23164863.820   121732178.06608  23164861.980    94856232.39646
  23501549.120   123501458.20608  23501547.300    96234954.43544
  22852889.600   120092740.17308  22852887.900    93578739.97845
 15 01 16 02 51 30.0000000  0  8G16G18G21G22G25G27G29G31
  21837633.440   114757547.83808  21837630.220    89421462.91044
  22496123.900   118218001.40109  22496119.440    92117891.71946
  21158676.080   111189600.73607  21158673.740    86641219.78347
  23940716.680   125809323.59108  23940711.680    98033186.37045
  24792799.540   130287023.03907  24792796.800   101522351.38543
  23152295.080   121666130.40508  23152293.840    94804766.69246
  23514859.080   123571400.90508  23514857.480    96289455.18445
  22869650.600   120180818.84308  22869648.540    93647372.71845
 15 01 16 02 52  0.0000000  0  8G16G18G21G22G25G27G29G31
  21823686.280   114684254.84208  21823682.260    89364351.46444
  22484607.660   118157482.57109  22484603.220    92070734.18546
  21165038.580   111223034.60608  21165035.980    86667272.13747
  23922706.680   125714680.03208  23922701.740    97959438.26045
  24812121.440   130388561.26807  24812119.420   101601471.97842
  23139742.480   121600168.37507  23139741.640    94753367.72846
  23528177.000   123641384.61608  23528175.200    96343987.93045
  22886448.880   120269095.53208  22886446.580    93716159.77545
 15 01 16 02 52 30.0000000  0  7G16G18G21G22G27G29G31
  21809788.520   114611222.79708  21809784.000    89307443.36345
  22473149.100   118097267.42409  22473144.980    92023813.30646
  21171465.820   111256807.65208  21171462.760    86693588.80547
  23904697.700   125620042.19308  23904692.840    97885694.61044
  23127206.600   121534294.25107  23127206.300    94702037.29345
  23541503.220   123711412.12608  23541501.360    96398554.76945
  22903284.220   120357569.65607  22903282.200    93785100.70245
 15 01 16 02 53  0.0000000  0  7G16G18G21G22G27G29G31
  21795939.060   114538445.44308  21795934.540    89250733.73645
  22461747.200   118037350.26609  22461743.500    91977124.62846
  21177955.640   111290909.35908  21177952.000    86720161.57347
  23886688.640   125525404.63808  23886683.800    97811951.12043
  23114686.020   121468499.86708  23114686.220    94650768.95646
  23554836.140   123781475.08308  23554833.860    96453149.24144
  22920154.520   120446230.15007  22920153.440    93854186.73245
 15 01 16 02 53 30.0000000  0  7G16G18G21G22G27G29G31
  21782138.680   114465926.32408  21782134.780    89194225.34445
  22450402.620   117977734.21109  22450399.200    91930670.57146
  21184507.760   111325339.71607  21184503.640    86746990.42747
  23868680.260   125430770.88408  23868674.100    97738210.59243
  23102181.000   121402786.20008  23102181.260    94599563.50745
  23568175.800   123851573.86408  23568173.040    96507771.66544
  22937059.880   120535074.99907  22937060.080    93923416.47146
 15 01 16 02 54  0.0000000  0  7G16G18G21G22G27G29G31
  21768388.000   114393667.41108  21768384.800    89137919.72446
  22439115.840   117918422.03709  22439112.600    91884453.32346
  21191121.540   111360096.33907  21191117.440    86774073.51447
  23850672.920   125336143.56307  23850664.220    97664474.97641
  23089691.540   121337153.17208  23089691.640    94548420.90445
  23581522.140   123921709.06508  23581519.200    96562422.44544
  22954000.300   120624101.18807  22954001.300    93992787.48946
 15 01 16 02 54 30.0000000  0  7G16G18G21G22G27G29G31
  21754687.800   114321672.75008  21754685.180    89081820.00646
  22427887.780   117859417.97109  22427884.680    91838476.14546
  21197797.340   111395180.67907  21197793.640    86801411.95147
  23832667.540   125241527.50908  23832658.180    97590748.16643
  23077217.920   121271602.96108  23077217.460    94497342.82245
  23594875.640   123991882.71208  23594872.860    96617103.20843
  22970975.700   120713307.71607  22970976.900    94062299.08045
 15 01 16 02 55  0.0000000  0  7G16G18G21G22G27G29G31
  21741038.980   114249946.62608  21741036.520    89025929.54145
  22416718.920   117800726.14508  22416716.040    91792742.28046
  21204535.180   111430591.98307  21204532.240    86829005.15847
  23814665.220   125146927.02808  23814657.080    97517033.55143
  23064760.360   121206137.34208  23064759.180    94446330.65545
  23608236.600   124062096.43908  23608234.020    96671815.18944
  22987985.740   120802693.45808  22987986.560    94131950.26645
 15 01 16 02 55 30.0000000  0  7G16G18G21G22G27G29G31
  21727442.360   114178493.72809  21727439.680    88970251.96646
  22405610.180   117742350.82808  22405607.440    91747255.03846
  21211335.660   111466331.14507  21211333.360    86856853.84647
  23796666.800   125052346.39708  23796660.260    97443334.43045
  23052319.000   121140758.01107  23052317.500    94395385.74145
  23621605.320   124132352.03308  23621603.160    96726559.78544
  23005029.840   120892257.24708  23005029.920    94201740.22445
 15 01 16 02 56  0.0000000  0  7G16G18G21G22G27G29G31
  21713898.020   114107315.00309  21713894.860    88914788.03246
  22394561.920   117684293.49308  22394559.240    91702015.57946
  21218198.200   111502394.53008  21218196.220    86884955.19547
  23778672.680   124957787.30208  23778667.340    97369652.09445
  23039893.880   121075464.26608  23039892.100    94344507.52245
  23634981.600   124202648.52207  23634980.200    96781336.24344
  23022107.100   120981995.39908  23022106.180    94271666.05045
 15 01 16 02 56 30.0000000  0  7G16G18G21G22G27G29G31
  21700406.140   114036411.76009  21700402.400    88859538.74246
  22383574.520   117626555.47808  22383571.720    91657024.92446
  21225122.540   111538780.89007  21225120.400    86913308.20047
  23760683.100   124863251.92108  23760678.620    97295988.26745
  23027484.820   121010254.97307  23027483.440    94293695.07645
  23648365.620   124272985.14807  23648364.920    96836143.96745
  23039216.700   121071903.79308  23039214.620    94341724.55345
 15 01 16 02 57  0.0000000  0  7G16G18G21G22G27G29G31
  21686966.180   113965781.87109  21686962.060    88804502.47146
  22372647.780   117569135.18209  22372644.660    91612281.82646
  21232107.340   111575484.14408  21232104.780    86941908.14747
  23742697.820   124768738.83908  23742693.580    97222341.81045
  23015091.300   120945126.41508  23015090.480    94242945.57445
  23661756.760   124343358.01907  23661756.580    96890979.95645
  23056357.380   121161975.96608  23056354.320    94411910.66245
 15 01 16 02 57 30.0000000  0  7G16G18G21G22G27G29G31
  21673579.800   113895434.23209  21673575.500    88749686.12946
  22361783.120   117512040.33809  22361779.480    91567792.32546
  21239153.140   111612507.90808  21239150.260    86970757.83147
  23724718.380   124674255.86308  23724714.120    97148718.80044
  23002714.320   120880084.01008  23002713.900    94192263.19045
  23675156.060   124413772.63307  23675155.980    96945848.44845
  23073529.380   121252213.95808  23073525.720    94482225.97645
 15 01 16 02 58  0.0000000  0  7G16G18G21G22G27G29G31
  21660245.940   113825363.53909  21660241.620    88695085.58146
  22350979.600   117455266.45109  22350975.460    91523552.93246
  21246258.260   111649843.68908  21246255.100    86999850.65447
  23706743.920   124579798.75708  23706739.560    97075115.95344
  22990352.600   120815120.76308  22990352.420    94141642.47745
  23688562.120   124484221.58607  23688561.700    97000743.71944
  23090730.860   121342607.98308  23090726.860    94552662.84645
 15 01 16 02 58 30.0000000  0  7G16G18G21G22G27G29G31
  21646965.320   113755573.36009  21646960.920    88640703.64446
  22340237.940   117398817.74009  22340233.300    91479566.91046
  21253422.700   111687491.70108  21253419.320    87029186.77947
  23688775.360   124485372.43908  23688770.620    97001537.09144
  22978006.420   120750238.60308  22978006.320    94091084.98945
  23701975.460   124554707.70207  23701974.680    97055667.96445
  23107961.800   121433157.11308  23107957.820    94623220.63244
 15 01 16 02 59  0.0000000  0  7G16G18G21G22G27G29G31
  21633739.320   113686070.60009  21633734.840    88586545.64945
  22329559.100   117342699.89409  22329554.260    91435838.70445
  21260646.800   111725453.84408  21260643.240    87058767.66147
  23670813.760   124390982.65508  23670807.840    96927986.62143
  22965676.320   120685441.06708  22965675.900    94040593.39745
  23715396.320   124625234.05107  23715395.300    97110623.49145
  23125222.280   121523861.68708  23125218.460    94693899.49644
 15 01 16 02 59 30.0000000  0  7G16G18G21G22G27G29G31
  21620568.160   113616856.74908  21620563.420    88532612.77845
  22318943.400   117286914.77609  22318939.020    91392369.77446
  21267930.280   111763728.13508  21267926.500    87088591.78647
  23652859.460   124296631.63308  23652852.200    96854466.37143
  22953362.180   120620727.78908  22953361.120    93990167.49845
  23728824.740   124695800.18607  23728823.460    97165610.05345
  23142511.660   121614718.42008  23142508.340    94764696.92844
 15 01 16 03 00  0.0000000  0  7G16G18G21G22G27G29G31
  21607452.220   113547933.34008  21607447.180    88478906.24245
  22308391.460   117231464.22009  22308387.600    91349161.55146
  21275272.720   111802312.20608  21275268.700    87118657.29647
  23634912.980   124202321.80308  23634904.100    96780978.20143
  22941063.780   120556098.35708  22941062.200    93939806.92245
  23742260.660   124766405.43507  23742259.160    97220627.12344
  23159829.360   121705723.88208  23159826.420    94835610.24044
 15 01 16 03 00 30.0000000  0  7G16G18G21G22G27G29G31
  21594391.720   113479301.50208  21594386.560    88425426.90045
  22297903.520   117176349.54009  22297900.100    91306215.04946
  21282673.760   111841203.67808  21282669.460    87148962.34147
  23616974.620   124108054.98508  23616964.960    96707523.53644
  22928781.020   120491551.79608  22928778.760    93889510.89944
  23755703.980   124837049.31807  23755701.980    97275674.29345
  23177174.780   121796874.19808  23177172.060    94906636.46145
 15 01 16 03 01  0.0000000  0  7G16G18G21G22G27G29G31
  21581387.780   113410966.10409  21581382.620    88372178.56845
  22287480.280   117121575.08609  22287477.280    91263533.66046
  21290133.380   111880402.82408  21290128.800    87179507.12647
  23599045.300   124013835.67508  23599036.320    96634105.94744
  22916514.340   120427090.28908  22916511.460    93839281.15544
  23769155.020   124907733.90907  23769152.560    97330753.16845
  23194547.520   121888168.38708  23194545.120    94977774.78445
 15 01 16 03 01 30.0000000  0  7G16G18G21G22G27G29G31
  21568440.420   113342926.55809  21568435.160    88319160.76745
  22277121.560   117067139.78709  22277118.940    91221116.56447
  21297650.660   111919904.61308  21297645.780    87210287.74947
  23581124.880   123919663.34008  23581116.960    96560724.97945
  22904263.160   120362710.71308  22904260.000    93789115.26844
  23782613.240   124978456.04007  23782610.420    97385861.31445
  23211946.400   121979600.22108  23211944.220    95049020.34845
 15 01 16 03 02  0.0000000  0  7G16G18G21G22G27G29G31
  21555550.680   113275188.73609  21555545.200    88266378.03646
  22266828.620   117013050.01409  22266826.320    91178968.69847
  21305225.940   111959711.67708  21305220.900    87241306.22648
  23563214.620   123825544.79608  23563207.460    96487385.91945
  22892028.240   120298416.93008  22892024.800    93739016.22344
  23796079.320   125049219.52207  23796075.800    97441001.66945
  23229371.760   122071170.83508  23229369.840    95120374.03745
 15 01 16 03 02 30.0000000  0  7G16G18G21G22G27G29G31
  21542718.180   113207751.11809  21542712.420    88213829.25646
  22256601.140   116959303.99709  22256599.020    91137088.69347
  21312858.080   111999818.52308  21312853.100    87272558.31247
  23545314.320   123731478.67308  23545307.900    96414087.68645
  22879808.940   120234205.29708  22879805.280    93688981.19244
  23809552.480   125120020.67607  23809548.380    97496171.38144
  23246822.280   122162873.65808  23246820.380    95191830.75545
 15 01 16 03 03  0.0000000  0  7G16G18G21G22G27G29G31
  21529943.540   113140617.90309  21529937.360    88161517.65846
  22246439.760   116905905.35909  22246437.640    91095479.37446
  21320547.120   112040225.03208  21320542.360    87304043.90847
  23527424.680   123637469.74608  23527419.280    96340834.04245
  22867605.700   120170077.71308  22867602.300    93639011.66544
  23823033.120   125190861.65707  23823028.640    97551372.11545
  23264297.640   122254707.13408  23264295.680    95263389.31045
 15 01 16 03 03 30.0000000  0  7G16G18G21G22G27G29G31
  21517227.100   113073791.48009  21517220.460    88109445.10246
  22236345.180   116852857.59108  22236342.900    91054143.45846
  21328292.820   112080929.93208  21328288.480    87335761.99547
  23509546.680   123543521.04708  23509542.020    96267627.30346
  22855418.620   120106034.59608  22855415.520    93589107.92545
  23836521.320   125261742.56307  23836516.660    97606603.98044
  23281797.340   122346668.79908  23281795.500    95335047.69346
 15 01 16 03 04  0.0000000  0  7G16G18G21G22G27G29G31
  21504569.040   113007272.72909  21504562.380    88057612.31346
  22226317.420   116800161.28008  22226314.900    91013081.41246
  21336094.520   112121929.96408  21336090.840    87367710.05947
  23491680.460   123449633.60908  23491676.200    96194468.31746
  22843247.360   120042074.61608  22843244.440    93539269.00045
  23850016.920   125332662.27507  23850011.860    97661866.05644
  23299320.660   122438754.47508  23299319.000    95406802.76544
 15 01 16 03 04 30.0000000  0  7G16G18G21G22G27G29G31
  21491969.360   112941061.71209  21491963.020    88006019.30946
  22216356.420   116747816.11708  22216353.720    90972292.98946
  21343951.600   112163221.11608  21343948.560    87399884.96547
  23473826.060   123355808.20808  23473822.060    96121357.67546
  22831091.600   119978195.61308  22831088.880    93489493.17045
  23863519.540   125403618.45807  23863514.140    97717156.53844
  23316866.620   122530959.02008  23316865.040    95478650.43644
 15 01 16 03 05  0.0000000  0  7G16G18G21G22G27G29G31
  21479429.560   112875165.88809  21479423.620    87954671.90045
  22206463.420   116695828.81008  22206460.600    90931783.40546
  21351864.820   112204806.87608  21351862.260    87432289.44547
  23455984.920   123262052.05908  23455981.020    96048300.97646
  22818952.180   119914402.13408  22818949.660    93439783.98845
  23877030.060   125474615.72407  23877023.920    97772479.07944
  23334435.560   122623283.81108  23334434.080    95550591.81345
 15 01 16 03 05 30.0000000  0  7G16G18G21G22G27G29G31
  21466949.460   112809584.37509  21466943.860    87903569.43145
  22196638.340   116644198.77208  22196635.280    90891552.23246
  21359833.360   112246682.49308  21359831.060    87464919.80647
  23438156.720   123168365.12108  23438153.100    95975298.23346
  22806828.540   119850691.65008  22806826.280    93390139.47545
  23890547.920   125545651.56107  23890541.060    97827831.64843
  23352026.400   122715723.39308  23352024.940    95622622.66845
 15 01 16 03 06  0.0000000  0  7G16G18G21G22G27G29G31
  21454530.300   112744323.88408  21454525.060    87852717.10945
  22186882.440   116592932.61208  22186879.000    90851604.56046
  21367857.720   112288850.57408  21367855.400    87497778.05547
  23420343.140   123074754.59408  23420339.720    95902355.01446
  22794721.500   119787068.59708  22794719.740    93340563.09546
  23904073.980   125616730.39908  23904067.000    97883217.71643
  23369639.280   122808279.04808  23369637.520    95694743.96644
 15 01 16 03 06 30.0000000  0  7G16G18G21G22G27G29G31
  21442171.820   112679383.23308  21442167.320    87802114.00846
  22177195.380   116542029.25308  22177191.740    90811939.59345
  21375936.920   112331306.61508  21375934.480    87530860.68947
  23402543.960   122981219.91108  23402540.580    95829470.89746
  22782630.480   119723530.00708  22782629.140    93291052.50645
  23917607.660   125687849.33508  23917600.060    97938635.09943
  23387273.080   122900944.70908  23387270.600    95766950.97745
 15 01 16 03 07  0.0000000  0  7G16G18G21G22G27G29G31
  21429874.720   112614764.37608  21429870.780    87751761.68345
  22167577.520   116491490.02408  22167574.100    90772558.36545
  21384070.280   112374047.36308  21384067.620    87564165.17647
  23384759.420   122887762.47308  23384756.180    95756646.96045
  22770555.240   119660074.76008  22770554.080    93241606.87745
  23931148.700   125759006.97108  23931140.220    97994082.64943
  23404927.040   122993716.33808  23404923.840    95839240.55145
 15 01 16 03 07 30.0000000  0  7G16G18G21G22G27G29G31
  21417639.660   112550470.32308  21417636.160    87701662.42746
  22158029.560   116441318.05908  22158026.420    90733463.33845
  21392257.600   112417072.05508  21392254.780    87597690.90747
  23366990.600   122794386.54908  23366987.100    95683886.53145
  22758496.120   119596704.36108  22758495.020    93192227.36245
  23944697.420   125830205.13708  23944689.160    98049561.74543
  23422600.900   123086592.34208  23422597.020    95911611.45245
 15 01 16 03 08  0.0000000  0  7G16G18G21G22G27G29G31
  21405467.240   112486504.22108  21405463.920    87651818.71946
  22148552.280   116391515.82808  22148549.420    90694656.39845
  21400498.780   112460380.42008  21400495.780    87631437.68247
  23349237.900   122701095.36608  23349233.920    95611192.10444
  22746453.260   119533419.29308  22746452.000    93142914.33846
  23958253.760   125901444.02408  23958246.120    98105072.51743
  23440294.140   123179570.39108  23440289.840    95984061.85545
 15 01 16 03 08 30.0000000  0  7G16G18G21G22G27G29G31
  21393357.680   112422867.42109  21393354.100    87602231.60846
  22139145.920   116342084.67608  22139143.220    90656138.62646
  21408793.440   112503969.68108  21408790.200    87665403.34647
  23331501.680   122607890.74808  23331496.920    95538565.15244
  22734426.540   119470218.79208  22734425.120    93093667.21145
  23971817.740   125972722.98608  23971810.640    98160614.57644
  23458005.940   123272646.37408  23458001.580    96056588.56646
 15 01 16 03 09  0.0000000  0  7G16G18G21G22G27G29G31
  21381312.340   112359567.05509  21381308.440    87552906.64646
  22129811.740   116293031.62108  22129808.940    90617915.47446
  21417142.300   112547842.69308  21417138.720    87699590.10047
  23313783.240   122514780.16708  23313777.840    95466011.44044
  22722416.940   119407107.92608  22722415.420    93044489.90845
  23985390.280   126044047.15008  23985384.080    98216191.81744
  23475736.880   123365822.46409  23475732.540    96129193.28145
 15 01 16 03 09 30.0000000  0  7G16G18G21G22G27G29G31
  21369330.480   112296599.52609  21369326.100    87503841.02646
  22120548.920   116244352.90608  22120545.820    90579984.00846
  21425543.800   112591991.51208  21425539.660    87733991.80246
  23296082.080   122421760.51108  23296076.780    95393528.61144
  22710423.460   119344080.95708  22710421.740    92995378.00046
  23998970.320   126115410.49507  23998965.000    98271799.60844
  23493485.200   123459089.95008  23493480.880    96201869.23245
 15 01 16 03 10  0.0000000  0  7G16G18G21G22G27G29G31
  21357412.400   112233966.92809  21357407.640    87455036.40347
  22111357.600   116196049.98608  22111354.220    90542345.39646
  21433997.580   112636414.66808  21433992.840    87768607.25847
  23278398.700   122328834.20008  23278393.740    95321118.55846
  22698446.020   119281137.61908  22698444.060    92946331.25846
  24012557.800   126186812.98208  24012553.100    98327437.85944
  23511250.180   123552445.44008  23511245.740    96274613.74145
 15 01 16 03 10 30.0000000  0  7G16G18G21G22G27G29G31
  21345559.280   112171676.08409  21345554.280    87406498.07747
  22102238.960   116148129.81908  22102235.520    90505005.01246
  21442504.240   112681115.55808  21442499.060    87803439.13346
  23260734.820   122236009.17208  23260730.140    95248787.40546
  22686485.540   119218283.08809  22686483.520    92897353.72246
  24026153.620   126258259.60007  24026149.220    98383110.52044
  23529032.240   123645890.94308  23529027.960    96347428.40045
 15 01 16 03 11  0.0000000  0  7G16G18G21G22G27G29G31
  21333770.740   112109725.19609  21333765.780    87358224.66247
  22093192.560   116100590.39308  22093189.100    90467961.29146
  21451062.540   112726088.00408  21451056.900    87838482.61247
  23243089.920   122143283.52708  23243085.400    95176533.69046
  22674541.040   119155512.97909  22674539.200    92848441.95746
  24039756.940   126329746.17107  24039752.940    98438814.29044
  23546829.940   123739419.05308  23546825.720    96420307.43045
 15 01 16 03 11 30.0000000  0  7G16G18G21G22G27G29G31
  21322047.440   112048117.79309  21322042.620    87310218.89547
  22084219.220   116053435.18908  22084215.920    90431216.99346
  21459672.300   112771331.56608  21459666.480    87873737.34546
  23225464.780   122050661.53808  23225460.420    95104360.75346
  22662612.840   119092829.06609  22662611.260    92799597.38046
  24053368.000   126401274.17207  24053364.320    98494550.33744
  23564643.000   123833028.55208  23564638.860    96493249.86745
 15 01 16 03 12  0.0000000  0  7G16G18G21G22G27G29G31
  21310390.420   111986859.17709  21310385.780    87262484.91147
  22075319.980   116006668.67609  22075316.780    90394775.56246
  21468333.720   112816846.86508  21468327.800    87909203.80447
  23207860.360   121958148.50108  23207856.000    95032272.71346
  22650701.440   119030234.08208  22650700.080    92750822.08047
  24066987.380   126472846.40107  24066984.140    98550320.88545
  23582471.540   123926719.22708  23582467.480    96566255.53044
 15 01 16 03 12 30.0000000  0  7G16G18G21G22G27G29G31
  21298799.000   111925945.73609  21298794.480    87215019.89147
  22066494.020   115960287.00309  22066490.840    90358633.99446
  21477045.440   112862626.92908  21477039.460    87944876.59447
  23190276.040   121865741.72708  23190271.720    94960267.47145
  22638805.740   118967722.47108  22638804.740    92702111.77147
  24080614.120   126544457.50807  24080611.020    98606121.68843
  23600313.960   124020481.97608  23600309.900    96639317.43344
 15 01 16 03 13  0.0000000  0  7G16G18G21G22G27G29G31
  21287274.260   111865383.47009  21287269.860    87167828.51547
  22057742.460   115914296.08609  22057739.300    90322796.92647
  21485807.720   112908673.32608  21485801.920    87980756.89747
  23172712.920   121773447.28108  23172708.520    94888349.76745
  22626926.500   118905297.98408  22626925.940    92653469.33647
  24094248.880   126616111.02007  24094245.620    98661955.54944
  23618170.420   124114317.67408  23618166.300    96712436.16644
 15 01 16 03 13 30.0000000  0  7G16G18G21G22G27G29G31
  21275816.000   111805171.25809  21275811.800    87120909.90947
  22049065.100   115868694.53809  22049061.980    90287263.25747
  21494619.820   112954982.04608  21494614.320    88016841.61247
  23155171.320   121681264.79208  23155166.260    94816519.27244
  22615063.220   118842957.63708  22615063.060    92604892.47946
  24107891.420   126687803.62207  24107887.840    98717819.91243
  23636039.760   124208220.46708  23636035.660    96785607.17044
 15 01 16 03 14  0.0000000  0  7G16G18G21G22G27G29G31
  21264424.200   111745308.99409  21264420.340    87074264.01347
  22040461.720   115823482.03609  22040458.560    90252032.74447
  21503480.700   113001548.06908  21503475.760    88053126.83347
  23137651.120   121589194.54708  23137644.820    94744776.21844
  22603215.520   118780699.07708  22603215.700    92556379.34646
  24121541.240   126759533.15407  24121537.420    98773713.02343
  23653920.880   124302185.21808  23653916.900    96858826.47945
 15 01 16 03 14 30.0000000  0  7G16G18G21G22G27G29G31
  21253100.320   111685803.96809  21253096.940    87027896.47347
  22031933.460   115778665.18109  22031930.400    90217110.50347
  21512390.960   113048374.45808  21512386.700    88089614.92847
  23120153.820   121497244.28308  23120145.980    94673126.64544
  22591384.380   118718527.33608  22591384.700    92507933.83046
  24135199.160   126831304.73907  24135194.840    98829638.88843
  23671814.000   124396213.59908  23671810.460    96932095.32945
 15 01 16 03 15  0.0000000  0  7G16G18G21G22G27G29G31
  21241844.580   111626656.60209  21241841.560    86981807.63347
  22023480.380   115734243.73809  22023477.400    90182496.40447
  21521350.060   113095458.06208  21521346.560    88126303.44247
  23102679.460   121405414.74308  23102670.700    94601571.09144
  22579569.580   118656440.64009  22579569.840    92459554.58846
  24148864.860   126903116.23008  24148860.480    98885595.95043
  23689718.140   124490300.76608  23689715.020    97005409.97244
 15 01 16 03 15 30.0000000  0  7G16G18G21G22G27G29G31
  21230657.320   111567868.42309  21230654.460    86935998.66447
  22015102.720   115690219.30309  22015099.940    90148191.64747
  21530357.740   113142796.66208  21530354.960    88163190.66147
  23085228.440   121313708.15408  23085219.620    94530111.39444
  22567771.080   118594438.79909  22567771.080    92411241.47146
  24162538.280   126974967.66308  24162533.740    98941584.14043
  23707632.640   124584443.36008  23707630.240    97078767.81744
 15 01 16 03 16  0.0000000  0  7G16G18G21G22G27G29G31
  21219539.960   111509447.03009  21219537.100    86890475.51147
  22006802.060   115646599.64509  22006799.340    90114202.31746
  21539414.800   113190393.83808  21539412.660    88200279.37047
  23067802.180   121222133.05208  23067794.080    94458754.19645
  22555990.020   118532527.77309  22555989.660    92362999.11746
  24176220.300   127046864.91107  24176215.480    98997607.97343
  23725558.120   124678644.34507  23725556.460    97152171.09245
 15 01 16 03 16 30.0000000  0  7G16G18G21G22G27G29G31
  21208492.940   111451395.13109  21208490.140    86845240.26147
  21998578.600   115603386.01409  21998575.940    90080529.36246
  21548520.940   113238247.95708  21548519.240    88237568.27147
  23050400.920   121130691.80108  23050394.140    94387501.31445
  22544226.240   118470707.24409  22544225.540    92314827.27946
  24189910.620   127118807.46107  24189905.800    99053667.03044
  23743494.380   124772900.40608  23743493.160    97225617.32244
 15 01 16 03 17  0.0000000  0  7G16G18G21G22G27G29G31
  21197516.300   111393712.71709  21197513.520    86800292.93347
  21990432.340   115560578.38709  21990429.840    90047172.78047
  21557675.580   113286355.33708  21557673.920    88275054.53147
  23033025.100   121039385.07908  23033019.600    94316353.27045
  22532479.320   118408975.50209  22532478.500    92266724.63546
  24203608.880   127190793.62207  24203604.240    99109760.10044
  23761440.400   124867206.57608  23761439.100    97299102.63344
 15 01 16 03 17 30.0000000  0  7G16G18G21G22G27G29G31
  21186609.720   111336397.89209  21186606.900    86755632.02947
  21982363.040   115518174.94609  21982360.660    90014131.15146
  21566877.560   113334710.18708  21566875.660    88312733.61847
  23015674.980   120948212.02708  23015670.280    94245309.37845
  22520748.580   118347328.88609  22520747.620    92218688.33147
  24217314.660   127262819.68207  24217310.000    99165884.31744
  23779394.760   124961556.03508  23779393.100    97372621.72843
 15 01 16 03 18  0.0000000  0  7G16G18G21G22G27G29G31
  21175774.880   111279459.37809  21175771.780    86711264.35147
  21974372.060   115476183.16409  21974369.820    89981410.30647
  21576127.480   113383316.29608  21576125.140    88350608.49647
  22998352.340   120857181.38908  22998347.860    94174376.43046
  22509035.180   118285773.56809  22509034.120    92170723.17747
  24231029.120   127334891.74206  24231024.560    99222044.37043
  23797357.940   125055951.99008  23797355.220    97446177.04943
 15 01 16 03 18 30.0000000  0  7G16G18G21G22G27G29G31
  21165012.040   111222899.03209  21165008.540    86667191.35647
  21966459.940   115434605.37609  21966457.660    89949012.05246
  21585425.100   113432172.61508  21585422.140    88388678.34347
  22981057.440   120766295.64008  22981052.940    94103556.39246
  22497339.160   118224309.91109  22497338.000    92122829.44347
  24244752.040   127407010.36706  24244748.280    99278240.58644
  23815329.480   125150391.83808  23815325.700    97519766.60243
 15 01 16 03 19  0.0000000  0  7G16G18G21G22G27G29G31
  21154320.220   111166711.58509  21154316.160    86623408.92247
  21958625.420   115393435.24709  21958623.060    89916931.44246
  21594768.520   113481269.85508  21594764.900    88426935.93047
  22963789.420   120675549.91109  22963784.600    94032845.43746
  22485659.040   118162930.30809  22485657.800    92075001.21046
  24258482.560   127479167.36207  24258479.920    99334466.77345
  23833307.220   125244864.95308  23833303.220    97593382.01643
 15 01 16 03 19 30.0000000  0  7G16G18G21G22G27G29G31
  21143700.200   111110901.58709  21143695.540    86579920.59447
  21950869.300   115352677.00809  21950866.880    89885171.78246
  21604157.660   113530608.36608  21604153.520    88465381.51547
  22946548.960   120584949.23708  22946543.800    93962247.54246
  22473995.200   118101637.12509  22473994.000    92027240.31446
  24272221.340   127551365.29307  24272219.100    99390724.87643
  23851291.000   125339370.45208  23851287.220    97667022.67144
 15 01 16 03 20  0.0000000  0  7G16G18G21G22G27G29G31
  21133153.040   111055474.88909  21133147.920    86536730.94947
  21943192.800   115312336.54409  21943190.240    89853737.65646
  21613592.940   113580190.19108  21613588.360    88504016.69747
  22929337.380   120494500.51008  22929332.040    93891768.05745
  22462348.520   118040434.70109  22462347.560    91979550.13646
  24285968.860   127623608.37006  24285966.700    99447018.16943
  23869281.160   125433909.44608  23869277.820    97740689.37545
 15 01 16 03 20 30.0000000  0  7G16G18G21G22G27G29G31
  21122679.080   111000433.42409  21122673.800    86493841.49347
  21935596.120   115272414.88609  21935593.260    89822629.87246
  21623074.000   113630013.14008  21623069.020    88542839.78746
  22912155.140   120404205.89208  22912149.100    93821408.64345
  22450718.960   117979322.84308  22450718.300    91931930.53546
  24299724.740   127695896.25406  24299722.920    99503346.43244
  23887277.140   125528479.12808  23887274.040    97814379.99145
 15 01 16 03 21  0.0000000  0  7G16G18G21G22G27G29G31
  21112278.280   110945776.64109  21112273.020    86451251.79647
  21928078.860   115232910.42009  21928075.740    89791847.17746
  21632600.100   113680072.86308  21632594.780    88581847.37146
  22895002.240   120314065.06008  22894995.360    93751169.01344
  22439105.960   117918298.78508  22439105.600    91884379.34646
  24313488.960   127768226.12907  24313487.100    99559707.34443
  23905277.880   125623073.47908  23905274.960    97888089.81745
 15 01 16 03 21 30.0000000  0  7G16G18G21G22G27G29G31
  21101950.500   110891503.79409  21101945.280    86408961.26447
  21920640.900   115193822.73009  21920637.600    89761389.24046
  21642170.320   113730364.75508  21642164.740    88621035.87946
  22877878.380   120224078.06908  22877871.100    93681049.29644
  22427509.180   117857359.98809  22427509.020    91836894.57746
  24327260.820   127840595.21407  24327258.920    99616098.81944
  23923282.200   125717686.32508  23923279.380    97961814.10145
 15 01 16 03 22  0.0000000  0  7G16G18G21G22G27G29G31
  21091697.520   110837623.92509  21091692.280    86366976.94947
  21913283.780   115155160.46709  21913280.320    89731262.82246
  21651785.720   113780894.10508  21651779.940    88660409.41946
  22860785.620   120134254.82208  22860777.380    93611057.13244
  22415930.240   117796513.65109  22415929.980    91789481.84346
  24341041.340   127913010.93007  24341039.220    99672526.61243
  23941291.000   125812322.45608  23941288.120    98035556.50645
 15 01 16 03 22 30.0000000  0  7G16G18G21G22G27G29G31
  21081527.140   110784178.07109  21081521.720    86325330.82447
  21906015.180   115116963.75109  21906011.580    89701499.15446
  21661453.380   113831698.06208  21661447.380    88699996.93845
  22843731.520   120044636.82708  22843723.460    93541224.94644
  22404376.560   117735798.80509  22404376.120    91742171.58846
  24354837.820   127985511.76905                                
  23959310.940   125907017.46808  23959307.880    98109344.81445
 15 01 16 03 23  0.0000000  0  7G16G18G21G22G27G29G31
  21071423.900   110731084.86509  21071418.360    86283959.48347
  21898819.480   115079150.53109  21898815.900    89672034.32646
  21671156.980   113882690.67708  21671150.880    88739731.45645
  22826700.960   119955142.68508  22826693.620    93471489.27545
  22392832.160   117675131.89109  22392831.520    91694898.67446
  24368634.620   128058014.36606  24368635.820    99785500.46442
  23977325.460   126001684.85808  23977322.240    98183111.58444
 15 01 16 03 23 30.0000000  0  7G16G18G21G22G27G29G31
  21061392.180   110678367.80009  21061386.660    86242881.23647
  21891701.080   115041743.78809  21891697.480    89642886.21746
  21680900.260   113933891.88508  21680894.240    88779628.48946
  22809698.600   119865796.60608  22809691.600    93401868.96244
  22381301.060   117614534.43209  22381300.200    91647679.87247
  24382436.140   128130540.04907  24382436.740    99842013.93844
  23995338.200   126096343.11608  23995334.860    98256871.21844
 15 01 16 03 24  0.0000000  0  8G16G18G19G21G22G27G29G31
  21051438.980   110626063.77009  21051433.540    86202124.85547
  21884667.140   115004780.85609  21884663.640    89614083.92646
  24537254.040   128944161.04706  24537249.800   100475955.16345
  21690689.660   113985335.54508  21690683.900    88819714.49046
  22792731.940   119776636.95209  22792725.540    93332393.93045
  22369790.100   117554042.32609  22369789.040    91600543.17947
  24396248.860   128203124.42507  24396248.680    99898573.14145
  24013355.360   126191024.85308  24013352.100    98330649.18944
 15 01 16 03 24 30.0000000  0  8G16G18G19G21G22G27G29G31
  21041562.420   110574162.87509  21041557.140    86161682.61347
  21877715.520   114968250.55909  21877712.220    89585618.77046
  24522442.780   128866327.19305  24522439.880   100415274.33944
  21700522.280   114037006.97908  21700517.060    88859977.93946
  22775798.960   119687653.46308  22775792.680    93263056.15645
  22358296.900   117493643.22909  22358295.680    91553478.96247
  24410070.260   128275755.14707  24410069.400    99955168.49345
  24031373.920   126285714.29908  24031371.000    98404433.15245
 15 01 16 03 25  0.0000000  0  8G16G18G19G21G22G27G29G31
  21031761.640   110522660.07409  21031756.460    86121550.57147
  21870845.200   114932146.81209  21870841.920    89557485.98846
  24507641.760   128788542.24905  24507636.740   100354662.75945
  21710396.400   114088897.11708  21710391.900    88900411.81346
  22758898.680   119598841.68108  22758892.340    93193852.17945
  22346819.920   117433329.63409  22346818.620    91506481.36147
  24423898.920   128348424.86804  24423897.600   100011794.26944
  24049392.160   126380401.70108  24049389.240    98478215.52744
 15 01 16 03 25 30.0000000  0  7G16G18G19G21G22G27G31
  21022035.420   110471548.83709  21022030.280    86081723.63647
  21864054.840   114896462.96909  21864051.540    89529680.40147
  24492847.940   128710793.13307  24492840.820   100294079.15444
  21720310.120   114140995.84708  21720306.360    88941008.21146
  22742029.880   119510195.93308  22742023.680    93124777.60945
  22335357.580   117373093.52209  22335356.280    91459544.13947
  24067407.900   126475075.57408  24067404.940    98551987.34344
 15 01 16 03 26  0.0000000  0  8G16G18G19G21G22G27G29G31
  21012391.180   110420867.99309  21012386.100    86042232.06547
  21857351.740   114861237.63609  21857348.640    89502232.09147
  24478067.420   128633116.74307  24478059.360   100233552.02644
  21730270.280   114193338.39608  21730267.040    88981794.58547
  22725200.060   119421755.77508  22725193.920    93055863.26445
  22323916.920   117312972.19009  22323915.820    91412696.36547
  24451580.620   128493923.02106  24451581.080   100125129.51745
  24085427.560   126569770.19708  24085425.100    98625775.33644
 15 01 16 03 26 30.0000000  0  8G16G18G19G21G22G27G29G31
  21002828.240   110370613.96809  21002823.200    86003073.09847
  21850735.080   114826466.84309  21850732.160    89475137.98147
  24463299.560   128555507.67507  24463290.980   100173077.44844
  21740275.720   114245917.80108  21740272.700    89022765.53347
  22708408.740   119333518.52208  22708402.660    92987106.99745
  22312497.040   117252960.47109  22312496.000    91365933.98447
  24465439.560   128566753.31707  24465439.960   100181880.45444
  24103449.480   126664476.99508  24103447.440    98699572.81744
 15 01 16 03 27  0.0000000  0  8G16G18G19G21G22G27G29G31
  20993340.540   110320755.32909  20993335.620    85964222.21547
  21844198.500   114792117.21409  21844195.700    89448372.03647
  24448537.740   128477931.59107  24448529.380   100112628.49644
  21750319.560   114298697.64008  21750316.360    89063892.66947
  22691650.040   119245452.40908  22691644.020    92918484.12044
  22301091.420   117193024.07209  22301090.440    91319230.29947
  24479304.000   128639612.04607  24479304.060   100238653.50245
  24121466.620   126759158.35108  24121465.120    98773350.45444
 15 01 16 03 27 30.0000000  0  8G16G18G19G21G22G27G29G31
  20983931.960   110271312.42409  20983927.160    85925695.29247
  21837745.920   114758209.22909  21837743.240    89421950.24047
  24433785.340   128400406.84607  24433778.140   100052219.58544
  21760404.920   114351694.92208  21760401.320    89105189.24447
  22674928.180   119157578.74708  22674921.220    92850011.13444
  22289703.740   117133182.09309  22289702.900    91272600.20147
  24493177.220   128712517.36506  24493177.160   100295462.83545
  24139482.280   126853831.23908  24139481.160    98847121.49443
 15 01 16 03 28  0.0000000  0  8G16G18G19G21G22G27G29G31
  20974602.940   110222287.97209  20974598.280    85887494.43347
  21831377.780   114724745.05609  21831375.180    89395874.27147
  24419042.480   128322934.46207  24419036.760    99991851.51245
  21770531.500   114404908.56208  21770527.400    89146654.42247
  22658243.660   119069900.82609  22658235.860    92781690.69943
  22278334.140   117073435.33009  22278333.400    91226044.30547
  24507059.520   128785470.45805  24507059.320   100352309.35445
  24157495.760   126948492.41808  24157494.940    98920883.46044
 15 01 16 03 28 30.0000000  0  8G16G18G19G21G22G27G29G31
  20965353.800   110173683.72909  20965349.160    85849620.98847
  21825094.360   114691725.80208  21825091.620    89370144.97947
  24404309.380   128245514.05308  24404304.840    99931523.98245
  21780698.800   114458336.55008  21780694.240    89188286.60647
  22641597.180   118982421.63009  22641587.420    92713525.03643
  22266982.520   117013783.85308  22266981.940    91179562.63947
  24520951.200   128858471.35605  24520950.740   100409192.98045
  24175506.560   127043139.35108  24175505.820    98994634.25643
 15 01 16 03 29  0.0000000  0  8G16G18G19G21G22G27G29G31
  20956183.700   110125495.07709  20956179.100    85812071.39847
  21818894.640   114659146.34508  21818891.820    89344758.39347
  24389584.900   128168139.17106  24389580.880    99871231.84445
  21790905.200   114511970.69008  21790900.360    89230079.43047
  22624987.660   118895137.12009  22624977.140    92645511.02043
  22255647.780   116954221.61009  22255647.380    91133150.51447
  24534850.800   128931513.13806  24534850.140   100466108.57746
  24193513.000   127137762.79408  24193511.860    99068366.79443
 15 01 16 03 29 30.0000000  0  8G16G18G19G21G22G27G29G31
  20947094.460   110077731.82309  20947089.920    85774853.27847
  21812780.440   114627015.91609  21812777.520    89319721.70347
  24374870.500   128090817.28006  24374867.300    99810981.05546
  21801151.880   114565817.02308  21801146.820    89272037.60646
  22608417.120   118808057.31009  22608408.660    92577656.59744
  22244331.500   116894756.31208  22244331.340    91086813.90547
  24548759.640   129004603.84508  24548758.640   100523062.31345
  24211515.880   127232367.60608  24211514.120    99142084.84843
 15 01 16 03 30  0.0000000  0  7G16G18G19G21G22G27G31
  20938084.200   110030383.56509  20938079.720    85737958.53147
  21806749.580   114595323.41409  21806746.640    89295026.26147
  24360164.060   128013535.97207  24360161.160    99750761.94846
  21811436.020   114619860.96108  21811430.740    89314149.75746
  22591883.680   118721172.31109  22591876.960    92509954.01545
  22233031.420   116835375.68308  22233031.420    91040543.29647
  24229512.080   127326938.04608  24229510.020    99215776.08643
 15 01 16 03 30 30.0000000  0  7G16G18G19G21G22G27G31
  20929156.320   109983468.08209  20929151.880    85701401.00647
  21800805.360   114564085.87009  21800802.440    89270685.32847
  24345468.660   127936311.13906  24345465.800    99690586.73946
  21821760.480   114674116.90108  21821754.960    89356427.12546
  22575390.680   118634500.94308  22575385.000    92442417.92945
  22221750.620   116776096.08508  22221750.720    90994351.40147
  24247504.200   127421487.32807  24247501.400    99289450.84843
 15 01 16 03 31  0.0000000  0  7G16G18G19G21G22G27G31
  20920310.500   109936983.31809  20920305.880    85665179.10047
  21794947.180   114533300.45909  21794944.380    89246696.70647
  24330783.440   127859138.79406  24330780.400    99630452.51646
  21832124.080   114728578.87208  21832118.260    89398865.01646
  22558938.040   118548041.23408  22558932.820    92375046.77345
  22210488.260   116716913.37908  22210488.480    90948235.02547
  24265491.020   127516008.52608  24265487.220    99363103.71643
 15 01 16 03 31 30.0000000  0  7G16G18G19G21G22G27G31
  20911546.120   109890926.23809  20911541.180    85629290.44747
  21789174.320   114502963.76209  21789171.680    89223057.73447
  24316107.340   127782013.49207  24316103.840    99570354.91946
  21842525.520   114783240.01208  21842519.400    89441458.10645
  22542525.220   118461791.22808  22542520.140    92307839.03745
  22199243.520   116657823.03208  22199243.940    90902190.60347
  24283470.960   127610493.70908  24283466.220    99436728.49943
 15 01 16 03 32  0.0000000  0  7G16G18G19G21G22G27G31
  20902864.520   109845303.98508  20902859.120    85593740.61147
  21783488.160   114473081.96109  21783485.560    89199773.22847
  24301441.120   127704940.65907  24301437.340    99510298.18646
  21852965.460   114838103.80408  21852959.200    89484209.11545
  22526153.760   118375758.65109  22526148.400    92240800.70046
  22188017.480   116598830.39608  22188018.020    90856222.34046
  24301444.500   127704945.27608  24301439.480    99510327.06543
 15 01 16 03 32 30.0000000  0  7G16G18G19G21G22G27G31
  20894266.040   109800118.62808  20894260.320    85558531.22447
  21777888.760   114443656.42209  21777886.300    89176844.25547
  24286784.980   127627920.33407  24286780.800    99450282.44546
  21863443.640   114893168.74508  21863437.480    89527116.84945
  22509824.240   118289946.40508  22509818.820    92173934.03346
  22176810.240   116539936.02308  22176810.700    90810330.63547
  24319411.080   127799360.54608  24319406.200    99583897.40942
 15 01 16 03 33  0.0000000  0  7G16G18G19G21G22G27G31
  20885750.340   109755368.91408  20885744.660    85523661.30647
  21772375.740   114414685.17009  21772373.420    89154269.26548
  24272138.140   127550949.42207  24272133.960    99390305.09946
  21873959.220   114948429.85508  21873953.060    89570177.46845
  22493536.400   118204353.79009  22493531.340    92107238.53946
  22165621.200   116481136.97408  22165621.340    90764513.21547
  24337369.560   127893733.52007  24337365.120    99657434.76042
 15 01 16 03 33 30.0000000  0  7G16G18G19G21G22G27G31
  20877317.380   109711054.85508  20877312.140    85489130.85347
  21766949.140   114386167.78709  21766946.780    89132047.93848
  24257500.240   127474026.15807  24257496.060    99330364.94846
  21884511.580   115003883.63008  21884505.580    89613388.21245
  22477290.600   118118981.66909  22477285.600    92040714.83946
  22154450.060   116422431.74808  22154449.620    90718768.87746
  24355319.140   127988059.69906  24355314.820    99730935.62544
 15 01 16 03 34  0.0000000  0  7G16G18G19G21G22G27G31
  20868968.140   109667182.01708  20868963.640    85454944.22647
  21761609.920   114358109.13209  21761607.300    89110184.06048
  24242871.840   127397154.09907  24242867.860    99270464.69946
  21895101.040   115059531.86208  21895095.320    89656750.46746
  22461087.860   118033836.32409  22461083.140    91974367.85146
  22143297.540   116363824.22209  22143296.360    90673100.68246
  24373260.020   128082339.96507  24373255.480    99804400.74441
 15 01 16 03 34 30.0000000  0  7G16G18G19G21G22G27G31
  20860702.860   109623751.21708  20860699.400    85421102.05247
  21756358.040   114330509.23609  21756355.140    89088677.66048
  24228252.760   127320332.38306  24228249.140    99210603.62446
  21905727.220   115115371.95308  21905721.780    89700262.23046
  22444928.680   117948919.41509  22444924.100    91908198.86646
  22132163.560   116305313.82909  22132161.540    90627508.15846
  24391191.360   128176570.46207  24391186.660    99877827.15142
 15 01 16 03 35  0.0000000  0  7G16G18G19G21G22G27G31
  20852519.920   109580753.38708  20852517.520    85387597.27248
  21751191.480   114303357.61909  21751188.300    89067520.56647
  24213640.880   127243549.00507  24213637.540    99150772.51345
  21916387.380   115171389.98008  21916382.240    89743912.63846
  22428811.340   117864221.66209  22428806.600    91842200.63145
  22121045.980   116246889.12809  22121043.160    90581982.42346
  24409110.460   128270736.58306  24409106.700    99951203.29644
 15 01 16 03 35 30.0000000  0  7G16G18G19G21G22G27G31
  20844425.940   109538221.09008  20844424.160    85354455.21648
  21746116.420   114276686.74509  21746112.860    89046738.07547
  24199042.300   127166835.25907  24199039.040    99090995.60045
  21927087.180   115227616.03408  21927082.320    89787725.14147
  22412742.120   117779776.55009  22412736.800    91776399.26444
  22109950.780   116188581.53709  22109947.400    90536547.92346
  24427022.680   128364866.51006  24427019.500   100024551.33044
 15 01 16 03 36  0.0000000  0  7G16G18G19G21G22G27G31
  20836418.080   109496139.01308  20836416.420    85321663.98748
  21741129.700   114250480.46709  21741125.780    89026317.59847
  24184453.920   127090173.95807  24184450.560    99031259.55244
  21937822.860   115284030.71608  21937818.260    89831684.61247
  22396718.360   117695570.14209  22396712.340    91710783.86744
  22098874.700   116130374.19209  22098871.040    90491191.55247
  24444924.220   128458941.05405  24444921.300   100097856.15544
 15 01 16 03 36 30.0000000  0  7G16G18G19G21G22G27G31
  20828495.840   109454505.24308  20828493.900    85289222.07848
  21736230.840   114224736.37909  21736226.720    89006257.27047
  24169875.100   127013561.53908  24169871.020    98971561.58444
  21948593.360   115340628.85908  21948589.020    89875787.04347
  22380739.660   117611601.37608  22380731.780    91645353.61443
  22087817.020   116072264.08409  22087813.380    90445910.93647
  24462813.680   128552953.39705  24462811.320   100171112.39345
 15 01 16 03 37  0.0000000  0  7G16G18G19G21G22G27G31
  20820660.520   109413327.55208  20820658.120    85257135.56848
  21731421.060   114199460.89609  21731416.780    88986562.10747
  24155306.800   126937003.42108  24155301.520    98911905.87144
  21959399.280   115397414.32608  21959395.380    89920035.44647
  22364807.400   117527877.66708  22364798.280    91580114.29743
  22076778.740   116014256.61909  22076775.340    90400710.32647
  24480691.840   128646905.85305  24480689.960   100244322.06944
 15 01 16 03 37 30.0000000  0  7G16G18G19G21G22G27G31
  20812912.060   109372606.29008  20812909.180    85225404.71448
  21726700.340   114174654.17509  21726696.000    88967232.19947
  24140748.840   126860499.05408  24140742.100    98852292.07444
  21970240.140   115454384.66708  21970236.800    89964427.91647
  22348921.960   117444401.46008  22348912.820    91515067.91943
  22065759.800   115956351.54909  22065756.740    90355589.50247
  24498558.360   128740795.27606  24498556.860   100317482.54944
 15 01 16 03 38  0.0000000  0  7G16G18G19G21G22G27G31
  20805249.720   109332337.06608  20805246.240    85194026.09448
  21722067.640   114150310.62809  21722063.460    88948263.20947
  24126199.860   126784041.42008  24126192.420    98792714.69144
  21981114.240   115511531.05807  21981111.540    90008957.55247
  22333082.760   117361168.32308  22333074.480    91450210.96944
  22054758.940   115898542.35409  22054756.360    90310543.37547
  24516411.380   128834612.30706  24516410.160   100390586.68444
 15 01 16 03 38 30.0000000  0  7G16G18G19G21G22G27G31
  20797674.780   109292527.19808  20797670.660    85163005.41048
  21717524.320   114126437.01509  21717520.400    88929660.39247
  24111661.020   126707636.72008  24111653.040    98733178.54944
  21992022.500   115568857.68507  21992020.420    90053627.63747
  22317291.740   117278186.76209  22317284.540    91385550.01945
  22043777.460   115840835.30409  22043775.460    90265576.84047
  24534251.600   128928359.82506  24534249.880   100463636.67443
 15 01 16 03 39  0.0000000  0  7G16G18G19G21G22G27G31
  20790187.240   109253177.30608  20790182.600    85132343.14848
  21713070.400   114103032.82409  21713066.840    88911423.37247
  24097131.680   126631282.74908  24097124.240    98673681.96545
  22002964.580   115626361.25207  22002962.820    90098435.60046
  22301549.020   117195457.44809  22301542.560    91321085.62445
  22032815.180   115783229.01909  22032813.700    90220688.84247
  24552077.740   129022033.31507  24552074.800   100536628.94042
 15 01 16 03 39 30.0000000  0  7G16G18G19G21G22G27G31
  20782787.880   109214291.21608  20782782.780    85102042.29048
  21708706.600   114080101.48609  21708703.360    88893554.80347
  24082612.260   126554982.38807  24082604.980    98614227.12545
  22013940.540   115684042.52107  22013938.940    90143382.04146
  22285855.500   117112985.58809  22285849.340    91256821.84646
  22021872.720   115725726.41609  22021871.680    90175881.63447
  24569889.580   129115632.54706  24569884.960   100609563.37842
 15 01 16 03 40  0.0000000  0  7G16G18G19G21G22G27G31
  20775475.820   109175864.19208  20775470.320    85072099.14847
  21704431.840   114057637.20809  21704428.700    88876050.17747
  24068101.560   126478729.15407  24068094.660    98554809.11745
  22024948.880   115741893.38807  22024947.300    90188460.62846
  22270210.260   117030767.29509  22270204.260    91192755.66246
  22010948.840   115668321.08909  22010948.180    90131150.22447
  24587685.440   129209148.07806                                
 15 01 16 03 40 30.0000000  0  7G16G18G19G21G22G27G31
  20768250.960   109137896.32408  20768245.180    85042513.78747
  21700245.920   114035639.24309  21700242.680    88858908.91247
  24053599.300   126402521.00508  24053593.120    98495426.16944
  22035988.880   115799909.61607  22035987.140    90233668.07446
  22254613.200   116948802.88809  22254607.200    91128887.31046
  22000043.240   115611011.68809  22000042.920    90086493.56647
  24605464.400   129302575.58007  24605460.100   100755263.46341
 15 01 16 03 41  0.0000000  0  7G16G18G19G21G22G27G31
  20761117.920   109100411.65208  20761111.900    85013304.95347
  21696153.140   114014130.81409  21696149.820    88842149.11347
  24039109.720   126326380.14707  24039103.460    98436095.65945
  22047064.500   115858112.24507  22047062.560    90279020.75247
  22239069.200   116867117.37409  22239063.240    91065236.27446
  21989160.240   115553820.91109  21989160.140    90041929.34347
  24623230.200   129395934.64606  24623230.400   100828007.78843
 15 01 16 03 41 30.0000000  0  7G16G18G19G21G22G27G31
  20754078.560   109063419.25508  20754072.200    84984479.70747
  21692155.140   113993120.66709  21692151.640    88825777.57247
  24024634.520   126250314.74108  24024628.180    98376823.94644
  22058177.040   115916507.66008  22058174.680    90324523.66446
  22223580.240   116785721.22609  22223573.840    91001810.70846
  21978301.260   115496757.08209  21978301.500    89997464.03647
  24640983.680   129489230.27605  24640984.240   100900705.66242
 15 01 16 03 42  0.0000000  0  7G16G18G19G21G22G27G31
  20747123.380   109026869.57408  20747116.680    84955999.42847
  21688242.140   113972557.59509  21688238.440    88809754.40147
  24010163.740   126174272.21307  24010157.360    98317569.99845
  22069316.080   115975041.74708  22069313.220    90370134.63346
  22208136.860   116704564.73109  22208129.960    90938571.86446
  21967456.400   115439768.35108  21967456.940    89953057.25547
  24658714.680   129582407.83206  24658714.380   100973311.47144
 15 01 16 03 42 30.0000000  0  7G16G18G19G21G22G27G31
  20740257.540   108990790.29808  20740250.720    84927885.70247
  21684419.400   113952468.86909  21684415.500    88794100.85447
  23995702.600   126098279.18708  23995696.520    98258354.69445
  22080486.220   116033738.72508  22080482.820    90415872.53646
  22192744.400   116623676.86609  22192737.480    90875542.36346
  21956630.880   115382881.39908  21956631.620    89908729.78347
  24676427.700   129675490.53106  24676426.480   101045843.36443
 15 01 16 03 43  0.0000000  0  6G16G18G19G21G22G27
  20733475.480   108955152.11408  20733468.680    84900115.69847
  21680681.240   113932824.53709  21680677.140    88778793.58747
  23981245.320   126022305.28407  23981239.020    98199154.29145
  22091681.320   116092566.83208  22091677.220    90461712.62346
  22177397.660   116543029.43109  22177390.720    90812700.20646
  21945819.160   115326066.20209  21945819.940    89864458.22347
 15 01 16 03 43 30.0000000  0  6G16G18G19G21G22G27
  20726792.300   108920033.38208  20726785.600    84872750.45347
  21677042.400   113913702.23009  21677038.200    88763893.10347
  23966806.340   125946426.99107  23966800.440    98140028.40646
  22102915.520   116151600.85408  22102910.900    90507713.16746
  22162111.600   116462701.48409  22162105.060    90750106.99146
  21935035.860   115269399.48409  21935036.540    89820302.36347
 15 01 16 03 44  0.0000000  0  6G16G18G19G21G22G27
  20720199.220   108885387.74508  20720192.560    84845753.84847
  21673493.740   113895053.74909  21673489.320    88749361.81647
  23952376.320   125870595.57607  23952370.380    98080939.02046
  22114179.120   116210790.10608  22114174.040    90553834.67346
  22146877.520   116382646.89908  22146871.400    90687726.79946
  21924271.820   115212833.07809  21924272.280    89776224.64347
 15 01 16 03 44 30.0000000  0  6G16G18G19G21G22G27
  20713698.220   108851225.50508  20713691.720    84819133.92247
  21670037.240   113876889.10709  21670032.620    88735207.56447
  23937956.980   125794820.08208  23937951.160    98021893.24945
  22125473.580   116270142.41008  22125468.060    90600083.22646
  22131697.580   116302877.17708  22131691.960    90625568.57546
  21913528.740   115156376.39609  21913528.840    89732232.43547
 15 01 16 03 45  0.0000000  0  6G16G18G19G21G22G27
  20707289.120   108817545.66508  20707282.820    84792889.89447
  21666672.600   113859206.76609  21666667.840    88721429.12347
  23923547.840   125719098.48708  23923541.800    97962889.41445
  22136798.080   116329654.01308  22136792.600    90646455.91046
  22116571.860   116223392.69508  22116566.900    90563632.65046
  21902806.220   115100027.78809  21902805.920    89688324.43147
 15 01 16 03 45 30.0000000  0  6G16G18G19G21G22G27
  20700972.360   108784351.23208  20700966.320    84767024.10747
  21663400.020   113842007.99709  21663395.060    88708027.48347
  23909149.060   125643431.35008  23909143.040    97903927.97545
  22148152.300   116389323.40607  22148147.220    90692951.51145
  22101501.000   116144196.25708  22101496.580    90501921.12647
  21892104.400   115043788.19409  21892103.620    89644501.36847
 15 01 16 03 46  0.0000000  0  6G16G18G19G21G22G27
  20694748.220   108751643.34208  20694742.380    84741537.44847
  21660219.580   113825293.57909  21660214.480    88695003.25747
  23894760.540   125567818.86708  23894754.680    97845009.18945
  22159536.320   116449149.24207  22159531.880    90739569.02646
  22086485.560   116065290.82808  22086481.700    90440436.41747
  21881423.300   114987658.14309  21881422.140    89600763.68347
 15 01 16 03 46 30.0000000  0  6G16G18G19G21G22G27
  20688616.220   108719419.61008  20688610.640    84716428.04947
  21657130.600   113809060.37509  21657125.520    88682354.01147
  23880381.700   125492257.14308  23880376.220    97786129.95045
  22170949.320   116509125.49808  22170945.280    90786303.75346
  22071525.380   115986674.79809  22071521.660    90379177.18347
  21870762.140   114931633.77909  21870760.780    89557108.33247
 15 01 16 03 47  0.0000000  0  6G16G18G19G21G22G27
  20682577.000   108687683.36808  20682571.780    84691698.50848
  21654133.500   113793310.61609  21654128.640    88670081.48047
  23866012.840   125416747.86908  23866007.380    97727291.51445
  22182391.360   116569252.07908  22182387.400    90833155.62446
  22056621.040   115908351.76309  22056617.200    90318146.26147
  21860121.460   114875717.33209  21860120.040    89513537.07947
 15 01 16 03 47 30.0000000  0  6G16G18G19G21G22G27
  20676631.760   108656441.39108  20676626.980    84667354.11747
  21651229.480   113778050.57909  21651224.840    88658190.56047
  23851655.060   125341296.60908  23851649.460    97668498.29745
  22193863.000   116629533.08008  22193858.840    90880127.82446
  22041774.200   115830330.30109  22041769.960    90257350.32747
  21849502.580   114819915.11709  21849501.120    89470054.82747
 15 01 16 03 48  0.0000000  0  6G16G18G19G21G22G27
  20670779.460   108625688.10608  20670775.060    84643390.52548
  21648417.280   113763273.44809  21648412.840    88646675.92947
  23837306.740   125265895.68408  23837300.680    97609744.37644
  22205362.400   116689959.50308  22205357.920    90927213.33446
  22026983.780   115752605.21309  22026979.060    90196785.33647
  21838904.160   114764219.92309  21838902.640    89426655.98547
 15 01 16 03 48 30.0000000  0  6G16G18G19G21G22G27
  20665021.800   108595432.05308  20665017.760    84619814.38548
  21645698.300   113748986.19409  21645693.820    88635543.01847
  23822969.140   125190552.02007  23822963.140    97551034.98945
  22216890.420   116750536.34908  22216885.500    90974416.07846
  22012251.400   115675185.44809  22012246.280    90136458.25046
  21828327.540   114708638.86609  21828326.020    89383346.07347
 15 01 16 03 49  0.0000000  0  6G16G18G19G21G22G27
  20659360.660   108565682.19608  20659356.780    84596632.68148
  21643074.260   113735197.79609  21643069.720    88624798.82447
  23808643.660   125115273.66807  23808638.180    97492376.53344
  22228448.000   116811269.49508  22228442.700    91021740.60746
  21997579.020   115598081.40509  21997573.480    90076377.18846
  21817774.140   114653180.21409  21817772.840    89340131.54747
 15 01 16 03 49 30.0000000  0  6G16G18G19G21G22G27
  20653794.220   108536429.26609  20653790.320    84573838.19848
  21640543.180   113721897.70609  21640538.380    88614435.13646
  23794328.240   125040049.68507  23794323.700    97433760.51045
  22240032.880   116872147.09208  22240027.320    91069177.67346
  21982965.160   115521284.86809  21982959.240    90016535.73746
  21807241.980   114597833.71809  21807240.960    89297004.42847
 15 01 16 03 50  0.0000000  0  6G16G18G19G21G22G27
  20648322.700   108507675.03909  20648318.720    84551432.31148
  21638105.360   113709087.05909  21638100.140    88604452.82446
  23780023.240   124964880.99308  23780019.900    97375187.54245
  22251644.780   116933167.94408  22251639.140    91116726.37146
  21968410.360   115444798.66309  21968403.840    89956936.09446
  21796731.280   114542600.57109  21796730.460    89253965.62047
 15 01 16 03 50 30.0000000  0  6G16G18G19G21G22G27
  20642946.020   108479419.55408  20642941.960    84529415.04648
  21635760.540   113696764.49209  21635754.860    88594850.83047
  23765728.480   124889765.46107  23765726.000    97316655.96745
  22263282.920   116994327.77608  22263277.480    91164383.37046
  21953914.680   115368623.23509  21953907.640    89897578.61146
  21786241.700   114487478.94008  21786241.080    89211013.71847
 15 01 16 03 51  0.0000000  0  6G16G18G19G21G22G27
  20637664.040   108451662.23308  20637659.980    84507785.96548
  21633508.460   113684928.60509  21633502.440    88585628.05646
  23751443.880   124814701.62007  23751442.360    97258164.65646
  22274946.820   117055623.63108  22274941.700    91212146.35246
  21939478.220   115292759.28809  21939470.520    89838463.81546
  21775773.220   114432467.91008  21775772.740    89168147.97647
 15 01 16 03 51 30.0000000  0  6G16G18G19G21G22G27
  20632477.840   108424408.69708  20632473.840    84486549.45148
  21631349.760   113673583.98909  21631343.740    88576788.10747
  23737170.240   124739693.50907  23737169.180    97199716.80646
  22286637.120   117117058.12808  22286632.120    91260017.38046
  21925101.940   115217212.91908  21925094.140    89779596.50445
  21765326.640   114377571.76308  21765326.260    89125371.76447
 15 01 16 03 52  0.0000000  0  6G16G18G19G21G22G27
  20627387.740   108397660.31708  20627383.780    84465706.55248
  21629284.580   113662731.57709  21629278.780    88568331.69347
  23722907.580   124664741.47607  23722906.260    97141312.67446
  22298353.500   117178629.49708  22298348.620    91307995.05046
  21910786.700   115141987.17608  21910779.080    89720979.00345
  21754902.220   114322791.48608  21754901.740    89082685.83847
 15 01 16 03 52 30.0000000  0  6G16G18G19G21G22G27
  20622394.180   108371419.20008  20622390.240    84445258.92248
  21627313.100   113652372.14109  21627307.740    88560259.41447
  23708655.940   124589846.22508  23708654.240    97082952.75245
  22310095.880   117240336.83008  22310090.880    91356078.68646
  21896532.960   115067084.69608  21896525.780    89662613.42045
  21744500.040   114268127.88208  21744499.400    89040090.83646
 15 01 16 03 53  0.0000000  0  6G16G18G19G21G22G27
  20617496.980   108345684.56909  20617493.040    84425205.95248
  21625434.960   113642503.89709  21625430.140    88552569.87147
  23694414.840   124515005.50708  23694412.400    97024635.28546
  22321863.460   117302176.19808  22321858.080    91404265.19245
  21882340.840   114992505.82108  21882334.500    89604499.99546
  21734119.780   114213579.40508  21734119.040    88997585.54047
 15 01 16 03 53 30.0000000  0  6G16G18G19G21G22G27
  20612696.840   108320459.78408  20612692.820    84405550.27648
  21623650.720   113633129.23709  21623646.420    88545264.96247
  23680184.440   124440221.36008  23680181.600    96966361.95546
  22333656.360   117364148.39008  22333650.220    91452555.21445
  21868211.180   114918254.91308  21868205.480    89546642.13046
  21723761.940   114159148.66008  21723761.020    88955171.99747
 15 01 16 03 54  0.0000000  0  6G16G18G19G21G22G27
  20607995.020   108295751.75308  20607990.900    84386297.26648
  21621961.620   113624254.34609  21621957.740    88538349.47747
  23665965.720   124365499.53308  23665962.420    96908137.18346
  22345475.240   117426257.26008  22345468.200    91500951.76945
  21854145.320   114844339.76808  21854140.540    89489045.92146
  21713427.780   114104841.82009  21713426.700    88912854.99547
 15 01 16 03 54 30.0000000  0  6G16G18G19G21G22G27
  20603390.200   108271553.96708  20603386.000    84367441.84947
  21620366.280   113615871.34309  21620362.480    88531817.28546
  23651757.280   124290832.79408  23651753.700    96849955.32945
  22357318.220   117488493.05808  22357310.480    91549447.19544
  21840142.440   114770754.86708  21840138.200    89431707.03747
  21703115.860   114050651.10909  21703114.600    88870628.48947
 15 01 16 03 55  0.0000000  0  6G16G18G19G21G22G27
  20598882.880   108247868.89208  20598878.680    84348985.95048
  21618865.020   113607982.05509  21618861.080    88525669.80447
  23637559.440   124216222.12908  23637555.600    96791817.14246
  22369185.360   117550855.63008  22369177.260    91598041.42245
  21826203.180   114697503.86608  21826199.380    89374628.34647
  21692826.560   113996578.68009  21692825.100    88828494.14647
 15 01 16 03 55 30.0000000  0  6G16G18G19G21G22G27
  20594474.220   108224702.44108  20594470.160    84330934.17248
  21617458.740   113600591.50709  21617454.640    88519910.94647
  23623372.940   124141671.49708  23623368.560    96733725.73945
  22381077.180   117613347.58708  22381069.320    91646736.46445
  21812328.980   114624593.38108  21812325.340    89317814.98547
  21682560.620   113942629.31409  21682559.020    88786455.69147
 15 01 16 03 56  0.0000000  0  6G16G18G19G21G22G27
  20590163.140   108202048.86108  20590159.240    84313282.03847
  21616146.180   113593693.05909  21616141.860    88514535.54747
  23609196.660   124067174.87408  23609191.980    96675676.43445
  22392992.140   117675961.21108  22392984.900    91695526.28945
  21798518.700   114552019.33608  21798515.280    89261263.80847
  21672316.960   113888797.35909  21672315.140    88744508.73747
 15 01 16 03 56 30.0000000  0  6G16G18G19G21G22G27
  20585951.000   108179915.21408  20585947.280    84296035.03047
  21614928.160   113587292.21309  21614923.840    88509547.88747
  23595031.800   123992737.88008  23595026.640    96617673.56144
  22404930.900   117738699.91108  22404924.380    91744413.56845
  21784774.000   114479789.20508  21784770.560    89204980.59647
  21662096.700   113835088.38709  21662094.300    88702657.58447
 15 01 16 03 57  0.0000000  0  6G16G18G19G21G22G27
  20581838.440   108158304.82608  20581834.800    84279195.77147
  21613805.300   113581391.41809  21613801.060    88504949.88547
  23580878.740   123918362.52508  23580873.080    96559718.71745
  22416893.500   117801564.08708  22416887.580    91793398.62046
  21771095.440   114407907.19108  21771091.980    89148968.64347
  21651900.320   113781504.96309  21651897.240    88660904.25747
 15 01 16 03 57 30.0000000  0  6G16G18G19G21G22G27
  20577825.000   108137214.93408  20577821.500    84262762.09347
  21612776.920   113575987.28909  21612772.660    88500738.88047
  23566736.720   123844045.26908  23566730.980    96501809.17945
  22428878.940   117864548.80607  22428873.740    91842477.58546
  21757483.080   114336372.18009  21757479.280    89093227.09347
  21641727.240   113728044.15009  21641723.760    88619246.49146
 15 01 16 03 58  0.0000000  0  6G16G18G19G21G22G27
  20573911.700   108116650.32208  20573908.240    84246737.72847
  21611843.800   113571083.46909  21611839.540    88496917.72347
  23552606.360   123769789.74708  23552600.840    96443947.74445
  22440887.540   117927655.82007  22440883.040    91891651.83946
  21743937.740   114265189.55809  21743933.600    89037760.09047
  21631578.180   113674709.88309  21631574.440    88577687.33647
 15 01 16 03 58 30.0000000  0  6G16G18G19G21G22G27
  20570098.840   108096612.53108  20570095.220    84231123.88348
  21611006.100   113566680.68209  21611001.780    88493486.98847
  23538487.900   123695596.89208  23538482.940    96386135.15645
  22452919.240   117990884.07307  22452915.380    91940920.55846
  21730459.960   114194362.28209  21730455.480    88982570.02647
  21621453.380   113621503.44309  21621449.440    88536227.79046
 15 01 16 03 59  0.0000000  0  6G16G18G19G21G22G27
  20566385.840   108077099.25408  20566382.060    84215918.73148
  21610262.980   113562774.93509  21610258.520    88490443.55547
  23524380.540   123621462.46908  23524375.980    96328368.05746
  22464973.020   118054227.74308  22464969.540    91990279.23146
  21717049.380   114123888.58608  21717044.680    88927655.47747
  21611352.040   113568421.15009  21611348.100    88494864.96346
 15 01 16 03 59 30.0000000  0  6G16G18G19G21G22G27
  20562772.600   108058110.58308  20562768.740    84201122.36247
  21609614.380   113559365.87209  21609609.720    88487787.14847
  23510284.320   123547386.29108  23510279.820    96270646.38845
  22477048.540   118117684.75808  22477045.080    92039726.23146
  21703706.260   114053770.31108  21703701.640    88873017.87147
  21601274.260   113515463.20709  21601270.500    88453599.04346
 15 01 16 04 00  0.0000000  0  6G16G18G19G21G22G27
  20559259.740   108039649.69908  20559255.780    84186737.25147
  21609060.620   113556455.47609  21609055.820    88485519.31547
  23496199.640   123473370.07008  23496194.780    96212971.42345
  22489145.900   118181255.59208  22489142.340    92089261.93046
  21690431.260   113984011.20008  21690426.740    88818660.14147
  21591220.460   113462631.94109  21591216.920    88412431.81746
 15 01 16 04 00 30.0000000  0  6G16G18G19G21G22G27
  20555848.100   108021721.03909  20555844.080    84172766.86048
  21608602.440   113554047.89209  21608597.520    88483643.28247
  23482127.240   123399418.07108  23482122.180    96155346.50545
  22501265.440   118244942.82208  22501261.740    92138888.33346
  21677225.800   113914617.50308  21677221.400    88764587.12847
  21581191.620   113409931.94208  21581188.160    88371366.87246
 15 01 16 04 01  0.0000000  0  6G16G18G19G21G22G27
  20552536.780   108004319.62209  20552532.740    84159207.31147
  21608238.500   113552135.91009  21608233.500    88482153.42647
  23468065.820   123325523.47808  23468060.820    96097766.31945
  22513405.360   118308737.65208  22513401.540    92188598.58246
  21664089.200   113845584.42408  21664084.720    88710795.12146
  21571186.620   113357356.87508  21571183.160    88330399.28646
 15 01 16 04 01 30.0000000  0  6G16G18G19G21G22G27
  20549326.520   107987448.66709  20549322.380    84146061.10647
  21607969.340   113550722.63709  21607964.360    88481052.18747
  23454015.980   123251689.23408  23454010.760    96040233.15245
  22525565.860   118372641.49308  22525561.940    92238393.78445
  21651022.240   113776916.73108  21651017.660    88657287.83246
  21561206.020   113304909.99708  21561202.860    88289531.60346
 15 01 16 04 02  0.0000000  0  6G16G18G19G21G22G27
  20546217.740   107971110.24409  20546213.440    84133329.86147
  21607795.420   113549809.67209  21607790.480    88480340.78347
  23439978.000   123177917.04209  23439972.420    95982748.34345
  22537746.920   118436654.38308  22537742.780    92288273.97545
  21638025.680   113708618.26508  21638020.580    88604068.22546
  21551250.260   113252593.61808  21551247.740    88248765.60246
 15 01 16 04 02 30.0000000  0  6G16G18G19G21G22G27
  20543211.180   107955308.56309  20543206.540    84121016.86347
  21607716.940   113549398.97009  21607712.260    88480020.75847
  23425952.220   123104209.15209  23425946.340    95925313.63745
  22549948.600   118500776.64107  22549944.240    92338239.37744
  21625100.020   113640693.36108  21625094.600    88551139.73446
  21541319.860   113200410.42708  21541318.140    88208103.39646
 15 01 16 04 03  0.0000000  0  6G16G18G19G21G22G27
  20540307.100   107940045.62509  20540302.060    84109123.66047
  21607734.320   113549491.87609  21607729.900    88480093.15247
  23411938.820   123030567.11908  23411932.640    95867930.23845
  22562170.840   118565008.16707  22562166.520    92388289.91144
  21612246.060   113573145.46908  21612240.620    88498505.01346
  21531415.280   113148362.39108  21531414.240    88167546.48847
 15 01 16 04 03 30.0000000  0  6G16G18G19G21G22G27
  20537505.900   107925323.59109  20537500.340    84097651.93547
  21607847.880   113550089.45009  21607843.580    88480558.79447
  23397937.900   122956991.84808  23397931.520    95810598.87945
  22574413.660   118629348.24107  22574409.260    92438425.01145
  21599464.200   113505977.56308  21599459.200    88446166.39746
  21521536.900   113096450.93609  21521536.160    88127096.01046
 15 01 16 04 04  0.0000000  0  6G16G18G19G21G22G27
  20534806.580   107911137.58609  20534800.580    84086597.89147
  21608056.640   113551186.36809  21608052.320    88481413.53747
  23383948.420   122883478.13708  23383941.880    95753315.44945
  22586676.020   118693790.19507  22586672.020    92488639.52244
  21586753.920   113439186.38308  21586749.480    88394121.33447
  21511683.840   113044671.49509  21511682.840    88086748.38546
 15 01 16 04 04 30.0000000  0  6G16G18G19G21G22G27
  20532209.360   107897488.82909  20532203.120    84075962.49247
  21608360.360   113552782.08809  21608355.960    88482656.96247
  23369970.620   122810026.69608  23369964.300    95696080.59345
  22598957.960   118758332.69307  22598954.380    92538932.36545
  21574115.940   113372774.44008  21574111.720    88342371.77947
  21501856.140   112993024.91909  21501854.680    88046504.30746
 15 01 16 04 05  0.0000000  0  6G16G18G19G21G22G27
  20529714.060   107884376.37509  20529707.740    84065744.99547
  21608758.680   113554875.30509  21608754.240    88484288.04847
  23356004.300   122736636.02708  23355998.200    95638893.05645
  22611258.840   118822972.67907  22611255.520    92589301.16845
  21561550.500   113306741.97909  21561546.040    88290917.91747
  21492053.540   112941510.30909  21492051.640    88006363.06447
 15 01 16 04 05 30.0000000  0  6G16G18G19G21G22G27
  20527321.400   107871803.89709  20527315.180    84055948.25147
  21609252.000   113557468.37609  21609247.620    88486308.63147
  23342049.940   122663308.31807  23342044.400    95581754.58045
  22623578.820   118887711.08308  22623575.360    92639746.66446
  21549058.280   113241093.50409  21549053.480    88239763.26547
  21482276.520   112890130.35809  21482274.320    87966326.74947
 15 01 16 04 06  0.0000000  0  6G16G18G19G21G22G27
  20525031.840   107859773.36309  20525025.680    84046573.80747
  21609840.600   113560562.09209  21609836.400    88488719.32347
  23328107.940   122590045.03407  23328103.120    95524666.32345
  22635917.540   118952547.36308  22635913.660    92690268.42946
  21536639.840   113175832.08309  21536634.500    88188910.22647
  21472525.540   112838887.01209  21472523.040    87926396.86947
 15 01 16 04 06 30.0000000  0  6G16G18G19G21G22G27
  20522845.360   107848284.43409  20522839.220    84037621.38247
  21610524.320   113564155.26709  21610520.280    88491519.21047
  23314178.280   122516845.36908  23314173.760    95467627.65445
  22648274.360   119017478.83708  22648270.120    92740864.37646
  21524295.420   113110958.57209  21524289.200    88138359.42747
  21462800.520   112787779.88709  21462797.840    87886573.15847
 15 01 16 04 07  0.0000000  0  6G16G18G19G21G22G27
  20520762.000   107837337.03108  20520755.920    84029090.92647
  21611303.060   113568247.38409  21611299.100    88494707.87547
  23300260.920   122443709.44308  23300256.580    95410638.62145
  22660648.840   119082503.85208  22660644.340    92791533.19546
  21512024.980   113046475.10209  21512018.100    88088112.57947
  21453101.560   112736809.51709  21453098.620    87846855.98447
 15 01 16 04 07 30.0000000  0  6G16G18G19G21G22G27
  20518783.080   107826938.05509  20518777.060    84020987.82147
  21612177.740   113572843.34609  21612173.760    88498289.15847
  23286356.700   122370642.16608  23286352.500    95353703.11945
  22673041.600   119147625.97208  22673036.980    92842277.70047
  21499829.900   112982388.32809  21499822.320    88038174.83147
  21443429.560   112685981.36609  21443426.340    87807249.64347
 15 01 16 04 08  0.0000000  0  6G16G18G19G21G22G27
  20516908.680   107817087.71709  20516902.780    84013312.23548
  21613148.300   113577942.77009  21613144.240    88502262.74747
  23272465.440   122297643.66408  23272461.140    95296821.20244
  22685452.300   119212843.39608  22685447.600    92893096.44346
  21487710.760   112918700.24409  21487702.960    87988547.75847
  21433784.500   112635295.96309  21433781.040    87767754.53447
 15 01 16 04 08 30.0000000  0  6G16G18G19G21G22G27
  20515138.420   107807784.38809  20515132.560    84006062.87647
  21614214.220   113583543.03509  21614210.040    88506626.58047
  23258586.760   122224711.72008  23258582.740    95239991.12644
  22697880.300   119278152.74508  22697875.760    92943986.82146
  21475667.320   112855410.73009  21475659.260    87939231.26046
  21424166.060   112584751.73109  21424162.580    87728369.40646
 15 01 16 04 09  0.0000000  0  6G16G18G19G21G22G27
  20513471.920   107799026.51408  20513466.140    83999238.55347
  21615375.040   113589641.82109  21615370.600    88511378.88747
  23244720.540   122151844.98108  23244716.600    95183211.86545
  22710324.980   119343550.22408  22710320.740    92994945.87746
  21463699.480   112792519.56709  21463691.160    87890225.15546
  21414574.120   112534347.58509  21414570.740    87689093.45847
 15 01 16 04 09 30.0000000  0  6G16G18G19G21G22G27
  20511909.740   107790817.31108  20511904.100    83992841.76747
  21616630.980   113596240.62409  21616626.240    88516520.80547
  23230867.180   122079045.15408  23230863.000    95126484.71545
  22722786.340   119409036.39507  22722782.440    93045974.03146
  21451808.000   112730030.69209  21451799.760    87841532.54146
  21405009.280   112484085.88309  21405006.140    87649928.49146
 15 01 16 04 10  0.0000000  0  6G16G18G19G21G22G27
  20510451.880   107783157.00408  20510446.500    83986872.68848
  21617981.860   113603338.99809  21617977.000    88522052.00547
  23217026.660   122006312.11008  23217022.420    95069809.62245
  22735264.060   119474609.34807  22735260.640    93097069.79845
  21439993.400   112667945.75609  21439985.320    87793154.66546
  21395471.660   112433966.89909  21395468.760    87610874.74646
 15 01 16 04 10 30.0000000  0  6G16G18G19G21G22G27
  20509099.320   107776050.22208  20509094.220    83981334.94748
  21619428.400   113610940.68709  21619423.540    88527975.39647
  23203199.700   121933650.53008  23203195.580    95013190.20946
  22747758.700   119540271.88607  22747755.840    93148235.35645
  21428256.560   112606270.49208  21428248.620    87745096.03246
  21385962.280   112383995.77409  21385959.540    87571936.21546
 15 01 16 04 11  0.0000000  0  6G16G18G19G21G22G27
  20507851.820   107769494.95208  20507846.860    83976226.94848
  21620970.080   113619042.79109  21620965.360    88534288.72947
  23189385.800   121861058.27408  23189382.100    94956624.82545
  22760269.820   119606020.29607  22760267.340    93199467.88445
  21416597.500   112545004.77408  21416589.900    87697356.51646
  21376480.700   112334170.76709  21376478.220    87533111.55546
 15 01 16 04 11 30.0000000  0  6G16G18G19G21G22G27
  20506709.540   107763491.88608  20506704.560    83971549.22248
  21622606.840   113627644.83709  21622602.360    88540991.62547
  23175585.100   121788535.20808  23175581.760    94900113.38246
  22772797.200   119671852.77708  22772794.880    93250765.89245
  21405016.700   112484150.04908  21405009.840    87649937.25846
  21367026.940   112284492.23709  21367024.840    87494401.02646
 15 01 16 04 12  0.0000000  0  6G16G18G19G21G22G27
  20505672.300   107758040.24608  20505667.220    83967301.18548
  21624338.260   113636744.78509  21624334.100    88548082.49547
  23161797.340   121716080.01108  23161794.180    94843654.80746
  22785340.180   119737766.27708  22785337.700    93302127.09645
  21393514.440   112423706.46108  21393507.680    87602838.34446
  21357600.880   112234959.41308  21357599.200    87455804.03546
 15 01 16 04 12 30.0000000  0  6G16G18G19G21G22G27
  20504740.420   107753142.10608  20504735.200    83963484.44448
  21626164.700   113646344.10309  21626160.920    88555562.49247
  23148022.800   121643694.62508  23148019.740    94787250.62946
  22797898.780   119803761.07508  22797895.960    93353551.60545
  21382091.420   112363677.97509  21382085.220    87556062.89847
  21348203.020   112185574.76008  21348201.720    87417322.47946
 15 01 16 04 13  0.0000000  0  6G16G18G19G21G22G27
  20503913.820   107748797.70308  20503908.580    83960099.18748
  21628086.040   113656441.87509  21628082.600    88563430.88147
  23134261.420   121571379.03407  23134258.560    94730900.82346
  22810472.620   119869835.72808  22810469.500    93405038.36145
  21370747.880   112304066.09809  21370741.960    87509612.09347
  21338833.480   112136338.71108  21338832.540    87378956.70646
 15 01 16 04 13 30.0000000  0  6G16G18G19G21G22G27
  20503191.580   107745002.22208  20503186.380    83957141.67148
  21630101.160   113667032.24809  21630097.980    88571683.12847
  23120512.360   121499127.99308  23120509.780    94674601.40346
  22823060.360   119935983.18008  22823057.060    93456581.81746
  21359483.240   112244867.38509  21359477.480    87463483.22047
  21329491.340   112087246.48509  21329490.680    87340703.03646
 15 01 16 04 14  0.0000000  0  6G16G18G19G21G22G27
  20502575.620   107741766.05308  20502570.640    83954619.96948
  21632211.860   113678124.60009  21632208.820    88580326.52847
  23106777.500   121426951.45708  23106775.260    94618360.01246
  22835663.440   120002211.74808  22835660.080    93508188.48346
  21348299.420   112186093.17109  21348293.800    87417685.14848
  21320178.640   112038308.56308  21320178.280    87302569.59446
 15 01 16 04 14 30.0000000  0  7G04G16G18G19G21G22G27
  24578402.500   129160376.07108  24578401.940   100644418.23843
  20502066.120   107739089.31108  20502061.400    83952534.19448
  21634417.960   113689717.94909  21634415.040    88589360.29647
  23093056.960   121354849.77208  23093054.900    94562176.91846
  22848281.460   120068519.42108  22848278.100    93559856.77946
  21337196.480   112127744.88609  21337190.880    87372218.96048
  21310895.520   111989525.67209  21310895.400    87264556.95346
 15 01 16 04 15  0.0000000  0  7G04G16G18G19G21G22G27
  24560196.320   129064702.72408  24560194.840   100569867.59342
  20501660.040   107736956.12408  20501655.480    83950871.97048
  21636716.320   113701795.73709  21636713.420    88598771.56547
  23079347.600   121282806.62008  23079345.580    94506039.43246
  22860911.260   120134889.44608  22860908.020    93611573.65646
  21326171.840   112069808.34909  21326166.200    87327073.61248
  21301639.020   111940882.13908  21301638.900    87226652.90847
 15 01 16 04 15 30.0000000  0  7G04G16G18G19G21G22G27
  24542021.540   128969194.50907  24542018.800   100495445.63243
  20501363.300   107735397.77508  20501358.860    83949657.67448
  21639112.660   113714388.13409  21639109.680    88608583.81847
  23065655.480   121210853.52608  23065653.300    94449972.12746
  22873558.480   120201350.90708  22873555.320    93663361.79346
  21315231.600   112012316.35609  21315226.120    87282274.66548
  21292415.200   111892409.82309  21292414.940    87188882.26047
 15 01 16 04 16  0.0000000  0  7G04G16G18G19G21G22G27
  24523874.540   128873831.81107  24523871.760   100421137.06143
  20501172.240   107734395.26408  20501168.020    83948876.48848
  21641603.140   113727474.93009  21641599.900    88618781.33247
  23051976.980   121138970.97808  23051974.500    94393959.77946
  22886218.940   120267882.57007  22886215.980    93715204.60446
  21304372.320   111955250.55909  21304367.020    87237807.81248
  21283220.400   111844089.59109  21283220.060    87151230.12147
 15 01 16 04 16 30.0000000  0  7G04G16G18G19G21G22G27
  24505756.220   128778620.26706  24505754.040   100346946.26144
  20501087.780   107733953.58408  20501083.940    83948532.31448
  21644188.460   113741059.98009  21644184.920    88629367.09147
  23038312.940   121067163.60108  23038309.920    94338005.99345
  22898893.380   120334487.75707  22898890.600    93767104.70046
  21293595.300   111898617.33909  21293590.180    87193678.02048
  21274055.660   111795927.02209  21274055.240    87113700.85347
 15 01 16 04 17  0.0000000  0  7G04G16G18G19G21G22G27
  24487666.880   128683562.37207  24487665.660   100272875.34642
  20501110.500   107734075.06908  20501107.040    83948626.97848
  21646868.920   113755144.90709  21646865.080    88640342.36947
  23024663.560   120995433.79108  23024660.040    94282112.67145
  22911582.000   120401167.06808  22911579.320    93819062.56046
  21282901.280   111842420.73109  21282896.540    87149888.48448
  21264921.460   111747924.68809  21264921.020    87076296.45548
 15 01 16 04 17 30.0000000  0  7G04G16G18G19G21G22G27
  24469606.360   128588657.36706  24469606.060   100198923.39643
  20501240.040   107734758.01908  20501237.000    83949159.13848
  21649644.020   113769727.21209  21649639.940    88651705.20347
  23011028.580   120923780.46308  23011024.600    94226278.94845
  22924284.300   120467917.67608  22924281.600    93871075.98446
  21272290.260   111786660.61609  21272285.780    87106439.05448
  21255817.640   111700081.82009  21255817.100    87039016.29648
 15 01 16 04 18  0.0000000  0  7G04G16G18G19G21G22G27
  24451574.680   128493905.68505  24451576.100   100125090.99744
  20501476.700   107736003.03208  20501473.920    83950129.26248
  21652513.640   113784806.53109  21652509.340    88663455.31947
  22997407.980   120852203.73208  22997403.300    94170504.87844
  22937000.040   120534738.35808  22936997.080    93923144.01145
  21261762.580   111731338.72909  21261758.360    87063331.11348
  21246744.340   111652399.13709  21246743.540    87001860.96748
 15 01 16 04 18 30.0000000  0  7G04G16G18G19G21G22G27
  24433571.900   128399304.97006  24433574.420   100051376.26144
  20501819.940   107737807.23008  20501817.260    83951535.12048
  21655477.040   113800378.69409  21655472.560    88675589.47847
  22983801.340   120780700.63808  22983796.060    94114788.16844
  22949728.200   120601624.00308  22949724.740    93975262.68545
  21251317.800   111676453.57008  21251314.180    87020563.48148
  21237701.020   111604874.24609  21237699.840    86964828.59548
 15 01 16 04 19  0.0000000  0  7G04G16G18G19G21G22G27
  24415597.980   128304853.08005  24415600.800    99977777.43743
  20502269.500   107740168.24608  20502266.560    83953374.85548
  21658533.520   113816440.43909  21658528.960    88688105.11247
  22970208.240   120709268.64408  22970202.280    94059126.89945
  22962467.960   120668570.58808  22962463.740    94027428.85544
  21240955.800   111622003.83309  21240952.620    86978135.14548
  21228687.180   111557505.19609  21228685.640    86927917.64648
 15 01 16 04 19 30.0000000  0  7G04G16G18G19G21G22G27
  24397653.740   128210553.56606  24397655.340    99904297.34444
  20502825.880   107743089.17108  20502822.440    83955650.89648
  21661683.440   113832993.71909  21661678.880    88701003.77847
  22956629.380   120637911.29708  22956622.700    94003523.77245
  22975219.620   120735580.01208  22975214.500    94079644.01444
  21230677.840   111567994.41008  21230674.720    86936049.88848
  21219703.600   111510295.92009  21219701.760    86891131.19648
 15 01 16 04 20  0.0000000  0  7G04G16G18G19G21G22G27
  24379738.820   128116406.58307  24379738.640    99830936.09943
  20503488.840   107746569.80208  20503484.820    83958363.06548
  21664926.680   113850037.45209  21664922.000    88714284.61447
  22943064.780   120566628.31508  22943057.840    93947978.59945
  22987982.800   120802650.15908  22987976.900    94131906.51144
  21220483.900   111514426.15009  21220480.780    86894308.41347
  21210750.400   111463246.58709  21210748.360    86854469.38148
 15 01 16 04 20 30.0000000  0  7G04G16G18G19G21G22G27
  24361853.500   128022414.12007  24361852.500    99757695.16344
  20504258.320   107750611.34708  20504253.980    83961512.31748
  21668263.320   113867571.94509  21668258.700    88727947.85747
  22929514.860   120495421.25008  22929507.740    93892492.59545
  23000757.440   120869781.19308  23000751.280    94184216.39945
  21210374.720   111461301.66609  21210371.140    86852912.69847
  21201828.040   111416359.26309  21201825.860    86817933.80048
 15 01 16 04 21  0.0000000  0  7G04G16G18G19G21G22G27
  24343998.560   127928582.65906  24343997.300    99684579.84544
  20505135.600   107755220.31808  20505131.100    83965103.71948
  21671694.420   113885602.74709  21671689.780    88741997.83747
  22915980.620   120424296.39908  22915973.500    93837070.65845
  23013544.360   120936977.82508  23013538.480    94236577.41945
  21200351.660   111408629.29009  21200347.360    86811869.29247
  21192937.800   111369640.61609  21192935.600    86781529.66448
 15 01 16 04 21 30.0000000  0  7G04G16G18G19G21G22G27
  24326173.820   127834911.53105  24326172.320    99611589.34945
  20506120.440   107760395.02208  20506115.880    83969135.94448
  21675219.580   113904127.37709  21675214.900    88756432.62647
  22902461.800   120353252.68708  22902454.840    93781711.94546
  23026343.120   121004237.29707  23026337.880    94288987.37346
  21190414.780   111356408.87809  21190409.300    86771178.05147
  21184079.500   111323090.20609  21184077.480    86745256.64448
 15 01 16 04 22  0.0000000  0  7G04G16G18G19G21G22G27
  24308379.380   127741400.36806  24308378.140    99538723.54944
  20507212.780   107766135.08708  20507208.200    83973608.71648
  21678838.500   113923144.86409  21678833.940    88771251.45247
  22888958.320   120282290.17508  22888951.520    93726416.51046
  23039153.260   121071557.97207  23039148.800    94341445.01546
  21180564.200   111304641.47609  21180557.060    86730839.79647
  21175253.260   111276708.40309  21175251.420    86709114.99248
 15 01 16 04 22 30.0000000  0  7G04G16G18G19G21G22G27
  24290615.200   127648048.51306  24290613.960    99465981.86244
  20508412.480   107772439.47208  20508407.940    83978521.21548
  21682550.580   113942652.23709  21682546.280    88786452.00647
  22875469.880   120211407.16108  22875463.240    93671183.00546
  23051974.160   121138936.27207  23051970.720    94393947.55746
  21170799.540   111253326.36709  21170791.100    86690853.97846
  21166458.860   111230494.14509  21166457.240    86673103.89348
 15 01 16 04 23  0.0000000  0  7G04G16G18G19G21G22G27
  24272881.740   127554857.80206  24272880.280    99393365.69644
  20509719.640   107779309.13008  20509715.260    83983874.17548
  21686355.900   113962649.95409  21686351.920    88802034.65247
  22861996.740   120140605.27808  22861990.300    93616012.74346
  23064806.140   121206372.41007  23064803.620    94446495.14346
  21161121.460   111202466.98109  21161112.080    86651223.25946
  21157696.700   111184449.60809  21157695.340    86637225.04448
 15 01 16 04 23 30.0000000  0  7G04G16G18G19G21G22G27
  24255178.900   127461828.13006  24255177.320    99320875.14244
  20511134.340   107786743.73108  20511130.020    83989667.36848
  21690254.340   113983136.70409  21690250.680    88817998.35847
  22848538.900   120069884.36609  22848532.660    93560905.57246
  23077649.080   121273864.21307  23077647.100    94499086.13746
  21151530.080   111152063.81309  21151520.420    86611948.05946
  21148966.760   111138575.19809  21148965.820    86601478.77948
 15 01 16 04 24  0.0000000  0  7G04G16G18G19G21G22G27
  24237506.340   127368957.55407  24237504.860    99248508.47443
  20512656.020   107794740.12108  20512651.660    83995898.31448
  21694245.080   114004108.24509  21694241.620    88834339.81447
  22835095.940   119999241.84708  22835089.920    93505859.44146
  23090502.140   121341407.90107  23090500.360    94551717.54646
  21142025.340   111102115.75709  21142016.060    86573027.47747
  21140268.700   111092868.69709  21140268.160    86565863.33447
 15 01 16 04 24 30.0000000  0  7G04G16G18G19G21G22G27
  24219864.840   127276250.42606  24219863.460    99176269.21444
  20514285.400   107803302.53908  20514280.980    84002570.33048
  21698328.880   114025568.40709  21698325.420    88851062.02047
  22821668.780   119928682.44908  22821662.880    93450878.11446
  23103365.840   121409006.01808  23103363.980    94604391.39546
  21132608.340   111052628.65409  21132599.640    86534466.09047
  21131603.640   111047335.13909  21131603.320    86530382.64347
 15 01 16 04 25  0.0000000  0  7G04G16G18G19G21G22G27
  24202254.780   127183708.98606  24202253.260    99104158.97945
  20516022.720   107812433.06908  20516018.440    84009685.01848
  21702505.660   114047517.54709  21702502.180    88868165.24447
  22808257.860   119858208.15808  22808251.920    93395963.10845
  23116240.140   121476659.33708  23116237.940    94657108.25545
  21123279.520   111003605.10909  21123271.580    86496265.92747
  21122972.160   111001977.06709  21122971.760    86495038.70647
 15 01 16 04 25 30.0000000  0  7G04G16G18G19G21G22G27
  24184676.040   127091332.48807  24184674.500    99032177.36844
  20517867.780   107822129.84908  20517863.680    84017240.94548
  21706775.020   114069953.82109  21706771.480    88885648.06647
  22794863.060   119787818.36909  22794856.860    93341113.94045
  23129124.460   121544365.35308  23129121.940    94709866.18545
  21114038.940   110955045.70109  21114031.800    86458427.43448
  21114374.240   110956794.28009  21114373.440    86459831.34747
 15 01 16 04 26  0.0000000  0  7G04G16G18G19G21G22G27
  24167128.860   126999122.08407  24167127.440    98960325.13244
  20519820.780   107832393.53508  20519816.860    84025238.61248
  21711136.880   114092876.22009  21711133.300    88903509.67947
  22781484.360   119717513.26208  22781477.900    93286330.72745
  23142018.480   121612122.82708  23142015.600    94762664.22345
  21104886.840   110906951.81109  21104880.360    86420951.67948
  21105810.000   110911787.77109  21105808.680    86424761.35047
 15 01 16 04 26 30.0000000  0  7G04G16G18G19G21G22G27
  24149613.680   126907079.89307  24149611.840    98888603.90744
  20521882.100   107843225.74308  20521878.200    84033679.28748
  21715591.500   114116285.61609  21715587.800    88921750.77447
  22768122.200   119647295.21808  22768115.640    93231615.39145
  23154922.340   121679932.59007  23154919.320    94815502.99644
  21095823.860   110859326.88808  21095818.080    86383841.36648
  21097279.860   110866960.26109  21097278.060    86389830.82947
 15 01 16 04 27  0.0000000  0  7G04G16G18G19G21G22G27
  24132130.020   126815203.70907  24132128.120    98817012.10945
  20524051.080   107854623.32108  20524047.120    84042560.51548
  21720138.140   114140178.04709  21720134.160    88940368.24847
  22754776.200   119577161.88808  22754769.620    93176966.06945
  23167835.200   121747790.34307  23167831.960    94868379.16744
  21086849.840   110812169.04908  21086844.680    86347095.01848
  21088783.440   110822309.79809  21088781.260    86355038.26747
 15 01 16 04 27 30.0000000  0  7G04G16G18G19G21G22G27
  24114678.760   126723498.44507  24114677.140    98745553.48045
  20526328.520   107866590.56608  20526324.360    84051885.63848
  21724777.460   114164557.23209  21724773.280    88959365.01347
  22741447.140   119507117.80708  22741440.580    93122386.28845
  23180757.840   121815699.02507  23180754.160    94921295.02144
  21077965.880   110765484.46408  21077961.080    86310717.43948
  21080321.720   110777841.60909  21080319.220    86320387.72847
 15 01 16 04 28  0.0000000  0  7G04G16G18G19G21G22G27
  24097259.480   126631961.38707  24097258.340    98674225.96545
  20528713.700   107879124.29808  20528709.280    84061652.16548
  21729508.620   114189418.45209  21729504.280    88978737.37947
  22728134.520   119437160.52508  22728127.900    93067874.12145
  23193689.220   121883654.34607  23193685.140    94974247.19444
  21069171.440   110719270.96508  21069167.060    86274706.93848
  21071894.240   110733553.32409  21071891.440    86285877.36047
 15 01 16 04 28 30.0000000  0  7G04G16G18G19G21G22G27
  24079872.200   126540592.35607  24079871.840    98603029.35345
  20531206.320   107892223.34408  20531201.780    84071859.19948
  21734331.120   114214759.81209  21734326.580    88998483.89347
  22714838.260   119367289.45808  22714831.520    93013429.16845
  23206629.180   121951654.74107  23206624.980    95027234.50945
  21060466.720   110673529.38908  21060462.820    86239064.18448
  21063500.960   110689445.10709  21063497.840    86251507.30048
 15 01 16 04 29  0.0000000  0  7G04G16G18G19G21G22G27
  24062516.960   126449390.31908  24062517.100    98531962.87445
  20533806.100   107905885.76608  20533801.620    84082505.22848
  21739244.440   114240579.00309  21739239.820    89018602.73047
  22701558.300   119297503.52509  22701551.280    92959050.51945
  23219576.980   122019696.91907  23219572.500    95080254.36744
  21051851.680   110628259.14208  21051848.120    86203788.68648
  21055141.740   110645516.27709  21055138.360    86217277.03547
 15 01 16 04 29 30.0000000  0  7G04G16G18G19G21G22G27
  24045194.520   126358359.54708  24045195.100    98461029.84946
  20536513.800   107920114.99108  20536509.400    84093592.93048
  21744249.180   114266878.84409  21744244.440    89039096.10946
  22688295.500   119227806.83308  22688287.980    92904741.42545
  23232533.460   122087783.58108  23232528.720    95133308.90544
  21043327.720   110583465.76108  21043324.140    86168884.77748
  21046817.480   110601771.60609  21046813.760    86183190.26247
 15 01 16 04 30  0.0000000  0  7G04G16G18G19G21G22G27
  24027904.200   126267496.95408  24027904.960    98390227.90346
  20539328.660   107934907.58008  20539324.500    84105119.61048
  21749344.360   114293654.17809  21749339.560    89059960.00347
  22675049.240   119158196.42609  22675041.280    92850499.55745
  23245497.540   122155909.90808  23245492.680    95186394.33445
  21034894.200   110539146.54008  21034890.460    86134350.33548
  21038527.620   110558208.34009  21038523.700    86149244.85547
 15 01 16 04 30 30.0000000  0  7G04G16G18G19G21G22G27
  24010646.880   126176807.58908  24010647.500    98319560.88946
  20542251.600   107950268.50008  20542247.740    84117089.15248
  21754530.560   114320908.66809  21754525.900    89081197.26846
  22661820.380   119088677.25709  22661811.840    92796328.77845
  23258469.900   122224079.63408  23258465.100    95239513.58945
  21026552.180   110495307.51009  21026548.120    86100190.08148
  21030273.280   110514832.12409  21030269.180    86115445.19647
 15 01 16 04 31  0.0000000  0  7G04G16G18G19G21G22G27
  23993422.700   126086292.41908  23993423.060    98249029.68246
  20545282.700   107966197.18508  20545278.980    84129501.10648
  21759807.720   114348641.40809  21759803.160    89102807.19846
  22648609.000   119019250.19308  22648599.700    92742229.76545
  23271450.340   122292291.76308  23271445.660    95292665.89345
  21018301.900   110451950.15109  21018297.320    86066405.15748
  21022054.720   110471644.18209  21022050.480    86081792.24947
 15 01 16 04 31 30.0000000  0  7G04G16G18G19G21G22G27
  23976231.780   125995952.93608  23976231.880    98178635.34046
  20548422.120   107982694.37409  20548418.320    84142356.04048
  21765175.900   114376852.55109  21765171.440    89124789.90046
  22635415.340   118949916.90308  22635405.440    92688203.82345
  23284438.780   122360546.11308  23284434.120    95345851.07445
  21010143.840   110409077.10209  21010138.620    86032997.59248
  21013872.320   110428646.66209  21013867.960    86048287.67147
 15 01 16 04 32  0.0000000  0  7G04G16G18G19G21G22G27
  23959073.740   125905787.08508  23959073.640    98108376.30845
  20551669.200   107999756.91409  20551665.200    84155651.51848
  21770634.380   114405538.01309  21770630.100    89147142.21746
  22622238.920   118880675.14208  22622228.880    92634249.19845
  23297434.620   122428838.84908  23297430.060    95399066.17545
  21002077.480   110366686.49909  21002071.620    85999965.95647
  21005725.760   110385837.73209  21005721.460    86014930.05547
 15 01 16 04 32 30.0000000  0  7G04G16G18G19G21G22G27
  23941949.360   125815798.91408  23941948.900    98038255.73245
  20555024.480   108017388.06509  20555020.260    84169390.08548
  21776183.660   114434700.22609  21776179.520    89169866.02146
  22609080.440   118811528.96708  22609070.520    92580369.06444
  23310438.220   122497172.55008  23310433.420    95452313.21344
  20994103.720   110324783.39309  20994097.260    85967314.19547
  20997615.880   110343221.99609  20997611.980    85981722.99047
 15 01 16 04 33  0.0000000  0  7G04G16G18G19G21G22G27
  23924857.800   125725983.23508  23924856.980    97968269.53145
  20558486.940   108035582.03309  20558482.420    84183567.19148
  21781822.460   114464332.44609  21781818.480    89192956.06347
  22595939.040   118742473.25108  22595929.440    92526559.45344
  23323448.320   122565540.03607  23323443.120    95505586.56844
  20986221.640   110283362.76709  20986214.660    85935038.39347
  20989541.820   110300794.73909  20989538.480    85948662.79447
 15 01 16 04 33 30.0000000  0  7G04G16G18G19G21G22G27
  23907800.380   125636346.65008  23907799.020    97898422.87844
  20562057.660   108054344.58609  20562052.880    84198187.35348
  21787551.620   114494439.60309  21787547.820    89216416.19346
  22582816.100   118673514.62608  22582806.920    92472825.46645
  23336465.740   122633946.57807  23336460.340    95558890.34844
  20978432.820   110242432.57009  20978425.380    85903144.74347
  20981505.000   110258563.05408  20981502.360    85915754.98947
 15 01 16 04 34  0.0000000  0  7G04G16G18G19G21G22G27
  23890776.240   125546884.35109  23890773.700    97828712.02643
  20565735.340   108073669.52709  20565730.440    84213245.73248
  21793369.820   114525014.76309  21793366.220    89240241.00547
  22569710.720   118604647.85408  22569702.080    92419163.05445
  23349489.340   122702385.69007  23349483.760    95612219.52845
  20970736.600   110201988.23509  20970728.820    85871629.66747
  20973504.640   110216522.42608  20973502.660    85882996.06747
 15 01 16 04 34 30.0000000  0  7G04G16G18G19G21G22G27
  23873785.520   125457596.90208  23873781.920    97759137.35043
  20569519.840   108093556.65409  20569515.100    84228742.18348
  21799276.960   114556056.95409  21799273.500    89264429.72446
  22556623.340   118535874.18508  22556615.260    92365573.17844
  23362519.080   122770856.70007  23362513.340    95665573.53144
  20963133.080   110162031.10809  20963125.240    85840494.24547
  20965541.020   110174674.12708  20965539.620    85850387.00147
 15 01 16 04 35  0.0000000  0  7G04G16G18G19G21G22G27
  23856829.500   125368491.65108  23856825.340    97689704.70544
  20573412.520   108114012.94409  20573408.080    84244682.14748
  21805274.120   114587572.14509  21805270.600    89288987.03046
  22543555.060   118467200.66108  22543547.680    92312061.33845
  23375555.720   122839364.83907  23375550.100    95718956.49744
  20955623.920   110122569.15009  20955615.820    85809744.66347
  20957615.660   110133025.98709  20957614.540    85817933.92347
 15 01 16 04 35 30.0000000  0  7G04G16G18G19G21G22G27
  23839907.440   125279564.78508  23839903.400    97620411.04744
  20577412.460   108135033.36109  20577408.440    84261061.67348
  21811360.220   114619554.58509  21811356.380    89313908.42046
  22530505.200   118398623.63908  22530498.780    92258624.69946
  23388598.540   122907905.16307  23388593.100    95772364.53044
  20948208.500   110083599.30409  20948200.180    85779378.54347
  20949727.940   110091574.84309  20949726.800    85785634.33448
 15 01 16 04 36  0.0000000  0  7G04G16G18G19G21G22G27
  23823020.020   125190820.30008  23823016.520    97551259.50544
  20581520.280   108156620.82109  20581516.620    84277883.04748
  21817535.580   114652006.23409  21817531.260    89339195.41946
  22517474.660   118330147.55008  22517469.280    92205266.73246
  23401647.780   122976479.80808  23401642.660    95825799.28345
  20940887.480   110045125.73409  20940879.140    85749399.14447
  20941878.660   110050325.28209  20941877.300    85753491.82347
 15 01 16 04 36 30.0000000  0  7G04G16G18G19G21G22G27
  23806166.800   125102256.45108  23806164.380    97482248.76144
  20585735.500   108178772.05409  20585731.940    84295143.74048
  21823799.580   114684923.50809  21823794.660    89364845.24946
  22504463.140   118261770.25308  22504458.540    92151985.73446
  23414703.020   123045085.27608  23414698.000    95879258.06545
  20933660.700   110007147.54009  20933652.360    85719805.75247
  20934067.440   110009275.75309  20934065.860    85721505.19847
 15 01 16 04 37  0.0000000  0  7G04G16G18G19G21G22G27
  23789348.220   125013874.87908  23789346.680    97413380.03644
  20590058.260   108201488.42409  20590054.660    84312844.79648
  21830152.180   114718306.63609  21830146.800    89390858.08046
  22491470.860   118193493.73708  22491466.640    92098783.30547
  23427764.240   123113722.50108  23427759.280    95932741.60845
  20926528.520   109969666.98209  20926520.360    85690600.13748
  20926294.560   109968428.72009  20926293.040    85689676.33548
 15 01 16 04 37 30.0000000  0  7G04G16G18G19G21G22G27
  23772564.120   124925674.49008  23772563.000    97344652.51145
  20594488.160   108224767.60609  20594484.380    84330984.41448
  21836592.920   114752152.57809  21836587.240    89417231.55546
  22478497.560   118125316.91108  22478493.500    92045658.52246
  23440830.920   123182388.21208  23440826.040    95986247.34945
  20919490.820   109932683.57509  20919482.900    85661781.91048
  20918560.040   109927783.64809  20918558.600    85658004.86347
 15 01 16 04 38  0.0000000  0  7G04G16G18G19G21G22G27
  23755815.020   124837657.76408  23755814.300    97276068.08045
  20599025.340   108248610.66109  20599021.380    84349563.40748
  21843121.860   114786461.80809  21843116.080    89443966.00746
  22465543.640   118057242.25908  22465539.640    91992613.35747
  23453903.180   123251083.23408  23453898.620    96039775.91745
  20912548.160   109896200.24409  20912540.540    85633353.33248
  20910864.500   109887343.39709  20910863.080    85626492.98048
 15 01 16 04 38 30.0000000  0  7G04G16G18G19G21G22G27
  23739100.440   124749821.94808  23739100.060    97207624.60045
  20603669.080   108273014.08409  20603665.100    84368579.04748
  21849738.140   114821229.93709  21849732.460    89471058.05946
  22452608.700   117989267.60808  22452604.440    91939646.12847
  23466980.280   123319803.45408  23466975.800    96093324.11445
  20905700.320   109860215.04109  20905693.020    85605312.91048
  20903207.540   109847106.10208  20903206.220    85595139.25748
 15 01 16 04 39  0.0000000  0  7G04G16G18G19G21G22G27
  23722421.380   124662172.58408  23722420.920    97139326.45745
  20608420.400   108297982.82009  20608416.340    84388035.19748
  21856442.420   114856460.63809  21856436.980    89498510.56246
  22439693.820   117921398.46008  22439689.260    91886761.09546
  23480062.940   123388553.08108  23480058.520    96146895.25245
  20898948.420   109824733.69809  20898941.420    85577665.12948
  20895590.260   109807077.82508  20895589.140    85563948.40548
 15 01 16 04 39 30.0000000  0  7G04G16G18G19G21G22G27
  23705776.940   124574705.24308  23705776.180    97071170.14745
  20613278.180   108323510.85509  20613274.100    84407927.17048
  21863233.540   114892147.72109  21863228.480    89526318.68446
  22426798.100   117853630.44808  22426793.300    91833954.88546
  23493150.140   123457326.48408  23493145.920    96200484.90645
  20892291.600   109789752.09109  20892284.840    85550406.75248
  20888011.860   109767254.71908  20888011.060    85532917.43948
 15 01 16 04 40  0.0000000  0  7G04G16G18G19G21G22G27
  23689168.300   124487426.09908  23689167.300    97003160.44245
  20618243.400   108349603.09709  20618239.340    84428258.77148
  21870112.300   114928295.42009  21870107.600    89554485.71546
  22413922.680   117785970.00808  22413917.640    91781232.47546
  23506242.620   123526128.23007  23506238.560    96254096.62445
  20885731.140   109755277.32409  20885724.680    85523543.29548
  20880473.800   109727643.59708  20880473.300    85502051.60448
 15 01 16 04 40 30.0000000  0  7G04G16G18G19G21G22G27
  23672595.180   124400333.47108  23672593.660    96935296.10444
  20623315.540   108376256.88609  20623311.480    84449027.95548
  21877078.000   114964900.14809  21877073.720    89583008.88346
  22401067.240   117718415.65808  22401062.200    91728592.73546
  23519339.820   123594955.24507  23519336.140    96307728.05845
  20879266.660   109721308.01309  20879260.620    85497073.73748
  20872976.060   109688243.41109  20872975.760    85471350.17948
 15 01 16 04 41  0.0000000  0  7G04G16G18G19G21G22G27
  23656058.020   124313430.05608  23656056.080    96867579.20544
  20628494.840   108403473.96609  20628490.860    84470236.06748
  21884130.740   115001962.87509  21884126.860    89611888.92646
  22388232.260   117650970.45708  22388227.460    91676038.08245
  23532442.020   123663808.93007  23532438.680    96361380.23945
  20872898.900   109687847.55709  20872893.380    85471000.67148
  20865519.300   109649057.52909  20865518.860    85440815.72348
 15 01 16 04 41 30.0000000  0  7G04G16G18G19G21G22G27
  23639555.920   124226711.22408  23639553.720    96800006.16744
  20633780.000   108431248.03908  20633776.300    84491878.19248
  21891269.280   115039476.78609  21891265.720    89641120.54746
  22375417.000   117583629.58708  22375412.480    91623564.70245
  23545547.960   123732682.95707  23545545.160    96415048.30345
  20866626.980   109654891.14609  20866622.020    85445320.38248
  20858102.660   109610081.84009  20858101.960    85410445.06948
 15 01 16 04 42  0.0000000  0  7G04G16G18G19G21G22G27
  23623089.720   124140181.26108  23623087.660    96732580.26244
  20639171.680   108459582.43109  20639168.300    84513956.92148
  21898494.160   115077444.63109  21898490.800    89670705.87846
  22362622.700   117516397.91408  22362618.000    91571176.40345
  23558658.400   123801580.28707  23558656.100    96468734.50245
  20860452.040   109622443.91609  20860447.500    85420036.83848
  20850727.000   109571321.42909  20850725.980    85380242.13748
 15 01 16 04 42 30.0000000  0  7G04G16G18G19G21G22G27
  23606659.780   124053842.57807  23606658.200    96665303.42244
  20644670.120   108488478.22608  20644667.100    84536473.10948
  21905805.360   115115866.86209  21905802.300    89700645.26746
  22349850.000   117449278.04408  22349844.960    91518875.20845
  23571773.360   123870502.01307  23571771.420    96522439.71745
  20854374.800   109590508.79009  20854370.380    85395152.32848
  20843392.920   109532779.49009  20843391.560    85350209.44748
 15 01 16 04 43  0.0000000  0  7G04G16G18G19G21G22G27
  23590265.340   123967691.93707  23590264.680    96598173.10544
  20650274.600   108517931.42308  20650271.920    84559423.63748
  21913201.920   115154738.17508  21913199.200    89730934.59846
  22337098.280   117382266.90908  22337092.560    91466658.74644
  23584892.260   123939443.48807  23584889.920    96576160.34944
  20848394.740   109559082.70809  20848390.080    85370664.48148
  20836100.000   109494453.25509  20836098.240    85320344.84948
 15 01 16 04 43 30.0000000  0  7G04G16G18G19G21G22G27
  23573907.600   123881734.47607  23573908.100    96531193.36443
  20655985.920   108547945.60808  20655983.420    84582811.29948
  21920684.580   115194061.87909  21920681.940    89761576.44345
  22324368.480   117315370.17308  22324361.820    91414531.41745
  23598015.780   124008408.75307  23598012.980    96629899.53044
  20842512.880   109528171.44409  20842507.820    85346577.80048
  20828849.420   109456348.68009  20828847.100    85290652.97248
 15 01 16 04 44  0.0000000  0  7G04G16G18G19G21G22G27
  23557584.900   123795959.40607  23557586.640    96464355.76041
  20661801.940   108578508.98608  20661799.340    84606626.91548
  21928251.100   115233825.28209  21928248.200    89792560.90745
  22311658.520   117248577.26208  22311651.320    91362484.97645
  23611141.560   124077385.02207  23611138.180    96683647.26244
  20836726.940   109497764.44309  20836721.600    85322884.05348
  20821639.080   109418455.65009  20821636.220    85261125.92948
 15 01 16 04 44 30.0000000  0  7G04G16G18G19G21G22G27
  23541313.500   123710451.61607  23541321.820    96397759.39941
  20667738.440   108609704.82109  20667735.600    84630935.33748
  21935917.360   115274111.38809  21935913.940    89823952.67745
  22298984.520   117181972.88208  22298977.220    91310585.46045
  23624285.420   124146456.00707  23624281.600    96737468.81544
  20831053.100   109467946.92509  20831047.600    85299649.62548
  20814485.160   109380859.74109  20814481.960    85231830.40848
 15 01 16 04 45  0.0000000  0  6G16G18G19G21G22G27
  20673765.300   108641375.90908  20673762.360    84655614.10048
  21943653.420   115314763.07309  21943649.060    89855629.31945
  22286317.000   117115402.34509  22286309.940    91258712.31646
  23637417.620   124215465.08807  23637413.760    96791242.10144
  20825461.760   109438563.59409  20825456.200    85276753.52748
  20807358.080   109343406.21309  20807354.960    85202645.83648
 15 01 16 04 45 30.0000000  0  6G16G18G19G21G22G27
  20679900.500   108673616.77608  20679897.560    84680736.85248
  21951476.760   115355872.64209  21951471.420    89887662.75945
  22273673.960   117048961.05308  22273667.200    91206939.88246
  23650555.960   124284506.35907  23650551.880    96845040.47945
  20819971.160   109409710.10109  20819965.560    85254270.30148
  20800276.060   109306190.95509  20800273.300    85173646.93448
 15 01 16 04 46  0.0000000  0  4G04G16G21G27
  23492676.580   123454855.56108  23492687.660    96198594.12941
  20686138.460   108706397.77608  20686135.460    84706280.47648
  23663694.780   124353549.64007  23663690.660    96898840.44045
  20793233.980   109269186.28009  20793231.580    85144812.12548
 15 01 16 04 46 30.0000000  0  7G04G16G18G19G21G22G27
  23476532.860   123370019.30908  23476539.740    96132488.09643
  20692478.260   108739713.15109  20692475.080    84732240.49448
  21967367.120   115439369.93009  21967359.400    89952725.61545
  22248444.460   116916378.23408  22248439.360    91103628.63846
  23676833.040   124422590.13607  23676828.860    96952638.21145
  20809275.760   109353504.38309  20809269.540    85210473.64248
  20786231.360   109232388.86409  20786229.080    85116138.81348
 15 01 16 04 47  0.0000000  0  7G04G16G18G19G21G22G27
  23460424.860   123285370.91408  23460427.980    96066528.35944
  20698922.220   108773575.12009  20698918.740    84758626.43648
  21975434.340   115481763.01309  21975426.800    89985759.19245
  22235859.980   116850246.74208  22235855.300    91052097.61247
  23689972.980   124491639.74607  23689968.680    97006443.08444
  20804072.680   109326162.07109  20804066.300    85189167.94848
  20779270.880   109195812.94009  20779268.680    85087638.10948
 15 01 16 04 47 30.0000000  0  7G04G16G18G19G21G22G27
  23444356.020   123200928.57408  23444356.820    96000729.21144
  20705473.360   108808000.22709  20705469.580    84785451.19948
  21983587.080   115524605.58109  21983580.140    90019143.02145
  22223300.180   116784245.17808  22223296.000    91000667.84247
  23703117.760   124560715.32707  23703113.400    97060268.22244
  20798970.560   109299349.94209  20798963.960    85168275.38448
  20772356.140   109159477.58009  20772354.040    85059324.83848
 15 01 16 04 48  0.0000000  0  7G04G16G18G19G21G22G27
  23428324.920   123116685.31307  23428324.740    95935085.13844
  20712129.980   108842979.95809  20712126.040    84812708.12448
  21991823.660   115567888.92209  21991817.400    90052870.30045
  22210763.900   116718366.95308  22210760.140    90949334.16847
  23716265.860   124629808.81707  23716261.500    97114107.27245
  20793967.980   109273061.03909  20793961.180    85147790.52648
  20765486.000   109123376.41109  20765484.040    85031194.06447
 15 01 16 04 48 30.0000000  0  7G04G16G18G19G21G22G27
  23412331.860   123032643.14408  23412331.520    95869597.78944
  20718892.300   108878515.74509  20718888.240    84840398.35448
  22000144.060   115611613.29509  22000138.420    90086941.23845
  22198251.540   116652614.28608  22198248.060    90898098.35647
  23729417.420   124698921.00207  23729413.300    97167960.89045
  20789065.400   109247298.01709  20789058.520    85127715.44448
  20758661.000   109087512.40809  20758659.240    85003248.10747
 15 01 16 04 49  0.0000000  0  7G04G16G18G19G21G22G27
  23396376.320   122948799.08507  23396376.380    95804264.76445
  20725759.400   108914602.73909  20725755.220    84868518.08347
  22008547.320   115655773.42009  22008542.200    90121351.72645
  22185762.640   116586984.77608  22185759.260    90846958.50147
  23742571.840   124768048.01207  23742567.780    97221826.09044
  20784262.260   109222058.04009  20784255.440    85108047.94048
  20751880.840   109051883.39909  20751879.160    84975485.25347
 15 01 16 04 49 30.0000000  0  7G04G16G18G19G21G22G27
  23380458.760   122865155.34707  23380459.500    95739087.89144
  20732731.380   108951241.13009  20732727.100    84897067.47047
  22017033.500   115700369.26709  22017028.820    90156101.72646
  22173297.680   116521481.04008  22173294.260    90795916.64747
  23755729.200   124837190.40207  23755725.220    97275703.22744
  20779558.900   109197342.89909  20779552.280    85088789.39648
  20745146.140   109016492.31909  20745144.320    84947907.79347
 15 01 16 04 50  0.0000000  0  7G04G16G18G19G21G22G27
  23364578.360   122781707.87806  23364580.140    95674063.92645
  20739807.240   108988426.18608  20739803.000    84926042.83947
  22025601.460   115745394.67709  22025597.080    90191186.44646
  22160855.920   116456099.22908  22160852.380    90744969.82247
  23768888.600   124906342.89107  23768884.360    97329588.26844
  20774954.680   109173149.17809  20774948.400    85069937.16348
  20738456.240   108981335.88209  20738454.200    84920513.16647
 15 01 16 04 50 30.0000000  0  7G04G16G18G19G21G22G27
  23348735.600   122698457.24307  23348738.140    95609193.37144
  20746986.940   109026156.94209  20746982.780    84955443.42547
  22034251.040   115790848.75709  22034246.780    90226605.20246
  22148437.660   116390840.81408  22148433.960    90694119.12847
  23782049.920   124975504.97807  23782045.420    97383480.81644
  20770450.000   109149477.89709  20770444.000    85051492.01948
  20731811.360   108946415.73309  20731809.100    84893302.65047
 15 01 16 04 51  0.0000000  0  7G04G16G18G19G21G22G27
  23332930.320   122615401.23206  23332933.440    95544474.43045
  20754269.840   109064429.43609  20754265.600    84985266.14047
  22042981.400   115836726.90409  22042977.160    90262354.39346
  22136042.580   116325703.88208  22136038.620    90643363.11247
  23795212.240   125044672.98107  23795207.440    97437377.90644
  20766044.260   109126326.34709  20766038.440    85033451.85448
  20725211.100   108911730.23109  20725208.740    84866274.98247
 15 01 16 04 51 30.0000000  0  7G04G16G18G19G21G22G27
  23317163.120   122532544.09906  23317166.680    95479910.48444
  20761656.560   109103246.55109  20761652.120    85015513.23947
  22051792.860   115883031.59109  22051788.840    90298435.96146
  22123671.600   116260693.14709  22123667.440    90592705.41747
  23808376.400   125113850.84107  23808371.520    97491282.73044
  20761738.420   109103699.68509  20761732.640    85015820.69148
  20718656.500   108877284.73709  20718654.080    84839434.33447
 15 01 16 04 52  0.0000000  0  7G04G16G18G19G21G22G27
  23301434.160   122449886.50407  23301437.800    95415502.03144
  20769146.760   109142606.51709  20769141.920    85046183.34047
  22060685.160   115929761.26109  22060681.300    90334848.65446
  22111324.920   116195809.80209  22111320.640    90542146.98947
  23821542.240   125183037.92907  23821537.140    97545194.73244
  20757532.600   109081598.15709  20757526.640    84998598.72948
  20712147.880   108843080.52309  20712145.360    84812781.68947
 15 01 16 04 52 30.0000000  0  7G04G16G18G19G21G22G27
  23285743.080   122367427.04607  23285746.220    95351247.90043
  20776740.000   109182507.70009  20776734.720    85077275.16247
  22069657.440   115976912.35108  22069654.080    90371589.75146
  22099002.260   116131052.57509  22098997.900    90491686.81247
  23834709.060   125252230.79906  23834704.260    97599111.26945
  20753426.540   109060020.33209  20753420.220    84981784.84048
  20705685.020   108809117.03509  20705682.540    84786316.62348
 15 01 16 04 53  0.0000000  0  7G04G16G18G19G21G22G27
  23270089.900   122285166.95408  23270092.180    95287149.14643
  20784436.060   109222949.31209  20784430.380    85108788.10947
  22078709.680   116024484.30808  22078706.960    90408658.78246
  22086704.020   116066423.81309  22086699.520    90441326.74847
  23847877.120   125321430.32606  23847872.840    97653032.94544
  20749420.600   109038968.01609  20749413.800    84965380.45248
  20699268.300   108775396.59409  20699266.140    84760040.95948
 15 01 16 04 53 30.0000000  0  7G04G16G18G19G21G22G27
  23254474.980   122203108.49008  23254476.500    95223207.49243
  20792234.880   109263931.40309  20792228.880    85140722.19647
  22087842.080   116072476.99408  22087839.940    90446055.68046
  22074430.620   116001925.88109  22074425.800    90391068.62346
  23861046.560   125390637.91806  23861042.600    97706960.90043
  20745515.040   109018443.41909  20745507.840    84949387.26448
  20692898.300   108741922.25509  20692896.600    84733957.05848
 15 01 16 04 54  0.0000000  0  7G04G16G18G19G21G22G27
  23238897.320   122121245.79208  23238897.460    95159418.38444
  20800135.120   109305447.39709  20800128.920    85173072.31347
  22097053.260   116120882.68109  22097051.540    90483774.38146
  22062180.980   115937553.63509  22062175.920    90340908.42946
  23874216.260   125459846.30706  23874212.940    97760889.52944
  20741708.680   108998440.70709  20741701.440    84933800.73348
  20686574.200   108708689.13209  20686572.820    84708061.11648
 15 01 16 04 54 30.0000000  0  7G04G16G18G19G21G22G27
  23223357.940   122039584.26208  23223356.300    95095786.02144
  20808137.520   109347500.88609  20808131.320    85205841.26646
  22106343.920   116169704.79309  22106342.260    90521817.58746
  22049956.280   115873312.99709  22049951.120    90290850.79546
  23887387.040   125529059.40207  23887384.100    97814821.80144
  20738002.580   108978965.27309  20737995.540    84918625.07448
  20680297.200   108675703.41609  20680295.920    84682357.95948
 15 01 16 04 55  0.0000000  0  7G04G16G18G19G21G22G27
  23207856.860   121958124.74608  23207854.140    95032311.09044
  20816241.880   109390090.77109  20816236.000    85239028.18446
  22115713.680   116218941.66109  22115711.780    90560183.97646
  22037756.820   115809205.51308  22037751.660    90240896.91246
  23900558.760   125598277.01607  23900556.200    97868757.57345
  20734396.940   108960017.60909  20734390.160    84903860.65748
  20674067.480   108642966.77309  20674066.380    84656848.87948
 15 01 16 04 55 30.0000000  0  7G04G16G18G19G21G22G27
  23192393.940   121876865.49108  23192389.820    94968992.17043
  20824447.640   109433213.89409  20824442.200    85272630.60247
  22125161.760   116268589.78109  22125159.400    90598870.82646
  22025582.440   115745229.83909  22025577.160    90191045.72746
  23913731.000   125667497.19707  23913728.560    97922695.35644
  20730891.600   108941596.64209  20730884.980    84889506.64048
  20667884.960   108610478.50209  20667884.120    84631533.35548
 15 01 16 04 56  0.0000000  0  7G04G16G18G19G21G22G27
  23176968.980   121795805.87608  23176963.680    94905828.83144
  20832754.360   109476867.83908  20832749.480    85306646.66747
  22134687.600   116318646.51909  22134684.700    90637876.08546
  22013433.220   115681385.99609  22013427.720    90141297.26146
  23926903.500   125736718.12707  23926901.200    97976633.73745
  20727486.400   108923701.60409  20727479.880    84875562.45648
  20661749.840   108578238.95909  20661749.260    84606411.63348
 15 01 16 04 56 30.0000000  0  7G04G16G18G19G21G22G27
  23161583.080   121714951.96608  23161577.360    94842825.79044
  20841162.900   109521056.84109  20841158.500    85341079.64346
  22144291.740   116369115.49609  22144288.360    90677202.55845
  22001310.460   115617680.67709  22001304.680    90091656.73546
  23940077.080   125805944.46707  23940074.840    98030576.30544
  20724182.340   108906338.13909  20724175.840    84862032.48848
  20655663.400   108546254.95009  20655663.100    84581489.04148
 15 01 16 04 57  0.0000000  0  7G04G16G18G19G21G22G27
  23146235.880   121634302.53408  23146230.660    94779982.10644
  20849672.820   109565778.52508  20849668.820    85375927.69647
  22153973.620   116419994.21308  22153970.040    90716848.30045
  21989214.120   115554113.70009  21989208.240    90042124.03046
  23953251.360   125875174.12307  23953248.960    98084521.48744
  20720979.160   108889505.49109  20720972.680    84848916.15348
  20649625.740   108514526.57309  20649625.580    84556765.62848
 15 01 16 04 57 30.0000000  0  7G04G16G18G19G21G22G27
  23130928.440   121553862.93107  23130924.320    94717301.89245
  20858284.720   109611035.70508  20858280.940    85411193.02547
  22163733.720   116471285.00408  22163730.160    90756815.15245
  21977145.220   115490690.50409  21977139.380    89992703.35547
  23966427.080   125944411.76907  23966424.580    98138472.88745
  20717877.820   108873208.81609  20717871.400    84836217.44848
  20643637.980   108483059.68309  20643637.740    84532245.96848
 15 01 16 04 58  0.0000000  0  7G04G16G18G19G21G22G27
  23115660.020   121473629.31007  23115657.300    94654782.26345
  20866997.780   109656823.69109  20866994.060    85446871.96547
  22173571.200   116522982.28808  22173567.780    90797098.74245
  21965103.220   115427408.58109  21965097.420    89943392.77447
  23979603.160   126013652.41606  23979600.580    98192426.62644
  20714877.760   108857444.38309  20714871.400    84823933.47948
  20637699.640   108451851.80109  20637699.140    84507928.14148
 15 01 16 04 58 30.0000000  0  7G04G16G18G19G21G22G27
  23100430.140   121393597.80507  23100428.500    94592420.07644
  20875810.740   109703136.26008  20875807.140    85482959.65947
  22183484.780   116575079.85608  22183481.420    90837694.24545
  21953087.200   115364263.74908  21953081.500    89894189.01747
  23992778.840   126082891.11906  23992776.180    98246378.82344
  20711978.160   108842207.63609  20711971.860    84812060.68848
  20631809.940   108420899.65009  20631809.200    84483809.57048
 15 01 16 04 59  0.0000000  0  7G04G16G18G19G21G22G27
  23085240.020   121313774.79607  23085238.940    94530220.34144
  20884724.620   109749978.43309  20884720.920    85519460.03947
  22193475.400   116627582.12908  22193472.180    90878605.10345
  21941098.540   115301263.61708  21941092.980    89845098.01347
  24005955.000   126152132.88206  24005952.500    98300333.40744
  20709180.300   108827505.31309  20709174.100    84800604.34248
  20625970.240   108390210.90009  20625969.360    84459896.26848
 15 01 16 04 59 30.0000000  0  7G04G16G18G19G21G22G27
  23070087.460   121234148.60208  23070086.240    94468173.99244
  20893736.800   109797336.41009  20893732.800    85556362.34047
  22203540.380   116680475.12608  22203537.180    90919820.43345
  21929135.120   115238397.02608  21929129.820    89796111.07247
  24019129.660   126221365.47307  24019127.180    98354280.86444
  20706481.960   108813325.40409  20706475.840    84789555.07148
  20620178.380   108359774.58309  20620177.480    84436179.66248
 15 01 16 05 00  0.0000000  0  7G04G16G18G19G21G22G27
  23054974.720   121154730.86108  23054973.240    94406290.04344
  20902849.240   109845220.57209  20902844.840    85593674.65847
  22213681.580   116733768.68208  22213678.300    90961347.87945
  21917199.340   115175676.40708  21917194.420    89747237.87846
  24032304.660   126290599.69307  24032301.900    98408229.58044
  20703885.260   108799679.54309  20703879.240    84778921.93848
  20614436.860   108329603.48009  20614436.020    84412669.72448
 15 01 16 05 00 30.0000000  0  7G04G16G18G19G21G22G27
  23039900.460   121075513.64808  23039898.540    94344562.32645
  20912059.860   109893620.50009  20912055.260    85631388.87547
  22223896.940   116787452.36308  22223893.780    91003179.32245
  21905289.880   115113094.33908  21905285.420    89698472.65147
  24045478.360   126359827.31007  24045475.620    98462173.19244
  20701388.440   108786559.29809  20701382.640    84768698.38448
  20608744.540   108299690.53309  20608743.620    84389360.94648
 15 01 16 05 01  0.0000000  0  7G04G16G18G19G21G22G27
  23024866.640   120996507.76008  23024864.480    94282999.30145
  20921370.360   109942545.39809  20921365.680    85669512.16247
  22234188.240   116841535.03408  22234185.360    91045321.64844
  21893409.100   115050662.50808  21893405.000    89649824.49147
  24058652.400   126429057.10806  24058649.900    98516118.45644
  20698993.640   108773975.59609  20698988.100    84758892.91548
  20603103.740   108270047.67409  20603102.600    84366262.62148
 15 01 16 05 01 30.0000000  0  7G04G16G18G19G21G22G27
  23009871.780   120917706.63808  23009869.520    94221595.83345
  20930779.100   109991987.29609  20930774.600    85708038.30248
  22244554.060   116896007.99608  22244551.640    91087768.08545
  21881556.020   114988375.22708  21881552.020    89601288.95647
  24071825.500   126498281.90307  24071823.100    98570059.83344
  20696699.720   108761922.16009  20696694.420    84749500.62648
  20597513.260   108240669.38309  20597512.000    84343370.44248
 15 01 16 05 02  0.0000000  0  7G04G16G18G19G21G22G27
  22994916.460   120839113.12608  22994914.100    94160354.15046
  20940286.080   110041946.20109  20940281.860    85746967.31147
  22254994.620   116950871.81708  22254992.220    91130519.11346
  21869731.180   114926235.67008  21869727.140    89552868.54247
  24084998.040   126567503.96007  24084995.420    98623999.09244
  20694507.160   108750401.06509  20694501.900    84740523.16048
  20591973.720   108211559.25809  20591972.520    84320687.22448
 15 01 16 05 02 30.0000000  0  7G04G16G18G19G21G22G27
  22980000.820   120760728.31808  22979998.240    94099275.09346
  20949891.400   110092422.25109  20949887.480    85786299.29047
  22265509.500   117006125.59008  22265507.000    91173574.00546
  21857935.000   114864246.22608  21857930.620    89504565.09046
  24098170.020   126636723.62907  24098167.420    98677936.46343
  20692416.220   108739413.29109  20692410.880    84731961.26348
  20586485.640   108182719.74509  20586484.560    84298214.87748
 15 01 16 05 03  0.0000000  0  7G04G16G18G19G21G22G27
  22965124.680   120682552.02508  22965122.000    94038358.53946
  20959594.760   110143413.43509  20959591.060    85826032.67747
  22276098.180   117061766.91208  22276095.540    91216930.87946
  21846167.580   114802407.23608  21846162.860    89456378.88046
  24111341.420   126705939.72407  24111338.840    98731871.07344
  20690426.840   108728958.43409  20690421.220    84723814.62648
  20581049.180   108154151.49609  20581048.220    84275953.89848
 15 01 16 05 03 30.0000000  0  7G04G16G18G19G21G22G27
  22950288.800   120604588.21608  22950286.120    93977607.54446
  20969396.500   110194921.53709  20969392.740    85866168.85348
  22286760.980   117117797.56709  22286758.120    91260591.13046
  21834429.840   114740723.45609  21834424.720    89408313.61846
  24124512.620   126775155.23607  24124509.960    98785805.24444
  20688539.640   108719040.25609  20688533.720    84716086.17848
  20575665.380   108125859.66709  20575664.540    84253908.32148
 15 01 16 05 04  0.0000000  0  8G04G11G16G18G19G21G22G27
  22935492.720   120526834.91408  22935490.160    93917020.57846
  24648290.240   129527646.61907  24648293.280   100930628.30946
  20979295.780   110246942.15809  20979291.720    85906704.39747
  22297496.980   117174213.25709  22297493.800    91304551.39847
  21822721.580   114679193.71509  21822715.840    89360368.35646
  24137683.120   126844367.73507  24137680.700    98839737.01044
  20686754.160   108709656.57609  20686748.020    84708774.20548
  20570333.920   108097843.23909  20570333.300    84232077.34048
 15 01 16 05 04 30.0000000  0  8G04G11G16G18G19G21G22G27
  22920737.140   120449295.83008  22920734.860    93856600.55245
  24631480.020   129439305.49208  24631480.800   100861791.16645
  20989292.940   110299477.54409  20989288.560    85947641.05547
  22308306.420   117231015.22209  22308302.900    91348812.67347
  21811043.500   114617822.15209  21811037.000    89312546.37845
  24150853.540   126913579.73906  24150851.520    98893668.42143
  20685070.940   108700810.11809  20685064.620    84701880.86548
  20565055.680   108070106.73609  20565055.360    84210464.48548
 15 01 16 05 05  0.0000000  0  8G04G11G16G18G19G21G22G27
  22906020.860   120371963.97607  22906018.860    93796341.99345
  24614681.240   129351025.84907  24614681.400   100793001.82345
  20999386.280   110352519.15709  20999381.920    85988972.16347
  22319187.640   117288194.83209  22319183.820    91393368.20747
  21799394.480   114556603.33509  21799387.160    89264843.39045
  24164022.400   126982783.82106  24164020.680    98947593.67444
  20683488.720   108692494.64409  20683482.380    84695401.28148
  20559829.700   108042644.61709  20559829.620    84189065.41748
 15 01 16 05 05 30.0000000  0  8G04G11G16G18G19G21G22G27
  22891343.680   120294838.05407  22891341.980    93736243.94145
  24597893.640   129262806.38107  24597893.400   100724259.43646
  21009575.240   110406063.29409  21009570.960    86030694.85947
  22330139.920   117345748.79809  22330135.940    91438215.44947
  21787774.260   114495536.75209  21787766.420    89217259.03145
  24177189.300   127051977.04106  24177187.540    99001510.46943
  20682007.100   108684708.36609  20682000.920    84689334.05448
  20554656.000   108015456.50609  20554655.940    84167879.87848
 15 01 16 05 06  0.0000000  0  8G04G11G16G18G19G21G22G27
  22876707.460   120217926.47708  22876705.720    93676312.88145
  24581118.880   129174655.22107  24581118.400   100655570.28046
  21019860.920   110460116.47109  21019856.880    86072814.21147
  22341164.500   117403683.08309  22341160.520    91483359.03647
  21776184.320   114434630.99308  21776176.440    89169800.00845
  24190355.660   127121167.72906  24190353.740    99055425.29844
  20680627.560   108677459.02909  20680621.540    84683685.22148
  20549536.300   107988551.67509  20549536.160    84146915.06948
 15 01 16 05 06 30.0000000  0  8G04G11G16G18G19G21G22G27
  22862110.660   120141220.78408  22862108.100    93616542.25444
  24564355.320   129086563.86607  24564355.000   100586927.81345
  21030241.280   110514668.26408  21030237.800    86115322.09147
  22352259.240   117461986.70608  22352255.360    91528790.41646
  21764623.340   114373878.83108  21764615.880    89122460.67645
  24203519.840   127190346.42406  24203517.820    99109330.72844
  20679348.420   108670737.64109  20679342.480    84678447.78148
  20544469.180   107961922.77609  20544468.800    84126165.28048
 15 01 16 05 07  0.0000000  0  8G04G11G16G18G19G21G22G27
  22847554.260   120064726.03608  22847550.040    93556935.91844
  24547604.220   128998537.48707  24547603.800   100518335.83845
  21040716.900   110569721.70508  21040714.200    86158220.85646
  22363424.660   117520662.68208  22363421.120    91574511.93546
  21753092.520   114313285.98108  21753085.800    89075245.48445
  24216682.660   127259517.51506  24216680.580    99163230.27243
  20678170.740   108664549.05409  20678164.700    84673625.51348
  20539455.760   107935576.06009  20539455.100    84105635.35648
 15 01 16 05 07 30.0000000  0  9G04G11G16G18G19G21G22G27G32
  22833037.620   119988439.23608  22833031.200    93497491.64643
  24530865.040   128910572.71006  24530864.540   100449791.89246
  21051287.080   110625271.93908  21051285.100    86201506.72646
  22374659.740   117579706.00607  22374656.720    91620519.70046
  21741591.600   114252850.62408  21741585.700    89028153.02945
  24229843.480   127328677.52306  24229841.380    99217121.14444
  20677093.880   108658890.23809  20677087.720    84669216.05848
  20534495.700   107909509.72009  20534494.700    84085323.91448
  24513448.140   128819034.85605  24513447.500   100378468.87654
 15 01 16 05 08  0.0000000  0  9G04G11G16G18G19G21G22G27G32
  22818560.420   119912359.47508  22818552.960    93438208.67743
  24514137.680   128822669.30607  24514136.920   100381295.76545
  21061951.300   110681315.53608  21061949.620    86245177.04546
  22385963.920   117639113.68007  22385961.600    91666811.36745
  21730120.560   114192572.45408  21730115.340    88981183.02445
  24243001.740   127397824.57305  24242999.700    99271001.96244
  20676117.440   108653759.52609  20676111.220    84665218.10548
  20529589.000   107883723.79709  20529587.740    84065230.98948
  24490813.520   128700085.88507  24490812.800   100285781.43443
 15 01 16 05 08 30.0000000  0  9G04G11G16G18G19G21G22G27G32
  22804125.360   119836501.29108  22804118.680    93379098.38743
  24497424.900   128734841.70907  24497423.820   100312858.69444
  21072712.260   110737865.65308  21072710.560    86289242.06546
  22397339.500   117698897.90907  22397338.180    91713396.44446
  21718682.480   114132467.23908  21718677.880    88934347.81045
  24256160.240   127466972.85505  24256158.300    99324883.63644
  20675244.100   108649171.21009  20675237.980    84661642.81447
  20524738.580   107858233.94009  20524737.180    84045368.75348
  24468187.880   128581185.24506  24468187.000   100193131.58744
 15 01 16 05 09  0.0000000  0  9G04G11G16G18G19G21G22G27G32
  22789730.100   119760851.96008  22789725.260    93320150.82444
  24480723.960   128647076.66807  24480722.480   100244470.39245
  21083567.040   110794907.03708  21083564.780    86333689.89346
  22408783.900   117759043.66407  22408783.440    91760263.21245
  21707275.220   114072522.97608  21707271.140    88887638.00946
  24269316.420   127536108.48006  24269314.480    99378755.54144
  20674471.440   108645112.16809  20674465.380    84658479.93247
  20519942.280   107833028.50109  20519940.820    84025728.14148
  24445569.380   128462322.45905  24445567.720   100100511.22643
 15 01 16 05 09 30.0000000  0  9G04G11G16G18G19G21G22G27G32
  22775375.200   119685414.39709  22775372.420    93261368.31344
  24464035.680   128559377.68107  24464033.360   100176133.51846
  21094515.640   110852440.87108  21094512.800    86378521.46246
  22420297.600   117819551.61607  22420297.220    91807412.23645
  21695899.520   114012743.66108  21695895.820    88841056.72646
  24282470.740   127605233.70506  24282468.560    99432619.37343
  20673800.060   108641584.77009  20673793.960    84655731.31747
  20515200.800   107808111.50109  20515199.380    84006312.28748
  24422958.740   128343502.70506  24422957.420   100007924.42744
 15 01 16 05 10  0.0000000  0  9G04G11G16G18G19G21G22G27G32
  22761061.160   119610191.55709  22761059.700    93202753.14045
  24447360.460   128471747.39408  24447357.440   100107850.23644
  21105558.120   110910467.97108  21105554.800    86423737.38446
  22431881.000   117880422.65707  22431879.860    91854844.21844
  21684556.120   113953132.98208  21684552.500    88794606.86946
  24295623.660   127674351.22606  24295620.660    99486477.11242
  20673230.460   108638591.42309  20673224.320    84653398.84347
  20510514.960   107783487.04909  20510513.580    83987124.39748
  24400357.280   128224731.44905  24400357.060    99915375.46243
