     2.11           OBSERVATION DATA    G                   RINEX VERSION / TYPE
SPIDER V4,0,0,3554                      2015 03 24 00:02    PGM / RUN BY / DATE 
CJSR                                                        MARKER NAME         
CJSR                                                        MARKER NUMBER       
                                                            OBSERVER / AGENCY   
496548              LEICA GRX1200+GNSS  8.20/4.007          REC # / TYPE / VERS 
10321013            LEIAR25         NONE                    ANT # / TYPE        
  5147913.4740   536355.0963  3716357.4907                  APPROX POSITION XYZ 
        0.0720        0.0000        0.0000                  ANTENNA: DELTA H/E/N
     1     1                                                WAVELENGTH FACT L1/2
     4    C1    L1    P2    L2                              # / TYPES OF OBSERV 
    30.000                                                  INTERVAL            
  2015    02    05    13    15   30.0000000     GPS         TIME OF FIRST OBS   
  2015    02    05    23    59   30.0000000     GPS         TIME OF LAST OBS    
    16                                                      LEAP SECONDS        
    20                                                      # OF SATELLITES     
   G 2   603   603   600   600                              PRN / # OF OBS      
   G 5   521   521   521   521                              PRN / # OF OBS      
   G 6   286   286   283   283                              PRN / # OF OBS      
   G 7   250   250   250   250                              PRN / # OF OBS      
   G 9   169   169   169   169                              PRN / # OF OBS      
   G10   313   313   313   313                              PRN / # OF OBS      
   G12   797   797   797   797                              PRN / # OF OBS      
   G13   746   746   746   746                              PRN / # OF OBS      
   G14   455   454   454   454                              PRN / # OF OBS      
   G15   707   707   707   707                              PRN / # OF OBS      
   G17   441   441   441   441                              PRN / # OF OBS      
   G18   304   304   302   302                              PRN / # OF OBS      
   G20   154   154   154   154                              PRN / # OF OBS      
   G21   206   206   206   206                              PRN / # OF OBS      
   G24   804   804   804   804                              PRN / # OF OBS      
   G25   619   619   619   619                              PRN / # OF OBS      
   G28   573   573   573   573                              PRN / # OF OBS      
   G29   508   508   507   507                              PRN / # OF OBS      
   G30   411   411   411   411                              PRN / # OF OBS      
   G31   317   317   317   317                              PRN / # OF OBS      
BIT 2 OF LLI FLAGS DATA COLLECTED UNDER A/S CONDITION       COMMENT             
SNR is mapped to RINEX snr flag value [2-9]                 COMMENT             
Lx:     = 25dBHz -> 1; 26-27dBHz -> 2; 28-31dBHz -> 3       COMMENT             
       32-35dBHz -> 4; 36-38dBHz -> 5; 39-41dBHz -> 6       COMMENT             
       42-44dBHz -> 7; 45-48dBHz -> 8; >=49dBHz -> 9        COMMENT             
                                                            END OF HEADER       
 15 02 05 13 15 30.0000000  0 10G02G05G06G07G09G10G13G20G28G30
  21787269.160   114492872.83009  21787269.260    89215222.48248
  22388222.620   117650906.55309  22388224.320    91676040.91248
  22888528.560   120280022.80608  22888536.620    93724720.36947
  20884206.380   109747241.89409  20884206.520    85517333.25848
  22467150.440   118065666.49109  22467153.640    91999237.18648
  20280119.900   106572749.64709  20280120.260    83043701.58648
  23944989.600   125831773.96008  23944994.780    98050759.34145
  21857154.400   114860117.12109  21857155.780    89501395.66247
  23887485.440   125529628.69007  23887497.300    97815355.58744
  20284442.580   106595466.75809  20284444.940    83061413.01249
 15 02 05 13 16  0.0000000  0 10G02G05G06G07G09G10G13G20G28G30
  21792017.480   114517825.43809  21792017.560    89234666.01748
  22372539.960   117568493.67909  22372541.600    91611823.18048
  22906659.400   120375300.45108  22906667.400    93798962.48947
  20893059.300   109793764.35809  20893059.460    85553584.53948
  22479051.980   118128209.09109  22479055.080    92047971.66948
  20284766.480   106597168.19909  20284766.940    83062729.04448
  23930718.680   125756779.63509  23930723.480    97992322.34646
  21872569.900   114941125.99709  21872571.360    89564519.38847
  23870413.900   125439918.75307  23870425.720    97745452.43544
  20281905.860   106582135.60009  20281908.120    83051025.13649
 15 02 05 13 16 30.0000000  0 10G02G05G06G07G09G10G13G20G28G30
  21796866.240   114543305.16609  21796866.040    89254520.34148
  22356897.520   117486292.15209  22356899.240    91547770.14248
  22924825.560   120470763.60908  22924833.520    93873349.14747
  20901990.180   109840696.71709  20901990.440    85590155.20848
  22490972.220   118190849.75509  22490975.180    92096782.55947
  20289502.120   106622054.70209  20289502.720    83082121.13448
  23916464.800   125681874.89509  23916469.580    97933955.20246
  21888046.400   115022455.12809  21888047.960    89627892.66147
  23853348.600   125350241.72207  23853360.340    97675574.93444
  20279471.240   106569341.18109  20279473.420    83041055.50849
 15 02 05 13 17  0.0000000  0 10G02G05G06G07G09G10G13G20G28G30
  21801815.240   114569311.81609  21801814.800    89274785.24948
  22341295.860   117404305.28809  22341297.680    91483884.38348
  22943026.680   120566410.36308  22943034.740    93947878.85147
  20910998.800   109888037.85209  20910999.200    85627044.41148
  22502911.260   118253589.40809  22502914.140    92145670.58448
  20294327.080   106647410.22909  20294327.740    83101878.70148
  23902228.120   125607060.96309  23902232.920    97875658.82845
  21903583.820   115104104.53209  21903585.420    89691515.49147
  23836290.300   125260601.64508  23836301.760    97605726.18145
  20277138.900   106557084.39709  20277140.940    83031504.81249
 15 02 05 13 17 30.0000000  0 10G02G05G06G07G09G10G13G20G28G30
  21806864.460   114595845.37809  21806864.140    89295460.69648
  22325735.760   117322536.59109  22325737.500    91420168.61848
  22961262.480   120662238.84808  22961270.720    94022550.17747
  20920085.080   109935787.39309  20920085.640    85664251.85648
  22514869.220   118316429.13809  22514872.220    92194636.57747
  20299241.600   106673236.38009  20299242.240    83122002.98248
  23888008.960   125532339.09309  23888013.600    97817434.18545
  21919182.280   115186074.14609  21919183.780    89755387.84047
  23819239.840   125171002.65708  23819251.020    97535909.41845
  20274909.000   106545366.24309  20274911.080    83022373.82649
 15 02 05 13 18  0.0000000  0 10G02G05G06G07G09G10G13G20G28G30
  21812013.640   114622904.03409  21812013.300    89316545.32448
  22310217.580   117240988.27609  22310219.300    91356624.56648
  22979532.380   120758245.97908  22979540.640    94097360.68548
  20929248.760   109983943.31109  20929249.320    85701775.94348
  22526846.120   118379368.66609  22526849.240    92243680.34948
  20304245.720   106699533.23409  20304246.380    83142494.05048
  23873807.280   125457708.78708  23873811.600    97759280.88245
  21934841.440   115268362.70709  21934842.820    89819508.72147
  23802197.640   125081447.61708  23802208.700    97466126.91145
  20272781.460   106534186.30709  20272783.660    83013662.22949
 15 02 05 13 18 30.0000000  0 10G02G05G06G07G09G10G13G20G28G30
  21817262.200   114650484.43109  21817261.860    89338036.49148
  22294741.400   117159660.72109  22294743.140    91293252.54448
  22997835.300   120854426.88808  22997843.500    94172306.59447
  20938489.100   110032501.70709  20938489.560    85739613.65948
  22538841.520   118442405.95409  22538844.840    92292800.28447
  20309339.100   106726298.98009  20309339.780    83163350.47948
  23859622.620   125383168.61308  23859626.780    97701197.85344
  21950560.720   115350967.00409  21950562.040    89883875.63847
  23785164.100   124991937.98608  23785175.220    97396379.81145
  20270755.880   106523542.38509  20270758.120    83005368.29849
 15 02 05 13 19  0.0000000  0 10G02G05G06G07G09G10G13G20G28G30
  21822609.840   114678585.58609  21822609.320    89359933.46348
  22279307.860   117078556.75309  22279309.560    91230054.73548
  23016170.740   120950778.79908  23016178.880    94247385.75347
  20947805.860   110081461.33509  20947806.240    85777764.02248
  22550855.560   118505541.17409  22550859.100    92341996.51548
  20314521.820   106753533.95809  20314522.480    83184572.55048
  23845455.140   125308718.75708  23845458.860    97643185.17144
  21966339.780   115433885.90109  21966341.080    89948487.68647
  23768139.960   124902476.98508  23768150.840    97326670.59746
  20268832.340   106513434.44809  20268834.600    82997492.02249
 15 02 05 13 19 30.0000000  0 10G02G05G06G07G09G10G13G20G28G30
  21828056.220   114707205.58109  21828055.400    89382234.74548
  22263917.300   116997678.44109  22263918.840    91167032.75348
  23034538.100   121047298.53208  23034546.320    94322595.67347
  20957198.500   110130819.63409  20957198.840    85816225.03348
  22562888.220   118568774.02308  22562891.920    92391268.80947
  20319793.840   106781238.13709  20319794.400    83206160.22248
  23831304.940   125234359.31408  23831308.720    97585243.01044
  21982178.400   115517118.16109  21982179.840    90013343.90947
  23751125.520   124813066.86008  23751136.100    97257001.04046
  20267010.720   106503862.03609  20267013.000    82990033.03949
 15 02 05 13 20  0.0000000  0 10G02G05G06G07G09G10G13G20G28G30
  21833601.600   114736346.31409  21833600.780    89404941.78148
  22248570.620   116917031.13809  22248572.080    91104190.77948
  23052937.380   121143986.23708  23052945.580    94397936.49047
  20966667.280   110180577.62909  20966667.560    85854997.49048
  22574939.980   118632107.45508  22574943.860    92440619.49947
  20325155.740   106809414.82509  20325156.220    83228116.08948
  23817172.360   125160093.43008  23817176.160    97527373.75345
  21998077.020   115600665.90509  21998078.480    90078445.97347
  23734121.900   124723714.39108  23734132.360    97187376.44245
  20265291.540   106494827.88409  20265293.840    82982993.47449
 15 02 05 13 20 30.0000000  0 10G02G05G06G07G09G10G13G20G28G30
  21839244.760   114766001.62209  21839244.140    89428049.76848
  22233267.420   116836612.55009  22233268.700    91041527.01048
  23071367.140   121240834.34708  23071375.340    94473402.30847
  20976211.040   110230729.45409  20976211.280    85894076.82448
  22587010.080   118695536.88708  22587014.080    92490044.95947
  20330606.680   106838059.34509  20330607.100    83250436.49748
  23803056.800   125085916.69908  23803060.560    97469573.97845
  22014034.340   115684522.68909  22014035.840    90143788.84447
  23717128.880   124634418.45808  23717139.260    97117795.89046
  20263673.820   106486327.09409  20263676.140    82976369.52349
 15 02 05 13 21  0.0000000  0 10G02G05G06G07G09G10G13G20G28G30
  21844985.860   114796172.06309  21844985.480    89451559.15748
  22218008.600   116756427.15409  22218009.740    90979044.95748
  23089827.180   121337841.82308  23089835.560    94548992.32047
  20985829.600   110281274.86809  20985829.900    85933462.86148
  22599098.960   118759064.11708  22599102.920    92539546.64347
  20336147.000   106867173.74209  20336147.360    83273123.04248
  23788958.720   125011831.29008  23788962.480    97411845.31546
  22030050.660   115768689.46309  22030052.280    90209373.26147
  23700147.400   124545183.49708  23700157.760    97048262.84146
  20262157.920   106478361.28509  20262160.280    82970162.43249
 15 02 05 13 21 30.0000000  0 10G02G05G06G07G09G10G13G20G28G30
  21850824.440   114826854.27309  21850824.180    89475467.33448
  22202794.240   116676475.56509  22202795.400    90916745.10348
  23108316.740   121435004.03408  23108325.380    94624702.86347
  20995522.240   110332210.03509  20995522.600    85973152.59948
  22611206.260   118822687.43109  22611210.200    92589123.19447
  20341776.480   106896756.60409  20341776.720    83296174.63548
  23774877.500   124937835.43308  23774881.500    97354186.46346
  22046125.420   115853163.29409  22046127.160    90275196.95647
  23683177.780   124456010.61608  23683188.240    96978778.18245
  20260743.420   106470928.32909  20260745.820    82964370.56249
 15 02 05 13 22  0.0000000  0 10G02G05G06G07G09G10G13G20G28G30
  21856760.680   114858049.27209  21856760.440    89499775.09348
  22187625.220   116596762.71509  22187626.460    90854631.27648
  23126835.740   121532320.70408  23126844.380    94700533.72347
  21005289.240   110383536.09509  21005289.620    86013146.92848
  22623332.360   118886409.38909  22623336.080    92638776.60947
  20347495.560   106926810.78609  20347495.880    83319593.47348
  23760813.920   124863931.92509  23760817.960    97296599.52946
  22062258.920   115937945.57209  22062260.800    90341260.97847
  23666221.020   124366905.90907  23666231.560    96909346.64545
  20259430.840   106464030.50409  20259433.100    82958995.65749
 15 02 05 13 22 30.0000000  0 10G02G05G06G07G09G10G13G20G28G30
  21862793.760   114889752.65709  21862793.660    89524478.97448
  22172501.560   116517288.19709  22172502.780    90792703.15848
  23145383.000   121629785.69708  23145391.680    94776480.17247
  21015129.580   110435247.58109  21015130.000    86053441.58548
  22635476.580   118950226.84509  22635480.140    92688504.43147
  20353303.680   106957332.94309  20353304.060    83343376.97148
  23746767.400   124790117.60209  23746771.380    97239082.05646
  22078450.300   116023031.82909  22078452.180    90407561.88747
  23649277.100   124277868.75008  23649287.780    96839967.70844
  20258219.380   106457664.29909  20258221.660    82954035.01949
 15 02 05 13 23  0.0000000  0 10G02G05G06G07G09G10G13G20G28G30
  21868923.880   114921966.07409  21868923.780    89549580.28748
  22157424.400   116438057.82509  22157425.660    90730965.27348
  23163958.640   121727399.64408  23163967.400    94852542.68547
  21025043.720   110487346.62809  21025044.060    86094038.22948
  22647639.660   119014143.28209  22647643.160    92738309.37947
  20359201.580   106988326.68509  20359201.980    83367527.93448
  23732738.460   124716396.27108  23732742.680    97181637.03646
  22094700.080   116108424.64009  22094702.020    90474101.65947
  23632347.620   124188906.77508  23632358.000    96770647.34845
  20257109.660   106451832.82609  20257111.980    82949491.04749
 15 02 05 13 23 30.0000000  0 10G02G05G06G07G09G10G13G20G28G30
  21875149.340   114954680.75109  21875149.240    89575072.17848
  22142392.780   116359066.36009  22142394.160    90669413.54748
  23182560.660   121825152.17408  23182569.380    94928713.19547
  21035029.820   110539823.46209  21035030.000    86134929.23848
  22659820.140   119078151.25809  22659823.540    92788185.65947
  20365187.840   107019784.82509  20365188.200    83392040.75848
  23718725.840   124642760.84508  23718730.140    97124258.92446
  22111006.480   116194114.95109  22111008.480    90540873.23647
  23615431.580   124100015.05708  23615441.620    96701381.71944
  20256100.200   106446528.24309  20256102.520    82945357.62249
 15 02 05 13 24  0.0000000  0 10G02G05G06G07G09G10G13G20G28G30
  21881471.520   114987903.49309  21881471.400    89600959.97148
  22127408.660   116280324.42009  22127410.080    90608056.27548
  23201190.040   121923048.86308  23201198.720    95004996.04147
  21045089.100   110592684.77009  21045089.160    86176119.85548
  22672019.600   119142259.19708  22672023.080    92838139.84347
  20371264.060   107051715.73709  20371264.460    83416921.98848
  23704731.240   124569219.91908  23704735.500    97066954.42345
  22127371.020   116280110.15309  22127372.920    90607882.41547
  23598531.160   124011205.24908  23598541.040    96632179.92645
  20255192.540   106441758.57309  20255194.860    82941641.03349
 15 02 05 13 24 30.0000000  0 10G02G05G06G07G09G10G13G20G28G30
  21887889.260   115021628.52909  21887889.060    89627239.17148
  22112471.880   116201830.79809  22112473.180    90546892.48048
  23219845.520   122021082.69608  23219854.240    95081385.80047
  21055220.380   110645924.45109  21055220.380    86217605.30548
  22684237.200   119206463.09708  22684240.820    92888168.78047
  20377429.540   107084115.51409  20377429.960    83442168.57048
  23690753.980   124495769.81008  23690758.380    97009720.67845
  22143792.560   116366404.96709  22143794.340    90675125.04947
  23581646.120   123922476.27208  23581655.700    96563041.12145
  20254385.880   106437519.33109  20254388.200    82938337.75849
 15 02 05 13 25  0.0000000  0 10G02G05G06G07G09G10G13G20G28G30
  21894401.900   115055852.09209  21894401.600    89653906.83548
  22097582.440   116123586.10309  22097583.700    90485922.66948
  23238526.100   122119248.75508  23238535.040    95157878.53147
  21065422.920   110699538.71409  21065422.860    86259382.63248
  22696472.580   119270760.85208  22696476.380    92938270.87647
  20383683.820   107116982.08509  20383684.300    83467778.88748
  23676793.700   124422408.13308  23676798.200    96952555.84945
  22160270.340   116452995.77009  22160272.220    90742598.31847
  23564776.860   123833829.62708  23564786.160    96493966.43445
  20253679.700   106433807.97509  20253681.960    82935445.82849
 15 02 05 13 25 30.0000000  0 10G02G05G06G07G09G10G13G20G28G30
  21901010.160   115090578.66409  21901009.960    89680966.44048
  22082741.800   116045598.29209  22082743.100    90425153.03248
  23257232.420   122217549.97408  23257241.500    95234476.56448
  21075697.440   110753531.47909  21075697.340    86301454.89648
  22708726.880   119335158.36108  22708730.920    92988450.68647
  20390028.020   107150321.21709  20390028.560    83493757.43048
  23662851.440   124349141.09108  23662855.720    96895464.72144
  22176805.300   116539887.27509  22176807.280    90810305.89247
  23547924.880   123745273.85608  23547934.060    96424962.57745
  20253074.900   106430629.87409  20253077.120    82932969.42249
 15 02 05 13 26  0.0000000  0 10G02G05G06G07G09G10G13G20G28G30
  21907712.040   115125797.73809  21907712.020    89708409.81148
  22067948.880   115967861.30909  22067950.160    90364578.83648
  23275962.280   122315974.82009  23275971.420    95311170.92248
  21086042.040   110807892.59309  21086041.940    86343814.17948
  22720998.540   119399647.00808  22721002.800    93038701.51847
  20396460.500   107184124.42209  20396461.100    83520097.57548
  23648925.700   124275960.39708  23648929.740    96838440.86445
  22193395.620   116627069.66409  22193397.660    90878240.12747
  23531089.160   123656803.58708  23531098.240    96356025.34446
  20252569.780   106427975.85809  20252572.020    82930901.38849
 15 02 05 13 26 30.0000000  0 10G02G05G06G07G09G10G13G20G28G30
  21914509.040   115161516.34909  21914509.100    89736242.43348
  22053205.740   115890386.30809  22053207.140    90304208.78548
  23294716.780   122414529.10609  23294725.900    95387966.15248
  21096457.880   110862628.03009  21096457.860    86386465.13248
  22733289.280   119464235.53808  22733293.700    93089030.16947
  20402982.980   107218400.30709  20402983.640    83546806.04848
  23635017.980   124202874.69608  23635022.140    96781491.05545
  22210042.680   116714550.05009  22210044.700    90946406.56547
  23514271.920   123568430.47808  23514280.800    96287163.81446
  20252166.020   106425854.16409  20252168.280    82929248.14749
 15 02 05 13 27  0.0000000  0 10G02G05G06G07G09G10G13G20G28G30
  21921399.780   115197727.04009  21921399.760    89764458.50748
  22038511.800   115813169.79709  22038513.340    90244040.15548
  23313494.260   122513203.99809  23313503.340    95464855.36648
  21106943.540   110917730.64009  21106943.620    86429402.20948
  22745597.960   119528917.99008  22745602.440    93139432.01247
  20409594.280   107253142.74709  20409594.940    83573878.06548
  23621127.180   124129878.33308  23621131.200    96724610.86445
  22226745.160   116802321.61509  22226747.180    91014799.88847
  23497472.700   123480152.24608  23497481.360    96218376.24045
  20251862.340   106424258.30709  20251864.580    82928004.65049
 15 02 05 13 27 30.0000000  0 10G02G05G06G07G09G10G13G20G28G30
  21928383.600   115234427.37509  21928383.480    89793056.11547
  22023867.480   115736213.70709  22023868.920    90184074.43448
  23332293.980   122611996.04708  23332303.140    95541835.85447
  21117498.520   110973197.75209  21117498.700    86472623.30848
  22757924.540   119593693.90909  22757929.020    93189906.69347
  20416294.300   107288351.35309  20416294.960    83601313.33048
  23607253.420   124056971.26908  23607257.180    96667800.28845
  22243502.640   116890382.31209  22243504.620    91083418.51747
  23480692.000   123391971.73608  23480700.540    96149664.80445
  20251658.500   106423187.15409  20251660.720    82927170.01949
 15 02 05 13 28  0.0000000  0 10G02G05G06G07G09G10G13G20G28G30
  21935460.640   115271617.86308  21935460.540    89822035.65347
  22009273.500   115659522.61509  22009274.900    90124315.21348
  23351115.760   122710904.65908  23351125.080    95618907.19347
  21128122.900   111029029.28009  21128123.120    86516128.36448
  22770269.400   119658565.53008  22770273.740    93240455.95547
  20423083.420   107324028.20209  20423084.020    83629113.45448
  23593397.040   123984155.60308  23593400.720    96611060.91245
  22260315.300   116978733.18209  22260317.400    91152263.25047
  23463930.740   123303893.52408  23463938.980    96081033.08046
  20251554.780   106422642.39609  20251557.060    82926745.56149
 15 02 05 13 28 30.0000000  0 10G02G05G06G07G09G10G13G20G28G30
  21942630.440   115309295.63409  21942630.520    89851394.86748
  21994730.180   115583098.08809  21994731.620    90064763.70748
  23369958.880   122809926.07007  23369968.580    95696066.38247
  21138816.120   111085222.56209  21138816.380    86559915.29848
  22782632.300   119723532.06008  22782636.580    93291079.14747
  20429961.440   107360172.20409  20429962.000    83657277.58748
  23579557.740   123911430.85408  23579561.520    96554392.46345
  22277182.700   117067371.92309  22277185.020    91221332.28047
  23447189.420   123215919.79208  23447197.380    96012482.74145
  20251550.980   106422622.56609  20251553.240    82926730.12549
 15 02 05 13 29  0.0000000  0 10G02G05G06G07G09G10G13G20G28G30
  21949893.300   115347461.99809  21949893.440    89881134.81948
  21980238.700   115506945.50609  21980240.240    90005424.09048
  23388823.340   122909060.23607  23388833.540    95773313.38446
  21149578.440   111141778.92509  21149578.720    86603985.16548
  22795013.720   119788596.33808  22795017.980    93341778.52748
  20436928.920   107396786.24609  20436929.440    83685807.99148
  23565736.220   123838800.02408  23565740.240    96497797.19945
  22294105.200   117156299.76909  22294107.560    91290626.61247
  23430469.180   123128057.20208  23430476.980    95944019.01146
  20251647.420   106423129.82709  20251649.760    82927125.42249
 15 02 05 13 29 30.0000000  0 10G02G05G06G07G09G10G13G20G28G30
  21957247.580   115386108.11209  21957247.740    89911248.59848
  21965798.240   115431060.41309  21965799.800    89946292.90948
  23407707.620   123008297.25608  23407718.020    95850640.53547
  21160408.080   111198689.19409  21160408.400    86648330.79648
  22807412.400   119853751.51308  22807416.660    93392548.71747
  20443984.600   107433863.33509  20443985.000    83714699.20748
  23551931.500   123766256.29008  23551935.440    96441269.77245
  22311081.140   117245508.79109  22311083.620    91360140.02347
  23413769.260   123040301.63308  23413777.020    95875638.66345
  20251842.720   106424156.62709  20251845.140    82927925.54849
 15 02 05 13 30  0.0000000  0 10G02G05G06G07G09G10G13G20G28G30
  21964693.700   115425236.75109  21964693.720    89941738.37048
  21951410.040   115355449.75709  21951411.560    89887375.59248
  23426611.980   123107638.81408  23426622.460    95928049.18647
  21171305.620   111255956.28409  21171305.960    86692954.47848
  22819829.260   119919002.12408  22819833.540    93443393.28647
  20451129.180   107471407.99109  20451129.540    83743954.76048
  23538144.120   123693804.23908  23538147.920    96384813.77844
  22328111.120   117335001.84809  22328113.620    91429874.77247
  23397091.220   122952660.80508  23397099.020    95807347.71745
  20252137.680   106425706.87009  20252140.120    82929133.55349
 15 02 05 13 30 30.0000000  0 10G02G05G06G07G09G10G13G20G28G30
  21972231.180   115464845.45609  21972231.160    89972602.23048
  21937074.420   115280115.39709  21937075.820    89828673.57548
  23445535.720   123207081.46108  23445546.240    96005536.59047
  21182270.460   111313577.06009  21182270.800    86737853.75748
  22832264.200   119984347.64908  22832268.480    93494311.81247
  20458362.400   107509419.06109  20458362.820    83773573.74548
  23524374.120   123621443.88508  23524377.940    96328429.24845
  22345194.840   117424777.27909  22345197.400    91499829.55147
  23380435.720   122865137.23908  23380443.080    95739148.09145
  20252532.040   106427779.28309  20252534.460    82930748.43649
 15 02 05 13 31  0.0000000  0 10G02G05G06G07G09G10G13G20G28G30
  21979858.940   115504928.37609  21979858.820    90003835.60448
  21922791.300   115205056.14609  21922792.340    89770185.90748
  23464477.480   123306618.54908  23464487.840    96083097.57247
  21193301.600   111371546.15509  21193301.880    86783024.45448
  22844716.540   120049784.35508  22844720.760    93545301.38947
  20465683.720   107547892.89109  20465684.180    83803553.33048
  23510620.920   123549171.25108  23510624.820    96272113.05945
  22362331.300   117514829.82908  22362333.920    91570000.26747
  23363802.560   122777730.52508  23363809.400    95671039.50345
  20253024.920   106430369.37209  20253027.320    82932766.70549
 15 02 05 13 31 30.0000000  0 10G02G05G06G07G09G10G13G20G28G30
  21987577.620   115545489.52209  21987577.460    90035441.60948
  21908562.020   115130279.91609  21908562.880    89711918.77848
  23483437.660   123406252.91508  23483448.140    96160734.33747
  21204399.680   111429867.17709  21204399.920    86828469.38248
  22857187.340   120115318.05709  22857191.380    93596366.54447
  20473094.120   107586834.91609  20473094.620    83833897.73948
  23496885.600   123476992.19608  23496889.480    96215869.78546
  22379521.300   117605163.66609  22379523.980    91640390.16347
  23347193.160   122690449.20208  23347199.640    95603028.60045
  20253617.220   106433482.13909  20253619.660    82935192.24749
 15 02 05 13 32  0.0000000  0 10G02G05G06G07G09G10G13G20G28G30
  21995386.040   115586522.54709  21995385.880    90067415.31848
  21894386.180   115055784.83309  21894386.980    89653870.73148
  23502414.900   123505977.14308  23502425.460    96238441.12046
  21215563.420   111488533.39209  21215563.720    86874183.28048
  22869675.640   120180944.16508  22869679.720    93647503.69747
  20480592.780   107626240.40209  20480593.280    83864603.28548
  23483167.120   123404902.22908  23483171.080    96159695.96945
  22396763.760   117695772.96109  22396766.520    91710994.69647
  23330607.380   122603292.04808  23330613.680    95535114.42845
  20254307.940   106437112.26309  20254310.420    82938020.93149
 15 02 05 13 32 30.0000000  0 10G02G05G06G07G09G10G13G20G28G30
  22003284.540   115628029.13009  22003284.400    90099758.01648
  21880264.980   114981577.20809  21880265.760    89596046.67348
  23521409.400   123605792.06908  23521419.960    96316218.58347
  21226793.200   111547546.52609  21226793.580    86920167.52648
  22882182.240   120246666.51609  22882186.320    93698715.84947
  20488180.280   107666112.78109  20488180.820    83895672.65548
  23469466.360   123332905.68108  23469470.580    96103594.94145
  22414059.100   117786660.25209  22414061.880    91781815.84947
  23314046.400   122516265.73108  23314052.760    95467302.19945
  20255097.720   106441262.70809  20255100.220    82941255.05449
 15 02 05 13 33  0.0000000  0 10G02G05G06G07G09G10G13G20G28G30
  22011271.820   115670002.75609  22011271.700    90132464.64547
  21866197.980   114907654.96309  21866198.780    89538444.99348
  23540419.680   123705690.29308  23540430.380    96394060.93246
  21238087.900   111606900.57509  21238088.300    86966417.40048
  22894706.300   120312480.59809  22894710.440    93749999.47847
  20495855.660   107706447.33809  20495856.260    83927102.14548
  23455782.780   123260998.07009  23455786.980    96047563.18446
  22431406.200   117877819.27109  22431408.900    91852848.73447
  23297510.160   122429368.87408  23297516.220    95399590.80045
  20255985.500   106445928.16509  20255988.040    82944890.47849
 15 02 05 13 33 30.0000000  0 10G02G05G06G07G09G10G13G20G28G30
  22019348.000   115712442.94009  22019347.780    90165534.87147
  21852186.020   114834021.91809  21852186.820    89481068.66248
  23559445.480   123805670.57208  23559456.340    96471967.21547
  21249447.440   111666594.78709  21249447.780    87012932.33848
  22907248.140   120378388.11809  22907252.320    93801355.91347
  20503619.280   107747245.28109  20503619.840    83958892.73248
  23442116.440   123189180.94208  23442120.500    95991601.92945
  22448805.080   117969250.28509  22448807.760    91924093.55547
  23280999.400   122342606.46308  23281005.360    95331984.13445
  20256971.500   106451109.46709  20256974.080    82948927.85649
 15 02 05 13 34  0.0000000  0 10G02G05G06G07G09G10G13G20G28G30
  22027512.660   115755348.75209  22027512.420    90198967.89647
  21838229.740   114760681.43709  21838230.500    89423920.29348
  23578486.660   123905731.01708  23578497.660    96549935.94847
  21260871.600   111726628.30009  21260871.880    87059711.67448
  22919807.960   120444390.12309  22919812.140    93852785.96747
  20511471.260   107788507.36509  20511471.760    83991044.97948
  23428467.480   123117455.55208  23428471.480    95935712.17445
  22466255.580   118060952.75609  22466258.240    91995549.90147
  23264514.960   122255982.50008  23264520.920    95264485.35845
  20258055.700   106456806.79809  20258058.260    82953367.33249
 15 02 05 13 34 30.0000000  0 10G02G05G06G07G09G10G13G20G28G30
  22035765.540   115798717.95509  22035765.500    90232762.00047
  21824329.520   114687636.02409  21824330.360    89367001.86148
  23597542.580   124005868.42208  23597553.640    96627964.66247
  21272359.820   111786998.78009  21272360.080    87106753.57848
  22932385.680   120510486.29909  22932389.940    93904289.39447
  20519411.500   107830233.00409  20519411.960    84023558.44348
  23414836.100   123045822.02208  23414839.860    95879893.97245
  22483757.480   118152925.11808  22483760.140    92067216.55647
  23248057.560   122169499.85308  23248063.620    95197096.65746
  20259237.860   106463018.91009  20259240.400    82958207.94749
 15 02 05 13 35  0.0000000  0 10G02G05G06G07G09G10G13G20G28G30
  22044105.520   115842545.27909  22044105.660    90266913.06448
  21810485.220   114614884.72709  21810486.280    89310312.60248
  23616612.060   124106076.70308  23616623.040    96706048.57947
  21283911.080   111847700.81709  21283911.360    87154053.83848
  22944980.760   120576673.54109  22944984.960    93955863.79347
  20527439.340   107872418.91209  20527439.720    84056430.55748
  23401221.520   122974277.06308  23401225.040    95824144.80145
  22501309.740   118245162.32508  22501312.400    92139089.57447
  23231627.100   122083158.28008  23231633.200    95129817.86846
  20260517.160   106469741.78209  20260519.740    82963446.55249
 15 02 05 13 35 30.0000000  0 10G02G05G06G07G09G10G13G20G28G30
  22052533.080   115886833.08909  22052533.520    90301422.93548
  21796698.260   114542434.75909  21796699.500    89253858.14948
  23635695.300   124206357.64108  23635706.420    96784189.10347
  21295525.940   111908737.41009  21295526.280    87201614.78248
  22957594.100   120642956.51809  22957598.240    94007512.78647
  20535555.520   107915069.12709  20535555.920    84089664.46648
  23387624.460   122902825.58608  23387628.180    95768468.50946
  22518912.900   118337667.73108  22518915.680    92211171.56747
  23215224.960   121996965.58808  23215230.800    95062655.06746
  20261894.380   106476979.15309  20261896.900    82969086.06749
 15 02 05 13 36  0.0000000  0 10G02G05G06G07G09G10G13G20G28G30
  22061047.840   115931578.13709  22061048.300    90336289.12248
  21782968.720   114470286.99509  21782970.140    89197639.18848
  23654791.500   124306706.98408  23654802.760    96862382.92147
  21307203.640   111970104.58209  21307204.140    87249433.33548
  22970225.360   120709333.87209  22970229.500    94059235.31847
  20543759.720   107958181.96909  20543760.080    84123258.87048
  23374044.880   122831466.11108  23374048.920    95712863.92946
  22536566.520   118430438.55908  22536569.600    92283460.37847
  23198851.340   121910923.44708  23198857.120    94995609.57046
  20263369.080   106484728.70909  20263371.680    82975124.69249
 15 02 05 13 36 30.0000000  0 10G02G05G06G07G09G10G13G20G28G30
  22069648.720   115976775.63309  22069649.260    90371507.84648
  21769296.760   114398441.40309  21769298.260    89141655.67548
  23673899.720   124407119.35608  23673911.040    96940625.82447
  21318943.440   112031797.98609  21318944.060    87297506.08148
  22982874.080   120775803.16309  22982878.140    94111029.49947
  20552051.340   108001754.52909  20552051.640    84157211.48748
  23360482.540   122760196.66108  23360486.580    95657329.46846
  22554270.040   118523470.82409  22554273.220    92355952.90547
  23182506.360   121825032.81908  23182512.400    94928682.13045
  20264940.580   106492987.01809  20264943.160    82981559.75149
 15 02 05 13 37  0.0000000  0 10G02G05G06G07G09G10G13G20G28G30
  22078335.220   116022423.13109  22078335.740    90407077.23248
  21755682.680   114326899.90709  21755684.320    89085909.11348
  23693019.280   124507591.53308  23693030.700    97018915.34247
  21330744.940   112093815.42709  21330745.640    87345831.31248
  22995540.180   120842364.14908  22995544.200    94162895.12647
  20560430.220   108045786.01909  20560430.560    84191521.71348
  23346937.440   122689017.04208  23346941.240    95601864.96346
  22572023.060   118616762.68409  22572026.260    92428647.70347
  23166190.740   121739295.99408  23166196.780    94861874.51446
  20266608.680   106501752.79309  20266611.180    82988390.22949
 15 02 05 13 37 30.0000000  0 10G02G05G06G07G09G10G13G20G28G30
  22087107.420   116068520.88809  22087108.000    90442997.44848
  21742127.440   114255667.62609  21742129.180    89030403.50648
  23712150.120   124608123.02308  23712161.620    97097251.08946
  21342608.200   112156157.21309  21342609.000    87394409.29948
  23008224.080   120909019.24208  23008228.260    94214834.06647
  20568896.740   108090278.57109  20568897.240    84226191.20748
  23333409.720   122617929.26408  23333413.980    95546472.08446
  22589825.600   118710314.69809  22589828.820    92501545.22947
  23149905.640   121653719.02308  23149911.660    94795191.44345
  20268373.600   106511027.47109  20268376.080    82995617.26349
 15 02 05 13 38  0.0000000  0 10G02G05G06G07G09G10G13G20G28G30
  22095964.700   116115065.37809  22095965.160    90479265.79048
  21728631.200   114184745.33809  21728633.000    88975139.44648
  23731291.440   124708709.78008  23731302.980    97175629.89646
  21354532.580   112218819.95309  21354533.380    87443237.36948
  23020925.660   120975767.25508  23020929.900    94266845.40847
  20577450.660   108135230.46709  20577451.260    84261218.63248
  23319899.440   122546932.67808  23319903.520    95491150.20645
  22607677.180   118804124.16509  22607680.220    92574643.36347
  23133651.480   121568303.38008  23133657.460    94728634.08446
  20270234.920   106520808.80309  20270237.440    83003239.09849
 15 02 05 13 38 30.0000000  0 10G02G05G06G07G09G10G13G20G28G30
  22104906.520   116162054.36009  22104906.940    90515880.48548
  21715194.360   114114135.43209  21715196.320    88920118.80348
  23750442.640   124809348.44108  23750454.200    97254049.15746
  21366517.600   112281801.34309  21366518.340    87492313.76148
  23033644.860   121042607.85908  23033649.280    94318928.90847
  20586091.860   108180640.74209  20586092.460    84296603.24148
  23306406.580   122476027.17308  23306409.880    95435899.25945
  22625577.400   118898189.55808  22625580.460    92647940.91647
  23117428.460   121483051.74608  23117434.460    94662204.54246
  20272192.460   106531095.35309  20272194.900    83011254.61049
 15 02 05 13 39  0.0000000  0 10G02G05G06G07G09G10G13G20G28G30
  22113932.500   116209485.95609  22113933.000    90552840.05948
  21701817.560   114043840.54809  21701819.640    88865343.63448
  23769603.280   124910036.49508  23769614.960    97332506.87546
  21378562.900   112345099.46709  21378563.580    87541636.93348
  23046381.780   121109541.38708  23046386.440    94371084.81847
  20594820.360   108226509.38809  20594820.940    84332345.02048
  23292931.080   122405212.99808  23292934.240    95380719.49945
  22643526.080   118992509.44609  22643528.980    92721436.78247
  23101237.500   121397967.66408  23101243.100    94595905.52845
  20274246.060   106541886.41109  20274248.380    83019663.23749
 15 02 05 13 39 30.0000000  0 10G02G05G06G07G09G10G13G20G28G30
  22123041.680   116257354.92009  22123042.240    90590140.43648
  21688500.860   113973860.72809  21688502.900    88810813.96048
  23788772.380   125010768.74908  23788784.000    97410999.02446
  21390667.760   112408710.24709  21390668.340    87591203.74648
  23059136.120   121176565.52808  23059140.880    94423311.34247
  20603635.520   108272833.61609  20603636.240    84368441.79348
  23279472.480   122334487.86408  23279475.420    95325609.11045
  22661522.480   119087079.73708  22661525.220    92795127.76647
  23085078.560   121313051.91409  23085083.860    94529737.70546
  20276394.900   106553178.56309  20276397.200    83028462.33949
 15 02 05 13 40  0.0000000  0 10G02G05G06G07G09G10G13G20G28G30
  22132233.960   116305660.99809  22132234.780    90627781.40948
  21675244.940   113904199.83909  21675246.760    88756532.82348
  23807949.660   125111543.73108  23807961.220    97489524.47045
  21402831.920   112472632.52209  21402832.380    87641013.28948
  23071908.080   121243681.76908  23071912.720    94475609.62346
  20612537.520   108319614.11209  20612538.340    84404894.09748
  23266031.160   122263853.49208  23266034.020    95270569.47545
  22679566.360   119181900.21809  22679569.140    92869013.68747
  23068952.380   121228308.87509  23068957.500    94463704.48246
  20278639.100   106564972.13109  20278641.420    83037652.15349
 15 02 05 13 40 30.0000000  0 10G02G05G06G07G09G10G13G20G28G30
  22141509.100   116354402.15309  22141509.940    90665761.41748
  21662050.160   113834860.51609  21662051.780    88702502.25348
  23827134.640   125212358.90908  23827146.180    97568081.23046
  21415055.060   112536864.80809  21415055.420    87691064.39448
  23084697.640   121310890.45208  23084702.040    94527979.93547
  20621526.360   108366850.61709  20621527.200    84441701.73648
  23252607.220   122193310.47709  23252610.300    95215601.02446
  22697657.580   119276969.74009  22697660.500    92943093.67846
  23052859.780   121143742.01209  23052864.480    94397808.51046
  20280978.560   106577266.33909  20280980.860    83047232.06949
 15 02 05 13 41  0.0000000  0 10G02G05G06G07G09G10G13G20G28G30
  22150867.000   116403577.48209  22150867.740    90704079.73548
  21648917.300   113765846.74209  21648918.820    88648725.36248
  23846326.920   125313212.91608  23846338.600    97646668.22946
  21427336.980   112601406.40709  21427337.300    87741356.52948
  23097505.100   121378193.14108  23097509.440    94580423.50747
  20630602.200   108414544.29409  20630603.040    84478865.60648
  23239201.020   122122860.21509  23239204.120    95160704.85446
  22715796.240   119372288.37408  22715799.320    93017367.77347
  23036801.520   121059355.78809  23036806.020    94332053.32446
  20283413.340   106590061.57509  20283415.640    83057202.40249
 15 02 05 13 41 30.0000000  0 10G02G05G06G07G09G10G13G20G28G30
  22160306.840   116453183.16009  22160307.560    90742733.39948
  21635846.500   113697159.30809  21635848.000    88595202.76948
  23865525.740   125414101.36008  23865537.600    97725282.04646
  21439677.020   112666253.78709  21439677.380    87791886.91748
  23110330.160   121445588.32508  23110334.440    94632939.15947
  20639764.540   108462692.69509  20639765.320    84516383.80348
  23225812.160   122052501.42608  23225815.160    95105879.95246
  22733981.680   119467852.69908  22733984.780    93091833.32547
  23020777.880   120975151.95009  23020782.160    94266440.28646
  20285942.920   106603355.15709  20285945.360    83067561.04949
 15 02 05 13 42  0.0000000  0 10G02G05G06G07G09G10G13G20G28G30
  22169828.240   116503216.85709  22169828.820    90781720.57048
  21622838.220   113628800.71909  21622839.760    88541936.39548
  23884730.540   125515021.37908  23884742.640    97803920.47546
  21452074.800   112731404.80709  21452075.200    87842653.91448
  23123172.780   121513076.06008  23123177.040    94685526.91947
  20649013.320   108511295.34909  20649014.140    84554255.97048
  23212440.620   121982234.11308  23212443.500    95051126.34545
  22752213.600   119563661.25809  22752216.580    93166489.19247
  23004789.500   120891133.39808  23004793.440    94200971.60146
  20288567.200   106617145.93609  20288569.680    83078307.12549
 15 02 05 13 42 30.0000000  0 10G02G05G06G07G09G10G13G20G28G30
  22179430.520   116553675.55809  22179430.840    90821038.93248
  21609892.740   113560772.15109  21609894.300    88488927.18948
  23903940.660   125615969.06808  23903952.960    97882580.44946
  21464529.720   112796856.41609  21464530.240    87893655.12848
  23136032.760   121580655.35908  23136037.020    94738186.04747
  20658348.260   108560350.81609  20658349.160    84592480.96548
  23199086.460   121912057.54709  23199089.160    94996443.40545
  22770491.580   119659711.73208  22770494.500    93241333.57247
  22988836.560   120807302.10808  22988840.620    94135648.87446
  20291285.640   106631431.68209  20291288.200    83089438.89149
 15 02 05 13 43  0.0000000  0 10G02G05G06G07G09G10G13G20G28G30
  22189113.520   116604558.63409  22189113.680    90860687.97047
  21597010.980   113493078.63409  21597012.540    88436179.05348
  23923155.960   125716944.04608  23923168.660    97961261.67946
  21477041.840   112862609.07509  21477042.580    87944890.94248
  23148910.600   121648328.76808  23148914.940    94790918.49846
  20667769.740   108609860.98509  20667770.740    84631060.27548
  23185749.980   121841974.32308  23185752.620    94941833.22246
  22788815.580   119756004.34009  22788818.640    93316366.61346
  22972920.300   120723663.66008  22972924.440    94070476.40646
  20294098.520   106646213.70809  20294101.100    83100957.35949
 15 02 05 13 43 30.0000000  0 10G02G05G06G07G09G10G13G20G28G30
  22198876.660   116655863.61409  22198876.680    90900665.75347
  21584193.260   113425721.64409  21584194.840    88383693.15048
  23942375.820   125817942.85908  23942388.640    98039961.44546
  21489610.800   112928660.20209  21489611.720    87996359.31148
  23161806.100   121716095.67108  23161810.780    94843723.79547
  20677277.520   108659824.46209  20677278.440    84669992.80348
  23172431.000   121771983.90108  23172433.740    94887295.35346
  22807185.300   119852537.12608  22807188.360    93391586.81446
  22957041.160   120640220.22908  22957045.380    94005455.90446
  20297005.440   106661490.18309  20297008.020    83112861.09649
 15 02 05 13 44  0.0000000  0 10G02G05G06G07G09G10G13G20G28G30
  22208719.400   116707587.40909  22208719.500    90940969.90347
  21571439.960   113358703.01009  21571441.560    88331470.90648
  23961599.580   125918961.92708  23961612.460    98118676.96746
  21502236.000   112995006.35409  21502237.040    88048057.57348
  23174719.220   121783955.35508  23174724.260    94896601.37747
  20686871.380   108710239.81709  20686872.180    84709277.46048
  23159129.580   121702085.75208  23159132.520    94832829.39446
  22825600.180   119949307.43508  22825603.380    93466992.09047
  22941199.700   120556974.47108  22941203.900    93940589.42646
  20300006.100   106677259.06709  20300008.720    83125148.54049
 15 02 05 13 44 30.0000000  0 10G02G05G06G07G09G10G13G20G28G30
  22218640.540   116759723.62209  22218640.800    90981595.41147
  21558750.920   113292021.79209  21558752.500    88279511.57848
  23980825.980   126019994.99408  23980839.060    98197403.40446
  21514916.440   113061642.36409  21514917.560    88099981.68948
  23187649.440   121851904.50608  23187654.720    94949548.68747
  20696550.420   108761102.92909  20696551.160    84748911.01348
  23145845.040   121632276.47108  23145848.120    94778432.72446
  22844059.380   120046310.48208  22844062.560    93542578.73446
  22925395.820   120473925.98709  22925399.880    93875876.65846
  20303099.620   106693515.78809  20303102.280    83137816.12349
 15 02 05 13 45  0.0000000  0 10G02G05G06G07G09G10G13G20G28G30
  22228640.500   116812273.65609  22228640.900    91022543.37147
  21546127.200   113225683.60109  21546128.720    88227819.53748
  24000055.200   126121042.76808  24000068.320    98276141.29246
  21527652.400   113128569.69909  21527653.460    88152132.81548
  23200597.380   121919946.68708  23200602.860    95002568.46847
  20706315.220   108812416.69309  20706316.000    84788895.72548
  23132578.420   121562559.99409  23132581.340    94724108.31746
  22862563.160   120143547.87208  22862566.280    93618347.97146
  22909630.640   120391081.28608  22909634.660    93811322.67946
  20306286.420   106710262.60609  20306289.100    83150865.58949
 15 02 05 13 45 30.0000000  0 10G02G05G06G07G09G10G13G20G28G30
  22238718.700   116865234.97309  22238719.100    91063811.83347
  21533569.240   113159690.92109  21533570.680    88176396.72448
  24019286.640   126222102.23707  24019299.900    98354888.29346
  21540443.340   113195786.12709  21540444.400    88204509.20548
  23213563.020   121988081.78208  23213568.640    95055660.65647
  20716165.620   108864180.33409  20716166.380    84829230.99548
  23119329.420   121492936.22108  23119332.080    94669856.16346
  22881111.220   120241018.04108  22881114.400    93694298.59346
  22893904.740   120308442.90509  22893908.760    93746929.46146
  20309566.280   106727498.08109  20309568.920    83164295.82249
 15 02 05 13 46  0.0000000  0 10G02G05G06G07G09G10G13G20G28G30
  22248874.220   116918602.49409  22248874.680    91105396.82447
  21521076.880   113094043.09409  21521078.280    88125242.64148
  24038519.220   126323167.70407  24038532.540    98433639.94046
  21553288.240   113263286.49109  21553289.340    88257106.83548
  23226545.860   122056306.98808  23226551.580    95108823.06247
  20726100.900   108916390.21809  20726101.620    84869913.98748
  23106097.540   121423402.29809  23106100.200    94615674.01545
  22899702.580   120338715.94208  22899705.900    93770426.66646
  22878218.220   120226011.55109  22878222.380    93682697.55346
  20312938.300   106745217.99509  20312940.900    83178103.55149
 15 02 05 13 46 30.0000000  0 10G02G05G06G07G09G10G13G20G28G30
  22259107.300   116972377.20309  22259107.700    91147299.09947
  21508651.340   113028746.14109  21508652.520    88074361.95448
  24057753.140   126424240.03007  24057766.600    98512396.91945
  21566187.480   113331072.50409  21566188.560    88309927.02848
  23239546.600   122124625.93608  23239552.280    95162058.51147
  20736121.640   108969049.12609  20736122.280    84910946.86748
  23092883.500   121353962.15708  23092886.040    94561564.95746
  22918337.800   120436643.98009  22918341.200    93846734.06846
  22862572.320   120143793.50209  22862576.680    93618631.84346
  20316402.980   106763424.77809  20316405.580    83192290.64849
 15 02 05 13 47  0.0000000  0 10G02G05G06G07G09G10G13G20G28G30
  22269416.600   117026552.07609  22269417.020    91189513.18347
  21496292.220   112963798.18009  21496293.240    88023753.20948
  24076987.140   126525312.06108  24077000.640    98591153.64946
  21579139.880   113399137.84409  21579140.940    88362964.91648
  23252564.460   122193034.46408  23252570.040    95215363.75547
  20746226.780   109022151.82409  20746227.400    84952325.56048
  23079686.480   121284611.62208  23079688.880    94507525.72746
  22937015.680   120534796.16608  22937019.040    93923216.11546
  22846966.920   120061787.59709  22846971.280    93554731.43246
  20319959.200   106782112.73809  20319961.760    83206852.68949
 15 02 05 13 47 30.0000000  0 10G02G05G06G07G09G10G13G20G28G30
  22279802.360   117081128.59409  22279802.600    91232040.23147
  21484000.600   112899205.25809  21484001.520    87973421.12248
  24096221.260   126626384.81207  24096234.800    98669910.93746
  21592145.760   113467483.96809  21592146.800    88416221.57748
  23265600.100   122261536.48708  23265605.700    95268741.85947
  20756416.980   109075701.59209  20756417.580    84994052.61548
  23066507.220   121215354.75808  23066509.860    94453559.49946
  22955736.480   120633174.58708  22955739.820    93999874.45346
  22831403.200   119980000.48209  22831407.460    93491001.49646
  20323607.480   106801284.43909  20323610.020    83221791.67749
 15 02 05 13 48  0.0000000  0 10G02G05G06G07G09G10G13G20G28G30
  22290264.180   117136105.02809  22290264.480    91274878.90047
  21471777.080   112834970.43409  21471777.900    87923368.06848
  24115455.060   126727456.01507  24115468.820    98748667.01945
  21605204.900   113536109.65209  21605205.860    88469696.06248
  23278653.620   122330132.52508  23278659.100    95322193.21947
  20766692.200   109129698.24509  20766692.900    85036127.89748
  23053345.840   121146192.07809  23053348.660    94399666.64346
  22974500.200   120731778.03408  22974503.600    94076708.13346
  22815881.800   119898435.84409  22815885.740    93427444.90946
  20327347.660   106820939.00209  20327350.180    83237106.92149
 15 02 05 13 48 30.0000000  0 10G02G05G06G07G09G10G13G20G28G30
  22300800.060   117191471.11409  22300800.400    91318021.18547
  21459620.680   112771088.83309  21459621.520    87873590.26148
  24134686.640   126828515.61507  24134700.620    98827414.05946
  21618315.420   113605005.26209  21618316.280    88523380.90848
  23291723.780   122398815.40208  23291729.160    95375712.25847
  20777050.880   109184133.63409  20777051.740    85078545.06048
  23040201.160   121077116.52609  23040203.900    94345841.65046
  22993304.920   120830597.51508  22993308.620    94153710.14046
  22800401.960   119817089.32409  22800405.540    93364058.27346
  20331178.080   106841067.83509  20331180.600    83252791.73249
 15 02 05 13 49  0.0000000  0 10G02G05G06G07G09G10G13G20G28G30
  22311410.920   117247231.71809  22311411.480    91361470.88048
  21447533.100   112707569.66409  21447534.140    87824094.86248
  24153916.860   126929568.15307  24153931.000    98906155.56146
  21631478.300   113674176.04809  21631479.140    88577280.15448
  23304811.980   122467592.49708  23304817.100    95429304.69947
  20787494.300   109239014.44409  20787495.340    85121309.29348
  23027074.400   121008135.46708  23027076.960    94292090.29645
  23012151.880   120929638.75808  23012155.840    94230884.92846
  22784965.680   119735971.80809  22784969.100    93300850.08546
  20335099.880   106861676.86009  20335102.320    83268850.71249
 15 02 05 13 49 30.0000000  0 10G02G05G06G07G09G10G13G20G28G30
  22322096.000   117303382.49709  22322096.980    91405224.57747
  21435514.640   112644413.49109  21435515.840    87774882.32348
  24173144.860   127030608.73207  24173159.140    98984887.71245
  21644692.760   113743617.83709  21644693.660    88631390.57748
  23317917.760   122536461.75508  23317922.600    95482968.97047
  20798021.860   109294337.33209  20798022.980    85164418.00648
  23013965.280   120939247.16208  23013967.780    94238411.19646
  23031040.320   121028897.73908  23031044.380    94308229.39246
  22769572.960   119655083.75408  22769576.400    93237820.69046
  20339112.320   106882762.54509  20339114.820    83285281.12649
 15 02 05 13 50  0.0000000  0 10G02G05G06G07G09G10G13G20G28G30
  22332854.800   117359920.81708  22332856.060    91449280.27148
  21423565.860   112581622.59909  21423567.020    87725954.42148
  24192370.080   127131634.57707  24192384.580    99063608.39646
  21657958.400   113813328.59109  21657959.340    88685710.59748
  23331040.980   122605423.30708  23331045.620    95536705.15647
  20808633.460   109350101.56409  20808634.540    85207870.63248
  23000873.720   120870451.62209  23000876.420    94184804.41346
  23049969.940   121128372.78108  23049973.940    94385742.20746
  22754224.560   119574428.23209  22754228.140    93174972.48546
  20343215.160   106904323.52409  20343217.660    83302081.90649
 15 02 05 13 50 30.0000000  0 10G02G05G06G07G09G10G13G20G28G30
  22343686.640   117416842.12109  22343687.880    91493634.41547
  21411686.820   112519197.58109  21411687.860    87677311.60348
  24211591.660   127232641.01707  24211606.340    99142313.94345
  21671274.480   113883304.49909  21671275.420    88740237.22148
  23344181.300   122674475.20808  23344185.780    95590511.75547
  20819328.600   109406304.60209  20819329.680    85251665.17248
  22987799.560   120801747.17809  22987802.340    94131268.60146
  23068940.060   121228060.22008  23068943.960    94463420.52646
  22738920.460   119494006.22008  22738924.220    93112306.24746
  20347407.880   106926356.45909  20347410.340    83319250.44149
 15 02 05 13 51  0.0000000  0 10G02G05G06G07G09G10G13G20G28G30
  22354591.440   117474146.34309  22354592.580    91538286.90147
  21399878.320   112457143.12709  21399879.260    87628957.54248
  24230809.400   127333627.93506  24230823.980    99221004.26045
  21684640.980   113953545.59109  21684641.940    88794970.50148
  23357339.340   122743620.24208  23357343.800    95644390.91047
  20830107.540   109462948.10109  20830108.600    85295802.93548
  22974743.360   120733136.64409  22974746.000    94077805.94446
  23087950.760   121327961.19008  23087954.780    94541265.21746
  22723661.800   119413823.31509  22723665.780    93049826.32946
  20351690.660   106948862.55709  20351693.080    83336787.67649
 15 02 05 13 51 30.0000000  0 10G02G05G06G07G09G10G13G20G28G30
  22365568.860   117531832.57009  22365569.980    91583237.05047
  21388141.220   112395463.55609  21388142.020    87580895.59048
  24250023.160   127434594.44806  24250037.960    99299678.69944
  21698058.000   114024052.19209  21698058.940    88849910.66848
  23370515.340   122812860.36108  23370519.920    95698344.16347
  20840970.500   109520033.00209  20840971.500    85340284.64848
  22961705.340   120664622.23308  22961708.060    94024418.19946
  23107002.160   121428075.56708  23107006.100    94619276.20946
  22708449.680   119333884.49109  22708453.640    92987536.58446
  20356063.620   106971842.26209  20356065.880    83354693.95649
 15 02 05 13 52  0.0000000  0 10G02G05G06G07G09G10G13G20G28G30
  22376617.540   117589893.31009  22376618.700    91628479.04647
  21376474.820   112334155.66909  21376475.460    87533123.26448
  24269231.600   127535532.27306  24269246.440    99378330.74944
  21711524.080   114094816.62909  21711524.980    88905051.75048
  23383708.320   122882190.12008  23383713.120    95752367.26447
  20851916.240   109577553.07309  20851917.220    85385105.45748
  22948684.660   120596198.49209  22948687.200    93971101.08246
  23126092.760   121528396.08608  23126096.540    94697447.82946
  22693283.720   119254187.27409  22693287.440    92925435.10746
  20360525.360   106995288.61409  20360527.580    83372963.85849
 15 02 05 13 52 30.0000000  0 10G02G05G06G07G09G10G13G20G28G30
  22387737.640   117648329.65709  22387738.860    91674013.72047
  21364880.320   112273226.02609  21364880.840    87485645.66948
  24288434.860   127636442.79006  24288449.860    99456961.54944
  21725039.520   114165840.59309  21725040.360    88960395.07048
  23396919.100   122951613.68408  23396924.100    95806463.44847
  20862945.320   109635511.33709  20862946.340    85430267.70848
  22935681.960   120527869.88509  22935684.360    93917858.10246
  23145223.020   121628925.11709  23145226.780    94775781.92546
  22678165.080   119174738.63709  22678168.500    92863527.31146
  20365076.380   107019204.20709  20365078.560    83391599.39749
 15 02 05 13 53  0.0000000  0 10G02G05G06G07G09G10G13G20G28G30
  22398928.200   117707135.86609  22398929.500    91719836.56047
  21353357.540   112212673.63709  21353358.020    87438462.03748
  24307631.700   127737320.19305  24307647.320    99535566.56844
  21738603.320   114237118.94309  21738604.160    89015936.60148
  23410147.160   123021128.05608  23410152.380    95860630.40447
  20874057.020   109693903.77009  20874058.040    85475768.27748
  22922696.860   120459633.17109  22922699.380    93864686.73146
  23164391.980   121729657.81208  23164395.900    94854274.69546
  22663093.740   119095538.52309  22663096.880    92801813.15847
  20369715.840   107043584.51609  20369717.960    83410597.05449
 15 02 05 13 53 30.0000000  0 10G02G05G06G07G09G10G13G20G28G30
  22410188.940   117766310.54509  22410189.860    91765946.55447
  21341907.080   112152502.08109  21341907.680    87391575.15248
  24326822.020   127838163.00504  24326837.740    99614144.51744
  21752215.420   114308651.06609  21752216.300    89071675.89948
  23423392.640   123090734.62408  23423398.280    95914869.15747
  20885251.440   109752730.86509  20885252.380    85521607.53748
  22909729.620   120391490.05408  22909732.080    93811588.28646
  23183599.720   121830593.80308  23183603.820    94932925.89246
  22648070.360   119016591.15109  22648073.600    92740295.96047
  20374443.620   107068429.32509  20374445.820    83429956.65849
 15 02 05 13 54  0.0000000  0  9G02G05G07G09G10G13G20G28G30
  22421518.480   117825846.71009  22421519.280    91812338.22547
  21330528.740   112092709.55209  21330529.580    87344983.61648
  21765874.600   114380430.72309  21765875.540    89127608.07948
  23436654.960   123160429.23208  23436660.840    95969176.54447
  20896527.500   109811987.12609  20896528.420    85567781.20848
  22896779.420   120323436.59809  22896781.740    93758559.72646
  23202845.040   121931727.30208  23202849.220    95011730.97646
  22633094.760   118937895.28708  22633098.220    92678974.74747
  20379258.620   107093732.88009  20379260.880    83449673.73149
 15 02 05 13 54 30.0000000  0  9G02G05G07G09G10G13G20G28G30
  22432917.640   117885748.82509  22432918.560    91859015.02447
  21319224.240   112033305.07509  21319225.300    87298694.46148
  21779581.820   114452462.83909  21779582.740    89183736.98048
  23449935.440   123230218.81208  23449941.380    96023557.92047
  20907886.440   109871678.65909  20907887.360    85614294.05848
  22883847.600   120255479.66509  22883849.720    93705606.35146
  23222128.820   122033062.98908  23222133.020    95090693.60546
  22618168.780   118859460.70309  22618172.300    92617857.12546
  20384162.000   107119500.57409  20384164.220    83469752.45749
 15 02 05 13 55  0.0000000  0  9G02G05G07G09G10G13G20G28G30
  22444384.980   117946009.14209  22444385.720    91905970.97647
  21307993.300   111974286.12909  21307994.380    87252705.71348
  21793335.660   114524740.19509  21793336.620    89240056.97148
  23463233.200   123300098.64708  23463239.240    96078009.63347
  20919327.040   109931799.50209  20919328.060    85661141.42948
  22870933.300   120187614.83609  22870935.460    93652724.77346
  23241449.900   122134594.24708  23241453.860    95169808.64046
  22603292.180   118781285.36108  22603295.740    92556941.49547
  20389152.500   107145725.94609  20389154.680    83490187.82549
 15 02 05 13 55 30.0000000  0  9G02G05G07G09G10G13G20G28G30
  22455920.420   118006627.09309  22455920.980    91953205.61047
  21296836.640   111915656.79409  21296837.540    87207020.55648
  21807136.120   114597262.32809  21807137.100    89296567.68948
  23476548.580   123370070.57208  23476554.560    96132533.10947
  20930849.480   109992350.63209  20930850.520    85708324.08148
  22858037.000   120119843.93609  22858039.100    93599916.36746
  23260808.100   122236321.20308  23260811.940    95249076.13746
  22588465.920   118703374.20209  22588469.620    92496231.71547
  20394230.200   107172409.30909  20394232.300    83510980.06149
 15 02 05 13 56  0.0000000  0  9G02G05G07G09G10G13G20G28G30
  22467523.740   118067602.44909  22467524.340    92000718.71346
  21285755.180   111857422.26509  21285755.860    87161643.03948
  21820983.300   114670029.98909  21820984.300    89353269.73048
  23489882.080   123440137.42308  23489887.880    96187130.52647
  20942454.200   110053333.68209  20942455.220    85755843.29148
  22845158.940   120052169.79709  22845161.040    93547183.39446
  23280203.540   122338244.73608  23280207.500    95328496.81646
  22573691.200   118625733.10809  22573694.800    92435732.35746
  20399395.240   107199551.78009  20399397.340    83532130.04549
 15 02 05 13 56 30.0000000  0  9G02G05G07G09G10G13G20G28G30
  22479194.260   118128930.89909  22479194.720    92048506.99247
  21274748.860   111799582.87409  21274749.420    87116573.42948
  21834876.640   114743039.89909  21834877.580    89410160.53748
  23503233.420   123510297.43108  23503239.020    96241800.56247
  20954140.620   110114745.77109  20954141.580    85803696.83448
  22832299.020   119984590.97809  22832301.120    93494524.66746
  23299635.660   122440361.54908  23299640.000    95408068.08546
  22558968.060   118548362.73509  22558971.480    92375443.94347
  20404647.080   107227149.97509  20404649.140    83553635.14849
 15 02 05 13 57  0.0000000  0  9G02G05G07G09G10G13G20G28G30
  22490930.360   118190604.19009  22490931.200    92096563.91847
  21263817.060   111742135.61509  21263817.640    87071809.36048
  21848814.620   114816284.22409  21848815.580    89467233.98948
  23516601.520   123580545.68308  23516606.960    96296539.32047
  20965907.580   110176580.68009  20965908.400    85851879.84248
  22819456.380   119917102.50209  22819458.260    93441936.32846
  23319103.260   122542664.37508  23319107.720    95487784.31546
  22544296.000   118471261.10108  22544299.360    92315364.92246
  20409984.480   107255197.28509  20409986.340    83575490.18949
 15 02 05 13 57 30.0000000  0  9G02G05G07G09G10G13G20G28G30
  22502732.380   118252623.98909  22502733.360    92144890.88547
  21252961.020   111685086.88409  21252961.680    87027355.84048
  21862797.680   114889765.18809  21862798.660    89524491.84848
  23529987.200   123650886.35108  23529992.480    96351350.11247
  20977755.440   110238841.52609  20977756.240    85900394.73148
  22806631.740   119849708.95309  22806633.640    93389421.97946
  23338606.820   122645155.83108  23338611.320    95567647.53146
  22529676.320   118394435.29909  22529679.580    92255500.83746
  20415407.720   107283696.18009  20415409.500    83597697.12849
 15 02 05 13 58  0.0000000  0  9G02G05G07G09G10G13G20G28G30
  22514599.800   118314987.98908  22514601.040    92193486.04147
  21242181.380   111628439.83309  21242182.080    86983215.31749
  21876825.520   114963481.58009  21876826.500    89581933.15048
  23543390.480   123721319.93008  23543395.740    96406233.28347
  20989684.220   110301527.71409  20989685.020    85949241.06248
  22793825.160   119782411.06109  22793827.160    93336982.16946
  23358146.020   122747834.34508  23358150.500    95647656.48846
  22515109.760   118317888.50009  22515113.020    92195854.15146
  20420916.620   107312645.54809  20420918.400    83620255.07749
 15 02 05 13 58 30.0000000  0  9G02G05G07G09G10G13G20G28G30
  22526531.740   118377690.25009  22526533.120    92242344.78847
  21231477.960   111572193.23309  21231478.620    86939386.83348
  21890897.100   115037427.57209  21890897.980    89639553.35748
  23556810.840   123791843.34408  23556815.900    96461186.47447
  21001693.060   110364634.76209  21001693.980    85998415.32848
  22781036.340   119715205.59209  22781038.380    93284614.37046
  23377719.960   122850695.01108  23377724.180    95727807.39945
  22500596.320   118241620.48909  22500599.600    92136424.69147
  20426510.340   107342040.59209  20426512.120    83643160.30549
 15 02 05 13 59  0.0000000  0  9G02G05G07G09G10G13G20G28G30
  22538528.260   118440731.06409  22538529.320    92291467.36146
  21220851.680   111516352.16509  21220852.400    86895874.34749
  21905012.620   115111604.73109  21905013.480    89697353.68348
  23570248.820   123862459.82008  23570253.900    96516212.16847
  21013782.500   110428164.78609  21013783.380    86047919.20048
  22768265.840   119648095.88909  22768267.720    93232321.18646
  23397328.880   122953739.06508  23397333.060    95808101.20546
  22486137.220   118165637.32709  22486140.340    92077217.17447
  20432189.120   107371882.71709  20432190.900    83666413.90249
 15 02 05 13 59 30.0000000  0  9G02G05G07G09G10G13G20G28G30
  22550588.460   118504106.71508  22550589.340    92340850.81446
  21210302.900   111460918.33509  21210303.700    86852679.18049
  21919171.540   115186009.62009  21919172.300    89755331.47748
  23583704.320   123933168.61908  23583709.460    96571309.80247
  21025952.060   110492115.99809  21025952.920    86097751.25648
  22755513.280   119581081.48009  22755515.140    93180102.27546
  23416972.260   123056963.85008  23416976.500    95888535.83046
  22471732.820   118089941.16909  22471735.680    92018233.29147
  20437952.500   107402169.48609  20437954.300    83690013.98249
 15 02 05 14 00  0.0000000  0 10G02G05G06G07G09G10G13G20G28G30
  22562711.780   118567814.10908  22562712.820    92390492.77747
  21199831.880   111405893.18509  21199832.760    86809802.48448
  24575451.260   129144865.71804                                
  21933373.280   115260639.68609  21933374.020    89813484.73348
  23597177.260   124003969.06808  23597182.420    96626478.86747
  21038201.460   110556486.47209  21038202.340    86147910.02048
  22742778.840   119514161.93709  22742780.800    93127957.28846
  23436649.540   123160366.88908  23436653.740    95969109.35046
  22457383.400   118014534.20809  22457385.940    91959474.75247
  20443800.040   107432898.59509  20443801.840    83713958.73649
 15 02 05 14 00 30.0000000  0 10G02G05G06G07G09G10G13G20G28G30
  22574897.340   118631849.12808  22574898.560    92440390.00447
  21189438.820   111351277.91609  21189439.700    86767245.16948
  24594492.420   129244926.29104                                
  21947617.320   115335492.12809  21947617.980    89871811.25348
  23610667.300   124074860.31608  23610672.720    96681718.65146
  21050530.100   110621273.78709  21050531.060    86198393.58248
  22730062.280   119447336.34208  22730064.260    93075885.51646
  23456360.180   123263945.27208  23456364.320    96049819.49246
  22443089.240   117939418.28409  22443091.840    91900943.00847
  20449731.220   107464067.31409  20449733.020    83738246.03749
 15 02 05 14 01  0.0000000  0  9G02G05G07G09G10G13G20G28G30
  22587145.500   118696212.90308  22587146.920    92490543.42147
  21179124.880   111297078.55509  21179125.880    86725011.93748
  21961903.960   115410568.65409  21961904.560    89930312.38848
  23624175.500   124145846.37308  23624181.000    96737032.31646
  21062938.640   110686481.01309  21062939.680    86249204.35448
  22717364.380   119380608.90809  22717366.200    93023890.20346
  23476104.500   123367701.25008  23476108.700    96130668.01145
  22428851.620   117864600.07909  22428854.300    91842643.25447
  20455746.480   107495677.92109  20455748.360    83762877.66949
 15 02 05 14 01 30.0000000  0  9G02G05G07G09G10G13G20G28G30
  22599455.480   118760901.66708  22599457.160    92540950.05348
  21168890.400   111243296.31009  21168891.440    86683103.72549
  21976232.680   115485866.51809  21976233.380    89988985.99048
  23637701.540   124216926.24608  23637707.100    96792419.09946
  21075426.660   110752105.76109  21075427.740    86300340.46948
  22704684.940   119313978.78708  22704686.920    92971970.74946
  23495881.860   123471631.63908  23495886.280    96211652.41646
  22414671.100   117790081.47409  22414673.600    91784576.94447
  20461845.220   107527727.71509  20461847.360    83787851.52449
 15 02 05 14 02  0.0000000  0  9G02G05G07G09G10G13G20G28G30
  22611826.000   118825908.73609  22611827.840    92591604.73447
  21158735.000   111189929.50909  21158736.040    86641519.24049
  21990602.260   115561379.17609  21990603.100    90047826.96348
  23651244.700   124288096.21808  23651250.280    96847876.08546
  21087993.180   110818143.14609  21087994.360    86351798.12048
  22692023.360   119247442.33909  22692025.340    92920124.26846
  23515691.340   123575730.81008  23515696.080    96292768.33445
  22400547.260   117715861.42709  22400549.680    91726743.27947
  20468026.500   107560211.08309  20468028.840    83813163.23549
 15 02 05 14 02 30.0000000  0  9G02G05G07G09G10G13G20G28G30
  22624256.740   118891231.83809  22624258.700    92642505.69748
  21148659.280   111136981.24109  21148660.320    86600260.89449
  22005012.500   115637105.55109  22005013.460    90106834.47448
  23664805.240   124359357.04508  23664811.000    96903403.86947
  21100638.100   110884592.66009  21100639.280    86403576.91748
  22679379.940   119181000.60809  22679381.760    92868351.57146
  23535532.860   123679997.67408  23535537.760    96374014.91546
  22386480.900   117641943.44909  22386483.460    91669144.99447
  20474290.200   107593127.01509  20474292.520    83838812.00549
 15 02 05 14 03  0.0000000  0  9G02G05G07G09G10G13G20G28G30
  22636747.560   118956870.76309  22636749.580    92693652.72548
  21138664.000   111084455.74509  21138664.920    86559331.97148
  22019463.620   115713046.41209  22019464.600    90166009.12148
  23678383.580   124430711.40908  23678389.560    96959004.55846
  21113361.600   110951455.66909  21113362.920    86455677.91848
  22666755.060   119114656.29209  22666756.920    92816654.80046
  23555406.520   123784432.82208  23555411.460    96455392.64246
  22372473.120   117568332.97709  22372475.840    91611786.34147
  20480636.440   107626476.40309  20480638.720    83864798.53349
 15 02 05 14 03 30.0000000  0  9G02G05G07G09G10G13G20G28G30
  22649297.680   119022820.85109  22649299.620    92745042.24447
  21128749.360   111032353.62109  21128750.080    86518732.95048
  22033954.760   115789197.47009  22033955.780    90225347.55248
  23691979.440   124502157.36308  23691985.420    97014676.59147
  21126163.180   111018728.74909  21126164.600    86508098.44848
  22654148.380   119048407.76009  22654150.160    92765032.65547
  23575311.580   123889032.71608  23575316.560    96536898.72345
  22358524.000   117495030.70009  22358526.760    91554667.83547
  20487064.440   107660255.51309  20487066.660    83891119.91349
 15 02 05 14 04  0.0000000  0  9G02G05G07G09G10G13G20G28G30
  22661906.560   119089080.22909  22661908.600    92796672.76547
  21118915.880   110980678.12709  21118916.460    86478466.35848
  22048485.720   115865558.17009  22048486.820    90284849.34148
  23705593.040   124573696.40008  23705599.040    97070421.15147
  21139042.900   111086411.99509  21139044.280    86560838.59348
  22641560.140   118982256.76209  22641562.060    92713486.53146
  23595247.920   123993796.54408  23595252.980    96618532.55346
  22344634.500   117422041.02709  22344637.220    91497792.92147
  20493574.100   107694463.98109  20493576.280    83917775.84649
 15 02 05 14 04 30.0000000  0  9G02G05G07G09G10G13G20G28G30
  22674573.700   119155645.51909  22674575.580    92848541.65247
  21109163.880   110929430.94309  21109164.400    86438533.52249
  22063056.020   115942125.94709  22063057.260    90344512.47848
  23719224.180   124645327.94308  23719230.220    97126237.80947
  21152000.400   111154503.60509  21152001.740    86613896.94548
  22628990.380   118916202.68209  22628992.260    92662015.90746
  23615214.880   124098721.97708  23615220.120    96700292.29946
  22330804.800   117349365.91709  22330807.300    91441163.10847
  20500164.940   107729099.38409  20500167.200    83944764.47249
 15 02 05 14 05  0.0000000  0  9G02G05G07G09G10G13G20G28G30
  22687298.760   119222515.31509  22687300.520    92900647.83146
  21099494.020   110878615.61709  21099494.600    86398937.20148
  22077665.600   116018900.14709  22077666.980    90404336.46948
  23732873.160   124717053.53608  23732879.200    97182127.73646
  21165035.640   111223003.85909  21165036.920    86667273.72048
  22616439.420   118850247.42809  22616441.320    92610622.27646
  23635212.460   124203808.34508  23635217.840    96782177.43946
  22317035.760   117277009.57609  22317038.160    91384781.68947
  20506836.940   107764161.44809  20506839.280    83972085.55549
 15 02 05 14 05 30.0000000  0  9G02G05G07G09G10G13G20G28G30
  22700080.280   119289682.25608  22700081.900    92952985.56046
  21089905.800   110828229.38309  21089906.420    86359675.23348
  22092313.220   116095874.14109  22092314.640    90464316.14948
  23746539.080   124788868.54408  23746545.100    97238087.35146
  21178147.560   111291906.74409  21178148.760    86720964.22848
  22603906.480   118784386.45409  22603908.280    92559302.09746
  23655239.460   124309049.21908  23655244.600    96864182.99145
  22303327.100   117204970.36509  22303329.500    91328647.38247
  20513588.820   107799643.68109  20513591.300    83999734.03649
 15 02 05 14 06  0.0000000  0  9G02G05G07G09G10G13G20G28G30
  22712918.300   119357146.68808  22712920.160    93005555.07346
  21080400.320   110778277.79809  21080400.880    86320751.96849
  22106999.100   116173049.02209  22107000.520    90524452.36448
  23760222.740   124860776.45708  23760228.720    97294119.32246
  21191336.400   111361214.08509  21191337.560    86774969.90548
  22591392.300   118718623.55809  22591393.860    92508058.36447
  23675296.120   124414446.22308  23675301.100    96946310.18545
  22289679.860   117133254.06809  22289682.220    91272764.70147
  20520420.980   107835547.67909  20520423.680    84027711.17449
 15 02 05 14 06 30.0000000  0  9G02G05G07G09G10G13G20G28G30
  22725812.440   119424905.53108  22725814.420    93058353.96847
  21070977.900   110728762.90409  21070978.480    86282168.97049
  22121722.900   116250423.00809  22121724.300    90584743.71848
  23773924.040   124932777.20908  23773929.960    97350223.67746
  21204601.940   111430924.55009  21204603.080    86829289.69148
  22578896.640   118652958.70009  22578898.140    92456891.02446
  23695382.100   124519997.23408  23695387.100    97028557.37845
  22276094.700   117061863.67809  22276096.860    91217135.95547
  20527333.140   107871871.49809  20527335.920    84056015.43749
 15 02 05 14 07  0.0000000  0  9G02G05G07G09G10G13G20G28G30
  22738762.340   119492956.98908  22738764.500    93111380.88647
  21061639.280   110679688.03609  21061639.860    86243928.85049
  22136484.440   116327995.05609  22136485.860    90645189.40348
  23787643.240   125004872.17608  23787649.060    97406401.44046
  21217944.140   111501038.04809  21217945.420    86883923.53448
  22566419.920   118587393.39909  22566421.260    92405801.24846
  23715497.160   124625701.45508  23715502.340    97110923.95746
  22262572.240   116990802.97409  22262574.400    91161764.11247
  20534325.220   107908614.69009  20534327.900    84084646.48449
 15 02 05 14 07 30.0000000  0  9G02G05G07G09G10G13G20G28G30
  22751766.560   119561294.04309  22751768.720    93164630.34447
  21052383.840   110631051.00109  21052384.520    86206029.90349
  22151282.540   116405758.93409  22151283.920    90705784.57548
  23801379.640   125077057.08808  23801385.420    97462649.28646
  21231361.980   111571548.98209  21231363.280    86938867.07248
  22553961.400   118521923.67409  22553962.920    92354785.95447
  23735640.280   124731552.75508  23735645.600    97193405.15145
  22249112.180   116920070.40909  22249114.380    91106647.96947
  20541395.980   107945771.04909  20541398.500    84113599.49149
 15 02 05 14 08  0.0000000  0  9G02G05G07G09G10G13G20G28G30
  22764825.160   119629916.37509  22764827.260    93218102.12947
  21043212.560   110582856.67109  21043213.400    86168475.91249
  22166117.260   116483715.21309  22166118.560    90766529.67248
  23815133.700   125149334.70108  23815139.480    97518969.36746
  21244855.600   111642458.59109  21244857.080    86994121.25848
  22541521.540   118456552.58309  22541523.220    92303847.52147
  23755811.540   124837551.85908  23755816.960    97276001.51145
  22235715.500   116849671.38709  22235717.780    91051791.73047
  20548545.500   107983341.43109  20548547.880    84142875.11349
 15 02 05 14 08 30.0000000  0  9G02G05G07G09G10G13G20G28G30
  22777937.740   119698822.53909  22777939.860    93271795.05647
  21034126.120   110535108.22909  21034127.120    86131269.36449
  22180988.540   116561863.46509  22180989.700    90827424.34348
  23828905.680   125221706.39808  23828911.440    97575362.76245
  21258425.080   111713766.72609  21258426.680    87049685.99148
  22529100.720   118391281.78909  22529102.600    92252987.24447
  23776010.700   124943698.10808  23776016.380    97358712.51146
  22222383.120   116779610.12909  22222385.500    90997198.67547
  20555773.700   108021325.35809  20555775.900    84172472.97249
 15 02 05 14 09  0.0000000  0  9G02G05G07G09G10G13G20G28G30
  22791102.860   119768004.75709  22791104.940    93325703.10847
  21025124.120   110487803.03509  21025125.240    86094408.20749
  22195895.080   116640197.17809  22195896.160    90888463.53048
  23842694.860   125294167.80308  23842700.480    97631826.07046
  21272069.320   111785467.57909  21272071.000    87105556.74048
  22516698.200   118326106.94009  22516700.240    92202201.72347
  23796236.620   125049985.35508  23796242.520    97441533.37745
  22209114.600   116709884.51609  22209116.940    90942867.16647
  20563079.340   108059716.49309  20563081.520    84202388.13449
 15 02 05 14 09 30.0000000  0  9G02G05G07G09G10G13G20G28G30
  22804321.100   119837466.21809  22804323.320    93379828.71948
  21016208.160   110440949.10009  21016209.260    86057898.68449
  22210837.560   116718720.08909  22210838.640    90949650.13648
  23856502.300   125366724.92408  23856507.940    97688363.95546
  21285789.180   111857565.64809  21285790.820    87161737.00548
  22504315.180   118261034.29809  22504317.500    92151495.87147
  23816490.060   125156417.50108  23816496.140    97524467.13046
  22195911.560   116640503.28209  22195914.000    90888803.99147
  20570463.160   108098518.92909  20570465.340    84232623.79849
 15 02 05 14 10  0.0000000  0  9G02G05G07G09G10G13G20G28G30
  22817590.960   119907199.32209  22817593.220    93434166.00648
  21007377.700   110394544.01009  21007378.720    86021738.91349
  22225814.760   116797425.78509  22225815.960    91010979.19448
  23870327.000   125439373.22008  23870332.680    97744972.88746
  21299583.440   111930054.99009  21299585.100    87218222.14348
  22491950.720   118196059.46309  22491952.980    92100866.20547
  23836769.940   125262988.05708  23836775.940    97607508.77046
  22182773.840   116571464.66709  22182776.180    90835007.78747
  20577924.060   108137726.23909  20577926.240    84263174.93849
 15 02 05 14 10 30.0000000  0  9G02G05G07G09G10G13G20G28G30
  22830912.480   119977203.75709  22830914.800    93488714.71847
  20998633.540   110348592.57609  20998634.440    85985932.63849
  22240826.920   116876315.05509  22240828.140    91072451.31847
  23884169.500   125512115.65908  23884175.320    97801655.17146
  21313452.400   112002936.89309  21313454.120    87275013.18148
  22479605.560   118131185.75609  22479607.780    92050315.35246
  23857076.420   125369697.73208  23857082.540    97690658.81045
  22169702.400   116502774.09609  22169704.620    90781482.79647
  20585462.180   108177339.41809  20585464.420    84294042.35949
 15 02 05 14 11  0.0000000  0  9G02G05G07G09G10G13G20G28G30
  22844284.780   120047474.84509  22844287.020    93543471.20947
  20989975.600   110303094.56109  20989976.360    85950479.67149
  22255873.220   116955383.71709  22255874.480    91134063.19748
  23898029.500   125584950.18308  23898035.540    97858409.18746
  21327395.520   112076208.01209  21327397.160    87332107.50948
  22467279.460   118066411.60009  22467281.540    91999842.05647
  23877408.600   125476542.64008  23877414.900    97773914.19146
  22156697.240   116434432.01909  22156699.320    90728229.36147
  20593076.840   108217354.46409  20593079.120    84325222.90849
 15 02 05 14 11 30.0000000  0  9G02G05G07G09G10G13G20G28G30
  22857707.220   120118009.32108  22857709.340    93598432.93647
  20981404.280   110258051.91009  20981404.860    85915381.52449
  22270953.360   117034630.16709  22270954.680    91195813.61848
  23911907.060   125657876.82708  23911913.200    97915234.99246
  21341412.420   112149866.88809  21341413.960    87389503.97848
  22454972.220   118001736.73009  22454974.320    91949446.14247
  23897766.240   125583520.95208  23897772.580    97857273.54546
  22143758.980   116366441.15809  22143761.040    90675249.59347
  20600767.620   108257769.49709  20600769.860    84356715.13549
 15 02 05 14 12  0.0000000  0  9G02G05G07G09G10G13G20G28G30
  22871178.960   120188803.29608  22871181.180    93653596.87247
  20972919.860   110213465.73709  20972920.260    85880639.08549
  22286066.680   117114050.97309  22286067.960    91257699.90347
  23925801.900   125730894.55708  23925808.280    97972131.76346
  21355502.600   112223910.92409  21355504.120    87447200.57048
  22442683.840   117937160.50509  22442685.960    91899127.07747
  23918148.660   125690629.39308  23918155.000    97940734.29045
  22130887.920   116298803.09809  22130889.960    90622544.74247
  20608533.920   108298581.49509  20608536.140    84388516.68849
 15 02 05 14 12 30.0000000  0  9G02G05G07G09G10G13G20G28G30
  22884700.200   120259857.60308  22884702.620    93708963.66946
  20964523.420   110169341.97909  20964523.800    85846256.97349
  22301213.600   117193648.52509  22301214.840    91319723.91047
  23939715.060   125804007.48508  23939721.380    98029102.74846
  21369666.480   112298342.53909  21369667.980    87505199.17248
  22430415.060   117872687.52909  22430416.940    91848888.47447
  23938556.220   125797870.15808  23938562.660    98024298.12346
  22118085.280   116231524.56309  22118087.240    90570120.04147
  20616376.120   108339792.61009  20616378.320    84420629.24449
 15 02 05 14 13  0.0000000  0  9G02G05G07G09G10G13G20G28G30
  22898269.600   120331164.69008  22898271.960    93764527.44746
  20956214.380   110125677.79509  20956214.840    85812232.94749
  22316392.780   117273415.58909  22316393.940    91381880.00247
  23953645.480   125877210.86208  23953651.640    98086144.20846
  21383902.860   112373155.39509  21383904.340    87563494.84048
  22418164.980   117808313.29709  22418166.940    91798726.81547
  23958987.660   125905236.29408  23958994.180    98107959.64945
  22105350.600   116164603.11309  22105352.440    90517973.56947
  20624292.940   108381396.16109  20624295.180    84453047.57849
 15 02 05 14 13 30.0000000  0  9G02G05G07G09G10G13G20G28G30
  22911887.240   120402725.03108  22911889.620    93820288.54046
  20947993.660   110082478.57609  20947994.240    85778571.24149
  22331604.580   117353354.15609  22331605.740    91444169.73347
  23967593.820   125950508.43508  23967599.920    98143259.09646
  21398212.180   112448351.49709  21398213.700    87622089.14448
  22405934.360   117744041.71509  22405936.340    91748645.12547
  23979443.260   126012729.92608  23979449.940    98191720.50745
  22092685.060   116098045.12709  22092686.600    90466110.31647
  20632284.780   108423393.89709  20632287.040    84485773.08349
 15 02 05 14 14  0.0000000  0  9G02G05G07G09G10G13G20G28G30
  22925552.200   120474533.54808  22925554.520    93876243.02946
  20939861.440   110039744.24409  20939862.120    85745271.77849
  22346848.200   117433459.98309  22346849.380    91506589.81147
  23981559.680   126023898.15908  23981565.580    98200445.77546
  21412593.820   112523927.41209  21412595.440    87680979.41448
  22393722.900   117679870.76309  22393724.840    91698641.85247
  23999922.340   126120346.86508  23999929.160    98275577.47345
  22080088.740   116031851.01109  22080090.160    90414530.60847
  20640350.900   108465781.76009  20640353.160    84518802.58249
 15 02 05 14 14 30.0000000  0  9G02G05G07G09G10G13G20G28G30
  22939264.000   120546588.74208  22939266.420    93932389.73247
  20931818.460   109997478.19109  20931819.060    85712337.20549
  22362123.680   117513733.11409  22362124.840    91569140.23747
  23995543.360   126097381.61608  23995549.160    98257705.52646
  21427047.780   112599883.23009  21427049.460    87740165.70448
  22381531.060   117615802.45909  22381532.800    91648718.54747
  24020424.860   126228086.48708  24020431.720    98359530.00645
  22067562.520   115966025.07609  22067563.900    90363237.77447
  20648491.100   108508559.37009  20648493.420    84552135.77549
 15 02 05 14 15  0.0000000  0  9G02G05G07G09G10G13G20G28G30
  22953021.920   120618885.85108  22953024.440    93988724.91547
  20923864.720   109955681.00209  20923865.260    85679767.98649
  22377430.280   117594169.83509  22377431.500    91631818.14647
  24009544.400   126170957.15508  24009550.300    98315037.01846
  21441573.400   112676215.49209  21441575.120    87799645.32148
  22369358.480   117551835.57609  22369360.000    91598874.27446
  24040950.220   126335945.26308  24040956.940    98443575.41345
  22055106.460   115900568.08609  22055107.660    90312232.43847
  20656704.800   108551723.10609  20656707.180    84585769.85549
 15 02 05 14 15 30.0000000  0  9G02G05G07G09G10G13G20G28G30
  22966825.640   120691424.12808  22966828.380    94045248.03847
  20916000.820   109914356.04709  20916001.400    85647566.72649
  22392767.880   117674769.69009  22392769.260    91694623.15747
  24023563.120   126244627.05608  24023569.300    98372442.02546
  21456170.880   112752924.95809  21456172.460    87859418.88448
  22357205.660   117487972.46509  22357207.180    91549110.86447
  24061498.300   126443923.25108  24061504.680    98527713.71544
  22042721.420   115835484.64809  22042722.580    90261518.17947
  20664992.160   108595273.19109  20664994.560    84619704.97349
 15 02 05 14 16  0.0000000  0  9G02G05G07G09G10G13G20G28G30
  22980674.760   120764200.82508  22980677.600    94101956.92647
  20908227.340   109873505.75809  20908227.840    85615735.34549
  22408136.300   117755531.51908  22408137.780    91757554.36647
  24037599.820   126318391.61008  24037606.440    98429920.79647
  21470839.940   112830010.53509  21470841.380    87919485.50448
  22345072.840   117424214.02409  22345074.220    91499429.00947
  24082068.600   126552019.03408  24082074.920    98611943.77545
  22030407.940   115770777.50909  22030409.040    90211097.13047
  20673352.840   108639208.14109  20673355.080    84653939.98349
 15 02 05 14 16 30.0000000  0  9G02G05G07G09G10G13G20G28G30
  22994568.140   120837210.14408  22994571.140    94158847.09547
  20900544.040   109833129.46609  20900544.380    85584273.31349
  22423534.780   117836451.24508  22423536.400    91820608.62148
  24051654.040   126392248.22808  24051661.080    98487471.30546
  21485579.620   112907467.58409  21485580.980    87979841.58948
  22332959.480   117360557.77909  22332960.820    91449826.78647
  24102660.140   126660227.88107  24102666.640    98696261.92145
  22018165.900   115706446.71809  22018167.160    90160969.35247
  20681785.820   108683523.07709  20681787.940    84688471.08649
 15 02 05 14 17  0.0000000  0  9G02G05G07G09G10G13G20G28G30
  23008505.780   120910451.92008  23008508.780    94215918.37447
  20892951.720   109793231.91509  20892952.060    85553184.32649
  22438963.340   117917528.63409  22438965.040    91883785.72647
  24065726.320   126466199.64108  24065733.780    98545095.66247
  21500390.180   112985297.33709  21500391.500    88040488.09848
  22320865.880   117297006.70409  22320867.460    91400306.54546
  24123273.300   126768550.65308  24123280.200    98780668.83745
  22005996.540   115642497.65609  22005997.940    90111139.01247
  20690291.080   108728218.81409  20690293.320    84723298.93149
 15 02 05 14 17 30.0000000  0  9G02G05G07G09G10G13G20G28G30
  23022485.940   120983917.47308  23022489.100    94273164.01247
  20885449.560   109753808.68109  20885450.040    85522464.94448
  22454420.660   117998756.82809  22454422.320    91947080.32947
  24079815.640   126540240.41808  24079823.400    98602789.64946
  21515270.320   113063492.85609  21515271.700    88101419.61448
  22308791.500   117233555.88209  22308793.020    91350864.37947
  24143906.820   126876979.43408  24143914.060    98865158.36945
  21993899.260   115578927.01409  21993900.760    90061603.55347
  20698867.320   108773287.93509  20698869.720    84758417.70849
 15 02 05 14 18  0.0000000  0  9G02G05G07G09G10G13G20G28G30
  23036508.880   121057607.77708  23036512.120    94330584.75547
  20878038.940   109714865.97309  20878039.520    85492120.00949
  22469907.040   118080137.66309  22469908.700    92010493.89147
  24093922.940   126614374.55708  24093930.700    98660556.40046
  21530220.640   113142056.42209  21530221.880    88162637.93648
  22296737.140   117170209.68009  22296738.580    91301503.73947
  24164561.060   126985516.38408  24164568.660    98949732.17445
  21981875.220   115515741.02709  21981876.720    90012367.82747
  20707515.000   108818732.44409  20707517.500    84793828.99949
 15 02 05 14 18 30.0000000  0  9G02G05G07G09G10G13G20G28G30
  23050573.800   121131518.51608  23050577.220    94388177.29547
  20870720.020   109676404.46809  20870720.520    85462150.03249
  22485421.920   118161668.08809  22485423.540    92074024.01548
  24108048.000   126688600.78508  24108055.500    98718394.93146
  21545240.280   113220985.10209  21545241.500    88224140.74548
  22284702.320   117106966.58909  22284703.900    91252223.48047
  24185235.380   127094158.67208  24185243.280    99034388.06645
  21969924.720   115452941.26109  21969926.200    89963433.05647
  20716233.540   108864549.02209  20716236.140    84829530.21549
 15 02 05 14 19  0.0000000  0  9G02G05G07G09G10G13G20G28G30
  23064680.360   121205648.14308  23064683.960    94445940.39747
  20863493.220   109638427.10909  20863493.600    85432557.30849
  22500965.280   118243348.14009  22500966.860    92137670.71447
  24122190.900   126762920.64708  24122198.180    98776306.38546
  21560329.340   113300278.43809  21560330.560    88285927.70648
  22272687.660   117043828.72309  22272689.000    91203025.17747
  24205929.480   127202905.09408  24205937.520    99119125.09945
  21958048.500   115390531.51409  21958049.980    89914802.19347
  20725022.800   108910737.18209  20725025.440    84865520.97249
 15 02 05 14 19 30.0000000  0  9G02G05G07G09G10G13G20G28G30
  23078827.920   121279993.38108  23078831.680    94503871.50047
  20856358.940   109600935.76809  20856359.220    85403343.30249
  22516536.620   118325175.31709  22516538.180    92201432.06248
  24136351.640   126837334.11408  24136358.660    98834290.81546
  21575487.480   113379934.70909  21575488.700    88347997.47548
  22260693.060   116980796.63209  22260694.340    91153909.32047
  24226643.000   127311753.75308  24226651.100    99203941.80045
  21946246.980   115328514.56809  21946248.520    89866477.43247
  20733882.440   108957294.89109  20733885.020    84901799.68649
 15 02 05 14 20  0.0000000  0  9G02G05G07G09G10G13G20G28G30
  23093016.040   121354551.49108  23093019.740    94561968.47747
  20849317.440   109563932.27109  20849317.680    85374509.42649
  22532135.660   118407148.08409  22532137.220    92265306.85247
  24150530.120   126911841.56008  24150537.140    98892348.44246
  21590714.520   113459952.75609  21590715.640    88410349.14248
  22248718.460   116917870.67809  22248720.040    91104876.18047
  24247375.600   127420703.12908  24247383.980    99288836.94546
  21934520.700   115266892.85809  21934522.120    89818460.62647
  20742812.140   109004220.47709  20742814.640    84938365.05948
 15 02 05 14 20 30.0000000  0  9G02G05G07G09G10G13G20G28G30
  23107244.220   121429319.93608  23107247.920    94620229.36747
  20842369.140   109527418.71609  20842369.400    85346057.33649
  22547762.060   118489264.89509  22547763.620    92329293.87947
  24164726.460   126986443.24408  24164733.340    98950479.53646
  21606010.140   113540331.29009  21606011.220    88472981.71148
  22236764.280   116855051.70009  22236766.080    91055926.38947
  24268127.160   127529751.73608  24268135.640    99373809.41746
  21922870.060   115205668.68609  21922871.480    89770753.60447
  20751811.440   109051512.17509  20751813.980    84975215.71949
 15 02 05 14 21  0.0000000  0  9G02G05G07G09G10G13G20G28G30
  23121510.900   121504290.61608  23121514.700    94678647.81847
  20835513.600   109491392.23709  20835513.740    85317984.78249
  22563414.580   118571518.98509  22563416.040    92393387.88747
  24178939.900   127061134.33008  24178946.680    99008680.30846
  21621373.000   113621063.50209  21621374.080    88535889.87348
  22224829.740   116792335.25009  22224831.500    91007056.49247
  24288896.280   127638892.25408  24288904.900    99458853.50146
  21911294.620   115144839.77709  21911296.000    89723354.57547
  20760879.060   109099163.10009  20760881.620    85012346.29949
 15 02 05 14 21 30.0000000  0  9G02G05G07G09G10G13G20G28G30
  23135816.500   121579466.29708  23135820.240    94737226.00346
  20828752.100   109455859.81209  20828752.040    85290297.19749
  22579093.980   118653914.23109  22579095.320    92457591.88347
  24193171.380   127135920.53908  24193178.160    99066955.18546
  21636804.000   113702153.45009  21636805.060    88599076.79248
  22212915.840   116729727.15209  22212917.480    90958271.01447
  24309683.580   127748128.48508  24309692.260    99543972.15546
  21899795.920   115084414.11309  21899797.240    89676269.76347
  20770015.760   109147176.95109  20770018.340    85049759.67548
 15 02 05 14 22  0.0000000  0  9G02G05G07G09G10G13G20G28G30
  23150159.860   121654840.21708  23150163.680    94795958.65746
  20822084.240   109420820.14209  20822084.160    85262993.57849
  22594799.220   118736445.30409  22594800.500    92521901.72247
  24207420.380   127210798.70908  24207427.000    99125301.71346
  21652302.160   113783596.36009  21652303.220    88662538.74648
  22201022.100   116667224.78009  22201023.660    90909567.94247
  24330488.120   127857455.26708  24330496.920    99629161.36645
  21888373.820   115024390.93809  21888375.020    89629498.58147
  20779220.580   109195548.48809  20779223.200    85087451.76649
 15 02 05 14 22 30.0000000  0  9G02G05G07G09G10G13G20G28G30
  23164541.240   121730413.85908  23164545.040    94854846.92946
  20815511.140   109386278.78909  20815511.100    85236078.25749
  22610530.760   118819114.72409  22610531.960    92586319.35347
  24221687.580   127285772.90708  24221694.100    99183723.09446
  21667867.800   113865394.40009  21667868.940    88726277.41848
  22189149.280   116604832.66009  22189150.640    90860950.75647
  24351310.360   127966875.00407  24351319.360    99714423.00345
  21877029.480   114964776.77809  21877030.580    89583046.10947
  20788493.940   109244279.83509  20788496.500    85125424.21949
 15 02 05 14 23  0.0000000  0  9G02G05G07G09G10G13G20G28G30
  23178959.260   121806180.29308  23178963.180    94913885.43946
  20809032.660   109352234.19709  20809032.600    85209550.01549
  22626287.520   118901916.97009  22626288.700    92650840.50447
  24235972.360   127360839.73808  24235978.980    99242216.60046
  21683500.060   113947542.48109  21683501.300    88790288.85848
  22177296.740   116542547.83909  22177298.080    90812417.20047
  24372149.220   128076381.74507  24372158.500    99799752.42145
  21865762.860   114905570.76809  21865763.860    89536911.65947
  20797834.760   109293365.42609  20797837.180    85163672.71449
 15 02 05 14 23 30.0000000  0  9G02G05G07G09G10G13G20G28G30
  23193413.560   121882136.72008  23193417.460    94973071.98746
  20802648.980   109318687.61109  20802648.800    85183409.83149
  22642069.140   118984849.92208  22642070.360    92715463.48547
  24250274.700   127435999.06607  24250281.460    99300782.19746
  21699198.420   114030038.58909  21699199.840    88854571.47048
  22165464.720   116480370.59309  22165466.060    90763967.44747
  24393004.180   128185973.45507  24393013.840    99885147.99845
  21854574.140   114846774.34409  21854575.180    89491096.37047
  20807242.580   109342803.17909  20807244.960    85202195.60349
 15 02 05 14 24  0.0000000  0  9G02G05G07G09G10G13G20G28G30
  23207903.800   121958281.83708  23207907.600    95032405.60746
  20796360.820   109285642.85209  20796360.560    85157660.68949
  22657875.780   119067914.19209  22657877.020    92780188.80047
  24264594.960   127511253.04507  24264602.060    99359421.53246
  21714963.000   114112882.79109  21714964.560    88919125.33748
  22153653.480   116418302.98809  22153655.000    90715603.14747
  24413875.280   128295650.19907  24413885.080    99970609.87045
  21843464.340   114788392.43209  21843465.360    89445604.06947
  20816717.380   109392593.14209  20816719.760    85240992.96549
 15 02 05 14 24 30.0000000  0  9G02G05G07G09G10G13G20G28G30
  23222429.060   122034611.63708  23222433.120    95091883.08746
  20790168.280   109253100.37009  20790167.980    85132302.92249
  22673706.840   119151106.69209  22673708.160    92845014.03747
  24278933.000   127586600.47107  24278940.440    99418133.66946
  21730793.400   114196072.50209  21730795.100    88983948.42248
  22141863.140   116356344.71709  22141864.740    90667324.03247
  24434761.980   128405408.73608  24434771.740   100056135.46644
  21832433.660   114730425.90709  21832434.560    89400435.43847
  20826258.540   109442732.12709  20826260.960    85280062.27149
 15 02 05 14 25  0.0000000  0  9G02G05G07G09G10G13G20G28G30
  23236988.520   122111120.77108  23236992.660    95151500.31746
  20784071.160   109221059.65709  20784070.780    85107336.14549
  22689561.560   119234423.52509  22689562.980    92909936.15047
  24293288.520   127662039.20107  24293296.060    99476916.94345
  21746688.880   114279603.84409  21746690.620    89049037.71248
  22130093.260   116294493.80009  22130094.760    90619128.56447
  24455663.540   128515244.99108  24455673.140   100141721.62445
  21821482.100   114672875.04709  21821482.840    89355590.70847
  20835865.280   109493215.90209  20835867.780    85319400.25749
 15 02 05 14 25 30.0000000  0  9G02G05G07G09G10G13G20G28G30
  23251581.900   122187808.15808  23251586.120    95211256.45646
  20778070.160   109189524.47509  20778069.820    85082763.29549
  22705439.960   119317864.73609  22705441.500    92974955.19247
  24307661.980   127737571.41607  24307669.460    99535773.10445
  21762649.520   114363477.01409  21762651.200    89114393.36648
  22118344.300   116232752.67809  22118345.700    90571018.65647
  24476579.880   128625158.79008  24476589.180   100227368.18145
  21810610.400   114615744.36109  21810611.260    89311073.37948
  20845537.540   109544044.58409  20845540.200    85359007.00149
 15 02 05 14 26  0.0000000  0  9G02G05G07G09G10G13G20G28G30
  23266208.720   122264671.41708  23266213.200    95271149.58646
  20772165.580   109158496.25809  20772165.340    85058585.47949
  22721341.860   119401429.23209  22721343.540    93040070.30047
  24322053.280   127813197.61408  24322060.800    99594702.44745
  21778675.080   114447690.84709  21778676.660    89180014.47048
  22106616.440   116171122.48609  22106617.620    90522995.19147
  24497510.780   128735149.13708  24497520.020   100313074.38645
  21799819.140   114559036.44609  21799820.140    89266885.48547
  20855275.200   109595216.58509  20855277.940    85398881.26549
 15 02 05 14 26 30.0000000  0  9G02G05G07G09G10G13G20G28G30
  23280868.260   122341706.40908  23280872.720    95331176.55146
  20766357.700   109127976.29909  20766357.540    85034803.70249
  22737266.740   119485114.32209  22737268.520    93105279.37447
  24336462.320   127888917.09708  24336469.920    99653704.50845
  21794764.880   114532242.71709  21794766.520    89245898.97148
  22094909.740   116109602.98909  22094910.760    90475057.96247
  24518455.660   128845212.88808  24518465.000   100398837.75445
  21789108.560   114502752.56409  21789109.520    89223028.00147
  20865077.780   109646729.23309  20865080.500    85439020.97149
 15 02 05 14 27  0.0000000  0  9G02G05G07G09G10G13G20G28G30
  23295559.660   122418909.55907  23295564.280    95391334.54145
  20760646.700   109097965.36409  20760646.700    85011418.57249
  22753214.080   119568917.14009  22753215.900    93170580.21047
  24350888.880   127964728.83408  24350896.460    99712778.45445
  21810918.380   114617129.75709  21810920.100    89312044.65348
  22083223.860   116048193.59909  22083224.940    90427206.56047
  24539414.040   128955347.30208  24539423.500   100484656.18245
  21778478.940   114446894.16009  21778479.880    89179502.05547
  20874944.660   109698579.37509  20874947.300    85479423.66049
 15 02 05 14 27 30.0000000  0  9G02G05G07G09G10G13G20G28G30
  23310282.580   122496278.12007  23310287.460    95451621.44446
  20755032.960   109068465.47609  20755033.040    84988431.66149
  22769183.600   119652836.72209  22769185.400    93235971.99047
  24365333.120   128040633.60407  24365340.740    99771924.91445
  21827135.400   114702350.76409  21827137.220    89378450.56548
  22071559.320   115986895.32609  22071560.280    90379441.72147
  24560385.660   129065550.76608  24560395.240   100570528.40345
  21767930.980   114391464.43209  21767931.900    89136310.14847
  20884875.500   109750765.75809  20884878.080    85520088.36049
 15 02 05 14 28  0.0000000  0  9G02G05G07G09G10G13G20G28G30
  23325036.500   122573808.99508  23325041.300    95512034.83045
  20749516.780   109039477.93109  20749516.900    84965843.97349
  22785174.960   119736871.18108  22785176.680    93301453.29947
  24379795.160   128116631.34908  24379802.620    99831143.82545
  21843415.640   114787904.07609  21843417.440    89445115.42248
  22059915.960   115925708.79309  22059916.780    90331763.97847
  24581370.100   129175821.52108  24581379.840   100656453.02446
  21757464.880   114336465.01209  21757465.840    89093453.54947
  20894869.840   109803286.25109  20894872.360    85561013.40549
 15 02 05 14 28 30.0000000  0  9G02G05G07G09G10G13G20G28G30
  23339820.900   122651500.39007  23339825.740    95572573.25045
  20744098.660   109011005.47909  20744098.740    84943657.66549
  22801188.020   119821020.00109  22801189.680    93367023.71647
  24394275.100   128192723.23807  24394282.320    99890436.10645
  21859758.960   114873788.92609  21859760.800    89512038.61848
  22048294.180   115864635.76709  22048294.800    90284174.66047
  24602367.080   129286158.43708  24602377.040   100742429.18646
  21747081.200   114281898.95209  21747082.200    89050934.64248
  20904927.560   109856139.97109  20904930.040    85602198.11049
 15 02 05 14 29  0.0000000  0  9G02G05G07G09G10G13G20G28G30
  23354635.200   122729348.76207  23354640.160    95633233.95745
  20738778.760   108983049.15309  20738778.840    84921873.52949
  22817222.480   119905281.37409  22817224.120    93432681.82847
  24408772.940   128268908.94008  24408779.820    99949801.46545
  21876164.960   114960003.08809  21876167.000    89579218.42748
  22036694.060   115803676.01809  22036694.560    90236673.60847
  24623376.140   129396559.43607  24623386.380   100828455.26146
  21736780.460   114227768.65509  21736781.460    89008755.28447
  20915048.260   109909324.52409  20915050.720    85643640.59849
 15 02 05 14 29 30.0000000  0  9G02G05G07G09G10G13G20G28G30
  23369478.580   122807349.31407  23369483.520    95694013.26744
  20733557.040   108955608.75009  20733557.280    84900491.41249
  22833277.580   119989651.25709  22833279.260    93498424.50847
  24423288.400   128345186.67808  24423295.140   100009238.55344
  21892633.000   115046542.82809  21892635.140    89646651.91948
  22025115.220   115742828.46709  22025115.740    90189260.00947
  24644396.420   129507020.51007  24644407.140   100914528.12746
  21726562.780   114174074.78109  21726563.760    88966915.99647
  20925231.260   109962836.11909  20925233.640    85685337.92149
 15 02 05 14 30  0.0000000  0  9G02G05G07G09G10G13G20G28G30
  23384351.320   122885504.65507  23384356.260    95754913.24145
  20728434.820   108928691.36309  20728435.100    84879516.84549
  22849354.120   120074133.86409  22849355.780    93564255.02147
  24437822.360   128421562.11808  24437828.840   100068751.78345
  21909163.880   115133412.17709  21909165.860    89714342.28448
  22013558.680   115682099.00709  22013559.440    90141938.42647
  24665428.720   129617545.49106  24665440.100   101000650.73745
  21716429.460   114120824.37209  21716430.360    88925422.26647
  20935477.180   110016678.30409  20935479.480    85727292.85549
 15 02 05 14 30 30.0000000  0  9G02G05G07G09G10G13G20G28G30
  23399251.540   122963803.71107  23399256.300    95815925.16744
  20723410.860   108902290.31409  20723411.100    84858944.61149
  22865450.220   120158719.34808  22865451.900    93630165.69447
  24452373.440   128498027.46908  24452379.880   100128335.07745
  21925755.600   115220601.36609  21925757.400    89782281.85948
  22002023.260   115621480.62509  22002023.940    90094703.39147
  24686471.460   129728124.51907  24686483.220   101086815.43845
  21706379.480   114068012.07209  21706380.420    88884269.91548
  20945784.060   110070841.32409  20945786.380    85769497.78149
 15 02 05 14 31  0.0000000  0  9G02G05G07G09G10G13G20G28G30
  23414178.960   123042245.70507  23414183.600    95877048.46844
  20718485.880   108876409.52709  20718486.160    84838777.78349
  22881565.920   120243407.87309  22881567.660    93696156.66847
  24466942.000   128574584.77808  24466948.300   100187990.05745
  21942408.120   115308110.54509  21942409.840    89850470.78048
  21990509.540   115560975.78609  21990510.020    90047556.81847
  24707524.700   129838757.39107  24707536.700   101173022.11145
  21696413.700   114015641.94909  21696414.640    88843462.12347
  20956151.900   110125325.08709  20956154.300    85811952.65249
 15 02 05 14 31 30.0000000  0  9G02G05G07G09G10G13G20G28G30
  23429133.740   123120831.76207  23429138.460    95938284.00744
  20713660.820   108851054.24409  20713661.240    84819020.42149
  22897701.780   120328202.43209  22897703.580    93762230.26247
  24481528.680   128651238.20507  24481535.300   100247719.89545
  21959121.860   115395942.00409  21959123.580    89918910.82548
  21979018.240   115500589.20909  21979019.080    90000502.42147
  24728588.880   129949446.54407  24728600.740   101259272.62745
  21686533.260   113963720.27009  21686534.180    88803003.76448
  20966581.200   110180131.73909  20966583.680    85854659.10149
 15 02 05 14 32  0.0000000  0  9G02G05G07G09G10G13G20G28G30
  23444114.620   123199556.00607  23444119.500    95999627.23844
  20708935.600   108826222.87209  20708935.980    84799671.31449
  22913856.940   120413098.62308  22913858.920    93828383.04447
  24496133.080   128727985.19707  24496139.960   100307522.65245
  21975896.040   115484091.19909  21975897.940    89987598.45648
  21967549.120   115440318.93709  21967550.180    89953538.63647
  24749662.880   130060186.96808  24749674.520   101345563.07245
  21676738.140   113912246.53809  21676738.980    88762894.44748
  20977071.100   110235256.66209  20977073.620    85897613.56149
 15 02 05 14 32 30.0000000  0  8G02G05G07G09G10G13G28G30
  23459121.080   123278413.84107  23459125.980    96061074.54543
  20704310.340   108801915.88409  20704310.480    84780730.82349
  22930030.740   120498093.04908  22930032.940    93894612.37347
  24510755.000   128804824.14408  24510762.180   100367397.05845
  21992730.080   115572554.59709  21992731.980    90056530.92748
  21956101.880   115380163.60509  21956102.720    89906664.41547
  21667028.300   113861221.06609  21667029.060    88723134.43748
  20987620.880   110290696.24509  20987623.440    85940813.20449
 15 02 05 14 33  0.0000000  0  8G02G05G07G09G10G13G28G30
  23474152.820   123357405.04007  23474157.680    96122625.76543
  20699785.600   108778137.16609  20699785.540    84762201.96849
  22946223.440   120583186.64508  22946225.820    93960918.98347
  24525394.860   128881757.81607  24525402.540   100427345.26646
  22009624.000   115661333.06909  22009625.900    90125708.90248
  21944677.080   115320126.55609  21944677.860    89859882.35647
  21657404.640   113810648.73609  21657405.360    88683727.52048
  20998230.700   110346451.15209  20998233.300    85984258.56049
 15 02 05 14 33 30.0000000  0  8G02G05G07G09G10G13G28G30
  23489208.940   123436523.93506  23489213.820    96184276.46544
  20695361.020   108754885.47309  20695360.920    84744083.77849
  22962434.360   120668375.51808  22962436.760    94027299.82947
  24540052.220   128958783.87107  24540060.260   100487365.47446
  22026577.100   115750422.45809  22026579.160    90195129.13948
  21933274.520   115260206.18009  21933275.380    89813191.21148
  21647867.260   113760529.15609  21647867.860    88644673.38648
  21008899.740   110402517.00509  21008902.320    86027946.20049
 15 02 05 14 34  0.0000000  0  8G02G05G07G09G10G13G28G30
  23504289.420   123515771.89006  23504294.540    96246027.72143
  20691037.640   108732166.32909  20691037.580    84726380.56349
  22978663.960   120753662.27208  22978666.360    94093756.96647
  24554727.880   129035906.42807  24554736.280   100547460.83246
  22043589.900   115839824.99209  22043591.940    90264793.39448
  21921895.060   115200407.06609  21921895.980    89766594.56247
  21638417.160   113710868.38209  21638417.660    88605976.77148
  21019628.360   110458895.91809  21019630.880    86071877.78648
 15 02 05 14 34 30.0000000  0  8G02G05G07G09G10G13G28G30
  23519392.740   123595139.17406  23519398.040    96307871.95743
  20686814.500   108709974.35909  20686814.540    84709088.12949
  22994910.620   120839038.58609  22994913.000    94160283.86447
  24569420.740   129113118.82407  24569429.500   100607626.26846
  22060660.640   115929532.01809  22060662.760    90334694.89948
  21910537.620   115140723.26109  21910538.420    89720087.75547
  21629053.480   113661662.16109  21629053.860    88567634.34948
  21030414.860   110515579.20309  21030417.380    86116046.54748
 15 02 05 14 35  0.0000000  0  8G02G05G07G09G10G13G28G30
  23534518.160   123674622.09506  23534523.480    96369806.31345
  20682691.840   108688310.29109  20682691.920    84692207.05049
  23011173.920   120924501.99308  23011176.200    94226878.63447
  24584130.680   129190420.56707  24584139.720   100667861.25946
  22077788.760   116019541.04609  22077790.940    90404831.73248
  21899202.140   115081154.55209  21899202.700    89673670.60148
  21619776.460   113612911.62009  21619776.800    88529646.99748
  21041258.760   110572564.25309  21041261.300    86160450.44549
 15 02 05 14 35 30.0000000  0  8G02G05G07G09G10G13G28G30
  23549666.660   123754226.88106  23549671.980    96431835.55644
  20678671.720   108667184.69909  20678671.800    84675745.56449
  23027455.280   121010060.13708  23027457.420    94293547.23447
  24598859.540   129267820.79407  24598868.560   100728173.05446
  22094975.760   116109859.31209  22094977.920    90475209.53648
  21887890.300   115021710.77309  21887890.860    89627350.83747
  21610588.280   113564627.82909  21610588.740    88492023.34748
  21052161.440   110629858.32109  21052164.060    86205095.13648
 15 02 05 14 36  0.0000000  0  8G02G05G07G09G10G13G28G30
  23564836.360   123833942.67406  23564841.460    96493951.30644
  20674752.800   108646590.71409  20674752.840    84659698.31749
  23043752.820   121095703.17609  23043754.900    94360281.99247
  24613605.580   129345311.57308  24613614.700   100788555.35746
  22112219.860   116200477.00909  22112222.000    90545820.65648
  21876600.800   114962384.48309  21876601.540    89581122.61047
  21601487.700   113516804.59609  21601488.240    88454758.57148
  21063121.020   110687451.25209  21063123.660    86249972.71349
 15 02 05 14 36 30.0000000  0  8G02G05G07G09G10G13G28G30
  23580027.120   123913769.04005  23580032.160    96556153.22344
  20670935.820   108626532.52009  20670935.860    84644068.55949
  23060066.840   121181433.15209  23060068.920    94427084.48447
  24628369.520   129422895.87908  24628378.500   100849010.60346
  22129521.140   116291395.13709  22129523.220    90616665.88148
  21865334.540   114903180.05609  21865335.320    89534989.35247
  21592475.760   113469447.12309  21592476.340    88417856.73248
  21074137.740   110745344.17609  21074140.300    86295084.05149
 15 02 05 14 37  0.0000000  0  8G02G05G07G09G10G13G28G30
  23595238.020   123993702.50505  23595243.240    96618438.62443
  20667221.020   108607010.88509  20667220.980    84628856.91949
  23076396.900   121267247.42408  23076398.980    94493952.66647
  24643151.300   129500573.11008  24643160.180   100909538.23146
  22146879.100   116382611.00509  22146881.120    90687743.10848
  21854091.220   114844096.58309  21854091.920    89488950.33547
  21583552.740   113422556.84109  21583553.400    88381318.92548
  21085211.140   110803534.37909  21085213.500    86340427.03548
 15 02 05 14 37 30.0000000  0  8G02G05G07G09G10G13G28G30
  23610469.100   124073741.52705  23610474.680    96680806.23844
  20663608.800   108588028.06009  20663608.680    84614065.12149
  23092742.940   121353145.60108  23092745.060    94560886.23747
  24657950.980   129578344.76808  24657959.760   100970139.44346
  22164293.680   116474124.33109  22164295.620    90759052.12448
  21842871.220   114785136.04709  21842872.180    89443007.11847
  21574719.180   113376136.63809  21574719.800    88345147.42048
  21096340.960   110862021.22609  21096343.220    86386001.17648
 15 02 05 14 38  0.0000000  0  8G02G05G07G09G10G13G28G30
  23625719.240   124153880.29005  23625725.640    96743251.55443
  20660098.920   108569583.21109  20660098.780    84599692.52049
  23109104.140   121439123.83208  23109106.200    94627882.18847
  24672768.200   129656208.26308  24672776.620   101030812.24045
  22181763.980   116565930.54709  22181765.860    90830589.34948
  21831674.240   114726296.87309  21831675.620    89397158.48047
  21565974.920   113330186.11109  21565975.600    88309341.89948
  21107526.360   110920800.31909  21107528.520    86431803.03648
 15 02 05 14 38 30.0000000  0  8G02G05G07G09G10G13G28G30
  23640988.240   124234118.06005  23640994.940    96805773.96043
  20656691.820   108551679.00909  20656691.760    84585741.19949
  23125480.540   121525182.11208  23125482.580    94694940.49147
  24687603.200   129734165.29808  24687611.380   101091557.87946
  22199289.840   116658029.22709  22199291.760    90902354.46448
  21820500.660   114667581.25509  21820502.440    89351406.12947
  21557320.680   113284708.86909  21557321.540    88273905.17748
  21118767.200   110979871.12709  21118769.340    86477832.21048
 15 02 05 14 39  0.0000000  0  8G02G05G07G09G10G13G28G30
  23656275.100   124314448.74205  23656282.380    96868368.83244
  20653387.200   108534313.53909  20653387.180    84572209.67549
  23141871.320   121611316.32908  23141873.420    94762057.99147
  24702455.480   129812213.24308  24702463.440   101152374.41645
  22216870.400   116750415.83509  22216872.400    90974343.94948
  21809350.480   114608987.46509  21809352.200    89305748.67547
  21548756.400   113239704.07209  21548757.300    88238836.58448
  21130062.640   111039229.17009  21130064.860    86524085.21048
 15 02 05 14 39 30.0000000  0  8G02G05G07G09G10G13G28G30
  23671579.620   124394871.88905  23671586.200    96931035.60343
  20650185.920   108517490.98809  20650185.940    84559101.20449
  23158276.760   121697527.80508  23158278.960    94829235.66446
  24717325.600   129890354.70808  24717333.280   101213263.79645
  22234505.880   116843091.03709  22234507.940    91046558.30447
  21798224.180   114550518.52209  21798225.860    89260188.52347
  21540282.920   113195175.98909  21540283.820    88204139.46248
  21141412.840   111098874.97909  21141415.160    86570562.43948
 15 02 05 14 40  0.0000000  0  7G02G05G07G10G13G28G30
  23686899.880   124475377.64205  23686905.900    96993766.82843
  20647086.840   108501204.97909  20647086.860    84546410.82449
  23174695.160   121783807.54408  23174697.480    94896466.55947
  22252194.680   116936045.89809  22252196.780    91118990.58248
  21787120.520   114492168.09009  21787122.040    89214720.71747
  21531899.220   113151119.43009  21531900.000    88169809.76448
  21152816.060   111158799.52309  21152818.460    86617256.85248
 15 02 05 14 40 30.0000000  0  7G02G05G07G10G13G28G30
  23702237.840   124555976.71705                                
  20644092.760   108485470.55709  20644092.820    84534150.24549
  23191128.960   121870167.93608  23191131.320    94963760.29647
  22269939.060   117029292.34109  22269941.140    91191650.06548
  21776042.100   114433950.53209  21776043.580    89169356.45447
  21523608.080   113107550.11209  21523609.020    88135859.74048
  21164274.580   111219014.52509  21164277.040    86664177.61749
 15 02 05 14 41  0.0000000  0  7G02G05G07G10G13G28G30
  23717590.260   124636651.25705  23717597.280    97119584.65243
  20641200.900   108470273.85609  20641201.060    84522308.67249
  23207574.880   121956592.13308  23207577.260    95031103.72046
  22287735.620   117122813.17709  22287737.740    91264523.34847
  21764986.360   114375851.68509  21764987.680    89124084.67447
  21515407.080   113064454.36209  21515408.100    88102278.71048
  21175785.060   111279502.96309  21175787.660    86711311.42548
 15 02 05 14 41 30.0000000  0  7G02G05G07G10G13G28G30
  23732960.040   124717417.10105  23732966.940    97182518.43443
  20638415.180   108455635.11709  20638415.460    84510901.87749
  23224036.440   122043098.17808  23224038.860    95098510.94646
  22305587.580   117216625.36409  22305589.720    91337623.66548
  21753956.920   114317891.65209  21753958.020    89078921.06747
  21507300.340   113021853.50509  21507301.360    88069083.31948
  21187350.840   111340282.02009  21187353.560    86758671.70348
 15 02 05 14 42  0.0000000  0  7G02G05G07G10G13G28G30
  23748342.260   124798249.22604                                
  20635731.620   108441533.18909  20635731.880    84499913.39149
  23240509.200   122129662.73508  23240511.600    95165963.76647
  22323490.400   117310704.83409  22323492.560    91410932.26648
  21742949.660   114260048.18109  21742950.740    89033848.29247
  21499283.900   112979727.03909  21499284.860    88036257.57348
  21198967.360   111401327.63609  21198970.200    86806239.67549
 15 02 05 14 42 30.0000000  0  7G02G05G07G10G13G28G30
  23763740.060   124879298.01904                                
  20633153.200   108427983.56409  20633153.300    84489355.26349
  23256995.420   122216297.81708  23256997.780    95233471.54846
  22341446.420   117405064.01709  22341448.600    91484458.82047
  21731967.560   114202336.76709  21731968.540    88988878.40847
  21491360.880   112938091.03009  21491361.620    88003813.99348
  21210636.960   111462652.02709  21210639.900    86854024.89148
 15 02 05 14 43  0.0000000  0  6G05G07G10G13G28G30
  20630679.800   108414985.72809  20630679.820    84479227.11049
  23273494.680   122303001.47308  23273497.020    95301032.75646
  22359454.980   117499699.99109  22359457.320    91558201.04348
  21721010.480   114144757.15409  21721011.460    88944011.23947
  21483531.420   112896946.44609  21483532.060    87971753.34248
  21222359.180   111524252.51909  21222362.140    86902025.25748
 15 02 05 14 43 30.0000000  0  6G05G07G10G13G28G30
  20628310.240   108402534.02609  20628310.280    84469524.49449
  23290005.380   122389765.16108  23290007.740    95368640.73147
  22377514.560   117594603.68509  22377516.920    91632151.87948
  21710077.460   114087303.44109  21710078.240    88899242.14347
  21475794.340   112856287.63509  21475794.980    87940071.21348
  21234132.180   111586119.82909  21234135.060    86950233.52148
 15 02 05 14 44  0.0000000  0  6G05G07G10G13G28G30
  20626045.660   108390633.99609  20626045.760    84460251.75349
  23306528.040   122476591.77908  23306530.500    95436297.74246
  22395625.660   117689777.63809  22395628.080    91706313.30948
  21699169.240   114029980.04609  21699169.940    88854574.60147
  21468150.820   112816120.70309  21468151.380    87908772.36048
  21245956.480   111648256.52109  21245959.200    86998651.70948
 15 02 05 14 44 30.0000000  0  6G05G07G10G13G28G30
  20623886.480   108379287.33409  20623886.620    84451410.21549
  23323062.580   122563480.86408  23323065.180    95504003.43846
  22413788.020   117785220.55609  22413790.400    91780684.32848
  21688286.120   113972789.10009  21688286.880    88810010.28747
  21460601.340   112776448.12609  21460601.820    87877858.72748
  21257831.800   111710661.58409  21257834.500    87047279.01448
 15 02 05 14 45  0.0000000  0  6G05G07G10G13G28G30
  20621831.840   108368489.88109  20621831.880    84442996.63149
  23339607.820   122650425.99308  23339610.560    95571752.80147
  22432000.180   117880925.50109  22432002.480    91855259.52448
  21677427.380   113915726.27309  21677428.140    88765545.78347
  21453145.320   112737266.96209  21453145.740    87847328.00348
  21269756.860   111773328.12609  21269759.640    87096110.06548
 15 02 05 14 45 30.0000000  0  6G05G07G10G13G28G30
  20619882.900   108358248.39509  20619882.980    84435016.26749
  23356164.520   122737431.56608  23356167.440    95639549.24947
  22450262.880   117976896.39809  22450265.180    91930041.95548
  21666594.300   113858798.16609  21666594.920    88721186.25747
  21445784.140   112698584.21809  21445784.580    87817185.66948
  21281732.380   111836259.87409  21281735.260    87145147.76948
 15 02 05 14 46  0.0000000  0  6G05G07G10G13G28G30
  20618038.700   108348558.10409  20618038.960    84427465.39749
  23372731.360   122824490.58008  23372734.440    95707387.36647
  22468574.780   118073125.59409  22468577.060    92005025.65847
  21655785.860   113801999.91209  21655786.520    88676927.91947
  21438517.100   112660395.98609  21438517.560    87787428.66648
  21293756.860   111899449.37109  21293759.860    87194386.31148
 15 02 05 14 46 30.0000000  0  6G05G07G10G13G28G30
  20616300.220   108339423.44709  20616300.680    84420347.49249
  23389308.780   122911604.74008  23389311.880    95775268.46247
  22486935.920   118169614.21209  22486938.320    92080211.48547
  21645002.900   113745335.46909  21645003.580    88632773.85747
  21431345.180   112622707.29909  21431345.580    87758060.91848
  21305830.620   111962897.94409  21305833.760    87243826.74148
 15 02 05 14 47  0.0000000  0  6G05G07G10G13G28G30
  20614668.080   108330846.77909  20614668.620    84413664.37549
  23405896.820   122998774.67408  23405899.940    95843192.99747
  22505346.380   118266362.12609  22505348.860    92155599.36447
  21634245.860   113688807.58309  21634246.620    88588726.20147
  21424268.920   112585521.43909  21424269.280    87729084.98448
  21317953.720   112026605.42509  21317956.920    87293468.90448
 15 02 05 14 47 30.0000000  0  6G05G07G10G13G28G30
  20613142.420   108322828.72509  20613142.900    84407416.55549
  23422495.080   123085998.38608  23422498.200    95911159.44847
  22523805.780   118363366.91709  22523808.120    92231187.42747
  21623514.860   113632416.41709  21623515.780    88544785.08247
  21417288.520   112548839.36009  21417288.900    87700501.62248
  21330125.760   112090569.44609  21330128.900    87343310.97948
 15 02 05 14 48  0.0000000  0  6G05G07G10G13G28G30
  20611722.660   108315367.09509  20611723.000    84401602.30649
  23439102.840   123173272.01308  23439105.960    95979164.81447
  22542313.280   118460623.93209  22542315.720    92306972.00747
  21612809.460   113576160.29809  21612810.560    88500949.20447
  21410403.900   112512660.18009  21410404.140    87672310.10848
  21342345.820   112154785.44409  21342348.760    87393349.39448
 15 02 05 14 48 30.0000000  0  7G05G07G10G13G15G28G30
  20610408.960   108308462.90809  20610409.240    84396222.43349
  23455719.740   123260593.82608  23455722.780    96047207.72447
  22560868.380   118558130.67109  22560870.760    92382951.19447
  21602129.920   113520039.83809  21602131.040    88457219.01347
  24567326.320   129102176.26408  24567332.640   100599117.21145
  21403615.180   112476985.07409  21403615.260    87644511.39448
  21354613.420   112219251.25809  21354616.120    87443582.47448
 15 02 05 14 49  0.0000000  0  7G05G07G10G13G15G28G30
  20609203.220   108302126.04809  20609203.360    84391284.62949
  23472347.320   123347972.25408  23472350.380    96115294.76747
  22579472.440   118655894.82809  22579474.900    92459130.94947
  21591478.280   113464065.60209  21591479.540    88413602.79248
  24551126.460   129017046.84408  24551133.060   100532782.74245
  21396924.420   112441825.24809  21396924.540    87617114.19648
  21366930.000   112283974.69409  21366932.560    87494016.30048
 15 02 05 14 49 30.0000000  0  7G05G07G10G13G15G28G30
  20608101.520   108296336.36509  20608101.520    84386773.19649
  23488981.320   123435384.73508  23488984.440    96183408.31946
  22598121.020   118753893.22809  22598123.560    92535493.22447
  21580850.720   113408217.28409  21580852.060    88370084.66848
  24534924.120   128931903.17709  24534930.380   100466437.13645
  21390327.940   112407160.96309  21390328.200    87590103.12548
  21379291.140   112348932.68409  21379293.680    87544632.90148
 15 02 05 14 50  0.0000000  0  7G05G07G10G13G15G28G30
  20607106.160   108291105.61609  20607105.980    84382697.30849
  23505623.720   123522841.21308  23505626.780    96251556.17146
  22616815.880   118852134.93109  22616818.380    92612045.08747
  21570249.360   113352506.48009  21570250.620    88326673.69247
  24518721.420   128846756.86808  24518726.860   100400089.44645
  21383828.160   112373004.77009  21383828.380    87563487.97948
  21391698.600   112414134.30809  21391701.140    87595439.34548
 15 02 05 14 50 30.0000000  0  7G05G07G10G13G15G28G30
  20606216.820   108286432.74909  20606216.740    84379056.12849
  23522273.840   123610338.19308  23522276.940    96319735.57647
  22635556.320   118950616.03809  22635558.760    92688783.49847
  21559674.000   113296932.20209  21559675.040    88283369.10348
  24502517.800   128761606.30908  24502522.980   100333738.48745
  21377424.980   112339355.92409  21377425.140    87537268.15848
  21404151.740   112479575.83309  21404154.240    87646432.72048
 15 02 05 14 51  0.0000000  0  7G05G07G10G13G15G28G30
  20605434.660   108282323.47109  20605434.860    84375854.08949
  23538932.360   123697879.50008  23538935.380    96387949.52946
  22654342.860   119049339.58609  22654345.340    92765710.82747
  21549125.800   113241500.55309  21549126.740    88240175.65448
  24486314.520   128676457.41908  24486319.380   100267388.84445
  21371119.560   112306221.18009  21371119.800    87511448.94148
  21416651.160   112545260.38109  21416653.600    87697615.47148
 15 02 05 14 51 30.0000000  0  7G05G07G10G13G15G28G30
  20604759.820   108278777.65509  20604760.140    84373091.13649
  23555598.920   123785463.17408  23555601.960    96456196.48646
  22673175.000   119148302.66909  22673177.520    92842824.81147
  21538604.620   113186211.50009  21538605.480    88197093.34248
  24470111.500   128591310.16108  24470116.440   100201040.49846
  21364912.100   112273601.13609  21364912.400    87486030.78448
  21429196.280   112611185.36909  21429198.680    87748985.57148
 15 02 05 14 52  0.0000000  0  7G05G07G10G13G15G28G30
  20604191.660   108275792.15109  20604191.980    84370764.77949
  23572272.680   123873084.34608  23572275.640    96524472.65846
  22692051.580   119247499.34609  22692054.000    92920120.82547
  21528110.140   113131062.34909  21528110.880    88154120.02148
  24453908.160   128506161.59707  24453913.180   100134691.15046
  21358802.180   112241493.54509  21358802.460    87461011.95148
  21441786.060   112677345.04409  21441788.520    87800538.55248
 15 02 05 14 52 30.0000000  0  7G05G07G10G13G15G28G30
  20603730.740   108273370.04209  20603730.960    84368877.42449
  23588953.780   123960743.81608  23588956.660    96592778.68146
  22710972.640   119346930.01909  22710975.260    92997599.15247
  21517642.940   113076056.24309  21517643.560    88111258.15948
  24437705.120   128421014.36808  24437710.020   100068342.83046
  21352790.440   112209901.64009  21352790.700    87436394.93848
  21454420.580   112743739.93409  21454423.100    87852274.79748
 15 02 05 14 53  0.0000000  0  7G05G07G10G13G15G28G30
  20603376.760   108271509.53309  20603376.860    84367427.69549
  23605641.480   124048437.94508  23605644.260    96661111.73046
  22729937.500   119446590.70009  22729940.320    93075256.71347
  21507202.600   113021191.75209  21507203.160    88068506.66248
  24421502.120   128335867.14908  24421507.020   100001994.54046
  21346876.640   112178824.70609  21346876.840    87412179.22148
  21467099.120   112810366.10809  21467101.680    87904191.27048
 15 02 05 14 53 30.0000000  0  7G05G07G10G13G15G28G30
  20603130.980   108270217.96409  20603131.080    84366421.28649
  23622336.840   124136172.36008  23622339.700    96729476.14846
  22748946.960   119546485.68209  22748949.800    93153096.84447
  21496790.480   112966476.62509  21496791.200    88025871.55048
  24405300.240   128250727.29007  24405305.320    99935651.99946
  21341062.380   112148270.89709  21341062.560    87388371.13048
  21479822.540   112877228.12909  21479825.180    87956291.52848
 15 02 05 14 54  0.0000000  0  7G05G07G10G13G15G28G30
  20602991.920   108269487.43009  20602992.040    84365852.04249
  23639037.960   124223937.29308  23639040.860    96797864.35846
  22767998.960   119646604.40709  22768001.900    93231111.31147
  21486405.260   112911903.09209  21486406.060    87983346.77048
  24389098.260   128165587.09708  24389103.600    99869309.21946
  21335346.360   112118233.46909  21335346.500    87364965.40348
  21492588.880   112944315.77509  21492591.620    88008567.58448
 15 02 05 14 54 30.0000000  0  7G05G07G10G13G15G28G30
  20602959.740   108269317.86309  20602959.820    84365719.91249
  23655744.620   124311731.05008  23655747.500    96866275.01946
  22787093.120   119746944.23309  22787096.020    93309298.05947
  21476047.180   112857471.66009  21476048.080    87940932.71348
  24372896.540   128080446.71508  24372901.500    99802966.24346
  21329728.640   112088712.40609  21329728.700    87341962.04748
  21505397.640   113011626.43109  21505400.480    88061017.41648
 15 02 05 14 55  0.0000000  0  7G05G07G10G13G15G28G30
  20603035.040   108269713.16009  20603035.020    84366027.95049
  23672457.160   124399555.79908  23672460.000    96934709.83546
  22806229.700   119847506.53609  22806232.420    93387658.18747
  21465717.000   112803186.66809  21465717.960    87898632.77648
  24356695.600   127995310.18708  24356700.160    99736626.28846
  21324210.060   112059712.27709  21324210.100    87319364.60448
  21518249.180   113079161.94009  21518252.100    88113642.45948
 15 02 05 14 55 30.0000000  0  7G05G07G10G13G15G28G30
  20603218.180   108270675.47509  20603218.140    84366777.81449
  23689175.620   124487411.61008  23689178.560    97003168.84146
  22825408.340   119948290.42609  22825410.980    93466190.96947
  21455415.240   112749050.54909  21455416.240    87856448.83048
  24340495.700   127910179.47708  24340500.300    99670290.90346
  21318791.220   112031236.06809  21318791.280    87297175.40548
  21531143.360   113146921.65509  21531146.380    88166442.20248
 15 02 05 14 56  0.0000000  0  7G05G07G10G13G15G28G30
  20603509.320   108272205.50709  20603509.180    84367970.05849
  23705899.940   124575297.86108  23705902.680    97071651.60546
  22844628.820   120049294.72509  22844631.640    93544895.47447
  21445141.900   112695064.45309  21445143.020    87814381.81048
  24324296.960   127825056.00108  24324301.800    99603961.15746
  21313472.400   112003285.41709  21313472.380    87275395.72848
  21544080.000   113214904.28009  21544083.040    88219415.64448
 15 02 05 14 56 30.0000000  0  7G05G07G10G13G15G28G30
  20603907.680   108274299.15809  20603907.560    84369601.47449
  23722628.980   124663208.92708  23722631.660    97140153.68746
  22863890.080   120150512.88209  22863892.920    93623766.64547
  21434896.500   112641225.11709  21434897.660    87772429.15248
  24308099.020   127739936.20508  24308103.840    99537634.22446
  21308252.980   111975857.24009  21308252.900    87254023.16848
  21557057.920   113283103.68909  21557060.900    88272557.99948
 15 02 05 14 57  0.0000000  0  7G05G07G10G13G15G28G30
  20604413.560   108276957.83609  20604413.520    84371673.17349
  23739362.640   124751144.21808  23739365.280    97208674.62146
  22883191.800   120251943.24909  22883194.660    93702803.16947
  21424679.440   112587534.06209  21424680.540    87730592.01448
  24291901.960   127654821.09508  24291906.520    99471310.94746
  21303133.300   111948953.13809  21303133.140    87233058.97348
  21570076.860   113351518.60709  21570079.840    88325868.28448
 15 02 05 14 57 30.0000000  0  7G05G07G10G13G15G28G30
  20605027.660   108280184.57209  20605027.620    84374187.52149
  23756101.260   124839105.46108  23756103.940    97277215.80747
  22902534.020   120353586.62609  22902536.840    93782005.67847
  21414491.380   112533994.94909  21414492.220    87688873.29048
  24275706.520   127569714.72808  24275711.240    99404994.49346
  21298114.120   111922577.02409  21298113.880    87212506.19248
  21583137.040   113420150.10109  21583140.060    88379347.33548
 15 02 05 14 58  0.0000000  0  7G05G07G10G13G15G28G30
  20605749.640   108283978.41109  20605749.560    84377143.75549
  23772844.320   124927089.97808  23772846.840    97345775.12646
  22921916.060   120455439.45009  22921918.800    93861371.38047
  21404332.140   112480607.46709  21404332.800    87647272.71448
  24259512.600   127484615.80608  24259517.260    99338683.81446
  21293195.320   111896728.51409  21293195.060    87192364.52648
  21596237.780   113488994.87509  21596240.840    88432992.58548
 15 02 05 14 58 30.0000000  0  7G05G07G10G13G15G28G30
  20606579.440   108288338.85509  20606579.340    84380541.50449
  23789591.320   125015095.86808  23789593.980    97414351.07446
  22941337.440   120557498.76309  22941340.080    93940897.99647
  21394201.760   112427371.79309  21394202.320    87605790.43848
  24243320.020   127399524.41908  24243324.680    99272379.01346
  21288376.980   111871407.96109  21288376.780    87172634.26448
  21609378.640   113558050.18509  21609381.620    88486801.87848
 15 02 05 14 59  0.0000000  0  7G05G07G10G13G15G28G30
  20607517.280   108293266.93809  20607517.120    84384381.56849
  23806342.320   125103122.46808  23806344.980    97482943.17746
  22960797.800   120659763.20109  22960800.660    94020584.41447
  21384100.540   112374289.27609  21384101.040    87564427.49148
  24227129.180   127314442.32108  24227134.160    99206081.45946
  21283659.420   111846617.15209  21283659.240    87153316.78648
  21622559.360   113627314.98409  21622562.260    88540774.41648
 15 02 05 14 59 30.0000000  0  7G05G07G10G13G15G28G30
  20608563.420   108298764.29609  20608563.340    84388665.22849
  23823097.160   125191169.73608  23823099.700    97551551.38746
  22980297.020   120762231.92809  22980300.080    94100430.03047
  21374028.900   112321362.29309  21374029.300    87523185.74548
  24210940.560   127229371.51008  24210945.800    99139792.69146
  21279043.040   111822358.24309  21279042.860    87134413.77248
  21635779.820   113696788.74909  21635782.680    88594909.79848
 15 02 05 15 00  0.0000000  0  7G05G07G10G13G15G28G30
  20609717.040   108304827.04109  20609717.120    84393389.43749
  23839855.120   125279233.07408  23839857.740    97620172.10846
  22999833.960   120864898.58209  22999836.960    94180429.88247
  21363986.380   112268588.51809  21363986.640    87482063.38748
  24194753.300   127144308.70308  24194758.500    99073510.17946
  21274527.340   111798628.41509  21274527.120    87115923.03548
  21649038.880   113766465.50909  21649041.700    88649203.35648
 15 02 05 15 00 30.0000000  0  7G05G07G10G13G15G28G30
  20610978.880   108311458.23709  20610979.040    84398556.60449
  23856616.440   125367314.04508  23856619.020    97688806.57146
  23019408.720   120967764.11909  23019411.620    94260584.69547
  21353973.560   112215971.04309  21353973.700    87441062.82348
  24178568.320   127059257.62808  24178573.400    99007236.79246
  21270113.120   111775431.83509  21270112.960    87097847.81248
  21662336.820   113836346.61309  21662339.580    88703656.14448
 15 02 05 15 01  0.0000000  0  7G05G07G10G13G15G28G30
  20612348.280   108318654.45909  20612348.460    84404164.05049
  23873380.100   125455407.70708  23873382.600    97757450.92445
  23039020.300   121070822.57509  23039023.060    94340889.84447
  21343989.960   112163507.18109  21343990.160    87400181.95348
  24162385.240   126974215.03708  24162390.240    98940970.02246
  21265799.720   111752765.05909  21265799.640    87080185.42448
  21675672.500   113906426.26109  21675675.320    88758263.64548
 15 02 05 15 01 30.0000000  0  7G05G07G10G13G15G28G30
  20613826.020   108326420.20009  20613826.240    84410215.27549
  23890146.680   125543517.02108  23890149.180    97826107.49846
  23058669.000   121174076.14709  23058671.740    94421347.03247
  21334036.620   112111202.24509  21334036.860    87359424.92148
  24146204.620   126889186.17208  24146209.820    98874713.99346
  21261588.200   111730633.59309  21261588.100    87062940.15948
  21689046.500   113976707.01809  21689049.420    88813027.85648
 15 02 05 15 02  0.0000000  0  7G05G07G10G13G15G28G30
  20615412.380   108334756.87309  20615412.640    84416711.37549
  23906916.300   125631642.57908  23906918.960    97894776.71246
  23078354.480   121277523.99808  23078357.400    94501955.57347
  21324113.920   112059058.50909  21324114.180    87318793.49348
  24130026.880   126804172.98508  24130032.320    98808470.17546
  21257478.820   111709039.59609  21257478.820    87046113.71048
  21702458.740   114047188.26409  21702461.680    88867948.29048
 15 02 05 15 02 30.0000000  0  7G05G07G10G13G15G28G30
  20617106.260   108343658.34809  20617106.520    84423647.58849
  23923687.480   125719776.15508  23923690.240    97963452.18346
  23098075.380   121381157.53609  23098078.380    94582708.82947
  21314220.940   112007070.68709  21314221.140    87278283.57048
  24113851.300   126719169.92808  24113856.760    98742234.23746
  21253470.700   111687977.30309  21253470.680    87029701.56148
  21715907.560   114117861.81409  21715910.500    88923018.57348
 15 02 05 15 03  0.0000000  0  7G05G07G10G13G15G28G30
  20618908.540   108353129.28609  20618908.720    84431027.53549
  23940460.980   125807921.69508  23940463.820    98032136.97446
  23117832.120   121484979.41709  23117834.980    94663608.83947
  21304358.640   111955244.41109  21304358.800    87237899.51848
  24097678.740   126634182.66408  24097684.180    98676010.60846
  21249564.980   111667452.65109  21249564.940    87013708.37048
  21729393.520   114188730.65509  21729396.440    88978241.03648
 15 02 05 15 03 30.0000000  0  7G05G07G10G13G15G28G30
  20620818.900   108363168.16109  20620819.040    84438850.02349
  23957236.340   125896076.45008  23957239.040    98100828.97945
  23137623.980   121588985.53909  23137626.700    94744652.42747
  21294526.920   111903578.78109  21294527.020    87197640.64548
  24081508.980   126549209.83608  24081514.220    98609798.22247
  21245761.300   111647464.16209  21245761.200    86998132.96948
  21742915.920   114259791.15509  21742918.820    89033612.83348
 15 02 05 15 04  0.0000000  0  7G05G07G10G13G15G28G30
  20622836.720   108373772.04509  20622836.940    84447112.78049
  23974012.680   125984236.51408  23974015.560    98169525.06346
  23157449.960   121693171.08409  23157452.780    94825835.79847
  21284725.640   111852072.38909  21284725.640    87157505.84748
  24065341.700   126464249.92808  24065346.500    98543595.88646
  21242059.380   111628010.63509  21242059.280    86982974.42748
  21756473.940   114331038.89409  21756476.780    89089130.55248
 15 02 05 15 04 30.0000000  0  7G05G07G10G13G15G28G30
  20624963.260   108384947.53209  20624963.580    84455820.93549
  23990791.020   126072406.92908  23990793.840    98238229.26445
  23177310.760   121797540.14209  23177313.780    94907162.15547
  21274955.920   111800732.46609  21274955.980    87117500.79048
  24049177.920   126379309.78408  24049182.640    98477408.96646
  21238460.580   111609098.87209  21238460.500    86968238.02848
  21770068.400   114402478.14509  21770071.180    89144797.49948
 15 02 05 15 05  0.0000000  0  7G05G07G10G13G15G28G30
  20627198.140   108396691.58309  20627198.280    84464972.14549
  24007570.620   126160583.85208  24007573.680    98306938.50745
  23197205.580   121902087.80409  23197208.780    94988627.69647
  21265217.500   111749556.88909  21265217.580    87077623.77948
  24033017.420   126294387.47808  24033022.480    98411235.95947
  21234964.420   111590726.56109  21234964.340    86953921.98948
  21783698.420   114474104.51009  21783701.240    89200610.24348
 15 02 05 15 05 30.0000000  0  7G05G07G10G13G15G28G30
  20629540.680   108409000.94109  20629540.660    84474563.84549
  24024350.720   126248763.21008  24024353.780    98375649.68846
  23217133.380   122006808.71909  23217136.740    95070228.22447
  21255510.020   111698543.95809  21255510.160    87037873.50448
  24016859.980   126209480.69308  24016865.280    98345075.04346
  21231570.420   111572891.48509  21231570.420    86940024.57348
  21797363.080   114545913.00909  21797366.020    89256564.91948
 15 02 05 15 06  0.0000000  0  7G05G07G10G13G15G28G30
  20631991.620   108421880.24009  20631991.520    84484599.65249
  24041131.900   126336948.18608  24041135.060    98444365.21745
  23237094.580   122111704.93909  23237098.020    95151965.35547
  21245834.400   111647698.57609  21245834.560    86998253.79248
  24000706.520   126124594.67508  24000711.580    98278930.27346
  21228279.500   111555598.62209  21228279.680    86926549.65348
  21811062.880   114617906.21409  21811065.900    89312663.53148
 15 02 05 15 06 30.0000000  0  7G05G07G10G13G15G28G30
  20634550.280   108435326.01209  20634550.240    84495076.86349
  24057913.260   126425134.19808  24057916.380    98513081.55445
  23257088.000   122216770.64209  23257091.460    95233834.54547
  21236190.320   111597018.69909  21236190.360    86958763.03148
  23984556.400   126039726.51708  23984561.320    98212799.42946
  21225091.220   111538844.99909  21225091.540    86913494.93148
  21824796.800   114690078.88209  21824799.840    89368901.96348
 15 02 05 15 07  0.0000000  0  7G05G07G10G13G15G28G30
  20637217.220   108449340.91909  20637217.240    84505997.56149
  24074695.140   126513322.87908  24074698.000    98581799.97245
  23277113.820   122322006.45309  23277117.340    95315836.27946
  21226578.440   111546508.03309  21226578.440    86919404.13548
  23968410.580   125954879.95208  23968415.220    98146685.39446
  21222006.300   111522634.15009  21222006.680    86900863.14148
  21838565.100   114762432.00209  21838568.140    89425281.02448
 15 02 05 15 07 30.0000000  0  7G05G07G10G13G15G28G30
  20639991.680   108463920.87809  20639991.780    84517358.55849
  24091476.680   126601509.81808  24091479.340    98650517.04745
  23297171.040   122427406.97508  23297174.500    95397966.37246
  21216998.340   111496164.09509  21216998.280    86880175.15748
  23952268.180   125870052.37408  23952273.040    98080586.17946
  21219024.260   111506963.31909  21219024.540    86888652.14748
  21852366.740   114834960.37309  21852369.880    89481796.64248
 15 02 05 15 08  0.0000000  0  7G05G07G10G13G15G28G30
  20642874.460   108479070.26509  20642874.620    84529163.26749
  24108258.600   126689698.43808  24108261.060    98719235.44446
  23317259.960   122532974.11108  23317263.460    95480226.26547
  21207451.040   111445992.61309  21207450.940    86841080.56048
  23936130.320   125785249.14708  23936135.280    98014505.93746
  21216145.920   111491837.29309  21216146.100    86876865.67448
  21866202.220   114907666.43209  21866205.420    89538450.72848
 15 02 05 15 08 30.0000000  0  7G05G07G10G13G15G28G30
  20645864.540   108494783.79309  20645864.820    84541407.55449
  24125039.440   126777881.88508  24125041.900    98787949.80446
  23337379.100   122638699.96508  23337382.680    95562609.82046
  21197935.500   111395988.59909  21197935.380    86802116.44648
  23919996.280   125700465.19008  23920000.980    97948440.68846
  21213370.360   111477251.21409  21213370.400    86865499.93648
  21880070.180   114980543.03209  21880073.400    89595237.67748
 15 02 05 15 09  0.0000000  0  7G05G07G10G13G15G28G30
  20648962.760   108511065.29909  20648963.120    84554094.44049
  24141819.960   126866063.50608  24141822.360    98856662.80145
  23357528.920   122744587.06608  23357532.420    95645119.04946
  21188452.820   111346157.38909  21188452.720    86763286.99748
  23903866.900   125615706.06908  23903871.580    97882394.80846
  21210698.520   111463209.98009  21210698.360    86854558.75748
  21893971.100   115053592.73909  21893974.280    89652159.52948
 15 02 05 15 09 30.0000000  0  7G05G07G10G13G15G28G30
  20652168.600   108527912.09409  20652169.040    84567221.80049
  24158599.480   126954240.20008  24158601.580    98925371.88645
  23377708.560   122850630.49009  23377712.060    95727750.07346
  21179002.900   111296497.95309  21179002.780    86724591.38848
  23887742.080   125530970.04308  23887746.580    97816366.91446
  21208129.980   111449711.62809  21208129.680    86844040.59848
  21907904.120   115126811.35309  21907907.240    89709212.99248
 15 02 05 15 10  0.0000000  0  7G05G07G10G13G15G28G30
  20655482.340   108545325.70009  20655482.740    84580790.84349
  24175378.020   127042412.34108  24175380.160    98994077.43445
  23397917.900   122956829.88509  23397921.360    95810502.62347
  21169586.280   111247013.30209  21169586.120    86686031.97748
  23871622.300   125446259.72808  23871626.480    97750359.03846
  21205665.080   111436758.41009  21205664.740    86833947.23248
  21921869.260   115200198.87009  21921872.280    89766398.06848
 15 02 05 15 10 30.0000000  0  7G05G07G10G13G15G28G30
  20658903.500   108563303.87509  20658903.840    84594799.79749
  24192155.120   127130576.98308  24192157.300    99062777.16745
  23418156.140   123063180.93609  23418159.480    95893373.36946
  21160202.600   111197702.09609  21160202.480    86647607.71248
  23855507.240   125361573.95108  23855511.240    97684370.27946
  21203303.480   111424348.73509  21203303.180    86824277.39748
  21935865.840   115273751.57309  21935868.800    89823711.84848
 15 02 05 15 11  0.0000000  0  7G05G07G10G13G15G28G30
  20662432.600   108581848.94509  20662432.800    84609250.50149
  24208931.020   127218735.50508  24208933.460    99131472.12446
  23438423.200   123169683.98808  23438426.480    95976362.54446
  21150852.520   111148567.85809  21150852.440    86609321.35848
  23839397.480   125276916.15808  23839401.300    97618403.37646
  21201045.840   111412485.61609  21201045.660    86815033.45548
  21949894.000   115347470.19309  21949897.000    89881154.92148
 15 02 05 15 11 30.0000000  0  7G05G07G10G13G15G28G30
  20666069.300   108600959.32809  20666069.380    84624141.69849
  24225705.400   127306885.98208  24225707.760    99200160.83445
  23458718.400   123276335.60308  23458721.780    96059467.47546
  21141536.160   111099610.66509  21141536.220    86571172.95248
  23823293.060   125192286.24508  23823296.640    97552458.17146
  21198892.140   111401168.33009  21198891.920    86806214.82548
  21963953.220   115421351.83209  21963956.220    89938725.00748
 15 02 05 15 12  0.0000000  0  7G05G07G10G13G15G28G30
  20669813.640   108620635.70509  20669813.680    84639473.93449
  24242478.140   127395028.09508  24242480.500    99268843.01345
  23479041.580   123383134.23509  23479045.200    96142686.94746
  21132253.880   111050832.44109  21132254.020    86533164.00548
  23807193.900   125107685.42108  23807197.360    97486535.66646
  21196842.620   111390397.74609  21196842.260    86797822.20148
  21978043.280   115495395.58909  21978046.260    89996421.41848
 15 02 05 15 12 30.0000000  0  7G05G07G10G13G15G28G30
  20673665.420   108640877.03209  20673665.460    84655246.39249
  24259248.940   127483160.29008  24259251.440    99337517.45445
  23499392.340   123490077.08209  23499396.140    96226018.80846
  21123005.720   111002233.57109  21123005.980    86495294.81348
  23791100.300   125023114.27708  23791103.700    97420636.29746
  21194897.140   111380173.82209  21194896.640    86789855.55448
  21992163.780   115569599.08109  21992166.680    90054242.29648
 15 02 05 15 13  0.0000000  0  7G05G07G10G13G15G28G30
  20677624.280   108661681.22109  20677624.400    84671457.44949
  24276017.460   127571280.16908  24276020.180    99406182.29145
  23519769.840   123597160.65208  23519773.820    96309460.31046
  21113791.580   110953813.70009  21113791.900    86457565.09348
  23775012.400   124938572.36508  23775015.820    97354759.67246
  21193055.420   111370495.48109  21193054.920    86782314.03148
  22006314.100   115643959.28109  22006316.920    90112185.29348
 15 02 05 15 13 30.0000000  0  7G05G07G10G13G15G28G30
  20681690.540   108683049.51409  20681690.620    84688108.05949
  24292783.820   127659388.43008  24292786.620    99474838.12145
  23540173.940   123704384.27808  23540178.160    96393010.93546
  21104612.180   110905575.87509  21104612.400    86419977.22848
  23758930.360   124854062.07208  23758933.940    97288907.71946
  21191317.860   111361364.88109  21191317.340    86775199.31648
  22020494.240   115718476.16209  22020497.040    90170250.37048
 15 02 05 15 14  0.0000000  0  7G05G07G10G13G15G28G30
  20685863.680   108704979.50809  20685863.640    84705196.36149
  24309547.400   127747481.91608  24309550.300    99543482.39645
  23560603.840   123811743.73808  23560608.220    96476667.41746
  21095467.220   110857518.79309  21095467.400    86382530.20348
  23742854.220   124769582.46108  23742857.640    97223079.66046
  21189684.160   111352780.10509  21189683.660    86768509.93048
  22034703.460   115793145.97309  22034706.300    90228434.62448
 15 02 05 15 14 30.0000000  0  7G05G07G10G13G15G28G30
  20690144.160   108727473.52209  20690144.160    84722724.14849
  24326308.520   127835562.37708  24326311.680    99612116.51445
  23581059.760   123919239.50108  23581064.140    96560430.08946
  21086357.440   110809646.63409  21086357.640    86345227.28548
  23726784.520   124685137.26708  23726787.840    97157278.41946
  21188154.940   111344744.40409  21188154.500    86762248.38848
  22048942.000   115867969.82909  22048944.860    90286738.91848
 15 02 05 15 15  0.0000000  0  7G05G07G10G13G15G28G30
  20694530.860   108750526.40809  20694530.960    84740687.42449
  24343066.220   127923624.44908  24343069.420    99680736.33246
  23601540.360   124026864.64308  23601544.740    96644293.56646
  21077282.080   110761955.54009  21077282.360    86308065.45748
  23710720.700   124600722.38808  23710723.800    97091500.76146
  21186729.340   111337253.26209  21186728.940    86756411.17148
  22063208.600   115942941.22609  22063211.460    90345158.17648
 15 02 05 15 15 30.0000000  0  7G05G07G10G13G15G28G30
  20699024.760   108774142.62709  20699025.060    84759089.65449
  24359821.140   128011672.09808  24359824.180    99749344.91045
  23622046.060   124134621.74608  23622050.520    96728259.87646
  21068242.340   110714451.74809  21068242.480    86271049.57948
  23694663.940   124516343.91808  23694667.220    97025751.46346
  21185408.300   111330311.56809  21185407.960    86751002.11448
  22077503.900   116018063.37709  22077506.820    90403694.90048
 15 02 05 15 16  0.0000000  0  7G05G07G10G13G15G28G30
  20703626.040   108798322.33309  20703626.320    84777930.96449
  24376573.160   128099705.00908  24376576.240    99817941.97045
  23642576.480   124242509.56908  23642581.100    96812328.02046
  21059238.640   110667137.15909  21059238.700    86234181.13748
  23678614.300   124432003.46208  23678617.680    96960031.81246
  21184192.020   111323920.33309  21184191.740    86746021.97048
  22091827.760   116093335.51209  22091830.700    90462348.49848
 15 02 05 15 16 30.0000000  0  7G05G07G10G13G15G28G30
  20708333.440   108823059.27709  20708333.520    84797206.49949
  24393321.180   128187716.82408  24393324.160    99886522.64145
  23663130.300   124350520.28308  23663135.140    96896491.92746
  21050270.160   110620007.27309  21050270.220    86197456.62148
  23662571.140   124347696.41309  23662574.160    96894338.13746
  21183079.520   111318074.00909  21183079.240    86741466.43448
  22106178.780   116168750.34209  22106181.700    90521113.29048
 15 02 05 15 17  0.0000000  0  7G05G07G10G13G15G28G30
  20713147.260   108848355.42009  20713147.180    84816917.75949
  24410065.480   128275708.89508  24410068.640    99955087.88646
  23683707.580   124458653.62608  23683712.500    96980751.35346
  21041337.420   110573065.53409  21041337.480    86160878.70348
  23646534.980   124263426.22808  23646537.680    96828673.20746
  21182071.160   111312775.32009  21182070.940    86737337.62048
  22120557.060   116244308.51909  22120559.880    90579989.77148
 15 02 05 15 17 30.0000000  0  7G05G07G10G13G15G28G30
  20718066.880   108874207.97209  20718066.700    84837062.59949
  24426805.500   128363678.23608  24426808.560   100023635.44545
  23704307.560   124566905.27308  23704312.380    97065102.99946
  21032440.340   110526311.21509  21032440.380    86124446.83848
  23630505.580   124179191.76208  23630508.300    96763036.12646
  21181166.620   111308022.54209  21181166.480    86733634.20048
  22134961.940   116320006.47509  22134964.600    90638975.17348
 15 02 05 15 18  0.0000000  0  7G05G07G10G13G15G28G30
  20723093.520   108900623.99509  20723093.620    84857646.48049
  24443542.420   128451631.09508  24443545.300   100092170.19946
  23724931.040   124675280.53708  23724935.660    97149550.95446
  21023580.440   110479752.41609  21023580.440    86088167.31848
  23614484.400   124095000.88608  23614487.220    96697433.01446
  21180367.300   111303822.63409  21180367.220    86730361.58548
  22149394.440   116395849.60109  22149397.000    90698073.71048
 15 02 05 15 18 30.0000000  0  7G05G07G10G13G15G28G30
  20728225.860   108927595.00209  20728226.100    84878662.83949
  24460274.660   128539559.89308  24460277.540   100160686.15246
  23745576.220   124783769.90808  23745580.740    97234087.81946
  21014756.660   110433383.46409  21014756.640    86052035.73348
  23598470.460   124010847.94308  23598473.300    96631859.45946
  21179671.900   111300168.81009  21179671.760    86727514.50348
  22163852.980   116471829.37309  22163855.440    90757278.72848
 15 02 05 15 19  0.0000000  0  7G05G07G10G13G15G28G30
  20733464.080   108955122.07109  20733464.440    84900112.48649
  24477002.360   128627464.86308  24477005.360   100229183.57845
  23766242.960   124892372.65809  23766247.480    97318713.02746
  21005969.500   110387206.88209  21005969.420    86016054.03848
  23582464.320   123926735.20708  23582467.020    96566317.21046
  21179080.740   111297062.39909  21179080.540    86725093.96348
  22178337.440   116547945.46409  22178339.860    90816589.96848
 15 02 05 15 19 30.0000000  0  7G05G07G10G13G15G28G30
  20738808.520   108983206.97209  20738808.900    84921996.81249
  24493725.860   128715347.71108  24493729.140   100297663.76146
  23786931.280   125001088.94409  23786935.740    97403426.70746
  20997219.680   110341226.29109  20997219.540    85980225.05548
  23566466.400   123842666.09008  23566469.100    96500808.96546
  21178594.300   111294505.95809  21178594.000    86723101.97248
  22192848.040   116624198.95309  22192850.400    90876008.27148
 15 02 05 15 20  0.0000000  0  7G05G07G10G13G15G28G30
  20744258.860   109011848.61209  20744259.200    84944314.95649
  24510444.760   128803206.90908  24510448.120   100366125.48445
  23807640.620   125109916.04908  23807645.100    97488226.72746
  20988507.220   110295442.09409  20988507.120    85944549.12148
  23550476.840   123758641.29208  23550479.700    96435335.25446
  21178212.380   111292498.86309  21178212.020    86721538.05148
  22207384.280   116700587.33709  22207386.620    90935531.69948
 15 02 05 15 20 30.0000000  0  6G05G10G13G15G28G30
  20749812.860   109041035.39209  20749813.160    84967057.88649
  23828368.580   125218841.01108  23828373.040    97573103.00246
  20979830.380   110249845.17909  20979830.280    85909019.11248
  23534493.700   123674650.57808  23534496.580    96369888.10847
  21177933.060   111291030.77909  21177932.640    86720394.13748
  22221943.860   116777098.53509  22221946.260    90995150.81748
 15 02 05 15 21  0.0000000  0  6G05G10G13G15G28G30
  20755473.540   109070782.46609  20755473.760    84990237.41549
  23849117.840   125327877.53708  23849122.280    97658066.19546
  20971192.380   110204452.51109  20971192.220    85873648.25148
  23518520.520   123590711.88308  23518523.540    96304481.47847
  21177759.200   111290117.40709  21177758.760    86719682.46848
  22236529.600   116853747.00309  22236532.040    91054876.90048
 15 02 05 15 21 30.0000000  0  6G05G10G13G15G28G30
  20761239.660   109101083.36309  20761239.940    85013848.48349
  23869886.820   125437017.73108  23869891.160    97743110.16845
  20962592.300   110159259.59709  20962592.180    85838433.05348
  23502556.220   123506819.67209  23502559.280    96239111.07546
  21177689.780   111289752.91809  21177689.340    86719398.49948
  22251140.040   116930525.42809  22251142.540    91114704.25048
 15 02 05 15 22  0.0000000  0  6G05G10G13G15G28G30
  20767110.920   109131936.43109  20767111.100    85037889.82049
  23890674.760   125546258.23408  23890679.180    97828232.29645
  20954030.400   110114266.97909  20954030.280    85803373.92448
  23486601.020   123422974.25908  23486603.620    96173777.11946
  21177724.640   111289936.35009  21177724.140    86719541.48048
  22265774.680   117007431.17809  22265777.240    91174630.81848
 15 02 05 15 22 30.0000000  0  6G05G10G13G15G28G30
  20773087.460   109163343.03209  20773087.540    85062362.48849
  23911481.660   125655599.08208  23911486.320    97913432.59646
  20945507.260   110069477.71309  20945507.100    85768473.24848
  23470655.220   123339178.99308  23470657.620    96108482.25946
  21177864.180   111290669.81309  21177863.640    86720113.06248
  22280433.640   117084464.92909  22280436.260    91234657.12648
 15 02 05 15 23  0.0000000  0  6G05G10G13G15G28G30
  20779168.320   109195297.98809  20779168.420    85087262.43549
  23932306.540   125765033.91608  23932311.540    97998706.12746
  20937022.260   110024888.81309  20937021.980    85733728.69248
  23454718.340   123255430.94608  23454720.580    96043224.20546
  21178107.600   111291948.89709  21178107.000    86721109.79748
  22295115.840   117161620.94209  22295118.560    91294778.69848
 15 02 05 15 23 30.0000000  0  6G05G10G13G15G28G30
  20785353.740   109227802.38209  20785353.840    85112590.51449
  23953149.340   125874562.46308  23953154.620    98084052.67446
  20928576.000   109980503.61209  20928575.660    85699142.86648
  23438790.960   123171732.68708  23438792.900    95978004.93846
  21178455.200   111293775.37409  21178454.500    86722533.06348
  22309821.440   117238899.55209  22309824.160    91354995.79748
 15 02 05 15 24  0.0000000  0  6G05G10G13G15G28G30
  20791643.740   109260856.36609  20791643.860    85138346.85949
  23974009.580   125984182.46608  23974015.080    98169470.47546
  20920168.640   109936323.16009  20920168.380    85664716.60148
  23422873.320   123088085.54708  23422875.400    95912825.53547
  21178906.900   111296149.11509  21178906.120    86724382.77748
  22324550.140   117316299.36909  22324552.880    91415307.36348
 15 02 05 15 24 30.0000000  0  6G05G10G13G15G28G30
  20798037.640   109294456.47409  20798037.800    85164528.73949
  23994886.660   126093890.73008  23994892.400    98254957.05546
  20911800.320   109892348.00109  20911800.140    85630450.29848
  23406965.400   123004489.85908  23406967.760    95847686.24247
  21179462.580   111299069.33909  21179461.740    86726658.30848
  22339301.460   117393817.98109  22339304.200    91475711.47948
 15 02 05 15 25  0.0000000  0  6G05G10G13G15G28G30
  20804535.260   109328601.48809  20804535.360    85191135.24349
  24015779.900   126203684.07308  24015785.800    98340509.93146
  20903471.080   109848578.43709  20903470.960    85596344.20448
  23391067.320   122920945.55008  23391069.660    95782586.96547
  21180121.900   111302534.46709  21180121.140    86729358.45548
  22354074.920   117471452.86209  22354077.680    91536206.21248
 15 02 05 15 25 30.0000000  0  6G05G10G13G15G28G30
  20811136.960   109363293.60509  20811137.060    85218168.05149
  24036689.580   126313563.37608  24036695.480    98426129.80246
  20895181.800   109805018.82809  20895181.860    85562401.69748
  23375179.920   122837456.95908  23375182.160    95717531.10047
  21180885.520   111306547.60609  21180884.820    86732485.61848
  22368870.780   117549205.54109  22368873.580    91596792.71348
 15 02 05 15 26  0.0000000  0  6G05G10G13G15G28G30
  20817841.980   109398528.96209  20817842.180    85245624.15749
  24057614.640   126423523.52908  24057620.640    98511812.66446
  20886932.140   109761667.48709  20886932.320    85528621.48848
  23359302.840   122754022.63808  23359305.000    95652517.52647
  21181752.820   111311105.50909  21181752.140    86736037.26548
  22383688.220   117627071.65909  22383691.060    91657467.61848
 15 02 05 15 26 30.0000000  0  6G05G10G13G15G28G30
  20824650.420   109434308.16809  20824650.780    85273504.04649
  24078554.840   126533563.66508  24078561.080    98597557.83146
  20878722.740   109718527.19809  20878722.880    85495005.72048
  23343436.500   122670644.30309  23343438.700    95587547.56747
  21182724.040   111316209.35409  21182723.300    86740014.33648
  22398527.220   117705051.16409  22398530.100    91718230.87748
 15 02 05 15 27  0.0000000  0  6G05G10G13G15G28G30
  20831562.360   109470631.22809  20831562.780    85301807.71749
  24099510.060   126643682.81508  24099516.500    98683364.57046
  20870553.900   109675600.08709  20870554.080    85461556.07848
  23327581.240   122587324.55208  23327583.420    95522623.25547
  21183799.300   111321859.99909  21183798.520    86744417.47948
  22413387.680   117783143.80309  22413390.640    91779082.28248
 15 02 05 15 27 30.0000000  0  6G05G10G13G15G28G30
  20838577.460   109507496.32709  20838577.900    85330533.75749
  24120479.780   126753877.93708  24120486.340    98769230.49546
  20862425.880   109632887.10709  20862426.040    85428273.28548
  23311737.200   122504064.03008  23311739.180    95457745.08847
  21184978.360   111328056.55809  21184977.640    86749246.01848
  22428269.220   117861347.30709  22428272.240    91840020.07348
 15 02 05 15 28  0.0000000  0  6G05G10G13G15G28G30
  20845695.540   109544902.20009  20845696.060    85359681.17549
  24141463.540   126864146.90508  24141470.280    98855153.98245
  20854338.840   109590389.35409  20854338.900    85395158.20848
  23295904.560   122420863.77008  23295906.580    95392913.87747
  21186261.200   111334798.34609  21186260.540    86754499.40648
  22443171.580   117939660.14709  22443174.740    91901043.06448
 15 02 05 15 28 30.0000000  0  6G05G10G13G15G28G30
  20852916.460   109582847.84209  20852917.000    85389249.20149
  24162460.940   126974487.30808  24162467.740    98941133.11545
  20846293.060   109548107.95609  20846292.940    85362211.71448
  23280083.460   122337724.87409  23280085.580    95328130.49746
  21187647.740   111342084.93909  21187647.120    86760177.33048
  22458094.460   118018080.83109  22458097.760    91962150.08248
 15 02 05 15 29  0.0000000  0  6G05G10G13G15G28G30
  20860239.520   109621330.46109  20860240.020    85419235.64349
  24183471.060   127084894.79108  24183477.940    99027164.49445
  20838288.380   109506042.16909  20838288.000    85329433.23648
  23264273.980   122254646.44709  23264276.200    95263394.21447
  21189137.500   111349914.05109  21189136.880    86766277.98648
  22473037.240   118096605.83009  22473040.600    92023338.36848
 15 02 05 15 29 30.0000000  0  6G05G10G13G15G28G30
  20867664.340   109660347.48409  20867664.640    85449638.52249
  24204493.520   127195366.61208  24204500.380    99113246.01745
  20830324.740   109464192.64309  20830324.200    85296823.28148
  23248476.240   122171629.02009  23248478.640    95198705.46647
  21190730.260   111358284.60509  21190729.680    86772800.56348
  22487999.500   118175233.06609  22488002.920    92084606.34448
 15 02 05 15 30  0.0000000  0  6G05G10G13G15G28G30
  20875190.960   109699900.12809  20875191.320    85480458.75049
  24225528.180   127305902.70908  24225535.080    99199377.62346
  20822402.940   109422562.77309  20822402.200    85264384.48748
  23232690.740   122088675.88408  23232693.000    95134066.81847
  21192426.440   111367198.58509  21192425.840    86779746.58148
  22502981.440   118253963.30909  22502984.800    92145954.56748
 15 02 05 15 30 30.0000000  0  6G05G10G13G15G28G30
  20882819.320   109739987.78809  20882819.680    85511695.87949
  24246574.660   127416500.95108  24246581.640    99285557.62346
  20814523.280   109381154.06009  20814522.320    85232118.02148
  23216917.700   122005788.08309  23216919.800    95069479.10547
  21194225.980   111376655.20009  21194225.340    86787115.44648
  22517982.740   118332795.12309  22517986.040    92207381.95748
 15 02 05 15 31  0.0000000  0  6G05G10G13G15G28G30
  20890549.080   109780608.30309  20890549.540    85543348.20849
  24267632.420   127527158.24508  24267639.480    99371783.64646
  20806685.760   109339967.16509  20806684.680    85200024.39648
  23201157.240   121922966.52509  23201159.120    95004942.99447
  21196128.560   111386653.08909  21196127.800    86794906.06848
  22533002.940   118411726.42909  22533006.160    92268886.84648
 15 02 05 15 31 30.0000000  0  6G05G10G13G15G28G30
  20898380.260   109821762.19909  20898380.860    85575416.15049
  24288701.320   127637874.03608  24288708.380    99458055.25046
  20798890.920   109299004.96209  20798889.800    85168105.86448
  23185409.720   121840213.73708  23185411.360    94940460.48247
  21198134.480   111397193.65709  21198133.540    86803119.55748
  22548042.120   118490757.52209  22548045.220    92330469.51648
 15 02 05 15 32  0.0000000  0  6G05G10G13G15G28G30
  20906311.820   109863442.97009  20906312.540    85607894.64749
  24309780.060   127748641.31908  24309787.140    99544366.97046
  20791138.040   109258263.73709  20791136.960    85136359.52448
  23169674.580   121757526.11108  23169676.360    94876028.75247
  21200242.600   111408271.56909  21200241.580    86811751.75648
  22563099.100   118569882.12109  22563102.000    92392125.03948
 15 02 05 15 32 30.0000000  0  6G05G10G13G15G28G30
  20914344.480   109905654.69909  20914345.180    85640786.88949
  24330869.140   127859462.77508  24330876.340    99630720.90846
  20783428.460   109217749.98309  20783427.380    85104790.43348
  23153952.940   121674909.82808  23153954.880    94811652.60847
  21202453.740   111419891.08809  21202452.720    86820805.99648
  22578174.560   118649103.66409  22578177.280    92453856.11647
 15 02 05 15 33  0.0000000  0  6G05G10G13G15G28G30
  20922478.440   109948398.11209  20922478.920    85674093.43849
  24351968.420   127970338.17708  24351975.780    99717116.86446
  20775762.860   109177467.04909  20775761.720    85073401.19548
  23138245.480   121592368.23409  23138247.620    94747334.67147
  21204768.220   111432053.79209  21204767.200    86830283.48148
  22593268.620   118728422.94609  22593271.200    92515663.35148
 15 02 05 15 33 30.0000000  0  6G05G10G13G15G28G30
  20930711.580   109991662.90609  20930711.940    85707806.24849
  24373075.820   128081256.47408  24373083.380    99803546.22046
  20768139.740   109137407.42709  20768138.560    85042185.96048
  23122551.000   121509893.74509  23122553.140    94683068.98947
  21207184.320   111444750.42809  21207183.280    86840177.01648
  22608379.340   118807829.83809  22608381.780    92577538.87147
 15 02 05 15 34  0.0000000  0  6G05G10G13G15G28G30
  20939045.240   110035455.96209  20939045.300    85741930.70149
  24394192.480   128192223.53908  24394200.300    99890013.58146
  20760560.880   109097580.53009  20760559.760    85011152.06648
  23106870.960   121427495.50308  23106873.260    94618862.75147
  21209703.440   111457988.07509  21209702.320    86850492.11348
  22623507.980   118887330.79109  22623510.300    92639487.66647
 15 02 05 15 34 30.0000000  0  6G05G10G13G15G28G30
  20947478.440   110079772.69509  20947478.480    85776463.19849
  24415317.460   128303234.26708  24415325.420    99976514.96146
  20753025.900   109057984.52409  20753024.860    84980298.08648
  23091205.140   121345171.86709  23091207.280    94554714.61947
  21212324.900   111471763.10209  21212323.560    86861225.94848
  22638653.660   118966921.47009  22638655.780    92701506.37947
 15 02 05 15 35  0.0000000  0  6G05G10G13G15G28G30
  20956010.420   110124608.64209  20956010.460    85811400.27949
  24436449.600   128414282.70408  24436457.620   100063045.73145
  20745534.420   109018617.20309  20745533.540    84949622.30948
  23075553.100   121262920.35408  23075555.040    94490622.68947
  21215047.780   111486071.46809  21215046.200    86872375.37348
  22653815.460   119046597.04609  22653817.400    92763591.26148
 15 02 05 15 35 30.0000000  0  6G05G10G13G15G28G30
  20964642.700   110169971.20109  20964642.600    85846747.72249
  24457590.100   128525375.50207  24457598.260   100149611.04645
  20738088.380   108979488.74809  20738087.720    84919132.65548
  23059916.700   121180751.15409  23059918.480    94426594.88047
  21217873.620   111500921.22309  21217871.940    86883946.63548
  22668994.820   119126364.95509  22668996.680    92825748.08047
 15 02 05 15 36  0.0000000  0  6G05G10G13G15G28G30
  20973373.000   110215848.68809  20973372.880    85882496.40349
  24478736.720   128636500.74907  24478745.060   100236201.64345
  20730686.300   108940591.16709  20730685.700    84888822.90348
  23044294.460   121098656.10909  23044296.000    94362624.85947
  21220800.460   111516302.02609  21220798.800    86895931.71848
  22684189.660   119206214.31609  22684191.480    92887968.37547
 15 02 05 15 36 30.0000000  0  6G05G10G13G15G28G30
  20982202.100   110262245.54909  20982202.100    85918649.78649
  24499890.100   128747661.75507  24499898.620   100322820.08044
  20723329.380   108901931.09809  20723328.800    84858698.22748
  23028687.640   121016641.78809  23028689.160    94298717.73447
  21223829.260   111532219.00609  21223827.720    86908334.60048
  22699400.740   119286149.37009  22699402.580    92950255.45347
 15 02 05 15 37  0.0000000  0  6G05G10G13G15G28G30
  20991129.260   110309158.12809  20991129.360    85955205.02549
  24521049.440   128858853.78108  24521058.260   100409462.68645
  20716017.400   108863507.44809  20716016.940    84828757.77448
  23013095.920   120934706.92209  23013097.380    94234872.53647
  21226959.340   111548668.52309  21226958.000    86921152.43848
  22714627.340   119366166.19409  22714629.300    93012606.23247
 15 02 05 15 37 30.0000000  0  6G05G10G13G15G28G30
  21000153.640   110356581.40709  21000153.720    85992158.21949
  24542213.820   128970071.56908  24542222.880   100496125.36245
  20708750.100   108825318.41209  20708749.760    84799000.12048
  22997519.080   120852849.82809  22997520.220    94171087.91047
  21230189.960   111565646.58109  21230188.800    86934382.13248
  22729868.580   119446260.11309  22729870.600    93075017.09247
 15 02 05 15 38  0.0000000  0  6G05G10G13G15G28G30
  21009276.660   110404523.18009  21009276.760    86029515.43649
  24563384.640   129081322.27808  24563393.900   100582813.71645
  20701529.480   108787374.62209  20701529.300    84769433.59048
  22981958.820   120771080.82509  22981959.940    94107371.95347
  21233522.720   111583161.46209  21233521.760    86948030.14548
  22745126.080   119526439.27909  22745128.180    93137494.37647
 15 02 05 15 38 30.0000000  0  6G05G10G13G15G28G30
  21018496.940   110452975.59509  21018496.880    86067270.56349
  24584560.140   129192597.17908  24584569.400   100669520.88645
  20694354.640   108749671.02509  20694354.580    84740054.21548
  22966414.340   120689395.03509  22966415.520    94043720.80747
  21236956.500   111601206.71009  21236955.600    86962091.42448
  22760398.420   119606695.99909  22760400.540    93200032.08847
 15 02 05 15 39  0.0000000  0  6G05G10G13G15G28G30
  21027814.320   110501938.63109  21027814.340    86105423.55549
  24605740.120   129303895.59808  24605749.340   100756246.38346
  20687226.120   108712210.39709  20687226.120    84710864.16748
  22950886.060   120607795.08308  22950887.660    93980136.58347
  21240491.340   111619782.49309  21240490.460    86976566.11548
  22775685.580   119687030.50209  22775687.780    93262630.40047
 15 02 05 15 39 30.0000000  0  6G05G10G13G15G28G30
  21037228.740   110551411.67709  21037228.800    86143973.97649
  24626924.240   129415216.23108  24626933.540   100842989.16446
  20680144.360   108674995.13509  20680144.280    84681865.31048
  22935374.620   120526283.20608  22935376.500    93916620.97747
  21244127.200   111638889.03709  21244126.340    86991454.37748
  22790987.400   119767442.31609  22790989.700    93325288.95947
 15 02 05 15 40  0.0000000  0  6G05G10G13G15G28G30
  21046739.160   110601389.38709  21046739.240    86182917.63049
  24648111.460   129526552.98008  24648120.820   100929744.49146
  20673108.880   108638022.95209  20673108.640    84653055.86848
  22919879.540   120444856.95209  22919881.300    93853172.08947
  21247863.040   111658521.23509  21247862.140    87006752.25748
  22806302.960   119847926.30309  22806305.280    93388003.75847
 15 02 05 15 40 30.0000000  0  6G05G10G13G15G28G30
  21056345.740   110651872.98109  21056345.880    86222255.48349
  24669301.840   129637906.61408  24669311.260   101016512.95446
  20666120.340   108601297.54509  20666119.960    84624438.72148
  22904401.760   120363520.63509  22904403.300    93789793.28447
  21251699.360   111678681.41909  21251698.340    87022461.55548
  22821632.520   119928484.25008  22821635.020    93450776.18847
 15 02 05 15 41  0.0000000  0  6G05G10G13G15G28G30
  21066048.500   110702862.06209  21066048.760    86261987.22249
  24690495.220   129749276.00508  24690504.780   101103293.68446
  20659179.380   108564822.20709  20659178.840    84596016.42348
  22888941.580   120282276.72209  22888942.860    93726486.48747
  21255636.160   111699369.93109  21255635.100    87038582.53948
  22836976.200   120009116.04209  22836978.780    93513606.16847
 15 02 05 15 41 30.0000000  0  6G05G10G13G15G28G30
  21075846.520   110754351.14109  21075846.820    86302108.57749
  24711690.460   129860655.08708  24711700.100   101190081.95246
  20652285.480   108528594.08209  20652284.780    84567786.75848
  22873498.520   120201122.75708  22873499.620    93663249.78347
  21259672.500   111720581.79809  21259671.500    87055111.32148
  22852333.000   120089816.67908  22852335.640    93576489.77547
 15 02 05 15 42  0.0000000  0  6G05G10G13G15G28G30
  21085739.760   110806340.66009  21085740.120    86342619.87649
  24732887.440   129972043.57207  24732897.140   101276877.53246
  20645439.280   108492616.49609  20645438.400    84539752.31848
  22858073.180   120120062.40609  22858074.320    93600086.04747
  21263808.620   111742318.27209  21263807.740    87072048.89548
  22867703.040   120170586.80809  22867705.800    93639427.54847
 15 02 05 15 42 30.0000000  0  6G05G10G13G15G28G30
  21095727.900   110858828.55809  21095728.340    86383519.52349
  24754085.780   130083439.35407  24754095.560   101363678.75445
  20638641.020   108456890.95709  20638640.040    84511914.27348
  22842665.780   120039096.28009  22842666.880    93536995.70647
  21268044.340   111764578.05109  21268043.620    87089394.23848
  22883086.040   120251425.00309  22883088.840    93702418.34947
 15 02 05 15 43  0.0000000  0  6G05G10G13G15G28G30
  21105810.940   110911815.48309  21105811.520    86424808.02149
  24775285.500   130194842.12007  24775295.340   101450485.39845
  20631891.320   108421420.82309  20631890.260    84484275.25948
  22827276.980   119958227.64009  22827277.980    93473981.32747
  21272379.860   111787361.91609  21272379.160    87107147.95348
  22898482.200   120332332.03309  22898484.920    93765462.79547
 15 02 05 15 43 30.0000000  0  6G05G10G13G15G28G30
  21115987.520   110965293.86109  21115988.080    86466479.46849
  24796485.240   130306244.42408  24796495.040   101537291.69845
  20625189.340   108386201.64909  20625188.200    84456831.78648
  22811906.060   119877452.83109  22811906.960    93411040.06547
  21276814.040   111810663.48209  21276813.240    87125305.07148
  22913890.200   120413301.26209  22913892.820    93828555.70947
 15 02 05 15 44  0.0000000  0  6G05G10G13G15G28G30
  21126258.400   111019267.13809  21126258.920    86508536.56149
  24817685.480   130417648.89008  24817695.160   101624099.68445
  20618536.320   108351239.94809  20618535.060    84429588.94548
  22796554.100   119796777.99209  22796554.980    93348176.70347
  21281347.540   111834486.80909  21281346.640    87143868.75448
  22929310.780   120494336.46609  22929313.200    93891700.02547
 15 02 05 15 44 30.0000000  0  6G05G10G13G15G28G30
  21136623.160   111073733.72509  21136623.540    86550978.05149
  24838885.680   130529053.21108  24838895.300   101710907.54845
  20611932.640   108316537.88509  20611931.340    84402548.42548
  22781221.460   119716204.76409  22781222.360    93285392.51747
  21285980.100   111858830.95609  21285979.160    87162838.27048
  22944743.720   120575436.61109  22944746.000    93954894.95647
 15 02 05 15 45  0.0000000  0  6G05G10G13G15G28G30
  21147081.000   111128689.62009  21147081.240    86593800.81649
  24860084.960   130640452.99808  24860094.560   101797711.86845
  20605378.040   108282093.84209  20605376.800    84375708.95648
  22765907.920   119635732.16709  22765908.660    93222686.72247
  21290711.060   111883692.70509  21290710.140    87182211.11248
  22960188.320   120656598.04809  22960190.500    94018137.64747
 15 02 05 15 45 30.0000000  0  6G05G10G13G15G28G30
  21157632.060   111184135.54609  21157632.240    86637005.42449
  24881283.380   130751848.58008  24881293.140   101884512.88445
  20598873.300   108247911.69709  20598872.200    84349073.56548
  22750614.220   119555364.16709  22750614.960    93160062.43747
  21295540.700   111909073.21009  21295539.820    87201988.18248
  22975644.800   120737822.22309  22975646.900    94081429.23847
 15 02 05 15 46  0.0000000  0  6G05G10G13G15G28G30
  21168275.080   111240064.72609  21168275.180    86680586.59949
  24902479.700   130863233.15608  24902489.720   101971305.32545
  20592417.900   108213988.75309  20592416.840    84322640.15848
  22735339.740   119475097.59309  22735340.600    93097517.20147
  21300467.820   111934966.44609  21300467.100    87222164.77948
  22991112.040   120819103.27609  22991114.120    94144765.12147
 15 02 05 15 46 30.0000000  0  6G05G10G13G15G28G30
  21179010.680   111296480.97409  21179010.780    86724547.29949
  24923674.520   130974609.98808  24923684.760   102058091.69945
  20586013.060   108180331.44409  20586012.000    84296413.74548
  22720085.900   119394939.18509  22720086.800    93035056.20647
  21305493.420   111961377.14809  21305492.880    87242744.59248
  23006590.920   120900445.53308  23006593.080    94208148.71347
 15 02 05 15 47  0.0000000  0  6G05G10G13G15G28G30
  21189838.160   111353379.83609  21189838.400    86768884.05649
  24944866.960   131085974.25608  24944877.360   102144868.29144
  20579658.540   108146938.62309  20579657.480    84270393.42248
  22704852.440   119314887.57909  22704853.480    92972678.43647
  21310616.780   111988301.25909  21310616.340    87263724.47048
  23022080.620   120981845.01609  23022082.960    94271576.88347
 15 02 05 15 47 30.0000000  0  6G05G10G13G15G28G30
  21200757.140   111410759.11909  21200757.340    86813595.18049
  24966056.620   131197323.60408  24966067.120   102231633.23744
  20573354.640   108113811.69109  20573353.560    84244580.28448
  22689639.420   119234944.09609  22689640.440    92910384.92547
  21315837.740   112015737.58109  21315837.220    87285103.46748
  23037581.000   121063300.54608  23037583.480    94335048.74347
 15 02 05 15 48  0.0000000  0  6G05G10G13G15G28G30
  21211767.340   111468617.90009  21211767.540    86858679.94449
  24987243.160   131308656.45208  24987253.800   102318385.30145
  20567101.680   108080952.43309  20567100.520    84218975.72448
  22674447.420   119155110.98009  22674448.540    92848177.40448
  21321156.080   112043685.21309  21321155.400    87306880.89248
  23053091.920   121144811.50408  23053094.500    94398563.78947
 15 02 05 15 48 30.0000000  0  6G05G10G13G15G28G30
  21222867.560   111526950.10209  21222867.740    86904133.60449
  25008425.380   131419966.56108  25008436.280   102405119.63045
  20560899.100   108048358.17009  20560897.960    84193577.66148
  22659276.080   119075385.33609  22659277.260    92786053.61947
  21326570.780   112072139.12509  21326569.920    87329052.82748
  23068612.400   121226372.73108  23068615.120    94462117.99947
 15 02 05 15 49  0.0000000  0  6G05G10G13G15G28G30
  21234059.320   111585763.77609  21234059.560    86949962.42349
  25029604.760   131531261.83008  25029615.940   102491842.32745
  20554749.140   108016040.57409  20554748.080    84168395.18248
  22644127.320   118995778.83808  22644128.300    92724022.67347
  21332083.440   112101108.12309  21332082.480    87351626.11748
  23084144.200   121307993.12208  23084146.960    94525718.31447
 15 02 05 15 49 30.0000000  0  6G05G10G13G15G28G30
  21245339.920   111645044.06609  21245340.180    86996154.84249
  25050778.360   131642527.33007  25050789.920   102578541.81145
  20548649.620   107983988.16109  20548648.720    84143419.33148
  22628999.080   118916280.10109  22629000.020    92662075.71248
  21337691.380   112130577.98609  21337690.360    87374589.71048
  23099684.640   121389658.68808  23099687.320    94589353.82247
 15 02 05 15 50  0.0000000  0  6G05G10G13G15G28G30
  21256710.560   111704796.78309  21256710.720    87042715.38848
  25071947.320   131753768.73407  25071959.560   102665222.45946
  20542602.400   107952210.25409  20542601.560    84118657.38148
  22613893.140   118836898.17909  22613894.140    92600219.76748
  21343395.800   112160555.10209  21343394.720    87397948.54348
  23115234.980   121471376.20509  23115237.600    94653029.81747
 15 02 05 15 50 30.0000000  0  6G05G10G13G15G28G30
  21268171.000   111765021.20209  21268171.120    87089643.49548
  25093111.340   131864984.63706  25093124.160   102751883.19845
  20536607.960   107920709.44109  20536607.060    84094111.34448
  22598810.000   118757635.67509  22598810.800    92538456.86748
  21349196.800   112191039.61309  21349195.640    87421702.75848
  23130795.120   121553145.49308  23130797.720    94716746.16247
 15 02 05 15 51  0.0000000  0  6G05G10G13G15G28G30
  21279720.160   111825712.38009  21279720.320    87136935.29948
  25114269.560   131976170.15706  25114282.960   102838520.18246
  20530665.900   107889483.71809  20530664.920    84069779.66348
  22583749.400   118678491.36509  22583750.040    92476786.08447
  21355093.580   112222027.14609  21355092.300    87445848.95148
  23146364.360   121634962.65308  23146366.960    94780499.80447
 15 02 05 15 51 30.0000000  0  6G05G10G13G15G28G30
  21291357.360   111886866.47509  21291357.560    87184587.82149
  25135421.500   132087321.18007  25135435.240   102925130.29946
  20524776.100   107858532.60209  20524775.100    84045661.95748
  22568711.240   118599464.63109  22568711.720    92415206.91548
  21361085.440   112253514.25209  21361084.080    87470384.41448
  23161942.160   121716824.57908  23161944.740    94844288.33147
 15 02 05 15 52  0.0000000  0  5G05G13G15G28G30
  21303084.140   111948491.30209  21303084.500    87232607.14549
  20518940.740   107827867.59709  20518939.740    84021767.20348
  22553697.660   118520567.12609  22553697.940    92353728.45348
  21367173.940   112285509.69009  21367172.540    87495315.98848
  23177530.180   121798740.28708  23177532.780    94908118.77047
 15 02 05 15 52 30.0000000  0  5G05G13G15G28G30
  21314896.920   112010568.24209  21314897.440    87280978.75649
  20513157.000   107797473.96909  20513155.940    83998083.90448
  22538705.620   118441783.40309  22538705.780    92292338.65548
  21373355.640   112317995.35009  21373354.280    87520629.55048
  23193125.060   121880692.01608  23193127.640    94971977.27647
 15 02 05 15 53  0.0000000  0  5G05G13G15G28G30
  21326796.940   112073102.83809  21326797.420    87329706.99548
  20507426.540   107767360.18609  20507425.360    83974618.67148
  22523737.000   118363122.74209  22523737.200    92231044.74148
  21379631.820   112350977.60809  21379630.560    87546330.07448
  23208728.040   121962686.31908  23208730.580    95035868.95347
 15 02 05 15 53 30.0000000  0  5G05G13G15G28G30
  21338784.320   112136096.23309  21338784.680    87378792.73749
  20501750.340   107737531.45909  20501749.060    83951375.54048
  22508792.580   118284589.80809  22508792.700    92169850.36748
  21386002.840   112384458.30109  21386001.700    87572418.97748
  23224339.540   122044725.20308  23224342.000    95099795.38947
 15 02 05 15 54  0.0000000  0  5G05G13G15G28G30
  21350858.060   112199542.80709  21350858.180    87428231.60749
  20496127.820   107707984.87509  20496126.460    83928352.26948
  22493872.040   118206182.41609  22493872.040    92108753.80748
  21392467.720   112418432.03909  21392466.680    87598892.07148
  23239958.600   122126803.95908  23239961.060    95163752.86347
 15 02 05 15 54 30.0000000  0  5G05G13G15G28G30
  21363018.080   112263442.97909  21363017.820    87478023.94749
  20490559.760   107678724.44009  20490558.340    83905551.97048
  22478976.100   118127904.50409  22478976.120    92047758.14448
  21399026.720   112452899.91909  21399025.660    87625750.21348
  23255585.480   122208924.13608  23255588.000    95227742.62547
 15 02 05 15 55  0.0000000  0  6G05G13G15G17G28G30
  21375264.000   112327794.88809  21375263.540    87528168.27949
  20485046.580   107649752.46309  20485045.080    83882976.43848
  22464105.280   118049758.33709  22464105.260    91986865.12548
  24794625.740   130296633.77608  24794631.700   101529848.11446
  21405679.700   112487861.31609  21405678.560    87652992.89848
  23271220.220   122291085.38808  23271222.780    95291764.38547
 15 02 05 15 55 30.0000000  0  6G05G13G15G17G28G30
  21387596.680   112392603.50309  21387596.300    87578668.47849
  20479589.980   107621077.72909  20479588.420    83860632.53248
  22449261.220   117971752.68809  22449261.220    91926081.60348
  24780737.400   130223652.68208  24780743.860   101472980.19246
  21412427.560   112523321.39409  21412426.380    87680624.17148
  23286863.860   122373293.41609  23286866.440    95355822.60647
 15 02 05 15 56  0.0000000  0  6G05G13G15G17G28G30
  21400012.920   112457851.44209  21400012.580    87629511.02449
  20474187.180   107592685.77809  20474185.620    83838508.97948
  22434441.000   117893873.14909  22434441.240    91865396.37348
  24766854.900   130150702.69208  24766861.560   101416136.47846
  21419267.080   112559263.52409  21419265.960    87708631.07948
  23302513.340   122455532.10608  23302515.940    95419904.71347
 15 02 05 15 56 30.0000000  0  6G05G13G15G17G28G30
  21412512.640   112523538.58709  21412512.500    87680695.80248
  20468838.880   107564580.57409  20468837.320    83816608.86948
  22419645.640   117816123.85609  22419646.000    91804812.60648
  24752979.600   130077789.04608  24752986.420   101359321.10745
  21426198.420   112595688.50809  21426197.420    87737014.22948
  23318168.860   122537802.54308  23318171.500    95484011.54947
 15 02 05 15 57  0.0000000  0  7G05G13G15G17G24G28G30
  21425096.460   112589668.12709  21425096.600    87732225.28749
  20463546.320   107536768.19909  20463544.780    83794936.93848
  22404876.460   117738511.57309  22404876.960    91744335.59448
  24739112.840   130004919.54207  24739119.580   101302540.10346
  24292719.040   127659098.90105  24292727.900    99474656.53844
  21433222.300   112632599.77009  21433221.400    87765776.28348
  23333831.180   122620108.83908  23333833.880    95548146.33247
 15 02 05 15 57 30.0000000  0  7G05G13G15G17G24G28G30
  21437764.020   112656237.36609  21437764.300    87784097.41548
  20458309.700   107509249.80909  20458308.180    83773494.08648
  22390133.380   117661036.72909  22390133.940    91683965.68348
  24725254.940   129932096.55608  24725261.440   101245795.34946
  24277484.480   127579042.10905  24277493.500    99412274.90744
  21440338.320   112669995.22509  21440337.500    87794915.63648
  23349500.080   122702449.43108  23349502.780    95612307.85447
 15 02 05 15 58  0.0000000  0  7G05G13G15G17G24G28G30
  21450515.120   112723244.97009  21450515.480    87836311.12448
  20453129.600   107482028.15509  20453128.080    83752282.46148
  22375416.920   117583702.27409  22375417.680    91623705.18748
  24711406.580   129859324.08108  24711412.720   101189089.95846
  24262276.580   127499124.01306  24262285.060    99350001.44744
  21447546.480   112707874.41109  21447545.680    87824431.92448
  23365175.540   122784824.48708  23365178.300    95676496.20747
 15 02 05 15 58 30.0000000  0  7G05G13G15G17G24G28G30
  21463348.740   112790686.08709  21463349.100    87888862.62449
  20448005.740   107455101.75009  20448004.140    83731300.89548
  22360727.080   117506507.41409  22360728.040    91563553.44048
  24697567.820   129786602.19708  24697573.680   101132423.96945
  24247094.560   127419342.20906  24247102.720    99287834.07744
  21454845.880   112746232.99309  21454845.060    87854321.77148
  23380856.920   122867230.34008  23380859.740    95740708.57147
 15 02 05 15 59  0.0000000  0  7G05G13G15G17G24G28G30
  21476264.700   112858559.68409  21476265.080    87941751.12448
  20442938.500   107428473.05109  20442936.820    83710551.30148
  22346064.380   117429454.76009  22346065.420    91503512.51148
  24683739.460   129713934.93808  24683745.160   101075800.49945
  24231938.720   127339697.98706  24231946.300    99225773.98544
  21462236.440   112785070.48309  21462235.500    87884584.78148
  23396544.100   122949667.13008  23396546.980    95804945.03047
 15 02 05 15 59 30.0000000  0  7G05G13G15G17G24G28G30
  21489262.580   112926864.09409  21489262.840    87994975.32548
  20437928.300   107402144.35409  20437926.580    83690035.48648
  22331429.020   117352545.87109  22331430.040    91443583.61948
  24669922.060   129641325.63008  24669927.620   101019222.17445
  24216809.080   127260191.89906  24216816.280    99163821.52544
  21469717.960   112824386.03909  21469716.900    87915220.31148
  23412237.080   123032134.28108  23412240.120    95869205.14447
 15 02 05 16 00  0.0000000  0  7G05G13G15G17G24G28G30
  21502342.160   112995597.92109  21502342.340    88048534.14848
  20432975.580   107376117.87609  20432973.860    83669755.15748
  22316821.680   117275784.13809  22316822.600    91383769.38548
  24656116.480   129568778.50908  24656122.060   100962692.31846
  24201706.020   127180825.77906  24201713.280    99101978.12245
  21477290.280   112864178.98009  21477289.140    87946227.83348
  23427935.920   123114632.22108  23427938.900    95933489.24347
 15 02 05 16 00 30.0000000  0  7G05G13G15G17G24G28G30
  21515502.700   113064757.26509  21515503.000    88102424.52949
  20428080.260   107350393.33209  20428078.620    83649710.11348
  22302242.440   117199169.53109  22302243.020    91324069.77748
  24642323.060   129496294.63808  24642328.580   100906211.70646
  24186629.180   127101597.47206  24186636.500    99040242.11146
  21484952.780   112904446.09909  21484951.620    87977604.85848
  23443640.120   123197158.14608  23443642.980    95997795.16746
 15 02 05 16 01  0.0000000  0  7G05G13G15G17G24G28G30
  21528743.620   113134338.41709  21528743.840    88156643.61349
  20423242.400   107324970.72909  20423240.780    83629900.33148
  22287690.960   117122701.65809  22287691.540    91264484.54248
  24628541.980   129423875.62508  24628547.460   100849781.63946
  24171578.500   127022506.51606  24171585.600    98978613.12845
  21492704.940   112945184.08309  21492703.680    88009348.78948
  23459349.160   123279709.64608  23459351.940    96062121.02347
 15 02 05 16 01 30.0000000  0  7G05G13G15G17G24G28G30
  21542065.280   113204343.96909  21542065.480    88211193.37548
  20418463.240   107299856.37309  20418461.580    83610330.73848
  22273168.680   117046387.08409  22273169.340    91205018.73848
  24614774.740   129351529.32108  24614780.220   100793408.24446
  24156554.720   126943557.14707  24156561.660    98917094.44644
  21500547.380   112986396.20209  21500546.000    88041462.16548
  23475063.820   123362290.77008  23475066.580    96126469.95147
 15 02 05 16 02  0.0000000  0  7G05G13G15G17G24G28G30
  21555466.380   113274767.66809  21555466.740    88266068.95048
  20413742.240   107275047.55609  20413740.580    83590999.22548
  22258675.100   116970223.20109  22258675.740    91145670.36948
  24601021.060   129279254.03808  24601026.460   100737090.21445
  24141557.140   126864745.75607  24141564.020    98855683.22945
  21508478.920   113028076.54709  21508477.480    88073940.39548
  23490783.100   123444896.13908  23490785.900    96190837.78147
 15 02 05 16 02 30.0000000  0  7G05G13G15G17G24G28G30
  21568946.980   113345608.57109  21568947.300    88321269.63948
  20409079.940   107250547.50809  20409078.340    83571908.31348
  22244210.880   116894213.34109  22244211.480    91086442.01548
  24587281.720   129207054.70108  24587286.980   100680831.39246
  24126586.220   126786074.19407  24126593.080    98794381.00545
  21516499.460   113070224.94509  21516497.980    88106783.34448
  23506507.120   123527526.82108  23506510.040    96255225.31147
 15 02 05 16 03  0.0000000  0  7G05G13G15G17G24G28G30
  21582506.720   113416865.29409  21582506.940    88376794.35248
  20404476.920   107226358.87709  20404475.400    83553060.07848
  22229776.500   116818360.65309  22229777.060    91027336.13948
  24573557.540   129134935.45108  24573562.760   100624635.03646
  24111642.280   126707544.19707  24111649.040    98733189.08546
  21524609.020   113112841.28609  21524607.520    88139990.93548
  23522236.080   123610183.03008  23522238.960    96319632.77146
 15 02 05 16 03 30.0000000  0  7G05G13G15G17G24G28G30
  21596144.600   113488532.44009  21596144.660    88432638.88248
  20399932.820   107202479.57009  20399931.300    83534452.85948
  22215371.500   116742662.92409  22215372.140    90968351.02448
  24559848.380   129062895.53308  24559853.660   100568500.52346
  24096724.400   126629151.96907  24096731.200    98672104.51846
  21532806.600   113155919.89109  21532805.080    88173558.72448
  23537969.000   123692860.30008  23537971.880    96384056.61846
 15 02 05 16 04  0.0000000  0  7G05G13G15G17G24G28G30
  21609860.700   113560611.38909  21609860.840    88488804.27648
  20395448.500   107178914.40709  20395447.000    83516090.42948
  22200997.220   116667125.86109  22200997.820    90909491.06648
  24546155.460   128990941.63508  24546160.900   100512433.07946
  24081833.540   126550901.75807  24081840.500    98611130.59246
  21541092.560   113199462.97109  21541091.020    88207488.43648
  23553706.440   123775561.49208  23553709.320    96448499.09946
 15 02 05 16 04 30.0000000  0  7G05G13G15G17G24G28G30
  21623653.580   113633094.09909  21623653.860    88545284.28148
  20391023.300   107155659.81309  20391021.780    83497970.00548
  22186652.760   116591745.42609  22186653.240    90850753.16848
  24532478.580   128919071.84408  24532484.260   100456431.20146
  24066968.860   126472788.17307  24066975.600    98550263.12246
  21549465.600   113243463.89509  21549464.120    88241774.90148
  23569447.260   123858280.46108  23569450.220    96512955.43346
 15 02 05 16 05  0.0000000  0  7G05G13G15G17G24G28G30
  21637523.600   113705981.97409  21637523.900    88602080.00848
  20386658.180   107132720.96109  20386656.620    83480095.61448
  22172339.220   116516527.40209  22172339.620    90792141.80548
  24518818.820   128847291.95908  24518824.440   100400499.36646
  24052130.940   126394815.20007  24052137.520    98489505.22746
  21557926.000   113287924.03109  21557924.660    88276419.19748
  23585192.040   123941020.12008  23585195.080    96577427.90047
 15 02 05 16 05 30.0000000  0  7G05G13G15G17G24G28G30
  21651471.000   113779276.13209  21651471.360    88659192.32648
  20382353.980   107110102.33709  20382352.400    83462470.75748
  22158057.440   116441476.44409  22158057.860    90733660.65248
  24505177.480   128775608.62208  24505183.080   100344642.77946
  24037320.360   126316986.21907  24037326.840    98428859.54746
  21566474.080   113332844.68909  21566472.840    88311422.34448
  23600941.160   124023782.74808  23600944.260    96641918.25246
 15 02 05 16 06  0.0000000  0  7G05G13G15G17G24G28G30
  21665493.640   113852965.47109  21665494.020    88716612.57448
  20378109.260   107087796.99209  20378107.780    83445090.02248
  22143806.200   116366585.65609  22143806.300    90675304.28448
  24491553.400   128704015.89208  24491559.000   100288856.81746
  24022535.560   126239292.37008  24022542.000    98368319.14246
  21575107.940   113378215.84509  21575106.680    88346776.52148
  23616692.980   124106558.97608  23616696.020    96706419.22546
 15 02 05 16 06 30.0000000  0  7G05G13G15G17G24G28G30
  21679592.040   113927053.36009  21679592.480    88774343.37648
  20373925.480   107065812.26209  20373924.200    83427959.11548
  22129586.840   116291862.63809  22129586.820    90617078.64848
  24477948.240   128632522.57408  24477953.660   100233148.26146
  24007777.840   126161740.52408  24007784.260    98307889.40547
  21583828.220   113424041.42009  21583826.840    88382484.80448
  23632448.400   124189353.85508  23632451.340    96770934.70546
 15 02 05 16 07  0.0000000  0  7G05G13G15G17G24G28G30
  21693765.860   114001537.59709  21693766.420    88832383.01048
  20369803.120   107044149.92909  20369801.940    83411079.41948
  22115399.680   116217309.38409  22115399.720    90558985.29348
  24464362.780   128561132.24808  24464367.820   100177519.93645
  23993047.160   126084331.13008  23993053.460    98247570.64846
  21592634.740   113470320.46809  21592633.220    88418546.42248
  23648207.340   124272167.03708  23648210.200    96835464.44446
 15 02 05 16 07 30.0000000  0  7G05G13G15G17G24G28G30
  21708013.940   114076411.86809  21708014.620    88890726.57248
  20365741.680   107022807.36409  20365740.560    83394448.88948
  22101244.380   116142923.58009  22101244.420    90501022.40448
  24450796.700   128489843.57908  24450801.440   100121970.76546
  23978342.820   126007059.86408  23978348.940    98187359.54147
  21601526.380   113517046.68509  21601524.860    88454956.49548
  23663968.800   124354993.43208  23663971.540    96900004.49546
 15 02 05 16 08  0.0000000  0  7G05G13G15G17G24G28G30
  21722336.300   114151676.61909  21722337.060    88949374.40548
  20361741.900   107001788.56009  20361740.760    83378070.64048
  22087121.780   116068709.74609  22087121.940    90443193.53348
  24437250.980   128418662.10908  24437255.440   100066505.12646
  23963665.320   125929929.52208  23963671.280    98127258.24647
  21610503.300   113564221.02609  21610501.860    88491715.75248
  23679733.160   124437835.07008  23679735.760    96964556.43946
 15 02 05 16 08 30.0000000  0  7G05G13G15G17G24G28G30
  21736733.240   114227333.05009  21736733.940    89008327.44348
  20357804.780   106981098.81009  20357803.620    83361948.78848
  22073032.920   115994673.15709  22073033.240    90385502.77248
  24423727.020   128347594.68508  24423731.080   100011128.31246
  23949015.380   125852944.34808  23949021.340    98067270.07946
  21619565.900   113611845.26309  21619564.520    88528825.57548
  23695500.920   124520694.74508  23695503.420    97029122.41146
 15 02 05 16 09  0.0000000  0  7G05G13G15G17G24G28G30
  21751203.100   114303371.75509  21751203.680    89067578.37048
  20353929.260   106960732.59109  20353928.000    83346079.04048
  22058976.880   115920808.60709  22058977.160    90327946.06448
  24410224.020   128276637.32908  24410227.920    99955837.25146
  23934391.700   125776097.34508  23934397.540    98007389.56246
  21628712.400   113659910.45509  21628711.040    88566279.00548
  23711270.620   124603564.78708  23711273.200    97093696.44946
 15 02 05 16 09 30.0000000  0  7G05G13G15G17G24G28G30
  21765745.880   114379794.17509  21765746.440    89127128.26348
  20350116.220   106940694.83909  20350114.880    83330465.25048
  22044954.740   115847121.70309  22044954.780    90270527.77148
  24396743.220   128205796.48708  24396746.920    99900636.94145
  23919795.080   125699392.64508  23919800.660    97947619.87746
  21637943.200   113708418.68209  21637941.860    88604077.65348
  23727042.840   124686448.26008  23727045.400    97158280.98046
 15 02 05 16 10  0.0000000  0  7G05G13G15G17G24G28G30
  21780360.940   114456596.11609  21780361.440    89186973.90348
  20346365.760   106920986.09409  20346364.340    83315107.82348
  22030966.580   115773613.09209  22030966.520    90213248.41448
  24383285.020   128135074.44008  24383288.740    99845529.18646
  23905225.380   125622829.39008  23905230.880    97887960.43346
  21647257.780   113757367.18509  21647256.440    88642219.38348
  23742817.220   124769343.35708  23742819.760    97222874.53746
 15 02 05 16 10 30.0000000  0  7G05G13G15G17G24G28G30
  21795047.920   114533776.61209  21795048.440    89247114.50848
  20342678.460   106901609.22209  20342677.000    83300008.99948
  22017012.820   115700285.46509  22017012.760    90156110.08848
  24369850.220   128064475.01208  24369853.580    99790516.94346
  23890682.800   125546408.80908  23890688.380    97828412.19746
  21656656.040   113806755.06509  21656654.640    88680703.47248
  23758593.820   124852250.37808  23758596.380    97287477.41346
 15 02 05 16 11  0.0000000  0  7G05G13G15G17G24G28G30
  21809806.300   114611332.17009  21809806.760    89307547.38848
  20339054.320   106882564.37209  20339052.840    83285168.89748
  22003093.560   115627139.62509  22003093.560    90099113.40948
  24356439.080   127994000.00408  24356442.240    99735601.62146
  23876167.160   125470130.00408  23876172.720    97768974.42746
  21666137.360   113856579.28309  21666135.820    88719527.56348
  23774372.300   124935167.59308  23774375.020    97352088.23046
 15 02 05 16 11 30.0000000  0  7G05G13G15G17G24G28G30
  21824635.680   114689260.53409  21824636.080    89368270.76148
  20335493.640   106863853.37209  20335492.220    83270588.93848
  21989209.260   115554177.85109  21989209.220    90042260.16948
  24343052.260   127923652.94108  24343055.660    99680786.00046
  23861678.520   125393992.95908  23861683.920    97709647.09846
  21675701.380   113906838.50809  21675699.800    88758690.60548
  23790152.720   125018094.66208  23790155.340    97416706.70146
 15 02 05 16 12  0.0000000  0  7G05G13G15G17G24G28G30
  21839535.000   114767556.53209  21839535.300    89429280.60948
  20331996.320   106845475.17809  20331994.920    83256268.29648
  21975359.960   115481399.27509  21975359.860    89985549.66848
  24329689.920   127853434.17508  24329693.260    99626070.33246
  23847216.620   125317996.08608  23847222.060    97650428.98146
  21685347.160   113957527.99409  21685345.640    88798188.92748
  23805934.320   125101028.04708  23805936.980    97481330.08946
 15 02 05 16 12 30.0000000  0  7G05G13G15G17G24G28G30
  21854504.780   114846222.33409  21854504.940    89490578.63548
  20328563.480   106827435.69009  20328562.020    83242211.58748
  21961546.800   115408810.14409  21961546.500    89928986.79048
  24316353.240   127783351.24308  24316356.680    99571460.54046
  23832782.180   125242143.05208  23832787.580    97591322.95246
  21695075.320   114008650.53509  21695073.860    88838024.67748
  23821717.860   125183971.78508  23821720.640    97545961.55946
 15 02 05 16 13  0.0000000  0  7G05G13G15G17G24G28G30
  21869544.040   114925253.95809  21869544.280    89552161.67448
  20325195.080   106809734.45709  20325193.560    83228418.45548
  21947769.740   115336410.59809  21947769.180    89872571.63548
  24303042.780   127713405.82208  24303046.220    99516957.86946
  23818375.060   125166433.46208  23818380.400    97532328.70846
  21704885.220   114060202.54809  21704883.860    88878195.08548
  23837502.900   125266923.68708  23837505.880    97610599.39046
 15 02 05 16 13 30.0000000  0  7G05G13G15G17G24G28G30
  21884651.640   115004645.05009  21884651.880    89614024.83248
  20321890.700   106792369.39209  20321889.120    83214887.26148
  21934028.380   115264198.83309  21934027.580    89816302.82348
  24289758.180   127643596.78508  24289761.680    99462561.50746
  23803994.440   125090863.22407  23803999.740    97473443.06447
  21714775.820   114112178.55909  21714774.540    88918695.89548
  23853288.640   125349879.24808  23853291.800    97675240.05046
 15 02 05 16 14  0.0000000  0  7G05G13G15G17G24G28G30
  21899828.120   115084398.58509  21899828.500    89676170.40648
  20318651.640   106775347.46809  20318649.960    83201623.45648
  21920324.040   115192182.06909  21920323.160    89760185.94648
  24276501.100   127573932.57708  24276504.760    99408278.01246
  23789641.320   125015437.73208  23789646.540    97414670.25047
  21724747.760   114164581.57309  21724746.460    88959529.42948
  23869076.040   125432843.10508  23869079.140    97739887.20346
 15 02 05 16 14 30.0000000  0  7G05G13G15G17G24G28G30
  21915072.500   115164508.67909  21915072.920    89738593.82148
  20315477.500   106758666.92409  20315475.720    83188625.66048
  21906656.420   115120358.77209  21906655.640    89704219.83548
  24263271.700   127504412.98308  24263275.520    99354107.19446
  23775315.300   124940154.23308  23775320.420    97356008.05847
  21734800.060   114217406.66309  21734798.660    89000691.84748
  23884864.260   125515811.36808  23884867.520    97804537.76946
 15 02 05 16 15  0.0000000  0  7G05G13G15G17G24G28G30
  21930384.040   115244971.45909  21930384.460    89801292.06148
  20312368.280   106742327.98309  20312366.540    83175894.03949
  21893025.700   115048729.75809  21893024.960    89648405.11048
  24250070.240   127435039.80108  24250074.020    99300050.46946
  23761016.000   124865011.55608  23761021.040    97297455.61147
  21744932.100   114270650.90109  21744930.640    89042180.87648
  23900653.240   125598782.27708  23900656.340    97869190.41746
 15 02 05 16 15 30.0000000  0  7G05G13G15G17G24G28G30
  21945762.320   115325785.03709  21945762.660    89864263.66148
  20309324.380   106726332.67709  20309322.760    83163430.19149
  21879432.460   114977297.25209  21879431.740    89592743.50048
  24236897.320   127365816.43008  24236901.200    99246110.48747
  23746743.520   124790010.24208  23746748.460    97239013.30147
  21755143.600   114324312.72209  21755142.120    89083995.30648
  23916442.680   125681755.71108  23916445.680    97933845.07246
 15 02 05 16 16  0.0000000  0  7G05G13G15G17G24G28G30
  21961207.560   115406950.56009  21961207.960    89927509.47948
  20306346.840   106710686.08009  20306345.300    83151238.04948
  21865877.600   114906066.89109  21865876.980    89537239.42348
  24223754.260   127296749.48608  24223758.060    99192292.40046
  23732498.780   124715154.47708  23732503.580    97180684.39247
  21765434.880   114378393.87609  21765433.380    89126136.47848
  23932233.200   125764734.85208  23932236.340    97998504.11646
 15 02 05 16 16 30.0000000  0  7G05G13G15G17G24G28G30
  21976718.740   115488462.47909  21976719.180    89991025.23748
  20303435.280   106695386.14909  20303433.800    83139316.04448
  21852360.980   114835037.03109  21852360.380    89481891.55848
  24210640.900   127227838.74808  24210644.300    99138595.99746
  23718281.120   124640441.09408  23718285.920    97122466.42147
  21775804.940   114432888.99109  21775803.440    89168600.21648
  23948023.980   125847715.53308  23948026.980    98063164.39145
 15 02 05 16 17  0.0000000  0  7G05G13G15G17G24G28G30
  21992295.540   115570318.59509  21992295.920    90054809.19748
  20300590.180   106680435.67909  20300588.780    83127666.35548
  21838883.120   114764210.80609  21838882.480    89426702.38448
  24197558.100   127159088.44608  24197561.340    99085024.60547
  23704090.540   124565870.78008  23704095.360    97064359.96347
  21786253.560   114487796.89409  21786252.080    89211385.61748
  23963815.140   125930698.21008  23963818.100    98127826.20946
 15 02 05 16 17 30.0000000  0  7G05G13G15G17G24G28G30
  22007937.040   115652514.61509  22007937.300    90118858.02648
  20297811.440   106665833.56909  20297810.060    83116288.10648
  21825443.960   114693587.66109  21825443.280    89371671.44648
  24184505.920   127090499.43908  24184508.800    99031578.88646
  23689926.880   124491441.85708  23689931.520    97006363.63646
  21796780.000   114543113.72809  21796778.560    89254489.66048
  23979606.200   126013680.27608  23979609.140    98192487.55346
 15 02 05 16 18  0.0000000  0  7G05G13G15G17G24G28G30
  22023643.020   115735049.89209  22023643.260    90183171.19248
  20295099.720   106651583.36109  20295098.300    83105184.07248
  21812044.240   114623171.51809  21812043.460    89316801.80848
  24171485.200   127022076.02908  24171487.940    98978262.20547
  23675790.540   124417156.45808  23675795.220    96948479.14446
  21807384.220   114598839.34609  21807382.820    89297912.24048
  23995397.400   126096662.92408  23995400.340    98257149.34946
 15 02 05 16 18 30.0000000  0  7G05G13G15G17G24G28G30
  22039413.300   115817923.34709  22039413.580    90247747.87948
  20292455.640   106637688.43509  20292454.120    83094356.87849
  21798684.500   114552966.04209  21798683.720    89262096.32248
  24158496.900   126953823.56808  24158499.680    98925078.72146
  23661681.920   124343016.66508  23661686.460    96890708.06546
  21818066.180   114654973.58709  21818064.800    89341653.22248
  24011188.920   126179647.56508  24011191.640    98321812.70145
 15 02 05 16 19  0.0000000  0  7G05G13G15G17G24G28G30
  22055246.580   115901127.72909  22055247.000    90312582.43148
  20289878.580   106624145.52009  20289876.900    83083803.97448
  21785364.400   114482968.50909  21785363.560    89207552.86048
  24145540.680   126885740.23508  24145543.440    98872027.00946
  23647600.220   124269018.21408  23647604.760    96833047.13546
  21828824.640   114711509.98309  21828823.320    89385707.58148
  24026979.800   126262628.90508  24026982.520    98386473.48846
 15 02 05 16 19 30.0000000  0  7G05G13G15G17G24G28G30
  22071143.080   115984664.58709  22071143.660    90377676.04248
  20287369.400   106610959.59009  20287367.640    83073529.24848
  21772084.880   114413184.42109  21772083.940    89153175.71448
  24132618.020   126817832.65408  24132620.760    98819112.22746
  23633545.940   124195164.17707  23633550.740    96775498.76846
  21839659.940   114768450.07909  21839658.680    89430076.49948
  24042770.620   126345609.99008  24042773.300    98451134.07846
 15 02 05 16 20  0.0000000  0  7G05G13G15G17G24G28G30
  22087101.460   116068526.99409  22087102.160    90443023.33148
  20284927.620   106598128.10009  20284925.820    83063530.72449
  21758845.580   114343611.67209  21758844.620    89098963.24748
  24119728.700   126750099.99408  24119731.420    98766333.73946
  23619518.480   124121450.89807  23619523.340    96718060.08346
  21850570.940   114825787.69809  21850569.680    89474755.17548
  24058560.520   126428586.31208  24058563.220    98515790.95446
 15 02 05 16 20 30.0000000  0  7G05G13G15G17G24G28G30
  22103122.260   116152717.29209  22103123.020    90508626.13048
  20282554.520   106585657.39909  20282552.680    83053813.32448
  21745647.680   114274256.99309  21745646.740    89044920.72448
  24106874.100   126682549.78708  24106877.040    98713697.43346
  23605518.780   124047883.36007  23605523.520    96660734.95246
  21861558.160   114883525.66909  21861556.780    89519745.82048
  24074350.320   126511562.09008  24074352.840    98580447.40046
 15 02 05 16 21  0.0000000  0  7G05G13G15G17G24G28G30
  22119204.600   116237230.87409  22119205.460    90574480.81648
  20280250.000   106573547.00609  20280248.100    83044376.68549
  21732491.260   114205120.68209  21732490.560    88991048.34048
  24094054.440   126615183.38608  24094057.420    98661204.33846
  23591546.500   123974460.10507  23591551.040    96603522.22946
  21872620.820   114941660.04209  21872619.340    89565045.34348
  24090139.640   126594535.02208  24090142.200    98645101.62746
 15 02 05 16 21 30.0000000  0  7G05G13G15G17G24G28G30
  22135347.180   116322061.04109  22135348.060    90640582.20048
  20278013.460   106561794.24009  20278011.600    83035218.72148
  21719375.980   114136200.38209  21719375.440    88937344.28448
  24081269.560   126547999.71708  24081272.400    98608853.62846
  23577600.980   123901176.88808  23577605.620    96546418.62247
  21883757.800   115000184.79409  21883756.220    89610649.07848
  24105927.500   126677500.46608  24105930.080    98709750.00446
 15 02 05 16 22  0.0000000  0  7G05G13G15G17G24G28G30
  22151550.560   116407209.91809  22151551.320    90706931.96048
  20275846.120   106550405.31209  20275844.360    83026344.25849
  21706303.040   114067502.37609  21706302.560    88883813.43948
  24068520.860   126481005.97908  24068523.760    98556650.93047
  23563683.140   123828038.89608  23563687.780    96489428.15347
  21894969.520   115059102.21309  21894967.840    89656558.76748
  24121714.620   126760462.64608  24121717.280    98774395.85946
 15 02 05 16 22 30.0000000  0  7G05G13G15G17G24G28G30
  22167813.600   116492672.02609  22167814.340    90773525.78448
  20273747.700   106539378.47409  20273746.080    83017751.94549
  21693272.240   113999025.76909  21693271.740    88830455.10648
  24055808.460   126414202.67608  24055811.440    98504596.61647
  23549792.360   123755043.06408  23549797.040    96432548.48747
  21906255.040   115118407.59009  21906253.280    89702770.76848
  24137500.520   126843417.94508  24137503.300    98839036.35146
 15 02 05 16 23  0.0000000  0  7G05G13G15G17G24G28G30
  22184135.900   116578445.81109  22184136.620    90840362.46248
  20271718.820   106528716.65609  20271717.260    83009444.05548
  21680284.280   113930774.12809  21680283.820    88777272.07648
  24043133.200   126347594.06008  24043136.060    98452694.00647
  23535928.960   123682190.67608  23535933.520    96375780.55847
  21917614.240   115178100.32409  21917612.400    89749284.60348
  24153285.320   126926367.20808  24153288.040    98903672.15746
 15 02 05 16 23 30.0000000  0  7G05G13G15G17G24G28G30
  22200516.860   116664528.14209  22200517.640    90907439.57548
  20269759.580   106518420.59909  20269758.040    83001421.17649
  21667339.480   113862748.97009  21667338.940    88724265.52248
  24030495.520   126281182.78508  24030498.220    98400945.17447
  23522092.920   123609481.38808  23522097.140    96319124.11147
  21929046.620   115238177.82309  21929044.740    89796098.25548
  24169068.820   127009309.51408  24169071.440    98968302.53646
 15 02 05 16 24  0.0000000  0  7G05G13G15G17G24G28G30
  22216955.800   116750915.38709  22216956.680    90974754.27048
  20267870.160   106508491.19709  20267868.580    82993684.00249
  21654437.880   113794950.95709  21654437.400    88671435.96648
  24017895.820   126214970.91708  24017898.300    98349351.69047
  23508283.960   123536914.78208  23508287.960    96262578.85547
  21940551.580   115298637.03009  21940549.680    89843209.34148
  24184850.720   127092243.65108  24184853.160    99032926.53646
 15 02 05 16 24 30.0000000  0  7G05G13G15G17G24G28G30
  22233453.180   116837610.08509  22233454.140    91042308.50848
  20266051.560   106498934.03209  20266049.940    82986236.87949
  21641580.840   113727386.84009  21641580.360    88618788.64948
  24005335.420   126148965.70608  24005337.720    98297919.26547
  23494502.980   123464495.92408  23494507.140    96206148.75247
  21952129.700   115359480.63209  21952127.800    89890619.94948
  24200631.840   127175173.72008  24200634.200    99097547.36145
 15 02 05 16 25  0.0000000  0  7G05G13G15G17G24G28G30
  22250007.320   116924602.54109  22250008.100    91110094.80548
  20264302.700   106489743.54009  20264301.080    82979075.47749
  21628767.300   113660051.80309  21628766.840    88566319.85748
  23992813.560   126083163.13509  23992815.620    98246644.74347
  23480748.780   123392217.23008  23480752.940    96149827.84047
  21963779.180   115420699.20709  21963777.240    89938322.74948
  24216410.760   127258092.06608  24216413.120    99162159.06546
 15 02 05 16 25 30.0000000  0  7G05G13G15G17G24G28G30
  22266618.480   117011894.45809  22266619.060    91178114.43448
  20262624.860   106480926.20009  20262623.200    82972204.84349
  21615998.580   113592952.19909  21615998.060    88514034.50548
  23980331.800   126017571.51609  23980333.640    98195534.58647
  23467022.200   123320084.09908  23467026.380    96093620.37347
  21975500.660   115482295.74509  21975498.640    89986320.06148
  24232188.220   127341003.31208  24232190.560    99226765.22145
 15 02 05 16 26  0.0000000  0  7G05G13G15G17G24G28G30
  22283285.500   117099480.03709  22283286.020    91246362.88848
  20261017.660   106472480.02009  20261015.860    82965623.41949
  21603274.400   113526086.61609  21603273.780    88461931.50048
  23967890.160   125952190.44609  23967891.880    98144588.48847
  23453322.720   123248093.19008  23453326.580    96037523.70446
  21987293.000   115544264.73709  21987290.920    90034607.60248
  24247963.580   127423903.63808  24247965.760    99291362.88645
 15 02 05 16 26 30.0000000  0  7G05G13G15G17G24G28G30
  22300008.620   117187359.62709  22300009.060    91314840.45248
  20259481.940   106464409.65509  20259480.100    82959334.84349
  21590595.860   113459460.50909  21590595.180    88410015.10248
  23955489.720   125887025.77809  23955491.400    98093811.02347
  23439650.640   123176247.80107  23439654.660    95981540.45247
  21999156.400   115606607.11409  21999154.300    90083186.07848
  24263737.400   127506795.79708  24263739.700    99355954.17346
 15 02 05 16 27  0.0000000  0  7G05G13G15G17G24G28G30
  22316786.820   117275528.96209  22316787.340    91383543.78248
  20258017.540   106456714.54909  20258015.740    82953338.67549
  21577962.940   113393074.16609  21577962.220    88358285.53648
  23943130.740   125822078.94509  23943132.260    98043203.29147
  23426005.900   123104546.32307  23426010.140    95925669.37146
  22011090.140   115669319.35409  22011088.040    90132052.76948
  24279509.300   127589677.57008  24279511.520    99420537.39746
 15 02 05 16 27 30.0000000  0  7G05G13G15G17G24G28G30
  22333619.880   117363986.95509  22333620.340    91452472.02948
  20256625.060   106449397.66809  20256623.380    82947637.22249
  21565376.360   113326931.00009  21565375.560    88306745.43948
  23930813.960   125757354.22009  23930815.260    97992768.64847
  23412388.900   123032990.43407  23412393.180    95869911.69945
  22023094.060   115732400.61109  22023092.000    90181206.98648
  24295279.220   127672550.09408  24295281.560    99485113.37845
 15 02 05 16 28  0.0000000  0  7G05G13G15G17G24G28G30
  22350506.780   117452727.20209  22350507.040    91521620.24348
  20255304.160   106442456.97009  20255302.540    82942228.90049
  21552835.680   113261029.62409  21552834.900    88255393.77248
  23918539.240   125692850.95608  23918540.320    97942506.54647
  23398798.980   122961576.80908  23398803.340    95814264.87045
  22035167.080   115795845.18509  22035165.100    90230644.32548
  24311046.540   127755409.25808  24311049.300    99549678.95146
 15 02 05 16 28 30.0000000  0  7G05G13G15G17G24G28G30
  22367446.680   117541745.77709  22367446.700    91590985.32748
  20254054.780   106435891.98309  20254053.200    82937113.34848
  21540340.920   113195370.01509  21540340.240    88204230.49248
  23906306.920   125628570.68708  23906307.920    97892418.21146
  23385236.080   122890303.92908  23385240.320    95758727.68046
  22047308.600   115859649.69509  22047306.740    90280362.13147
  24326811.200   127838253.34708  24326813.960    99614232.80145
 15 02 05 16 29  0.0000000  0  7G05G13G15G17G24G28G30
  22384440.280   117631046.87009  22384440.280    91660570.53748
  20252878.620   106429711.34909  20252877.020    82932297.27648
  21527893.960   113129961.61909  21527893.460    88153262.96648
  23894118.960   125564523.61608  23894119.820    97842511.58246
  23371701.340   122819179.24708  23371705.740    95703306.00346
  22059519.620   115923819.20309  22059517.860    90330364.34348
  24342574.160   127921089.03807  24342577.020    99678780.10245
 15 02 05 16 29 30.0000000  0  7G05G13G15G17G24G28G30
  22401485.940   117720622.68609  22401486.060    91730369.81148
  20251774.840   106423910.85409  20251773.160    82927777.43249
  21515494.100   113064800.71909  21515493.840    88102488.29648
  23881974.880   125500707.13808  23881975.700    97792784.64947
  23358193.800   122748196.77908  23358198.160    95647995.13346
  22071798.600   115988345.60009  22071796.860    90380644.66148
  24358334.240   128003910.32607  24358337.400    99743316.18445
 15 02 05 16 30  0.0000000  0  7G05G13G15G17G24G28G30
  22418583.180   117810469.51409  22418583.520    91800380.26548
  20250743.600   106418491.46709  20250741.880    82923554.53949
  21503141.720   112999888.94909  21503141.600    88051907.75848
  23869875.160   125437123.75708  23869876.040    97743239.31746
  23344713.520   122677356.91508  23344717.560    95592795.35347
  22084145.040   116053226.51409  22084143.300    90431201.21948
  24374091.640   128086716.47407  24374094.860    99807840.46745
 15 02 05 16 30 30.0000000  0  7G05G13G15G17G24G28G30
  22435731.920   117900586.78809  22435732.500    91870601.45048
  20249785.540   106413456.58609  20249783.740    82919631.27448
  21490837.600   112935230.33909  21490837.440    88001524.48648
  23857820.820   125373778.50308  23857821.600    97693879.55146
  23331260.680   122606661.31108  23331264.540    95537708.01747
  22096558.920   116118461.80509  22096557.160    90482033.92748
  24389846.400   128169509.06607  24389849.840    99872354.16646
 15 02 05 16 31  0.0000000  0  7G05G13G15G17G24G28G30
  22452931.800   117990972.56309  22452932.500    91941031.86648
  20248900.960   106408807.95609  20248899.080    82916008.99349
  21478582.220   112870827.32509  21478581.920    87951340.37148
  23845812.400   125310674.72408  23845813.060    97644707.92447
  23317835.520   122536111.37808  23317839.320    95482734.20547
  22109039.960   116184050.08609  22109038.200    90533141.69648
  24405598.620   128252288.41307  24405602.360    99936857.60045
 15 02 05 16 31 30.0000000  0  7G05G13G15G17G24G28G30
  22470181.760   118081621.66209  22470182.520    92011667.46448
  20248089.700   106404544.66909  20248087.760    82912686.96449
  21466375.420   112806679.72709  21466375.000    87901355.29348
  23833850.040   125247813.01708  23833850.700    97595724.93246
  23304437.400   122465703.87708  23304441.040    95427871.35447
  22121587.300   116249986.63709  22121585.520    90584520.82648
  24421347.760   128335051.75107  24421351.680   100001348.50845
 15 02 05 16 32  0.0000000  0  7G05G13G15G17G24G28G30
  22487482.060   118172534.78709  22487482.800    92082508.79548
  20247352.620   106400671.17409  20247350.660    82909668.66449
  21454218.180   112742792.77909  21454217.700    87851573.31348
  23821934.920   125185199.57408  23821935.780    97546935.39447
  23291066.760   122395442.33908  23291070.600    95373122.28047
  22134201.140   116316272.53609  22134199.240    90636172.18048
  24437094.540   128417801.97007  24437098.540   100065829.20045
 15 02 05 16 32 30.0000000  0  7G05G13G15G17G24G28G30
  22504831.160   118263704.31109  22504831.760    92153549.91748
  20246689.080   106397184.11709  20246687.100    82906951.48549
  21442110.020   112679163.74809  21442109.360    87801992.30148
  23810066.780   125122832.92108  23810067.700    97498338.14147
  23277723.200   122325322.37808  23277727.200    95318483.46447
  22146880.080   116382900.69709  22146878.080    90688090.23848
  24452837.960   128500533.90307  24452841.860   100130295.68345
 15 02 05 16 33  0.0000000  0  7G05G13G15G17G24G28G30
  22522229.040   118355130.31409  22522229.520    92224790.88548
  20246099.940   106394087.84509  20246097.880    82904538.82048
  21430051.760   112615797.27209  21430050.960    87752615.88048
  23798246.560   125060718.19709  23798247.360    97449937.19547
  23264407.160   122255347.35308  23264411.300    95263957.62447
  22159624.280   116449872.11709  22159622.260    90740275.77247
  24468578.520   128583250.19008  24468582.200   100194749.95945
 15 02 05 16 33 30.0000000  0  7G05G13G15G17G24G28G30
  22539674.760   118446807.46609  22539675.020    92296227.57848
  20245584.880   106391381.29409  20245582.820    82902429.83348
  21418043.420   112552693.30309  21418042.620    87703444.00348
  23786474.500   124998856.32708  23786475.260    97401733.26747
  23251118.380   122185514.24308  23251122.360    95209542.30647
  22172432.900   116517182.24009  22172430.920    90792725.22347
  24484315.520   128665948.10807  24484319.180   100259189.90145
 15 02 05 16 34  0.0000000  0  7G05G13G15G17G24G28G30
  22557167.900   118538734.48509  22557168.120    92367858.95948
  20245144.240   106389066.03809  20245142.200    82900625.75248
  21406085.420   112489854.38009  21406084.760    87654478.66348
  23774751.240   124937251.12808  23774751.980    97353729.36347
  23237856.800   122115824.52408  23237860.800    95155238.77447
  22185305.720   116584829.57009  22185303.740    90845437.44347
  24500049.120   128748628.05608  24500052.280   100323615.86345
 15 02 05 16 34 30.0000000  0  7G05G13G15G17G24G28G30
  22574707.980   118630908.68709  22574708.340    92439682.92548
  20244778.440   106387144.03009  20244776.460    82899128.09849
  21394178.460   112427283.49809  21394177.880    87605722.18748
  23763077.380   124875905.69108  23763078.180    97305927.86547
  23224622.760   122046278.72808  23224626.600    95101047.35147
  22198242.380   116652812.38509  22198240.420    90898411.06947
  24515779.380   128831290.24507  24515782.120   100388028.02245
 15 02 05 16 35  0.0000000  0  7G05G13G15G17G24G28G30
  22592295.140   118723329.73209  22592295.640    92511699.23548
  20244488.180   106385619.02409  20244486.240    82897939.79448
  21382323.380   112364984.85209  21382322.760    87557177.83348
  23751454.000   124814825.47608  23751454.800    97258333.03447
  23211416.320   121976878.71408  23211420.160    95046969.54947
  22211242.880   116721130.90709  22211241.000    90951646.29347
  24531506.480   128913936.60307  24531509.440   100452427.78345
 15 02 05 16 35 30.0000000  0  7G05G13G15G17G24G28G30
  22609928.100   118815990.63209  22609928.440    92583902.47748
  20244272.860   106384487.86709  20244270.960    82897058.37949
  21370519.600   112302955.60909  21370518.880    87508843.40148
  23739880.900   124754008.98708  23739881.740    97210943.68947
  23198236.960   121907620.89908  23198240.640    94993002.53947
  22224306.000   116789778.64209  22224304.200    91005138.04048
  24547229.680   128996562.62407  24547232.640   100516811.72745
 15 02 05 16 36  0.0000000  0  7G05G13G15G17G24G28G30
  22627606.880   118908892.24409  22627607.160    92656293.26348
  20244133.400   106383755.28609  20244131.560    82896487.55549
  21358768.200   112241201.59109  21358767.340    87460723.43248
  23728359.360   124693462.86209  23728359.840    97163765.02547
  23185085.340   121838508.47208  23185088.800    94939148.82347
  22237432.080   116858756.94909  22237430.340    91058887.36747
  24562949.500   129079171.33707  24562952.360   100581182.19645
 15 02 05 16 36 30.0000000  0  7G05G13G15G17G24G28G30
  22645330.240   119002027.93909  22645330.440    92728866.46748
  20244069.500   106383419.53909  20244067.720    82896225.94949
  21347068.900   112179721.40709  21347067.920    87412816.83848
  23716889.160   124633186.29209  23716889.400    97116796.40647
  23171960.720   121769538.25008  23171964.200    94885405.91347
  22250620.020   116928060.14109  22250618.380    91112889.86447
  24578665.340   129161759.43208  24578668.380   100645536.57045
 15 02 05 16 37  0.0000000  0  7G05G13G15G17G24G28G30
  22663097.780   119095396.13009  22663097.960    92801620.81348
  20244081.420   106383482.12709  20244079.660    82896274.73248
  21335422.240   112118517.92909  21335421.200    87365125.85948
  23705470.940   124573182.84909  23705470.960    97070040.62247
  23158863.420   121700711.68408  23158866.760    94831774.95047
  22263869.540   116997686.98909  22263867.980    91167144.55147
  24594377.500   129244327.15108  24594380.180   100709875.10644
 15 02 05 16 37 30.0000000  0  7G05G13G15G17G24G28G30
  22680909.000   119188994.17709  22680909.180    92874554.28648
  20244169.440   106383944.57509  20244167.660    82896635.09449
  21323828.640   112057593.20309  21323827.580    87317652.08148
  23694105.100   124513455.31109  23694105.100    97023499.82547
  23145793.400   121632027.96808  23145796.700    94778255.25247
  22277180.200   117067635.15009  22277178.680    91221649.61348
  24610085.760   129326874.16007  24610088.340   100774197.51045
 15 02 05 16 38  0.0000000  0  7G05G13G15G17G24G28G30
  22698764.080   119282823.38709  22698764.440    92947667.88748
  20244334.520   106384811.91609  20244332.720    82897310.96349
  21312289.220   111996953.14909  21312288.140    87270400.14148
  23682793.080   124454010.74209  23682793.020    96977179.52247
  23132751.320   121563491.70608  23132754.480    94724850.48346
  22290552.320   117137906.00409  22290550.720    91276406.13447
  24625790.660   129409404.31907  24625793.340   100838506.76345
 15 02 05 16 38 30.0000000  0  7G05G13G15G17G24G28G30
  22716661.640   119376876.49309  22716662.300    93020955.94648
  20244576.140   106386081.31509  20244574.200    82898300.10649
  21300803.520   111936595.34609  21300802.420    87223368.11548
  23671534.600   124394847.44809  23671534.540    96931078.38147
  23119736.400   121495098.57808  23119739.300    94671557.23746
  22303984.640   117208493.05709  22303982.980    91331409.03048
  24641491.440   129491912.92408  24641494.500   100902799.18745
 15 02 05 16 39  0.0000000  0  7G05G13G15G17G24G28G30
  22734601.300   119471151.03609  22734602.200    93094416.53848
  20244894.500   106387754.13409  20244892.460    82899603.61749
  21289372.040   111876522.59209  21289370.980    87176558.21848
  23660330.300   124335968.82408  23660330.240    96885199.07047
  23106748.760   121426849.13608  23106751.720    94618375.95447
  22317476.900   117279394.98409  22317475.180    91386657.29047
  24657188.180   129574400.21507  24657191.160   100967075.06545
 15 02 05 16 39 30.0000000  0  7G05G13G15G17G24G28G30
  22752582.720   119565644.64509  22752583.860    93168047.83648
  20245289.920   106389832.26209  20245287.920    82901222.94748
  21277995.340   111816737.27009  21277994.120    87129972.28348
  23649180.800   124277378.40808  23649180.800    96839544.33347
  23093788.600   121358744.06108  23093791.600    94565307.16646
  22331028.800   117350610.22109  22331027.000    91442149.68747
  24672880.940   129656866.57507  24672883.540   101031334.60945
 15 02 05 16 40  0.0000000  0  7G05G13G15G17G24G28G30
  22770604.720   119660351.25209  22770606.040    93241845.09648
  20245761.920   106392313.20909  20245760.040    82903156.16448
  21266672.960   111757237.62809  21266671.660    87083608.96248
  23638085.820   124219075.31308  23638086.120    96794113.50246
  23080855.100   121290779.36508  23080858.200    94512347.79247
  22344639.060   117422132.39109  22344637.180    91497881.24847
  24688569.120   129739307.86808  24688571.700   101095574.62345
 15 02 05 16 40 30.0000000  0  7G05G13G15G17G24G28G30
  22788667.620   119755272.77609  22788669.080    93315809.80148
  20246311.740   106395202.80009  20246309.940    82905407.79648
  21255406.260   111698030.43609  21255404.880    87037473.50749
  23627046.960   124161067.02408  23627047.340    96748912.35247
  23067949.500   121222960.26308  23067952.720    94459501.84747
  22358308.200   117493964.24309  22358306.260    91553854.13647
  24704253.400   129821728.66107  24704255.940   101159798.61645
 15 02 05 16 41  0.0000000  0  6G05G13G15G17G24G28
  22806768.560   119850393.69509  22806769.900    93389929.90448
  20246937.040   106398489.06609  20246935.300    82907968.52748
  21244193.120   111639104.93809  21244191.720    86991557.55448
  23616062.320   124103343.39108  23616062.640    96703933.01346
  23055069.240   121155273.51508  23055072.240    94406759.01447
  22372033.320   117566090.51709  22372031.400    91610056.41547
 15 02 05 16 41 30.0000000  0  6G05G13G15G17G24G28
  22824911.060   119945732.61609  22824912.280    93464219.88048
  20247642.320   106402195.45509  20247640.540    82910856.63349
  21233038.020   111580484.85409  21233036.720    86945879.60448
  23605136.680   124045929.21509  23605137.000    96659194.81647
  23042218.380   121087741.52908  23042221.400    94354136.79447
  22385818.180   117638530.93109  22385816.340    91666503.49747
 15 02 05 16 42  0.0000000  0  6G05G13G15G17G24G28
  22843092.580   120041276.21109  22843093.720    93538669.32247
  20248425.740   106406312.33909  20248423.900    82914064.60148
  21221939.320   111522161.34109  21221938.160    86900432.73348
  23594268.460   123988816.48109  23594268.860    96614691.50347
  23029394.840   121020353.44508  23029397.820    94301626.69147
  22399660.320   117711272.32009  22399658.520    91723185.09547
 15 02 05 16 42 30.0000000  0  6G05G13G15G17G24G28
  22861312.480   120137021.46209  22861313.520    93613275.91347
  20249287.360   106410840.11209  20249285.460    82917592.75249
  21210897.440   111464136.43009  21210896.420    86855218.54548
  23583458.080   123932007.47408  23583458.500    96570424.86247
  23016598.600   120953108.91908  23016601.440    94249228.46147
  22413559.280   117784312.25709  22413557.500    91780099.33047
 15 02 05 16 43  0.0000000  0  6G05G13G15G17G24G28
  22879570.200   120232965.13509  22879570.960    93688037.13947
  20250227.260   106415779.37009  20250225.340    82921441.53048
  21199912.740   111406411.97509  21199911.840    86810238.48848
  23572705.940   123875504.69208  23572706.280    96526396.83247
  23003829.540   120886007.74608  23003832.400    94196941.93147
  22427514.540   117857647.99809  22427512.780    91837244.05747
 15 02 05 16 43 30.0000000  0  6G05G13G15G17G24G28
  22897865.420   120329105.88809  22897865.940    93762951.91547
  20251245.960   106421132.86609  20251244.080    82925613.08249
  21188985.720   111348990.50209  21188984.860    86765494.50548
  23562012.680   123819311.94008  23562012.980    96482610.40447
  22991088.040   120819051.55508  22991091.020    94144768.39547
  22441525.900   117931278.68609  22441524.280    91894618.61547
 15 02 05 16 44  0.0000000  0  6G05G13G15G17G24G28
  22916197.000   120425437.86909  22916197.360    93838015.70848
  20252343.200   106426899.31409  20252341.380    82930106.43648
  21178116.360   111291871.76109  21178115.440    86720986.43048
  23551378.460   123763429.54608  23551378.660    96439065.81447
  22978373.640   120752237.58708  22978376.640    94092705.66947
  22455592.540   118005199.63809  22455591.020    91952219.35347
 15 02 05 16 44 30.0000000  0  6G05G13G15G17G24G28
  22934564.300   120521957.67909  22934564.560    93913225.86148
  20253518.960   106433078.62909  20253517.260    82934921.48648
  21167304.940   111235057.11309  21167303.880    86676715.31549
  23540803.820   123707859.68809  23540803.940    96395764.73247
  22965686.060   120685564.36108  22965688.960    94040752.61447
  22469713.860   118079407.45809  22469712.360    92010043.63647
 15 02 05 16 45  0.0000000  0  7G05G13G15G17G18G24G28
  22952967.680   120618667.43909  22952967.940    93988584.04348
  20254774.600   106439677.19809  20254772.880    82940063.24548
  21156552.720   111178553.29009  21156551.520    86632686.39749
  23530290.100   123652609.72909  23530290.060    96352712.93547
  24939096.420   131055831.93507  24939097.760   102121436.80644
  22953026.420   120619037.98508  22953029.320    93988913.98447
  22483890.360   118153904.76909  22483888.780    92068093.48547
 15 02 05 16 45 30.0000000  0  7G05G13G15G17G18G24G28
  22971407.040   120715566.49609  22971407.480    94064089.70948
  20256110.520   106446697.29809  20256108.720    82945533.46548
  21145860.420   111122364.12009  21145859.120    86588902.66949
  23519838.140   123597684.21909  23519837.940    96309913.93947
  24924416.960   130978692.23407  24924418.640   102061328.05044
  22940395.000   120552659.80808  22940397.900    93937190.83047
  22498121.900   118228691.21809  22498120.200    92126368.64447
 15 02 05 16 46  0.0000000  0  7G05G13G15G17G18G24G28
  22989880.460   120812644.83409  22989881.100    94139735.06348
  20257525.620   106454133.10209  20257523.720    82951327.60248
  21135227.020   111066484.69509  21135225.620    86545360.29549
  23509447.100   123543079.02209  23509446.660    96267364.53947
  24909795.660   130901857.63008  24909797.000   102001456.98944
  22927790.360   120486422.64808  22927793.440    93885577.56447
  22512406.700   118303757.80509  22512404.880    92184862.09247
 15 02 05 16 46 30.0000000  0  7G05G13G15G17G18G24G28
  23008387.520   120909900.46709  23008388.460    94215518.52148
  20259020.340   106461987.07809  20259018.300    82957447.58548
  21124653.100   111010918.02409  21124651.640    86502061.63749
  23499117.620   123488797.57509  23499117.080    96225067.41447
  24895233.040   130825331.27808  24895234.460   101941826.20144
  22915212.760   120420327.71008  22915215.820    93834075.12247
  22526744.460   118379102.99809  22526742.640    92243572.63447
 15 02 05 16 47  0.0000000  0  7G05G13G15G17G18G24G28
  23026927.940   121007331.41208  23026929.220    94291438.59148
  20260595.000   106470261.15209  20260592.840    82963894.90849
  21114139.240   110955667.01209  21114137.740    86459008.93549
  23488850.360   123434843.40109  23488849.840    96183025.28247
  24880729.640   130749116.34807  24880730.980   101882438.02244
  22902662.440   120354376.18408  22902665.360    93782684.41147
  22541134.960   118454725.57209  22541133.180    92302499.31647
 15 02 05 16 47 30.0000000  0  7G05G13G15G17G18G24G28
  23045500.940   121104933.45208  23045502.500    94367491.97948
  20262249.220   106478953.84809  20262247.060    82970668.43749
  21103685.440   110900732.05909  21103683.980    86416202.51349
  23478645.640   123381217.57709  23478645.200    96141239.01847
  24866285.680   130673213.34107  24866287.240   101823292.90944
  22890139.140   120288566.21408  22890142.080    93731404.00047
  22555577.520   118530621.52709  22555575.680    92361639.02147
 15 02 05 16 48  0.0000000  0  7G05G13G15G17G18G24G28
  23064106.040   121202703.78808  23064107.880    94443676.51648
  20263983.340   106488066.70209  20263981.180    82977769.37148
  21093292.020   110846114.70409  21093290.640    86373643.56848
  23468503.940   123327922.78609  23468503.600    96099710.70047
  24851901.720   130597624.70007  24851903.160   101764392.76244
  22877642.840   120222898.15808  22877645.940    93680234.18947
  22570071.640   118606788.32909  22570069.660    92420989.78047
 15 02 05 16 48 30.0000000  0  7G05G13G15G17G18G24G28
  23082743.260   121300642.87509  23082745.340    94519992.53848
  20265798.240   106497604.51009  20265796.140    82985201.42149
  21082960.020   110791820.42709  21082958.780    86331336.37149
  23458426.280   123274964.98508  23458426.040    96058444.96047
  24837578.540   130522355.48507  24837579.660   101705741.55644
  22865173.980   120157374.76308  22865177.040    93629177.09947
  22584617.520   118683227.12709  22584615.380    92480552.47947
 15 02 05 16 49  0.0000000  0  7G05G13G15G17G18G24G28
  23101411.580   121398745.19409  23101413.660    94596435.76348
  20267693.420   106507564.54709  20267691.460    82992962.48849
  21072689.480   110737849.07109  21072688.300    86289280.80049
  23448412.740   123222344.34109  23448412.660    96017441.95247
  24823315.880   130447405.16807  24823317.240   101647338.82745
  22852732.220   120091993.81408  22852735.280    93578231.01947
  22599214.280   118759933.27709  22599212.060    92540323.50947
 15 02 05 16 49 30.0000000  0  7G05G13G15G17G18G24G28
  23120110.760   121497009.39309  23120112.760    94673005.14947
  20269669.540   106517949.68209  20269667.680    83001054.81249
  21062480.840   110684203.25409  21062479.800    86247478.91048
  23438464.180   123170064.74209  23438464.120    95976704.68347
  24809114.620   130372777.13807  24809116.280   101589187.26044
  22840317.860   120026756.69208  22840321.020    93527397.00447
  22613861.640   118836905.72809  22613859.420    92600302.04547
 15 02 05 16 50  0.0000000  0  7G05G13G15G17G18G24G28
  23138839.880   121595430.77909  23138841.680    94749697.01747
  20271726.380   106528758.90409  20271724.580    83009477.58049
  21052334.220   110630883.40209  21052333.280    86205931.00448
  23428580.660   123118126.68809  23428580.520    95936233.54847
  24794974.800   130298471.74308  24794976.140   101531287.08845
  22827930.620   119961661.28308  22827933.600    93476673.38747
  22628558.820   118914140.13309  22628556.700    92660484.69547
 15 02 05 16 50 30.0000000  0  7G05G13G15G17G18G24G28
  23157598.600   121694007.34409  23157600.060    94826509.82247
  20273864.340   106539994.12309  20273862.580    83018232.28748
  21042250.220   110577892.48109  21042249.340    86164639.40048
  23418762.820   123066533.84309  23418762.640    95896031.41147
  24780896.900   130224492.17608  24780898.240   101473640.80544
  22815570.640   119896709.17808  22815573.580    93426061.43747
  22643305.600   118991635.36309  22643303.640    92720870.59147
 15 02 05 16 51  0.0000000  0  7G05G13G15G17G18G24G28
  23176386.440   121792736.81409  23176387.520    94903441.78947
  20276083.700   106551656.95909  20276081.980    83027320.20848
  21032229.320   110525232.91109  21032228.540    86123606.00648
  23409011.280   123015289.47209  23409011.100    95856100.81147
  24766881.460   130150841.25908  24766882.980   101416250.63044
  22803237.860   119831900.43408  22803240.880    93375561.21747
  22658101.660   119069389.57509  22658099.840    92781458.28447
 15 02 05 16 51 30.0000000  0  7G05G13G15G17G18G24G28
  23195202.780   121891616.17909  23195203.680    94980490.54447
  20278384.500   106563748.14409  20278382.860    83036741.91949
  21022271.840   110472906.54209  21022271.080    86082832.25448
  23399326.540   122964395.94109  23399326.320    95816443.59747
  24752928.980   130077520.56108  24752930.520   101359117.74145
  22790932.400   119767235.14708  22790935.540    93325172.78447
  22672946.500   119147400.28209  22672944.880    92842245.84447
 15 02 05 16 52  0.0000000  0  7G05G13G15G17G18G24G28
  23214047.360   121990644.42709  23214048.340    95057655.24547
  20280767.300   106576270.21309  20280765.740    83046499.36549
  21012378.580   110420917.23809  21012377.760    86042321.13749
  23389709.400   122913857.58709  23389709.140    95777063.13347
  24739040.000   130004533.97008  24739041.080   101302245.18744
  22778654.580   119702715.45608  22778657.720    93274897.80047
  22687840.080   119225666.96409  22687838.520    92903232.85847
 15 02 05 16 52 30.0000000  0  7G05G13G15G17G18G24G28
  23232918.780   122089814.19808  23232920.040    95134930.22147
  20283231.300   106589218.90709  20283229.820    83056589.25248
  21002548.960   110369261.94709  21002548.020    86002070.28849
  23380159.300   122863671.79609  23380159.080    95737957.40847
  24725214.080   129931878.91308  24725214.860   101245631.06845
  22766403.500   119638335.59308  22766406.500    93224731.75247
  22702781.020   119304182.53309  22702779.480    92964413.82147
 15 02 05 16 53  0.0000000  0  7G05G13G15G17G18G24G28
  23251817.680   122189128.80308  23251819.360    95212318.03748
  20285777.960   106602601.76409  20285776.500    83067017.45649
  20992784.520   110317948.91409  20992783.360    85962086.12949
  23370678.020   122813847.34609  23370677.840    95699133.24447
  24711452.760   129859563.43008  24711453.620   101189281.45745
  22754180.240   119574102.56908  22754183.220    93174680.14347
  22717770.100   119382951.13809  22717768.620    93025791.93947
 15 02 05 16 53 30.0000000  0  7G05G13G15G17G18G24G28
  23270742.480   122288579.80008  23270744.540    95289812.11247
  20288406.380   106616414.30109  20288404.940    83077780.47049
  20983084.540   110266974.62609  20983083.180    85922365.94348
  23361265.040   122764381.88909  23361264.960    95660588.81047
  24697755.500   129787584.16008  24697756.440   101133193.83645
  22741983.720   119510010.50908  22741987.040    93124738.40547
  22732805.880   119461964.85809  22732804.480    93087361.08047
 15 02 05 16 54  0.0000000  0  7G05G13G15G17G18G24G28
  23289692.480   122388162.66508  23289694.760    95367408.96547
  20291116.360   106630655.40009  20291114.900    83088877.42648
  20973449.120   110216339.65809  20973447.600    85882910.14948
  23351920.500   122715275.94209  23351920.360    95622324.51747
  24684122.440   129715941.68408  24684123.360   101077368.70045
  22729814.000   119446058.57708  22729817.320    93074905.81747
  22747887.580   119541219.62609  22747886.140    93149118.03447
 15 02 05 16 54 30.0000000  0  7G05G13G15G17G18G24G28
  23308668.680   122487882.67009  23308671.000    95445112.68648
  20293909.620   106645333.96009  20293908.140    83100315.25949
  20963880.060   110166053.75609  20963878.420    85843726.36249
  23342646.360   122666540.31809  23342646.140    95584348.77747
  24670555.200   129644646.05307  24670556.060   101021813.84245
  22717672.440   119382254.29408  22717675.340    93025188.25947
  22763016.360   119620721.69709  22763014.820    93211067.70847
 15 02 05 16 55  0.0000000  0  7G05G13G15G17G18G24G28
  23327669.100   122587729.61509  23327671.280    95522915.33548
  20296784.880   106660443.34009  20296783.400    83112088.79649
  20954376.260   110116111.13209  20954374.660    85804810.05849
  23333441.600   122618169.41909  23333441.440    95546657.25847
  24657052.840   129573691.37608  24657053.680   100966524.62945
  22705557.520   119318589.98808  22705560.560    92975579.80748
  22778190.240   119700460.86709  22778188.580    93273202.12647
 15 02 05 16 55 30.0000000  0  7G05G13G15G17G18G24G28
  23346693.820   122687704.09009  23346695.860    95600817.35848
  20299742.980   106675987.59809  20299741.380    83124201.20148
  20944938.760   110066517.19709  20944937.240    85766165.46048
  23324307.440   122570169.50409  23324307.260    95509254.80747
  24643616.400   129503083.31108  24643617.420   100911505.51445
  22693469.960   119255069.31409  22693472.780    92926083.25147
  22793409.420   119780438.14009  22793407.660    93335522.07347
 15 02 05 16 56  0.0000000  0  7G05G13G15G17G18G24G28
  23365742.060   122787802.16909  23365744.080    95678815.67647
  20302783.880   106691966.80009  20302782.100    83136652.52949
  20935567.880   110017273.17909  20935566.460    85727793.52249
  23315244.160   122522542.03309  23315243.900    95472142.57247
  24630246.260   129432823.52408  24630247.160   100856757.79745
  22681409.660   119191691.67308  22681412.280    92876698.15547
  22808673.320   119860650.47009  22808671.520    93398025.18647
 15 02 05 16 56 30.0000000  0  7G05G13G15G17G18G24G28
  23384813.280   122888021.07409  23384815.340    95756908.16447
  20305907.680   106708381.64209  20305905.760    83149443.30448
  20926263.960   109968380.97009  20926262.660    85689695.72049
  23306252.300   122475289.73909  23306252.000    95435322.69147
  24616942.680   129362913.48808  24616943.380   100802282.57245
  22669376.360   119128456.39108  22669378.980    92827423.99347
  22823981.540   119941095.65409  22823979.660    93460709.75347
 15 02 05 16 57  0.0000000  0  7G05G13G15G17G18G24G28
  23403907.160   122988359.40209  23403909.200    95835093.69447
  20309114.700   106725234.16209  20309112.720    83162575.14349
  20917027.700   109919843.83609  20917026.420    85651874.59949
  23297332.460   122428415.50909  23297332.120    95398797.40247
  24603706.180   129293356.15208  24603707.000   100748082.23045
  22657370.440   119065364.95808  22657372.860    92778261.92447
  22839333.880   120021772.84509  22839331.980    93523575.08847
 15 02 05 16 57 30.0000000  0  7G05G13G15G17G18G24G28
  23423022.300   123088809.65408  23423024.280    95913366.43147
  20312404.200   106742520.29709  20312402.140    83176044.84949
  20907858.380   109871658.62909  20907857.060    85614327.70549
  23288484.240   122381917.46009  23288483.780    95362565.22647
  24590536.260   129224148.55408  24590537.120   100694154.39145
  22645391.040   119002412.93108  22645393.440    92729208.48848
  22854728.900   120102674.21909  22854727.060    93586615.12647
 15 02 05 16 58  0.0000000  0  7G05G13G15G17G18G24G28
  23442159.700   123189376.64208  23442161.620    95991730.13647
  20315777.820   106760248.71609  20315775.720    83189859.21048
  20898757.940   109823835.48609  20898756.580    85577062.94549
  23279709.520   122335806.06009  23279709.100    95326634.33347
  24577434.860   129155301.48807  24577435.820   100640507.46645
  22633439.680   118939608.23108  22633442.140    92680269.85748
  22870167.700   120183805.95709  22870166.000    93649834.67647
 15 02 05 16 58 30.0000000  0  7G05G13G15G17G18G24G28
  23461317.760   123290051.97908  23461319.640    96070178.26247
  20319234.740   106778414.84309  20319232.600    83204014.62649
  20889725.660   109776370.78909  20889724.300    85540077.49549
  23271007.740   122290078.31609  23271007.340    95291002.38848
  24564401.420   129086811.06007  24564402.340   100587138.43145
  22621515.320   118876945.46508  22621517.640    92631441.80548
  22885648.880   120265160.56209  22885647.300    93713227.85447
 15 02 05 16 59  0.0000000  0  7G05G13G15G17G18G24G28
  23480495.760   123390832.58408  23480497.700    96148708.39447
  20322774.940   106797018.44909  20322772.820    83218510.95648
  20880761.740   109729265.46309  20880760.360    85503372.07149
  23262379.160   122244735.55709  23262378.900    95255670.43647
  24551436.000   129018678.37507  24551437.220   100534048.17845
  22609617.820   118814423.55409  22609619.920    92582723.52948
  22901171.820   120346734.64609  22901170.360    93776792.08847
 15 02 05 16 59 30.0000000  0  7G05G13G15G17G18G24G28
  23499693.760   123491717.75408  23499695.700    96227319.99446
  20326398.880   106816062.64509  20326396.860    83233350.57949
  20871867.020   109682523.81509  20871865.660    85466950.03249
  23253824.780   122199782.44409  23253824.480    95220642.09547
  24538539.380   128950907.60308  24538540.840   100481239.88345
  22597747.680   118752045.12408  22597749.440    92534116.99547
  22916736.540   120428528.21108  22916735.180    93840527.32347
 15 02 05 17 00  0.0000000  0  7G05G13G15G17G18G24G28
  23518910.820   123592702.73509  23518912.580    96306009.37547
  20330106.420   106835546.43509  20330104.480    83248532.76249
  20863041.640   109636146.30109  20863040.400    85430811.72349
  23245344.640   122155219.68609  23245344.440    95185917.94447
  24525711.860   128883499.06107  24525713.240   100428713.86745
  22585904.320   118689808.38108  22585906.040    92485620.92247
  22932342.360   120510537.64809  22932341.040    93904430.78347
 15 02 05 17 00 30.0000000  0  7G05G13G15G17G18G24G28
  23538146.700   123693786.38009  23538148.340    96384775.66547
  20333898.040   106855471.81409  20333896.080    83264059.02948
  20854286.200   109590135.98209  20854285.000    85394959.55449
  23236939.440   122111051.08609  23236939.400    95151500.91747
  24512953.780   128816456.15407  24512954.820   100376472.74644
  22574088.120   118627714.60308  22574089.800    92437236.24047
  22947989.140   120592761.92709  22947987.760    93968501.64747
 15 02 05 17 01  0.0000000  0  7G05G13G15G17G18G24G28
  23557401.060   123794967.70509  23557402.860    96463618.04347
  20337774.180   106875840.98509  20337772.140    83279931.10648
  20845601.340   109544496.27809  20845600.040    85359396.16249
  23228610.000   122067280.53009  23228610.000    95117394.03247
  24500265.900   128749782.28807  24500267.280   100324519.20044
  22562299.540   118565765.78308  22562301.260    92388964.49748
  22963676.700   120675200.13009  22963675.240    94032739.20647
 15 02 05 17 01 30.0000000  0  7G05G13G15G17G18G24G28
  23576672.060   123896236.83409  23576674.000    96542528.84247
  20341733.600   106896647.60509  20341731.460    83296144.05748
  20836986.060   109499222.19209  20836984.600    85324117.67649
  23220355.420   122023903.37009  23220355.480    95083593.70347
  24487647.740   128683472.27407  24487648.880   100272849.17244
  22550537.180   118503954.60808  22550538.960    92340800.01348
  22979403.260   120757843.19609  22979401.700    94097136.40047
 15 02 05 17 02  0.0000000  0  7G05G13G15G17G18G24G28
  23595960.760   123997598.79609  23595962.660    96621511.97447
  20345778.000   106917900.66009  20345775.760    83312704.87348
  20828442.360   109454324.35409  20828440.740    85289132.36849
  23212177.740   121980930.02909  23212177.800    95050108.03247
  24475100.700   128617536.09908  24475101.340   100221470.43045
  22538802.600   118442289.56008  22538804.620    92292749.39647
  22995169.960   120840697.17309  22995168.340    94161697.93747
 15 02 05 17 02 30.0000000  0  8G05G12G13G15G17G18G24G28
  23615267.480   124099055.20109  23615269.400    96700568.65347
  23890834.020   125547184.90505  23890841.380    97828994.66644
  20349908.200   106939604.81309  20349905.940    83329617.19648
  20819971.200   109409808.05309  20819969.480    85254444.36649
  23204078.200   121938367.13709  23204078.280    95016942.19147
  24462625.900   128551980.22008  24462626.480   100170388.01345
  22527096.660   118380774.95608  22527098.880    92244816.01248
  23010977.060   120923763.63109  23010975.460    94226425.03547
 15 02 05 17 03  0.0000000  0  8G05G12G13G15G17G18G24G28
  23634587.720   124200582.73809  23634589.760    96779680.76847
  23869806.920   125436686.06806  23869813.400    97742892.30144
  20354120.480   106961740.35209  20354118.220    83346865.67248
  20811569.100   109365654.97109  20811567.320    85220039.38449
  23196053.260   121896196.23909  23196053.280    94984081.79947
  24450219.820   128486785.84208  24450220.500   100119587.28644
  22515415.300   118319390.14808  22515417.660    92196983.78247
  23026820.260   121007020.16208  23026818.740    94291300.25847
 15 02 05 17 03 30.0000000  0  8G05G12G13G15G17G18G24G28
  23653923.620   124302192.47809  23653925.800    96858856.92248
  23848812.980   125326361.06206  23848818.340    97656925.40544
  20358417.560   106984321.68109  20358415.340    83364461.50648
  20803239.020   109321880.76209  20803237.360    85185929.62949
  23188106.080   121854433.53409  23188106.040    94951539.47447
  24437885.620   128421968.92608  24437886.180   100069080.68244
  22503761.480   118258149.25708  22503763.880    92149263.66748
  23042701.760   121090478.18408  23042700.440    94356332.49347
 15 02 05 17 04  0.0000000  0  8G05G12G13G15G17G18G24G28
  23673274.700   124403882.19409  23673277.040    96938095.40448
  23827852.200   125216211.89607  23827857.240    97571095.49744
  20362799.620   107007349.56209  20362797.400    83382405.30549
  20794981.460   109278487.63009  20794979.960    85152116.81949
  23180237.100   121813081.60009  23180236.960    94919317.23747
  24425623.720   128357531.57408  24425623.880   100018869.84044
  22492135.260   118197052.72008  22492137.540    92101656.02747
  23058621.240   121174135.95509  23058620.040    94421520.35647
 15 02 05 17 04 30.0000000  0  8G05G12G13G15G17G18G24G28
  23692640.060   124505647.53508  23692642.580    97017392.82847
  23806924.880   125106239.39007  23806929.760    97485403.24844
  20367266.540   107030823.27409  20367264.340    83400696.50448
  20786796.560   109235476.02109  20786795.200    85118601.29449
  23172446.420   121772141.07709  23172446.180    94887415.57347
  24413433.920   128293473.63708  24413434.220    99968954.64645
  22480536.080   118136098.46508  22480538.280    92054159.26448
  23074578.000   121257989.74608  23074576.940    94486860.97747
 15 02 05 17 05  0.0000000  0  8G05G12G13G15G17G18G24G28
  23712019.340   124607486.23608  23712021.980    97096747.40346
  23786031.580   124996446.56707  23786036.140    97399851.02844
  20371818.420   107054743.93009  20371816.320    83419335.96848
  20778684.820   109192848.57909  20778683.520    85085385.12649
  23164734.660   121731615.31009  23164734.340    94855837.09747
  24401316.860   128229797.83408  24401316.980    99919337.22745
  22468964.080   118075287.69408  22468966.100    92006774.32348
  23090571.780   121342037.93508  23090570.780    94552353.05847
 15 02 05 17 05 30.0000000  0  8G05G12G13G15G17G18G24G28
  23731411.860   124709394.45608  23731414.500    97176156.15746
  23765172.720   124886834.40508  23765177.100    97314439.54344
  20376455.260   107079111.08809  20376453.260    83438323.36048
  20770646.300   109150606.05809  20770645.040    85052468.89649
  23157101.760   121691504.55409  23157101.480    94824582.02047
  24389272.640   128166505.20408  24389272.400    99870018.36945
  22457419.200   118014619.33208  22457421.440    91959500.35948
  23106601.900   121426276.90508  23106600.960    94617993.80747
 15 02 05 17 06  0.0000000  0  8G05G12G13G15G17G18G24G28
  23750817.540   124811372.11108  23750820.080    97255618.98145
  23744349.040   124777407.23007  23744353.380    97229172.16145
  20381177.600   107103927.40709  20381175.660    83457660.74948
  20762681.700   109108752.43109  20762680.540    85019855.71149
  23149548.800   121651814.17309  23149548.660    94793654.49947
  24377302.080   128103599.72608  24377301.780    99821001.22945
  22445901.780   117954095.44308  22445904.120    91912338.95748
  23122668.520   121510707.39508  23122667.540    94683783.79147
 15 02 05 17 06 30.0000000  0  8G05G12G13G15G17G18G24G28
  23770234.820   124913410.96908  23770237.360    97335129.48445
  23723559.860   124668162.11007  23723564.120    97144046.69444
  20385984.640   107129188.16609  20385982.640    83477344.45548
  20754790.400   109067284.06009  20754789.420    84987542.72649
  23142075.240   121612540.84109  23142075.180    94763051.94647
  24365404.600   128041078.08008  24365404.480    99772283.13045
  22434410.920   117893711.11308  22434413.240    91865286.32048
  23138770.080   121595321.53509  23138769.040    94749716.88746
 15 02 05 17 07  0.0000000  0  8G05G12G13G15G17G18G24G28
  23789663.880   125015511.47308  23789666.620    97414688.06345
  23702806.440   124559104.99507  23702810.600    97059067.69345
  20390877.060   107154897.46809  20390874.960    83497377.67749
  20746973.500   109026206.52509  20746972.640    84955534.28049
  23134682.140   121573690.03509  23134682.080    94732778.65047
  24353581.060   127978945.53408  24353580.960    99723868.23245
  22422947.280   117833469.96408  22422949.840    91818345.26148
  23154906.860   121680120.61308  23154905.660    94815794.09947
 15 02 05 17 07 30.0000000  0  8G05G12G13G15G17G18G24G28
  23809104.620   125117671.92708  23809107.360    97494293.37646
  23682089.220   124450238.06008  23682093.200    96974236.85545
  20395854.980   107181056.25709  20395852.840    83517761.14948
  20739231.500   108985522.40609  20739230.720    84923832.39549
  23127369.980   121535264.17609  23127369.700    94702836.48547
  24341831.840   127917203.88608  24341831.740    99675757.97245
  22411510.860   117773372.09608  22411513.480    91771515.83148
  23171078.520   121765102.83409  23171077.140    94882014.01846
 15 02 05 17 08  0.0000000  0  8G05G12G13G15G17G18G24G28
  23828555.660   125219885.17309  23828558.280    97573939.79547
  23661407.920   124341559.52808  23661411.880    96889552.78045
  20400917.720   107207660.93809  20400915.540    83538492.05548
  20731564.020   108945229.46409  20731563.240    84892435.31749
  23120138.500   121497261.98709  23120137.900    94673224.45247
  24330156.640   127855851.36008  24330156.440    99627950.93345
  22400101.060   117713414.04108  22400103.680    91724795.33748
  23187283.880   121850262.39208  23187282.280    94948372.09947
 15 02 05 17 08 30.0000000  0  8G05G12G13G15G17G18G24G28
  23848017.260   125322153.58109  23848019.880    97653629.18347
  23640763.940   124233076.84308  23640767.800    96805021.29545
  20406066.360   107234717.31309  20406064.160    83559574.94548
  20723972.320   108905334.48209  20723971.440    84861348.34849
  23112988.880   121459690.27609  23112988.040    94643947.86147
  24318556.800   127794894.95008  24318556.720    99580452.52345
  22388718.960   117653601.34008  22388721.680    91678188.13448
  23203523.540   121935602.00509  23203521.720    95014870.50946
 15 02 05 17 09  0.0000000  0  8G05G12G13G15G17G18G24G28
  23867487.820   125424469.41609  23867490.440    97733355.50547
  23620156.780   124124787.23608  23620160.380    96720640.26246
  20411300.020   107262220.73109  20411297.840    83581006.17648
  20716455.780   108865834.16209  20716454.760    84830568.90649
  23105920.520   121422546.09809  23105919.660    94615004.40348
  24307031.720   127734331.05608  24307031.780    99533259.97645
  22377363.540   117593928.21308  22377366.180    91631689.67148
  23219796.020   122021114.15509  23219794.140    95081503.34746
 15 02 05 17 09 30.0000000  0  8G05G12G13G15G17G18G24G28
  23886968.100   125526836.99209  23886970.820    97813122.13648
  23599587.880   124016699.03408  23599591.460    96636416.14146
  20416620.080   107290178.13809  20416617.880    83602791.16648
  20709015.900   108826736.94309  20709014.720    84800103.57349
  23098935.100   121385837.99909  23098934.320    94586400.74547
  24295582.960   127674167.80708  24295582.960    99486379.63945
  22366035.980   117534401.46808  22366038.480    91585305.26448
  23236102.200   122106803.36509  23236100.280    95148274.16046
 15 02 05 17 10  0.0000000  0  8G05G12G13G15G17G18G24G28
  23906456.200   125629245.73109  23906459.000    97892920.84048
  23579056.400   123908807.13908  23579059.920    96552344.96946
  20422025.240   107318582.50309  20422023.000    83624924.43348
  20701651.620   108788037.29009  20701650.380    84769948.03049
  23092031.740   121349561.15909  23092031.060    94558133.13747
  24284209.300   127614399.63808  24284209.480    99439807.11145
  22354734.980   117475014.28608  22354737.320    91539029.59748
  23252440.240   122192660.14509  23252438.240    95215175.54946
 15 02 05 17 10 30.0000000  0  8G05G12G13G15G17G18G24G28
  23925952.680   125731698.95908  23925955.600    97972754.20047
  23558563.820   123801119.81708  23558567.260    96468433.18246
  20427516.680   107347440.27009  20427514.420    83647411.00548
  20694364.300   108749742.82209  20694363.180    84740108.21049
  23085211.900   121313723.18609  23085211.320    94530207.51047
  24272912.360   127555034.28808  24272912.460    99393548.47745
  22343461.540   117415771.82208  22343463.840    91492866.70848
  23268810.820   122278687.97609  23268808.860    95282210.22046
 15 02 05 17 11  0.0000000  0  8G05G12G13G15G17G18G24G28
  23945456.200   125834189.46608  23945459.200    98052616.60347
  23538109.720   123693634.57508  23538113.060    96384678.84546
  20433093.580   107376747.31409  20433091.400    83670247.66348
  20687153.600   108711851.03209  20687152.540    84710582.17049
  23078475.140   121278321.71009  23078474.580    94502622.00347
  24261691.620   127496069.21108  24261692.000    99347601.75646
  22332214.740   117356670.19608  22332217.120    91446813.57048
  23285212.800   122364880.75309  23285210.820    95349373.42146
 15 02 05 17 11 30.0000000  0  8G05G12G13G15G17G18G24G28
  23964966.700   125936717.12308  23964969.760    98132507.93446
  23517695.020   123586356.31308  23517698.180    96301085.78746
  20438756.640   107406506.97409  20438754.560    83693436.99848
  20680020.440   108674366.38309  20680019.400    84681373.36949
  23071822.300   121243361.08909  23071821.720    94475380.03047
  24250547.820   127437508.57208  24250548.340    99301970.17545
  22320995.540   117297712.58209  22320997.840    91400872.62148
  23301646.180   122451238.75809  23301644.260    95416665.37546
 15 02 05 17 12  0.0000000  0  8G05G12G13G15G17G18G24G28
  23984483.520   126039278.01308  23984486.700    98212425.16146
  23497319.840   123479285.55408  23497322.760    96217654.42247
  20444505.540   107436718.03909  20444503.600    83716978.07948
  20672964.900   108637289.09109  20672963.780    84652481.99749
  23065253.600   121208842.15109  23065252.960    94448482.23448
  24239481.100   127379352.58708  24239481.400    99256653.92845
  22309803.480   117238897.16009  22309805.500    91355042.46248
  23318110.320   122537758.14609  23318108.320    95484083.09046
 15 02 05 17 12 30.0000000  0  8G05G12G13G15G17G18G24G28
  24004006.020   126141868.38708  24004009.300    98292365.35846
  23476984.420   123372423.37208  23476987.240    96134385.57247
  20450340.200   107467379.74709  20450338.360    83740870.31148
  20665987.180   108600620.20009  20665985.900    84623908.85049
  23058769.260   121174766.45909  23058768.500    94421929.80647
  24228491.540   127321602.23608  24228491.720    99211653.72345
  22298638.180   117180222.99509  22298640.120    91309322.39048
  23334604.560   122624435.91509  23334602.520    95551624.19646
 15 02 05 17 13  0.0000000  0  8G05G12G13G15G17G18G24G28
  24023534.320   126244488.74608  24023537.440    98372328.92646
  23456689.640   123265774.85008  23456692.500    96051283.20847
  20456261.240   107498495.13009  20456259.420    83765116.05648
  20659087.980   108564363.99209  20659086.560    84595657.28149
  23052370.020   121141138.28909  23052369.200    94395726.11548
  24217579.900   127264261.49808  24217579.880    99166972.72645
  22287500.320   117121693.30308  22287502.240    91263714.89148
  23351129.040   122711272.85108  23351127.000    95619289.34146
 15 02 05 17 13 30.0000000  0  8G05G12G13G15G17G18G24G28
  24043067.340   126347134.16108  24043070.440    98452312.01046
  23436435.580   123159340.38108  23436438.360    95968347.61347
  20462268.400   107530063.20009  20462266.560    83789714.54648
  20652267.240   108528520.53009  20652265.780    84567727.33049
  23046055.780   121107957.38809  23046055.100    94369870.94247
  24206746.200   127207330.83308  24206746.360    99122611.25045
  22276389.600   117063306.09109  22276391.440    91218218.39348
  23367682.960   122798264.79409  23367681.020    95687075.27346
 15 02 05 17 14  0.0000000  0  8G05G12G13G15G17G18G24G28
  24062604.600   126449802.12208  24062608.000    98532312.66446
  23416222.720   123053122.25908  23416225.380    95885580.59947
  20468361.760   107562084.19309  20468359.920    83814665.96548
  20645525.400   108493091.79809  20645523.880    84540120.54449
  23039827.120   121075226.58409  23039826.620    94344366.49448
  24195990.900   127150811.81508  24195991.140    99078570.54345
  22265306.200   117005061.84809  22265307.900    91172833.31148
  23384266.060   122885409.95708  23384264.240    95754980.58447
 15 02 05 17 14 30.0000000  0  8G05G12G13G15G17G18G24G28
  24082145.680   126552489.85908  24082149.340    98612328.72846
  23396051.280   122947122.26308  23396054.000    95802983.55047
  20474541.300   107594558.11609  20474539.540    83839970.30848
  20638862.740   108458079.23409  20638861.200    84512838.03449
  23033684.340   121042947.38609  23033683.940    94319213.93948
  24185314.140   127094705.51708  24185314.440    99034851.43945
  22254249.820   116946960.48608  22254251.360    91127559.56248
  23400877.920   122972706.14908  23400876.240    95823003.59547
 15 02 05 17 15  0.0000000  0  8G05G12G13G15G17G18G24G28
  24101689.940   126655194.22208  24101693.740    98692357.74246
  23375921.600   122841341.89908  23375924.300    95720557.64046
  20480806.960   107627484.68609  20480805.260    83865627.37248
  20632279.480   108423484.04209  20632277.880    84485880.76949
  23027627.800   121011121.10209  23027627.520    94294414.31747
  24174716.040   127039013.03408  24174716.360    98991454.79245
  22243220.480   116889000.95309  22243222.040    91082396.33048
  23417518.000   123060150.59109  23417516.400    95891142.11946
 15 02 05 17 15 30.0000000  0  8G05G12G13G15G17G18G24G28
  24121236.840   126757912.05908  24121240.680    98772397.23646
  23355834.120   122735782.83508  23355836.760    95638304.16447
  20487158.800   107660863.88609  20487157.100    83891637.13048
  20625775.880   108389307.69309  20625774.300    84459249.86249
  23021657.820   120979749.18709  23021657.580    94269968.73448
  24164197.120   126983735.88708  24164197.260    98948381.80945
  22232218.160   116831183.74408  22232219.740    91037344.01948
  23434185.880   123147740.97508  23434184.360    95959394.35946
 15 02 05 17 16  0.0000000  0  8G05G12G13G15G17G18G24G28
  24140786.320   126860643.83808  24140790.320    98852447.59046
  23335789.680   122630449.96108  23335792.340    95556226.94047
  20493597.360   107694698.49509  20493595.560    83918001.76048
  20619352.880   108355554.98709  20619351.400    84432949.06849
  23015775.240   120948836.24409  23015775.040    94245880.78548
  24153757.840   126928878.40807  24153758.240    98905635.79345
  22221243.240   116773511.04608  22221244.800    90992404.29748
  23450881.560   123235477.31308  23450880.020    96027760.33746
 15 02 05 17 16 30.0000000  0  8G05G12G13G15G17G18G24G28
  24160336.820   126963381.28409  24160341.060    98932502.37246
  23315787.840   122525340.71509  23315790.420    95474323.94647
  20500121.740   107728984.14109  20500119.940    83944717.83648
  20613009.720   108322222.10209  20613008.320    84406975.40849
  23009979.540   120918379.46109  23009979.340    94222148.29148
  24143397.840   126874436.85808  24143398.180    98863213.93745
  22210295.060   116715978.72609  22210296.780    90947573.98248
  23467603.800   123323353.24908  23467602.220    96096235.10246
 15 02 05 17 17  0.0000000  0  8G05G12G13G15G17G18G24G28
  24179888.800   127066125.97709  24179893.140    99012562.78347
  23295829.680   122420460.74609  23295832.180    95392599.59047
  20506732.800   107763724.95209  20506730.960    83971788.58948
  20606747.500   108289314.78909  20606746.160    84381333.35449
  23004271.660   120888384.30509  23004271.520    94198775.49148
  24133118.120   126820416.93308  24133118.440    98821120.59145
  22199374.360   116658590.36208  22199376.080    90902855.81748
  23484352.940   123411370.41808  23484351.240    96164819.91146
 15 02 05 17 17 30.0000000  0  8G05G12G13G15G17G18G24G28
  24199441.600   127168875.30008  24199446.140    99092626.78147
  23275915.480   122315811.98309  23275917.900    95311055.39647
  20513430.460   107798920.99609  20513428.580    83999214.07048
  20600566.560   108256834.38709  20600565.220    84356023.96649
  22998651.920   120858852.22209  22998651.720    94175763.52448
  24122918.920   126766819.87008  24122919.280    98779356.76745
  22188481.000   116601345.87309  22188482.800    90858249.76348
  23501128.380   123499525.81108  23501126.540    96233512.42746
 15 02 05 17 18  0.0000000  0  8G05G12G13G15G17G18G24G28
  24218993.860   127271622.11108  24218998.780    99172688.82247
  23256044.960   122211392.42809  23256047.320    95229689.80647
  20520213.860   107834567.73309  20520212.000    84026990.74248
  20594466.440   108224778.31609  20594465.120    84331045.22649
  22993119.760   120829780.36509  22993119.480    94153110.18448
  24112799.660   126713642.93408  24112799.920    98737920.29445
  22177614.260   116544241.19208  22177616.140    90813752.65848
  23517929.000   123587813.52608  23517927.080    96302308.04146
 15 02 05 17 18 30.0000000  0  8G05G12G13G15G17G18G24G28
  24238546.440   127374370.46208  24238551.640    99252752.04147
  23236219.680   122107210.76209  23236221.980    95148509.57447
  20527084.480   107870672.68509  20527082.540    84055124.46348
  20588448.800   108193155.47209  20588447.520    84306404.06249
  22987677.020   120801178.28909  22987676.620    94130822.89348
  24102762.020   126660894.90308  24102762.440    98696818.03245
  22166775.520   116487283.64409  22166777.560    90769370.20848
  23534755.780   123676238.61308  23534753.860    96371210.71246
 15 02 05 17 19  0.0000000  0  8G05G12G13G15G17G18G24G28
  24258098.060   127477113.40208  24258103.340    99332811.02547
  23216439.040   122003263.83509  23216441.160    95067512.25146
  20534041.360   107907231.02409  20534039.380    84083611.47648
  20582513.080   108161962.91909  20582511.720    84282098.19549
  22982323.120   120773043.02609  22982322.600    94108899.35648
  24092805.140   126608571.89208  24092805.820    98656046.97145
  22155963.840   116430468.04809  22155965.900    90725098.38348
  23551607.400   123764794.38408  23551605.460    96440215.20946
 15 02 05 17 19 30.0000000  0  8G05G12G13G15G17G18G24G28
  24277647.720   127579845.71908  24277652.960    99412861.70247
  23196703.120   121899551.74009  23196704.800    94986697.87346
  20541084.100   107944240.73309  20541082.160    84112450.20048
  20576659.020   108131199.52409  20576657.580    84258126.72249
  22977057.920   120745373.39409  22977057.140    94087338.64148
  24082929.000   126556673.36908  24082929.740    98615606.64645
  22145178.860   116373792.56908  22145181.000    90680935.72948
  23568482.960   123853475.83508  23568481.020    96509317.62846
 15 02 05 17 20  0.0000000  0  8G05G12G13G15G17G18G24G28
  24297195.920   127682570.69608  24297201.360    99492906.65147
  23177013.460   121796082.55609  23177014.760    94906072.76046
  20548213.860   107981707.75409  20548211.940    84141645.26948
  20570888.060   108100872.77709  20570886.580    84234495.49749
  22971882.800   120718177.14809  22971881.700    94066146.81448
  24073135.020   126505206.71008  24073135.540    98575502.82645
  22134421.460   116317263.04108  22134423.540    90636886.81648
  23585383.180   123942287.02808  23585381.260    96578521.17346
 15 02 05 17 20 30.0000000  0  8G05G12G13G15G17G18G24G28
  24316741.300   127785280.90508  24316747.040    99572940.09347
  23157369.500   121692853.77709  23157370.620    94825634.98646
  20555429.740   108019627.43009  20555427.840    84171193.06548
  20565199.740   108070979.86009  20565198.180    84211202.33549
  22966797.180   120691451.54609  22966795.700    94045321.73547
  24063422.820   126454168.61008  24063423.340    98535732.99645
  22123691.240   116260875.61709  22123693.280    90592948.62348
  23602306.740   124031221.19808  23602304.840    96647820.52346
 15 02 05 17 21  0.0000000  0  8G05G12G13G15G17G18G24G28
  24336284.280   127887979.12808  24336290.300    99652964.17147
  23137772.440   121589871.89008  23137773.680    94745389.59546
  20562732.760   108058004.84609  20562730.780    84201097.53948
  20559595.220   108041526.95009  20559593.440    84188252.02349
  22961802.260   120665202.65409  22961800.380    94024868.09247
  24053793.280   126403565.49808  24053793.580    98496302.07844
  22112988.820   116204633.99409  22112990.860    90549124.03748
  23619254.160   124120280.97208  23619252.380    96717217.75846
 15 02 05 17 21 30.0000000  0  8G05G12G13G15G17G18G24G28
  24355823.920   127990659.59108  24355830.120    99732974.42446
  23118222.240   121487136.13608  23118223.760    94665336.00046
  20570122.340   108096837.24409  20570120.320    84231356.54748
  20554074.160   108012513.04809  20554072.200    84165643.80449
  22956897.840   120639429.60609  22956895.740    94004785.25747
  24044246.320   126353395.64608  24044246.620    98457208.76445
  22102313.740   116148536.44609  22102315.760    90505411.74648
  23636224.580   124209461.78308  23636222.960    96786709.31346
 15 02 05 17 22  0.0000000  0  8G05G12G13G15G17G18G24G28
  24375358.620   128093313.44608  24375365.000    99812963.94347
  23098718.220   121384642.46208  23098719.800    94585471.04647
  20577597.280   108136118.38209  20577595.240    84261965.21248
  20548635.740   107983933.96809  20548633.780    84143374.39449
  22952083.040   120614127.97609  22952080.820    93985069.75947
  24034780.940   126303654.26808  24034781.060    98418449.30645
  22091664.960   116092576.39309  22091666.760    90461806.57748
  23653216.520   124298755.59308  23653215.080    96856288.90546
 15 02 05 17 22 30.0000000  0  8G05G12G13G15G17G18G24G28
  24394889.680   128195947.54108  24394896.160    99892938.06146
  23079262.360   121282402.32908  23079264.100    94505803.67047
  20585159.460   108175857.86909  20585157.360    84292931.03848
  20543282.040   107955800.25309  20543280.160    84121452.02749
  22947360.040   120589308.84909  22947357.800    93965730.24047
  24025399.100   126254352.39508  24025398.840    98380032.35044
  22081044.320   116036763.84109  22081045.860    90418316.32648
  23670231.340   124388169.56908  23670229.980    96925962.12946
 15 02 05 17 23  0.0000000  0  8G05G12G13G15G17G18G24G28
  24414415.940   128298555.95608  24414422.400    99972892.16046
  23059854.360   121180413.87009  23059856.020    94426332.36848
  20592808.240   108216052.47709  20592806.060    84324251.50748
  20538012.720   107928110.05509  20538010.960    84099875.26149
  22942728.380   120564969.94909  22942726.240    93946764.91547
  24016100.460   126205487.90108  24016099.900    98341956.18744
  22070450.920   115981094.99109  22070452.280    90374938.07548
  23687267.960   124477697.95808  23687266.700    96995724.52546
 15 02 05 17 23 30.0000000  0  8G05G12G13G15G17G18G24G28
  24433936.060   128401131.66508  24433942.460   100052820.77446
  23040493.860   121078675.28209  23040495.620    94347055.79448
  20600542.720   108256697.73809  20600540.600    84355923.13948
  20532827.260   107900860.71709  20532825.680    84078642.02849
  22938187.560   120541108.63809  22938185.600    93928171.74947
  24006884.440   126157057.61508  24006883.840    98304218.38045
  22059884.160   115925566.24809  22059885.440    90331668.98848
  23704325.160   124567334.38108  23704323.940    97065571.10246
 15 02 05 17 24  0.0000000  0  8G05G12G13G15G17G18G24G28
  24453450.940   128503680.03008  24453457.160   100132728.05746
  23021182.840   120977196.19909  23021184.580    94267981.40948
  20608364.440   108297801.30309  20608362.340    84387951.88648
  20527727.500   107874061.68909  20527725.960    84057759.68049
  22933739.440   120517734.40609  22933737.720    93909958.12547
  23997752.840   126109071.20308  23997752.340    98266826.45445
  22049345.440   115870185.27609  22049346.760    90288515.03348
  23721404.160   124657085.09508  23721402.920    97135506.73646
 15 02 05 17 24 30.0000000  0  8G05G12G13G15G17G18G24G28
  24472958.840   128606191.87508  24472964.880   100212606.86246
  23001920.300   120875972.00309  23001922.140    94189105.65248
  20616272.040   108339356.31109  20616270.020    84420332.39748
  20522712.380   107847707.50809  20522710.820    84037223.96049
  22929383.020   120494842.06109  22929381.560    93892119.98747
  23988704.540   126061522.86008  23988704.040    98229775.87745
  22038833.400   115814944.98709  22038834.740    90245470.72448
  23738503.180   124746940.95408  23738501.920    97205524.28446
 15 02 05 17 25  0.0000000  0  8G05G12G13G15G17G18G24G28
  24492459.940   128708668.69508  24492465.980   100292458.37946
  22982707.420   120775008.52009  22982709.180    94110433.03947
  20624266.460   108381367.56809  20624264.580    84453068.42748
  20517783.080   107821804.36309  20517781.540    84017039.70449
  22925119.460   120472437.59809  22925118.200    93874662.01848
  23979740.760   126014418.12508  23979740.400    98193070.95645
  22028349.200   115759850.94309  22028350.680    90202540.35748
  23755622.700   124836904.32108  23755621.440    97275625.60546
 15 02 05 17 25 30.0000000  0  8G05G12G13G15G17G18G24G28
  24511953.380   128811105.06208  24511959.580   100372278.36346
  22963543.900   120674304.61209  22963545.480    94031962.68147
  20632347.140   108423831.89709  20632345.320    84486157.51048
  20512939.360   107796350.80009  20512937.920    83997205.77149
  22920948.400   120450519.23909  22920947.220    93857582.82448
  23970861.240   125967755.60408  23970860.840    98156710.62645
  22017892.280   115704899.75209  22017893.780    90159721.29648
  23772761.720   124926970.16608  23772760.460    97345806.80046
 15 02 05 17 26  0.0000000  0  8G05G12G13G15G17G18G24G28
  24531438.960   128913500.28208  24531445.240   100452066.26346
  22944430.560   120573864.33108  22944431.860    93953697.73146
  20640514.320   108466750.72809  20640512.580    84519600.73748
  20508181.680   107771349.51909  20508180.340    83977724.26849
  22916870.460   120429090.13709  22916869.320    93840884.86648
  23962066.320   125921538.23208  23962065.960    98120697.11845
  22007462.920   115650093.15009  22007464.400    90117014.90948
  23789920.220   125017138.47408  23789918.940    97416067.80646
 15 02 05 17 26 30.0000000  0  8G05G12G13G15G17G18G24G28
  24550915.800   129015849.09008  24550922.080   100531817.98145
  22925367.240   120473687.12208  22925368.340    93875637.77146
  20648767.540   108510121.58709  20648765.800    84553396.21148
  20503510.000   107746799.87809  20503508.620    83958594.70249
  22912885.520   120408149.59909  22912884.380    93824567.61848
  23953356.060   125875764.59208  23953355.360    98085029.42245
  21997060.560   115595428.92308  21997061.920    90074419.47548
  23807097.300   125107404.27408  23807096.020    97486404.80946
 15 02 05 17 27  0.0000000  0  8G05G12G13G15G17G18G24G28
  24570384.060   129118152.64608  24570390.480   100611534.40945
  22906354.960   120373778.42708  22906356.100    93797787.04346
  20657107.520   108553948.13809  20657105.700    84587546.75748
  20498925.280   107722706.99609  20498923.860    83939821.03449
  22908994.480   120387702.75009  22908993.400    93808635.05447
  23944731.100   125830439.60108  23944730.240    98049711.29745
  21986686.040   115540910.83109  21986687.400    90031937.88948
  23824293.400   125197769.86108  23824291.920    97556819.55746
 15 02 05 17 27 30.0000000  0  8G05G12G13G15G17G18G24G28
  24589842.600   129220404.65307  24589849.060   100691210.65545
  22887393.600   120274136.60409  22887394.660    93720144.27346
  20665533.420   108598226.60209  20665531.620    84622049.45248
  20494427.100   107699068.83209  20494425.620    83921401.70849
  22905196.980   120367747.19709  22905196.080    93793085.32148
  23936190.780   125785560.79408  23936189.960    98014740.83545
  21976338.920   115486535.95409  21976340.060    89989567.89448
  23841507.460   125288229.56908  23841505.800    97627307.65146
 15 02 05 17 28  0.0000000  0  8G05G12G13G15G17G18G24G28
  24609291.420   129322606.31007  24609297.800   100770847.65845
  22868484.100   120174767.07808  22868485.020    93642713.67447
  20674046.020   108642960.70109  20674044.200    84656907.17948
  20490016.440   107675890.28109  20490014.780    83903340.52449
  22901494.000   120348287.86109  22901493.160    93777922.24548
  23927736.280   125741132.71408  23927735.440    97980121.63245
  21966019.520   115432307.34609  21966020.580    89947311.90048
  23858739.700   125378784.56608  23858737.800    97697870.00346
 15 02 05 17 28 30.0000000  0  8G05G12G13G15G17G18G24G28
  24628729.820   129424753.38707  24628736.300   100850442.09746
  22849626.420   120075669.95009  22849627.180    93565495.32947
  20682644.880   108688147.94409  20682643.080    84692118.00848
  20485693.220   107653170.95009  20485691.400    83885637.16449
  22897885.440   120329324.25609  22897884.460    93763145.45548
  23919367.480   125697155.55608  23919367.060    97945853.77745
  21955727.560   115378223.54608  21955728.760    89905168.72648
  23875989.260   125469430.97208  23875987.160    97768503.57046
 15 02 05 17 29  0.0000000  0  8G05G12G13G15G17G18G24G28
  24648157.260   129526842.86607  24648163.920   100929991.64745
  22830820.840   119976846.48309  22830821.680    93488490.23547
  20691329.860   108733787.98309  20691328.080    84727681.66548
  20481457.620   107630911.98609  20481455.740    83868292.53349
  22894371.460   120310857.29909  22894370.340    93748755.66648
  23911084.580   125653629.66608  23911084.060    97911937.55045
  21945463.140   115324284.39609  21945464.500    89863138.28548
  23893255.820   125560166.66008  23893253.700    97839206.72546
 15 02 05 17 29 30.0000000  0  8G05G12G13G15G17G18G24G28
  24667573.040   129628870.39107  24667579.740   101009492.92245
  22812067.480   119878296.96909  22812068.360    93411698.59647
  20700100.580   108779878.66409  20700098.880    84763596.47448
  20477309.500   107609112.99809  20477307.540    83851306.32749
  22890951.960   120292886.78109  22890950.660    93734752.71048
  23902887.480   125610554.19008  23902887.080    97878372.33545
  21935225.960   115270488.20909  21935227.360    89821219.22348
  23910538.620   125650988.02008  23910536.360    97909976.61745
 15 02 05 17 30  0.0000000  0  8G05G12G13G15G17G18G24G28
  24686976.780   129730835.25607  24686983.640   101088945.32846
  22793366.880   119780024.61609  22793367.620    93335122.90447
  20708957.440   108826421.86709  20708955.820    84799863.88848
  20473249.360   107587776.83209  20473247.320    83834680.76549
  22887627.300   120275415.06709  22887625.800    93721138.42848
  23894776.700   125567932.15808  23894776.260    97845160.42745
  21925016.380   115216836.92409  21925017.800    89779413.08248
  23927837.580   125741894.60808  23927835.300    97980812.94046
 15 02 05 17 30 30.0000000  0  8G05G12G13G15G17G18G24G28
  24706368.320   129832736.35507  24706375.680   101168348.03945
  22774719.700   119682033.16809  22774720.280    93258766.09847
  20717900.600   108873418.34009  20717898.980    84836484.51348
  20469277.800   107566906.54809  20469275.800    83818418.22649
  22884398.100   120258445.51709  22884396.460    93707915.45448
  23886752.780   125525765.73008  23886752.080    97812303.55245
  21914834.800   115163331.85809  21914836.060    89737720.85848
  23945152.560   125832885.88308  23945150.460    98051715.23646
 15 02 05 17 31  0.0000000  0  8G05G12G13G15G17G18G24G28
  24725747.160   129934570.13307  24725754.760   101247698.25545
  22756126.140   119584323.82109  22756126.520    93182629.11247
  20726929.940   108920867.72609  20726928.260    84873458.04248
  20465395.060   107546502.91309  20465393.100    83802519.30949
  22881264.420   120241978.50109  22881262.740    93695084.06648
  23878815.700   125484055.57508  23878814.920    97779802.20145
  21904681.000   115109972.86409  21904682.140    89696142.46848
  23962483.240   125923959.88908  23962481.300    98122682.00045
 15 02 05 17 31 30.0000000  0  8G05G12G13G15G17G18G24G28
  24745112.180   130036331.28307  24745120.060   101326991.83645
  22737585.960   119486895.12709  22737586.240    93106710.80747
  20736044.800   108968766.37309  20736043.040    84910781.65148
  20461600.780   107526563.98709  20461598.800    83786982.50049
  22878226.040   120226012.32109  22878224.320    93682642.94048
  23870965.020   125442799.62908  23870964.180    97747654.77845
  21894554.440   115056757.04609  21894555.500    89654675.64848
  23979828.540   126015110.64408  23979826.640    98193708.55846
 15 02 05 17 32  0.0000000  0  8G05G12G13G15G17G18G24G28
  24764464.040   130138022.86107  24764471.780   101406231.18445
  22719100.580   119389754.51209  22719100.920    93031017.00147
  20745246.180   109017119.47609  20745244.360    84948459.38548
  20457896.240   107507096.66609  20457894.320    83771813.18649
  22875284.140   120210553.48909  22875282.460    93670597.14348
  23863201.960   125402004.50208  23863200.960    97715866.42745
  21884456.200   115003690.25809  21884457.260    89613324.94948
  23997189.200   126106342.19808  23997187.380    98264798.09746
 15 02 05 17 32 30.0000000  0  8G05G12G13G15G17G18G24G28
  24783801.480   130239638.59707  24783809.380   101485411.39845
  22700669.540   119292899.55209  22700669.900    92955545.76647
  20754533.220   109065922.89609  20754531.340    84986488.00148
  20454280.980   107488098.31809  20454279.100    83757009.29449
  22872438.320   120195599.42909  22872436.740    93658944.67647
  23855525.860   125361667.35408  23855524.820    97684434.94845
  21874385.540   114950768.30109  21874386.600    89572087.10448
  24014564.140   126197648.48908  24014562.400    98335945.85346
 15 02 05 17 33  0.0000000  0  8G05G12G13G15G17G18G24G28
  24803123.580   130341173.52508  24803132.060   101564528.65044
  22682292.700   119196329.84908  22682293.340    92880296.81447
  20763905.460   109115174.11009  20763903.540    85024865.55148
  20450754.840   107469568.11409  20450752.940    83742570.19549
  22869688.420   120181148.92209  22869686.840    93647684.58048
  23847936.820   125321786.74308  23847935.660    97653359.21945
  21864341.920   114897989.24209  21864343.080    89530960.62648
  24031952.520   126289025.35308  24031950.660    98407148.60846
 15 02 05 17 33 30.0000000  0  8G05G12G13G15G17G18G24G28
  24822431.140   130442631.62007  24822439.640   101643585.96244
  22663971.700   119100053.68709  22663972.500    92805276.60447
  20773364.040   109164879.04509  20773362.060    85063596.65648
  20447319.160   107451513.40509  20447317.240    83728501.60249
  22867035.760   120167209.44609  22867034.200    93636822.70047
  23840435.820   125282370.35108  23840434.660    97622645.21345
  21854326.780   114845359.70709  21854328.060    89489950.65248
  24049355.200   126380477.11908  24049353.420    98478409.72846
 15 02 05 17 34  0.0000000  0  8G05G12G13G15G17G18G24G28
  24841722.600   130544005.43007  24841731.300   101722577.60744
  22645705.960   119004067.97509  22645706.960    92730482.72448
  20782907.860   109215032.42809  20782905.960    85102677.20848
  20443973.320   107433930.79209  20443971.440    83714800.89449
  22864479.580   120153777.10509  22864478.020    93626355.99248
  23833022.480   125243413.96108  23833021.440    97592289.64645
  21844339.260   114792875.31609  21844340.540    89449053.77948
  24066770.900   126471997.10608  24066769.180    98549724.01946
 15 02 05 17 34 30.0000000  0  8G05G12G13G15G17G18G24G28
  24860997.220   130645290.12107  24861006.360   101801499.74444
  22627495.580   118908371.58609  22627496.280    92655914.25047
  20792536.440   109265631.38309  20792534.680    85142104.95148
  20440716.960   107416818.80109  20440715.140    83701466.88949
  22862019.560   120140850.13109  22862018.100    93616283.07247
  23825696.540   125204916.00808  23825695.500    97562291.30445
  21834378.700   114740532.98208  21834380.180    89408267.60248
  24084198.640   126563580.65808  24084196.940    98621087.82946
 15 02 05 17 35  0.0000000  0  8G05G12G13G15G17G18G24G28
  24880255.980   130746491.98907  24880265.280   101880357.32044
  22609342.380   118812975.53709  22609342.640    92581579.78947
  20802251.500   109316684.71509  20802249.780    85181886.75448
  20437552.080   107400187.88809  20437550.340    83688507.75149
  22859657.780   120128439.11909  22859656.380    93606612.18248
  23818459.800   125166886.54008  23818458.760    97532658.02645
  21824446.920   114688342.53409  21824448.700    89367599.79248
  24101639.940   126655235.12208  24101638.120    98692506.89845
 15 02 05 17 35 30.0000000  0  8G05G12G13G15G17G18G24G28
  24899496.660   130847598.53707  24899506.340   101959140.58644
  22591244.680   118717871.52309  22591244.500    92507472.87847
  20812051.000   109368181.62709  20812049.340    85222014.20748
  20434477.020   107384028.96709  20434475.380    83675916.39849
  22857392.500   120116534.95809  22857391.040    93597336.25248
  23811310.480   125129316.15308  23811309.200    97503382.49445
  21814542.260   114636293.59109  21814543.980    89327042.21348
  24119092.480   126746948.49708  24119090.640    98763971.86646
 15 02 05 17 36  0.0000000  0  7G12G13G15G17G18G24G28
  22573204.500   118623069.87409  22573204.120    92433601.61747
  20821936.560   109420130.83109  20821934.940    85262494.09748
  20431493.720   107368351.99309  20431492.220    83663700.59449
  22855225.540   120105147.15709  22855223.980    93588462.68148
  23804250.280   125092214.76408  23804248.880    97474472.39345
  21804666.320   114584395.51009  21804668.160    89286602.23248
  24136557.500   126838727.61008  24136555.680    98835488.07846
 15 02 05 17 36 30.0000000  0  7G12G13G15G17G18G24G28
  22555221.180   118528567.24709  22555220.700    92359963.35048
  20831907.060   109472526.30509  20831905.500    85303321.72448
  20428601.540   107353153.57409  20428600.120    83651857.68549
  22853156.100   120094271.81109  22853154.380    93579988.42948
  23797278.300   125055577.83908  23797277.240    97445924.17746
  21794818.120   114532643.25609  21794819.900    89246275.86648
  24154033.660   126930565.37208  24154031.660    98907049.97946
 15 02 05 17 37  0.0000000  0  7G12G13G15G17G18G24G28
  22537295.600   118434368.14609  22537295.120    92286561.58548
  20841963.000   109525370.48709  20841961.420    85344499.00748
  20425801.120   107338437.15209  20425799.720    83640390.35749
  22851184.880   120083912.68309  22851183.040    93571916.41647
  23790395.400   125019408.92008  23790394.540    97417740.66245
  21784998.260   114481039.35409  21785000.120    89206065.10948
  24171521.100   127022462.63408  24171519.100    98978658.22945
 15 02 05 17 37 30.0000000  0  7G12G13G15G17G18G24G28
  22519427.260   118340469.48809  22519426.760    92213393.92748
  20852103.360   109578658.07509  20852101.780    85386021.79548
  20423091.680   107324199.00309  20423090.300    83629295.71349
  22849311.020   120074065.48509  22849309.200    93564243.32048
  23783600.700   124983703.91508  23783599.900    97389918.64445
  21775205.700   114429579.29909  21775207.560    89165966.45048
  24189018.640   127114412.74308  24189016.660    99050307.67945
 15 02 05 17 38  0.0000000  0  7G12G13G15G17G18G24G28
  22501617.460   118246879.13708  22501617.120    92140466.54948
  20862329.200   109632395.10709  20862327.540    85427894.80448
  20420474.780   107310447.16209  20420473.360    83618580.00449
  22847535.900   120064737.74209  22847534.200    93556974.98547
  23776895.940   124948470.74208  23776895.180    97362464.28745
  21765441.940   114378270.40709  21765443.740    89125985.56948
  24206527.060   127206420.24308  24206525.140    99122001.84245
 15 02 05 17 38 30.0000000  0  7G12G13G15G17G18G24G28
  22483866.040   118153596.17008  22483865.960    92067778.68648
  20872639.920   109686578.36909  20872638.200    85470115.51448
  20417950.000   107297179.37409  20417948.560    83608241.48349
  22845859.260   120055927.62509  22845857.640    93550109.97547
  23770280.560   124913706.88208  23770279.940    97335375.60045
  21755706.360   114327109.53109  21755708.020    89086119.99248
  24224045.540   127298480.58908  24224043.580    99193737.16345
 15 02 05 17 39  0.0000000  0  7G12G13G15G17G18G24G28
  22466173.040   118060619.86509  22466172.920    91995329.74348
  20883034.960   109741205.02209  20883033.240    85512681.73348
  20415517.240   107284394.69509  20415515.560    83598279.40749
  22844280.940   120047633.91509  22844279.280    93543647.38347
  23763754.240   124879410.89708  23763753.800    97308651.50145
  21745998.560   114276094.78709  21746000.340    89046368.32848
  24241573.280   127390589.34508  24241571.200    99265510.23045
 15 02 05 17 39 30.0000000  0  7G12G13G15G17G18G24G28
  22448538.980   117967952.84009  22448538.700    91923121.79248
  20893514.460   109796275.36109  20893512.700    85555593.67948
  20413176.800   107272095.08009  20413174.980    83588695.30049
  22842801.260   120039858.27309  22842799.520    93537588.48648
  23757317.420   124845584.31308  23757316.880    97282293.17445
  21736318.820   114225227.14909  21736320.520    89006731.24948
  24259110.040   127482745.66208  24259107.960    99337320.35345
 15 02 05 17 40  0.0000000  0  7G12G13G15G17G18G24G28
  22430964.100   117875596.28609  22430963.740    91851155.78148
  20904078.300   109851788.62509  20904076.420    85598850.75848
  20410928.780   107260281.52909  20410926.920    83579489.95249
  22841420.300   120032601.24809  22841418.500    93531933.70047
  23750970.000   124812227.64908  23750969.400    97256301.02045
  21726666.960   114174506.50609  21726668.540    88967208.73948
  24276655.480   127574947.68708  24276653.480    99409166.06344
 15 02 05 17 40 30.0000000  0  7G12G13G15G17G18G24G28
  22413449.120   117783554.37909  22413448.600    91779434.92748
  20914726.860   109907746.58909  20914724.800    85642454.36848
  20408773.780   107248957.11909  20408771.980    83570665.75149
  22840138.520   120025865.84509  22840136.720    93526685.36347
  23744712.680   124779344.27008  23744711.840    97230677.66545
  21717043.560   114123935.74209  21717045.100    88927803.01048
  24294209.660   127667195.86208  24294207.720    99481047.77245
 15 02 05 17 41  0.0000000  0  7G12G13G15G17G18G24G28
  22395993.980   117691827.15709  22395993.280    91707959.26047
  20925459.680   109964147.24609  20925457.580    85686402.93048
  20406711.820   107238121.76909  20406710.100    83562222.62949
  22838955.860   120019651.48209  22838954.180    93521843.03548
  23738545.080   124746933.14008  23738544.080    97205422.29045
  21707448.460   114073513.41609  21707449.980    88888512.93448
  24311771.960   127759486.58208  24311769.980    99552962.63245
 15 02 05 17 41 30.0000000  0  7G12G13G15G17G18G24G28
  22378599.560   117600420.28909  22378598.900    91636733.23447
  20936277.360   110020994.04609  20936275.300    85730699.12448
  20404744.000   107227780.86309  20404742.260    83554164.78649
  22837873.300   120013963.01109  22837871.720    93517410.50648
  23732468.280   124714999.19008  23732467.180    97180538.73445
  21697882.360   114023244.04909  21697883.940    88849342.06048
  24329342.820   127851822.46908  24329340.820    99624912.67045
