     2.11           OBSERVATION DATA    G                   RINEX VERSION / TYPE
SPIDER V4,0,0,3554                      2015 03 16 01:53    PGM / RUN BY / DATE 
AKET                                                        MARKER NAME         
AKET                                                        MARKER NUMBER       
                                                            OBSERVER / AGENCY   
496661              LEICA GRX1200+GNSS  8.20/4.007          REC # / TYPE / VERS 
10271023            LEIAR25         NONE                    ANT # / TYPE        
  5151584.4739   350346.6892  3733756.9574                  APPROX POSITION XYZ 
        0.0480        0.0000        0.0000                  ANTENNA: DELTA H/E/N
     1     1                                                WAVELENGTH FACT L1/2
     4    C1    L1    P2    L2                              # / TYPES OF OBSERV 
    30.000                                                  INTERVAL            
  2015    03    03    00    00    0.0000000     GPS         TIME OF FIRST OBS   
  2015    03    03    23    59   30.0000000     GPS         TIME OF LAST OBS    
    16                                                      LEAP SECONDS        
    30                                                      # OF SATELLITES     
   G 1   755   754   754   754                              PRN / # OF OBS      
   G 2   860   860   858   858                              PRN / # OF OBS      
   G 3   791   791   791   791                              PRN / # OF OBS      
   G 4   789   789   787   787                              PRN / # OF OBS      
   G 5   593   593   589   589                              PRN / # OF OBS      
   G 6   729   729   727   727                              PRN / # OF OBS      
   G 7   575   575   575   575                              PRN / # OF OBS      
   G 9   736   736   736   736                              PRN / # OF OBS      
   G10   688   687   687   687                              PRN / # OF OBS      
   G11   706   705   704   704                              PRN / # OF OBS      
   G12   781   781   781   781                              PRN / # OF OBS      
   G13   755   755   750   750                              PRN / # OF OBS      
   G14   866   866   864   864                              PRN / # OF OBS      
   G15   648   648   647   647                              PRN / # OF OBS      
   G16   606   606   605   605                              PRN / # OF OBS      
   G17   863   863   862   862                              PRN / # OF OBS      
   G18   850   849   849   849                              PRN / # OF OBS      
   G19   692   692   691   691                              PRN / # OF OBS      
   G20   699   699   698   698                              PRN / # OF OBS      
   G21   606   606   606   606                              PRN / # OF OBS      
   G22   647   646   646   646                              PRN / # OF OBS      
   G23   664   664   664   664                              PRN / # OF OBS      
   G24   769   769   766   766                              PRN / # OF OBS      
   G25   768   768   767   767                              PRN / # OF OBS      
   G27   746   746   745   745                              PRN / # OF OBS      
   G28   832   832   832   832                              PRN / # OF OBS      
   G29   666   666   666   666                              PRN / # OF OBS      
   G30   624   624   624   624                              PRN / # OF OBS      
   G31   729   729   729   729                              PRN / # OF OBS      
   G32   691   691   691   691                              PRN / # OF OBS      
BIT 2 OF LLI FLAGS DATA COLLECTED UNDER A/S CONDITION       COMMENT             
SNR is mapped to RINEX snr flag value [2-9]                 COMMENT             
Lx:     = 25dBHz -> 1; 26-27dBHz -> 2; 28-31dBHz -> 3       COMMENT             
       32-35dBHz -> 4; 36-38dBHz -> 5; 39-41dBHz -> 6       COMMENT             
       42-44dBHz -> 7; 45-48dBHz -> 8; >=49dBHz -> 9        COMMENT             
                                                            END OF HEADER       
 15 03 03 00 00  0.0000000  0  5G16G18G21G27G29
  21320308.720   112038996.72809  21320304.380    87303109.43048
  22374774.320   117580269.97909  22374771.220    91620990.05147
  21514857.760   113061353.36608  21514853.720    88099741.85748
  22510553.700   118293799.31009  22510553.340    92177001.40348
  24391960.940   128180604.38308  24391959.460    99880974.37046
 15 03 03 00 00 30.0000000  0  5G16G18G21G27G29
  21308551.220   111977210.45409  21308546.780    87254964.29048
  22364655.760   117527096.10209  22364652.600    91579555.87547
  21523665.360   113107637.27408  21523661.160    88135807.23448
  22498786.280   118231960.94809  22498785.920    92128815.68748
  24406364.140   128256292.76408  24406362.400    99939952.27646
 15 03 03 00 01  0.0000000  0  5G16G18G21G27G29
  21296856.600   111915754.63809  21296852.060    87207076.65148
  22354603.720   117474272.11509  22354600.620    91538394.35147
  21532528.160   113154211.40308  21532523.900    88172098.75748
  22487040.260   118170234.98109  22487039.800    92080717.53548
  24420771.120   128332001.57108  24420769.080    99998946.08245
 15 03 03 00 01 30.0000000  0  5G16G18G21G27G29
  21285224.820   111854629.39709  21285220.420    87159446.60848
  22344618.220   117421798.20209  22344615.160    91497505.62147
  21541445.340   113201071.32208  21541440.960    88208612.97548
  22475315.160   118108619.26709  22475314.620    92032705.31348
  24435181.480   128407728.29807  24435179.120   100057953.89745
 15 03 03 00 02  0.0000000  0  5G16G18G21G27G29
  21273656.800   111793839.71709  21273652.740    87112078.02448
  22334700.300   117369679.45709  22334697.200    91456893.64647
  21550417.260   113248218.88808  21550412.780    88245351.33848
  22463611.600   118047116.71809  22463610.860    91984781.25748
  24449595.720   128483475.80307  24449593.600   100116977.89446
 15 03 03 00 02 30.0000000  0  5G16G18G21G27G29
  21262152.980   111733387.34709  21262149.240    87064972.28348
  22324850.160   117317916.80609  22324847.060    91416559.13747
  21559443.420   113295651.46308  21559438.860    88282311.78248
  22451929.480   117985726.77609  22451928.600    91936944.95948
  24464013.680   128559243.53508  24464011.840   100176017.62045
 15 03 03 00 03  0.0000000  0  5G16G18G21G27G29
  21250713.280   111673271.45209  21250709.660    87018128.73448
  22315067.780   117266510.28809  22315064.680    91376502.13547
  21568523.000   113343364.84909  21568518.460    88319491.03448
  22440268.320   117924447.08509  22440267.360    91889194.56748
  24478435.140   128635029.02708  24478433.420   100235071.23946
 15 03 03 00 03 30.0000000  0  5G16G18G21G27G29
  21239338.080   111613494.40409  21239334.320    86971549.21848
  22305353.620   117215462.12209  22305350.480    91336724.38147
  21577655.500   113391356.32409  21577650.980    88356886.99748
  22428628.200   117863277.76309  22428627.240    91841530.17448
  24492860.080   128710831.97008  24492858.280   100294138.43146
 15 03 03 00 04  0.0000000  0  5G16G18G21G27G29
  21228027.980   111554059.74309  21228024.000    86925236.50648
  22295708.240   117164775.40809  22295705.040    91297228.26447
  21586840.920   113439626.04008  21586836.420    88394499.76248
  22417009.260   117802220.01309  22417008.340    91793952.73548
  24507288.720   128786654.19708  24507286.840   100353220.65146
 15 03 03 00 04 30.0000000  0  5G16G18G21G27G29
  21216783.140   111494968.28509  21216779.140    86879191.22248
  22286131.880   117114451.01809  22286128.620    91258014.48147
  21596078.640   113488170.87808  21596074.160    88432326.90948
  22405411.340   117741272.70509  22405410.540    91746461.33748
  24521720.840   128862494.05708  24521718.780   100412316.62946
 15 03 03 00 05  0.0000000  0  5G16G18G21G27G29
  21205604.880   111436227.04409  21205601.220    86833418.83348
  22276625.760   117064496.14109  22276622.580    91219088.63147
  21605369.260   113536993.57309  21605364.860    88470370.56548
  22393835.420   117680440.80308  22393834.680    91699059.86948
  24536157.140   128938356.09308  24536154.720   100471429.86545
 15 03 03 00 05 30.0000000  0  5G16G18G21G27G29
  21194492.120   111377829.96609  21194488.940    86787914.61048
  22267188.760   117014904.52109  22267185.520    91180445.83347
  21614711.120   113586085.26608  21614706.700    88508623.83248
  22382280.000   117619716.36209  22382279.140    91651742.16248
  24550596.240   129014232.70408  24550593.220   100530554.49945
 15 03 03 00 06  0.0000000  0  4G16G18G21G27
  21183446.780   111319786.74109  21183443.840    86742686.12748
  22257822.580   116965685.08909  22257819.280    91142093.04147
  21624105.060   113635450.58308  21624100.640    88547090.31748
  22370746.480   117559106.80109  22370745.560    91604513.94048
 15 03 03 00 06 30.0000000  0  4G16G18G21G27
  21172467.480   111262089.83009  21172464.480    86697727.49548
  22248525.920   116916830.84509  22248522.640    91104024.81747
  21633548.860   113685077.76909  21633544.440    88585760.85048
  22359232.960   117498602.45609  22359231.940    91557367.71648
 15 03 03 00 07  0.0000000  0  4G16G18G21G27
  21161556.980   111204753.62809  21161553.600    86653049.95148
  22239301.380   116868355.67909  22239298.180    91066251.99347
  21643044.660   113734978.36408  21643040.280    88624644.43648
  22347741.780   117438215.64309  22347740.720    91510313.06648
 15 03 03 00 07 30.0000000  0  4G16G18G21G27
  21150716.720   111147786.83909  21150712.960    86608660.26248
  22230150.660   116820268.16809  22230147.420    91028781.22647
  21652593.340   113785156.96908  21652588.980    88663744.65248
  22336274.260   117377953.65709  22336273.300    91463355.69248
 15 03 03 00 08  0.0000000  0  5G16G18G19G21G27
  21139943.700   111091174.29709  21139939.920    86564546.59348
  22221070.940   116772553.57909  22221067.600    90991601.05347
  24544339.980   128981379.81208                                
  21662191.140   113835593.61109  21662186.760    88703045.93648
  22324827.080   117317798.90409  22324826.180    91416481.86448
 15 03 03 00 08 30.0000000  0  5G16G18G19G21G27
  21129255.580   111035008.54609  21129252.040    86520781.07148
  22212079.640   116725303.80209  22212076.200    90954783.08047
  24529149.260   128901563.98407  24529146.940   100442760.29145
  21671855.120   113886377.72809  21671850.600    88742617.96948
  22313417.580   117257841.91309  22313416.660    91369762.15348
 15 03 03 00 09  0.0000000  0  5G16G18G19G21G27
  21118613.020   110979081.81309  21118609.640    86477201.80448
  22203137.160   116678310.73909  22203133.700    90918165.13847
  24513949.740   128821693.19407  24513946.900   100380523.22545
  21681544.860   113937297.09809  21681540.160    88782295.40048
  22302005.780   117197872.91409  22302004.840    91323033.07248
 15 03 03 00 09 30.0000000  0  5G16G18G19G21G27
  21108043.860   110923539.75109  21108040.380    86433922.28248
  22194271.240   116631720.25709  22194267.860    90881860.90147
  24498767.780   128741911.04906  24498765.120   100318355.42246
  21691287.420   113988493.89209  21691282.580    88822189.00048
  22290619.100   117138035.65909  22290618.080    91276406.66048
 15 03 03 00 10  0.0000000  0  5G16G18G19G21G27
  21097549.460   110868390.70009  21097545.740    86390948.99748
  22185483.400   116585540.25609  22185479.980    90845876.51547
  24483603.980   128662223.44608  24483602.180   100256261.43044
  21701083.420   114039971.85709  21701078.540    88862301.69848
  22279258.700   117078336.32009  22279257.580    91229887.71948
 15 03 03 00 10 30.0000000  0  5G16G18G19G21G27
  21087158.660   110813786.77409  21087154.800    86348400.48648
  22176802.640   116539922.81409  22176799.180    90810330.47747
  24468486.180   128582780.16606  24468488.700   100194358.38445
  21710961.120   114091879.84708  21710956.380    88902749.48248
  22267953.140   117018925.05409  22267951.840    91183593.23648
 15 03 03 00 11  0.0000000  0  5G16G18G19G21G27
  21076786.160   110759278.98709  21076782.280    86305926.89048
  22168143.400   116494418.49009  22168139.940    90774872.58947
  24453329.700   128503130.66107  24453330.620   100132293.94746
  21720834.240   114143764.63508  21720829.800    88943179.19348
  22256616.560   116959350.96909  22256615.240    91137171.90448
 15 03 03 00 11 30.0000000  0  5G16G18G19G21G27
  21066493.560   110705190.43609  21066489.580    86263779.96948
  22159567.120   116449349.87109  22159563.660    90739754.20747
  24438194.600   128423595.50208  24438190.220   100070301.41144
  21730763.800   114195945.80508  21730759.640    88983839.83348
  22245310.100   116899935.31209  22245308.840    91090874.01048
 15 03 03 00 12  0.0000000  0  5G16G18G19G21G27
  21056276.340   110651497.97309  21056272.300    86221941.69048
  22151069.480   116404694.28809  22151066.040    90704957.67347
  24423077.220   128344150.08806  24423073.160   100008395.99246
  21740744.520   114248395.50008  21740740.500    89024709.72948
  22234028.960   116840652.95009  22234027.780    91044679.98248
 15 03 03 00 12 30.0000000  0  5G16G18G19G21G27
  21046140.400   110598233.02309  21046136.440    86180436.54048
  22142656.360   116360482.97609  22142652.820    90670507.31847
  24407981.720   128264823.14708  24407977.380    99946582.89445
  21750781.780   114301141.86009  21750777.760    89065810.78648
  22222778.820   116781533.32309  22222777.660    90998612.76448
 15 03 03 00 13  0.0000000  0  5G16G18G19G21G27
  21036073.420   110545330.85409  21036069.520    86139214.06948
  22134315.360   116316650.68309  22134311.660    90636352.29747
  24392896.520   128185548.27006  24392892.440    99884810.28346
  21760862.540   114354116.23509  21760858.480    89107089.51748
  22211546.920   116722509.63109  22211545.800    90952620.29248
 15 03 03 00 13 30.0000000  0  5G16G18G19G21G27
  21026083.140   110492831.86009  21026079.300    86098305.75348
  22126054.100   116273237.42909  22126050.360    90602523.79447
  24377827.880   128106363.48008  24377824.140    99823107.99845
  21770993.640   114407354.97609  21770989.560    89148574.24848
  22200340.600   116663620.57109  22200339.600    90906732.73748
 15 03 03 00 14  0.0000000  0  5G16G18G19G21G27
  21016163.820   110440705.16909  21016159.860    86057687.56148
  22117866.660   116230212.22509  22117862.940    90568997.67447
  24362770.760   128027236.21505  24362767.160    99761450.32344
  21781168.440   114460823.37209  21781164.360    89190237.92948
  22189153.660   116604833.31509  22189152.740    90860924.50448
 15 03 03 00 14 30.0000000  0  5G16G18G19G21G27
  21006319.940   110388975.19609  21006315.900    86017378.49948
  22109757.600   116187598.96409  22109753.940    90535792.56447
  24347728.540   127948188.58108  24347724.960    99699854.91045
  21791390.860   114514541.98708  21791386.720    89232096.59648
  22177990.340   116546170.24009  22177989.600    90815213.03748
 15 03 03 00 15  0.0000000  0  5G16G18G19G21G27
  20996551.160   110337640.15209  20996547.240    85977377.16648
  22101726.600   116145395.68509  22101722.940    90502906.90647
  24332700.280   127869216.85408  24332697.240    99638318.60646
  21801659.660   114568504.98208  21801655.500    89274145.69148
  22166850.000   116487627.79109  22166849.260    90769595.58248
 15 03 03 00 15 30.0000000  0  5G16G18G19G21G27
  20986855.260   110286687.86709  20986851.440    85937674.09148
  22093771.260   116103589.93309  22093767.580    90470331.02247
  24317684.300   127790307.36006  24317681.960    99576830.76246
  21811971.920   114622696.70208  21811967.760    89316372.99348
  22155730.020   116429191.96809  22155729.220    90724061.18048
 15 03 03 00 16  0.0000000  0  5G16G18G19G21G27
  20977235.800   110236137.25309  20977232.060    85898283.99848
  22085895.080   116062200.40209  22085891.400    90438079.46147
  24302683.240   127711476.23107  24302680.760    99515403.79446
  21822330.460   114677131.94908  21822326.420    89358790.06648
  22144633.600   116370879.79509  22144632.680    90678623.15648
 15 03 03 00 16 30.0000000  0  6G16G18G19G21G22G27
  20967691.900   110185983.41809  20967688.020    85859203.09248
  22078097.140   116021222.09009  22078093.520    90406148.33247
  24287695.860   127632716.69208  24287693.980    99454032.93346
  21832733.740   114731802.31308  21832729.760    89401390.35147
  22959842.340   120654783.78405  22959836.960    94016701.73842
  22133559.380   116312684.45209  22133558.440    90633276.15648
 15 03 03 00 17  0.0000000  0  6G16G18G19G21G22G27
  20958225.100   110136235.10309  20958221.060    85820438.17948
  22070378.920   115980662.90609  22070375.380    90374543.79447
  24272723.320   127554035.57308  24272721.120    99392722.95246
  21843182.600   114786712.07908  21843178.660    89444177.18348
  22942881.520   120565654.02405  22942875.380    93947250.12443
  22122508.720   116254612.75009  22122507.700    90588025.50048
 15 03 03 00 17 30.0000000  0  6G16G18G19G21G22G27
  20948830.960   110086869.12109  20948826.920    85781971.18148
  22062736.060   115940499.69709  22062732.620    90343247.81847
  24257761.300   127475407.98307  24257758.640    99331454.73344
  21853671.940   114841834.55308  21853668.120    89487129.76048
  22925947.580   120476666.09906  22925941.600    93877909.05645
  22111476.820   116196639.88709  22111475.760    90542851.85948
 15 03 03 00 18  0.0000000  0  6G16G18G19G21G22G27
  20939514.720   110037912.23909  20939510.760    85743822.96248
  22055173.520   115900758.79909  22055170.080    90312280.90447
  24242813.980   127396858.23508  24242811.120    99270247.16345
  21864206.180   114897192.59708  21864202.360    89530265.89247
  22909045.740   120387847.32106  22909040.380    93808699.71544
  22100468.340   116138790.61209  22100467.400    90497774.52648
 15 03 03 00 18 30.0000000  0  6G16G18G19G21G22G27
  20930276.620   109989365.59309  20930272.640    85705994.41448
  22047691.560   115861441.02809  22047688.080    90281643.69947
  24227880.940   127318385.57307  24227877.920    99209099.74844
  21874784.760   114952783.66208  21874781.000    89573583.60547
  22892176.500   120299199.53106  22892171.380    93739623.63444
  22089483.300   116081064.29209  22089482.440    90452792.98848
 15 03 03 00 19  0.0000000  0  6G16G18G19G21G22G27
  20921114.200   109941216.59609  20921110.140    85668475.71948
  22040287.700   115822533.53709  22040284.300    90251326.18947
  24212960.380   127239975.76208  24212956.760    99148001.13445
  21885404.360   115008590.23908  21885400.660    89617069.23848
  22875337.600   120210710.97206  22875332.620    93670671.63945
  22078519.000   116023446.50409  22078518.140    90407896.04148
 15 03 03 00 19 30.0000000  0  6G16G18G19G21G22G27
  20912030.720   109893483.01009  20912026.700    85631280.73748
  22032965.140   115784053.28509  22032961.640    90221341.59847
  24198054.400   127161644.10908  24198050.660    99086963.61345
  21896067.940   115064628.36908  21896064.420    89660735.32348
  22858532.420   120122399.95606  22858527.440    93601857.97544
  22067578.360   115965953.25308  22067577.620    90363096.12548
 15 03 03 00 20  0.0000000  0  6G16G18G19G21G22G27
  20903025.220   109846159.57909  20903021.280    85594405.33648
  22025722.940   115745995.04109  22025719.360    90191685.84247
  24183161.740   127083383.64007  24183157.440    99025981.48745
  21906773.680   115120887.98308  21906770.360    89704573.97748
  22841760.100   120034261.90007  22841755.180    93533179.08244
  22056660.080   115908577.49009  22056659.440    90318387.76848
 15 03 03 00 20 30.0000000  0  6G16G18G19G21G22G27
  20894098.080   109799247.61709  20894094.200    85557850.56948
  22018561.100   115708359.45909  22018557.580    90162359.44347
  24168282.880   127005194.25408  24168278.400    98965054.63945
  21917521.140   115177366.27408  21917517.940    89748583.02948
  22825021.160   119946299.02507  22825016.220    93464636.68145
  22045764.140   115851318.86809  22045763.480    90273770.67848
 15 03 03 00 21  0.0000000  0  6G16G18G19G21G22G27
  20885251.020   109752755.82709  20885247.120    85521623.20048
  22011481.240   115671155.03809  22011477.820    90133369.00847
  24153418.620   126927082.12208  24153414.340    98904188.18045
  21928311.320   115234068.36408  21928308.040    89792766.46748
  22808317.400   119858521.03307  22808312.560    93396238.36045
  22034891.780   115794184.44109  22034891.120    90229250.36648
 15 03 03 00 21 30.0000000  0  6G16G18G19G21G22G27
  20876483.320   109706680.98409  20876479.420    85485720.73548
  22004482.760   115634378.34509  22004479.460    90104711.87747
  24138567.900   126849041.98908  24138563.380    98843377.71146
  21939142.940   115290987.56109  21939139.440    89837119.09948
  22791648.240   119770924.77807  22791643.380    93327981.63745
  22024042.100   115737169.04009  22024041.380    90184822.80648
 15 03 03 00 22  0.0000000  0  6G16G18G19G21G22G27
  20867794.140   109661018.89809  20867790.220    85450139.88548
  21997564.700   115598024.40109  21997561.540    90076384.15347
  24123730.000   126771068.15907  24123725.660    98782618.93445
  21950014.280   115348115.69508  21950010.580    89881634.52648
  22775013.020   119683506.84808  22775008.100    93259863.86145
  22013214.000   115680266.68609  22013213.120    90140483.32548
 15 03 03 00 22 30.0000000  0  6G16G18G19G21G22G27
  20859186.700   109615786.25409  20859182.800    85414893.66748
  21990730.360   115562109.80709  21990727.140    90048398.75747
  24108907.360   126693175.00108  24108902.880    98721922.95946
  21960927.680   115405465.18208  21960923.820    89926322.43648
  22758415.120   119596284.75508  22758410.140    93191898.68646
  22002410.300   115623492.41809  22002409.240    90096243.65848
 15 03 03 00 23  0.0000000  0  6G16G18G19G21G22G27
  20850659.340   109570974.53809  20850655.500    85379975.45148
  21983977.960   115526625.61109  21983974.680    90020748.74647
  24094098.160   126615352.56907  24094093.680    98661282.18245
  21971880.860   115463024.17408  21971876.900    89971173.59848
  22741853.120   119509250.87308  22741848.060    93124080.16946
  21991629.060   115566836.13909  21991627.800    90052095.93248
 15 03 03 00 23 30.0000000  0  6G16G18G19G21G22G27
  20842212.980   109526588.96609  20842209.320    85345389.29148
  21977308.400   115491576.56609  21977305.120    89993437.80847
  24079303.040   126537603.89408  24079298.840    98600698.79346
  21982874.220   115520794.61608  21982870.200    90016189.52547
  22725328.000   119422411.03608  22725322.940    93056412.85446
  21980870.920   115510301.19809  21980869.440    90008042.75448
 15 03 03 00 24  0.0000000  0  6G16G18G19G21G22G27
  20833849.120   109482636.26009  20833845.440    85311140.42248
  21970722.720   115456968.56809  21970719.440    89966470.54847
  24064522.540   126459933.77007  24064518.880    98540176.70146
  21993908.420   115578779.68108  21993904.360    90061372.68047
  22708841.220   119335772.88008  22708836.160    92988902.69846
  21970136.900   115453892.91709  21970135.200    89964088.26048
 15 03 03 00 24 30.0000000  0  6G16G18G19G21G22G27
  20825566.040   109439107.70509  20825562.080    85277222.08048
  21964219.260   115422792.69209  21964215.900    89939840.01747
  24049755.360   126382331.66808  24049751.440    98479707.63745
  22004980.880   115636966.01608  22004976.800    90106712.68848
  22692391.120   119249327.80608  22692386.180    92921543.00146
  21959424.920   115397600.60109  21959423.080    89920224.14448
 15 03 03 00 25  0.0000000  0  6G16G18G19G21G22G27
  20817365.600   109396013.60309  20817361.480    85243642.25848
  21957799.960   115389059.18209  21957796.640    89913554.17647
  24035002.620   126304805.94007  24034998.680    98419297.93846
  22016092.980   115695360.53008  22016088.940    90152214.90048
  22675979.980   119163087.61608  22675975.200    92854342.94147
  21948736.660   115341433.08709  21948734.740    89876457.25748
 15 03 03 00 25 30.0000000  0  6G16G18G19G21G22G27
  20809246.820   109353349.05009  20809242.700    85210397.15248
  21951463.700   115355762.00009  21951460.480    89887608.35547
  24020263.280   126227350.07608  24020259.280    98358942.80446
  22027243.220   115753955.27608  22027239.080    90197873.14047
  22659606.940   119077047.91908  22659602.320    92787299.10547
  21938070.820   115285383.80109  21938068.860    89832782.50148
 15 03 03 00 26  0.0000000  0  6G16G18G19G21G22G27
  20801211.040   109311120.79309  20801207.040    85177492.00748
  21945211.880   115322908.24909  21945208.540    89862008.03747
  24005538.100   126149969.11308  24005533.980    98298645.99446
  22038432.060   115812752.87508  22038427.820    90243689.44747
  22643273.620   118991216.66308  22643269.060    92720417.67646
  21927428.400   115229458.29509  21927426.560    89789204.18848
 15 03 03 00 26 30.0000000  0  6G16G18G19G21G22G27
  20793258.380   109269329.22509  20793254.460    85144927.15148
  21939044.240   115290496.97409  21939040.940    89836752.53147
  23990827.020   126072661.47508  23990823.180    98238406.35946
  22049658.760   115871749.58408  22049654.520    90289660.91547
  22626980.200   118905594.47808  22626975.560    92653699.16046
  21916809.180   115173654.81809  21916807.620    89745720.96848
 15 03 03 00 27  0.0000000  0  6G16G18G19G21G22G27
  20785390.380   109227982.26709  20785386.360    85112708.75048
  21932962.280   115258535.85109  21932958.900    89811847.78047
  23976130.700   125995432.65108  23976126.600    98178228.10446
  22060924.220   115930949.98908  22060919.940    90335791.09047
  22610728.280   118820189.78108  22610723.520    92587150.11147
  21906214.360   115117979.63309  21906213.140    89702337.73148
 15 03 03 00 27 30.0000000  0  6G16G18G19G21G22G27
  20777604.740   109187068.49209  20777600.600    85080827.88048
  21926963.740   115227013.33709  21926960.300    89787284.79947
  23961447.280   125918270.20907  23961443.420    98118101.56546
  22072225.720   115990339.78108  22072221.380    90382068.84547
  22594515.820   118734992.51608  22594510.920    92520762.69346
  21895641.480   115062420.02209  21895640.640    89659044.53448
 15 03 03 00 28  0.0000000  0  6G16G18G19G21G22G27
  20769904.760   109146605.22109  20769900.580    85049298.07148
  21921051.820   115195946.00409  21921048.320    89763076.50947
  23946779.180   125841189.35908  23946775.240    98058038.61046
  22083565.720   116049932.09808  22083561.340    90428504.40747
  22578346.220   118650020.82608  22578341.240    92454551.06846
  21885093.600   115006991.75709  21885093.100    89615853.69748
 15 03 03 00 28 30.0000000  0  6G16G18G19G21G22G27
  20762289.240   109106586.12409  20762285.120    85018114.35548
  21915225.220   115165326.83809  21915221.660    89739217.42948
  23932124.900   125764181.95407  23932121.200    97998032.91646
  22094942.240   116109716.33008  22094937.880    90475089.52147
  22562218.420   118565268.85108  22562213.400    92388510.64147
  21874569.260   114951686.79209  21874569.040    89572758.93348
 15 03 03 00 29  0.0000000  0  6G16G18G19G21G22G27
  20754758.160   109067010.20509  20754754.060    84987275.97848
  21909483.700   115135154.62609  21909480.040    89715706.63147
  23917484.340   125687245.47807  23917480.940    97938082.46446
  22106354.560   116169688.64208  22106350.260    90521821.18047
  22546132.420   118480736.50308  22546127.340    92322641.36047
  21864068.000   114896502.77409  21864067.880    89529758.40948
 15 03 03 00 29 30.0000000  0  6G16G18G19G21G22G27
  20747313.620   109027888.81709  20747309.600    84956791.78048
  21903829.260   115105439.97309  21903825.460    89692552.36647
  23902859.220   125610389.54708  23902855.680    97878194.74446
  22117804.100   116229856.75108  22117799.920    90568705.42947
  22530090.560   118396435.94408  22530085.400    92256952.68346
  21853591.700   114841449.49809  21853591.480    89486859.77248
 15 03 03 00 30  0.0000000  0  6G16G18G19G21G22G27
  20739954.480   108989215.85309  20739950.460    84926657.00748
  21898260.500   115076176.27809  21898256.760    89669749.51247
  23888247.820   125533606.13208  23888243.900    97818363.58146
  22129289.020   116290210.86008  22129285.040    90615734.59548
  22514091.880   118312362.18208  22514086.540    92191440.71946
  21843138.920   114786519.44309  21843138.460    89444057.14548
 15 03 03 00 30 30.0000000  0  6G16G18G19G21G22G27
  20732681.420   108950995.51709  20732677.340    84896874.92548
  21892778.260   115047367.37509  21892774.520    89647301.02847
  23873650.640   125456897.62008  23873646.620    97758590.75445
  22140809.600   116350752.20508  22140805.860    90662909.66347
  22498137.280   118228520.23008  22498131.920    92126109.40646
  21832710.220   114731715.33209  21832709.540    89401352.65048
 15 03 03 00 31  0.0000000  0  6G16G18G19G21G22G27
  20725494.740   108913229.20109  20725490.640    84867446.62948
  21887382.620   115019013.65709  21887378.940    89625207.24947
  23859067.820   125380263.62208  23859063.560    97698875.99345
  22152365.280   116411477.65308  22152361.600    90710228.18847
  22482227.100   118144911.94808  22482221.760    92060960.16546
  21822305.520   114677036.77509  21822304.620    89358746.00848
 15 03 03 00 31 30.0000000  0  6G16G18G19G21G22G27
  20718395.020   108875920.21809  20718390.980    84838374.69448
  21882074.240   114991118.17909  21882070.620    89603470.53147
  23844499.460   125303705.99508  23844494.840    97639220.74846
  22163956.100   116472387.34808  22163952.480    90757690.29448
  22466362.140   118061541.47208  22466356.840    91995996.21146
  21811925.120   114622485.88609  21811923.900    89316238.84548
 15 03 03 00 32  0.0000000  0  6G16G18G19G21G22G27
  20711382.340   108839068.48809  20711378.300    84809659.06248
  21876853.020   114963680.58309  21876849.360    89582090.59447
  23829945.160   125227223.13108  23829940.540    97579623.77346
  22175581.480   116533478.25209  22175577.780    90805293.57747
  22450542.660   117978410.05108  22450537.420    91931218.52846
  21801568.720   114568061.38609  21801567.200    89273830.14548
 15 03 03 00 32 30.0000000  0  6G16G18G19G21G22G27
  20704457.220   108802676.89209  20704453.180    84781301.97848
  21871719.340   114936702.79909  21871715.540    89561068.95147
  23815405.440   125150815.88507  23815400.780    97520085.67646
  22187241.040   116594748.97808  22187237.200    90853037.00248
  22434769.320   117895521.22308  22434764.120    91866629.87846
  21791236.460   114513764.47509  21791234.860    89231520.88148
 15 03 03 00 33  0.0000000  0  6G16G18G19G21G22G27
  20697620.620   108766750.63409  20697616.680    84753307.49848
  21866674.060   114910189.82609  21866670.220    89540409.51647
  23800880.700   125074487.90908  23800876.400    97460609.44145
  22198935.140   116656201.48909  22198931.120    90900922.07347
  22419043.300   117812880.94208  22419038.060    91802234.90546
  21780929.140   114459599.09909  21780927.600    89189314.10648
 15 03 03 00 33 30.0000000  0  6G16G18G19G21G22G27
  20690871.260   108731283.17009  20690867.480    84725670.50748
  21861715.780   114884134.18909  21861712.020    89520106.43847
  23786369.380   124998231.03808  23786365.160    97401188.53746
  22210662.000   116717826.03909  22210657.680    90948941.20547
  22403363.580   117730483.85409  22403358.400    91738029.42746
  21770645.300   114405557.24409  21770643.780    89147203.57248
 15 03 03 00 34  0.0000000  0  6G16G18G19G21G22G27
  20684211.220   108696284.95409  20684207.560    84698399.16448
  21856846.480   114858545.82609  21856842.720    89500167.46447
  23771873.260   124922054.63808  23771868.540    97341830.33846
  22222422.960   116779629.59209  22222418.280    90997099.82247
  22387732.240   117648340.86609  22387727.120    91674021.95046
  21760386.640   114351647.91909  21760385.200    89105196.31248
 15 03 03 00 34 30.0000000  0  6G16G18G19G21G22G27
  20677639.900   108661752.43709  20677636.340    84671490.70548
  21852065.340   114833420.73409  21852061.580    89480589.47747
  23757391.460   124845952.90908  23757386.940    97282530.37646
  22234216.640   116841605.24909  22234211.740    91045392.52647
  22372148.840   117566449.85908  22372143.740    91610210.81946
  21750152.280   114297866.47709  21750150.960    89063288.70948
 15 03 03 00 35  0.0000000  0  6G16G18G19G21G22G27
  20671157.340   108627685.81609  20671153.700    84644945.29448
  21847372.260   114808758.34009  21847368.500    89461372.04148
  23742924.000   124769924.48208  23742919.100    97223287.36647
  22246042.420   116903749.50909  22246037.340    91093816.62047
  22356613.460   117484811.40608  22356608.400    91546596.49247
  21739941.980   114244211.68209  21739940.680    89021479.78048
 15 03 03 00 35 30.0000000  0  6G16G18G19G21G22G27
  20664765.820   108594097.61009  20664762.020    84618772.66248
  21842769.460   114784570.86509  21842765.760    89442524.68347
  23728472.360   124693980.69608  23728466.760    97164110.42146
  22257902.000   116966071.82808  22257896.900    91142379.45647
  22341128.760   117403439.15008  22341123.780    91483189.58247
  21729757.840   114190694.81909  21729756.660    88979778.34048
 15 03 03 00 36  0.0000000  0  6G16G18G19G21G22G27
  20658464.120   108560981.72709  20658460.300    84592968.07848
  21838255.620   114760851.31709  21838252.040    89424041.94647
  23714035.140   124618113.89608  23714030.700    97104993.60646
  22269793.580   117028562.73409  22269788.560    91191073.66647
  22325693.840   117322328.23208  22325688.900    91419986.31847
  21719598.580   114137308.59309  21719597.460    88938178.70248
 15 03 03 00 36 30.0000000  0  6G16G18G19G21G22G27
  20652251.620   108528334.73809  20652247.760    84567528.86948
  21833830.160   114737595.58809  21833826.600    89405920.61447
  23699611.800   124542319.03208  23699607.000    97045932.63846
  22281715.860   117091215.31408  22281711.060    91239893.84847
  22310308.160   117241475.86409  22310303.220    91356984.50447
  21709463.320   114084048.23609  21709462.280    88896677.12748
 15 03 03 00 37  0.0000000  0  6G16G18G19G21G22G27
  20646129.640   108496163.67109  20646125.680    84542460.50148
  21829494.240   114714810.26909  21829490.680    89388165.83847
  23685203.140   124466600.59307  23685197.980    96986931.29545
  22293669.380   117154032.39508  22293664.860    91288842.22747
  22294973.140   117160889.71909  22294968.220    91294190.14647
  21699353.060   114030919.20209  21699352.260    88855277.89248
 15 03 03 00 37 30.0000000  0  6G16G18G19G21G22G27
  20640101.060   108464483.14809  20640096.920    84517774.38248
  21825250.480   114692509.26209  21825246.820    89370788.44147
  23670811.240   124390972.56108  23670806.940    96928000.47246
  22305656.540   117217026.33608  22305652.380    91337928.41347
  22279691.760   117080585.63309  22279686.940    91231615.58147
  21689270.440   113977935.17809  21689269.820    88813991.64648
 15 03 03 00 38  0.0000000  0  6G16G18G19G21G22G27
  20634162.520   108433275.48209  20634158.220    84493456.73048
  21821095.480   114670674.21409  21821091.800    89353774.12647
  23656432.980   124315415.75308  23656428.400    96869125.04546
  22317673.360   117280175.86309  22317669.500    91387135.83747
  22264460.940   117000547.10508  22264456.100    91169247.94547
  21679211.900   113925077.32809  21679211.320    88772803.70948
 15 03 03 00 38 30.0000000  0  6G16G18G19G21G22G27
  20628315.140   108402547.19509  20628310.880    84469512.61348
  21817030.240   114649310.97909  21817026.540    89337127.45948
  23642069.340   124239935.10008  23642064.960    96810309.03046
  22329720.500   117343484.33208  22329716.680    91436467.10147
  22249282.000   116920781.29208  22249277.040    91107092.81647
  21669178.460   113872350.90309  21669177.760    88731718.19548
 15 03 03 00 39  0.0000000  0  6G16G18G19G21G22G27
  20622559.320   108372300.30709  20622555.160    84445943.60748
  21813055.000   114628421.16209  21813051.420    89320849.70648
  23627720.340   124164531.39508  23627716.280    96751552.95246
  22341797.620   117406950.26808  22341793.760    91485921.07747
  22234155.560   116841291.33408  22234150.520    91045152.64247
  21659170.360   113819756.88909  21659169.300    88690735.85548
 15 03 03 00 39 30.0000000  0  6G16G18G19G21G22G27
  20616895.680   108342538.26409  20616891.740    84422752.39448
  21809170.400   114608007.52209  21809166.800    89304942.99447
  23613386.520   124089206.59208  23613382.280    96692858.29646
  22353904.760   117470574.04608  22353900.880    91535498.04147
  22219082.460   116762081.65408  22219077.400    90983430.86447
  21649187.900   113767297.47609  21649186.420    88649858.42148
 15 03 03 00 40  0.0000000  0  6G16G18G19G21G22G27
  20611324.400   108313261.62809  20611320.640    84399939.42548
  21805376.360   114588069.52609  21805372.720    89289406.90847
  23599067.640   124013959.54708  23599063.660    96634224.28046
  22366041.400   117534352.59108  22366037.460    91585195.59847
  22204062.880   116683153.44608  22204057.820    90921928.41647
  21639230.800   113714971.99209  21639229.140    88609085.32948
 15 03 03 00 40 30.0000000  0  6G16G18G19G21G22G27
  20605845.940   108284472.57609  20605842.300    84377506.39548
  21801673.240   114568609.07909  21801669.420    89274242.93747
  23584763.740   123938791.24908  23584759.660    96575651.58247
  22378207.480   117598285.67008  22378203.460    91635013.57047
  22189097.580   116604510.38209  22189092.480    90860648.15447
  21629299.380   113662781.73309  21629297.700    88568417.59948
 15 03 03 00 41  0.0000000  0  6G16G18G19G21G22G27
  20600460.960   108256174.53609  20600457.360    84355455.97448
  21798061.500   114549628.92609  21798057.620    89259453.23047
  23570475.000   123863703.54808  23570470.800    96517141.73846
  22390402.940   117662372.79309  22390398.860    91684951.58347
  22174187.380   116526156.64509  22174182.160    90799593.33047
  21619394.100   113610728.86009  21619392.560    88527856.93048
 15 03 03 00 41 30.0000000  0  6G16G18G19G21G22G27
  20595169.240   108228366.73509  20595165.680    84333787.55048
  21794540.820   114531127.76409  21794536.880    89245036.75947
  23556201.200   123788694.29908  23556197.540    96458693.05246
  22402627.040   117726610.27108  22402622.840    91735006.74847
  22159332.280   116448092.66509  22159327.060    90738764.27747
  21609514.620   113558811.55009  21609513.100    88487401.88648
 15 03 03 00 42  0.0000000  0  6G16G18G19G21G22G27
  20589971.800   108201054.26109  20589968.200    84312505.10148
  21791112.080   114513109.63809  21791108.060    89230996.67147
  23541943.180   123713767.22008  23541939.080    96400308.28347
  22414880.000   117790999.98108  22414875.880    91785180.55347
  22144533.420   116370324.33509  22144528.280    90678165.62247
  21599661.720   113507033.84609  21599660.140    88447055.64048
 15 03 03 00 42 30.0000000  0  6G16G18G19G21G22G27
  20584868.020   108174233.93209  20584864.460    84291606.14748
  21787774.560   114495570.84609  21787770.580    89217330.09647
  23527699.920   123638917.92608  23527695.620    96341984.19346
  22427160.720   117855535.68208  22427156.760    91835468.10847
  22129790.400   116292849.63109  22129785.380    90617795.76647
  21589834.640   113455391.68009  21589833.000    88406815.00348
 15 03 03 00 43  0.0000000  0  6G16G18G19G21G22G27
  20579858.960   108147911.33509  20579855.500    84271095.02748
  21784529.140   114478515.94909  21784525.120    89204040.58547
  23513472.180   123564150.67908  23513467.960    96283724.06847
  22439469.660   117920219.75808  22439465.860    91885871.27847
  22115104.540   116215675.22909  22115099.600    90557659.91147
  21580034.200   113403889.57109  21580032.500    88366683.50648
 15 03 03 00 43 30.0000000  0  6G16G18G19G21G22G27
  20574945.000   108122088.52509  20574941.680    84250973.34648
  21781376.140   114461946.76509  21781372.040    89191129.53447
  23499260.000   123489466.28108  23499255.900    96225528.46846
  22451806.660   117985051.25408  22451802.960    91936389.31547
  22100476.360   116138804.09709  22100471.480    90497760.36047
  21570260.500   113352528.51709  21570258.780    88326661.91048
 15 03 03 00 44  0.0000000  0  6G16G18G19G21G22G27
  20570125.160   108096760.05309  20570121.860    84231236.87248
  21778314.440   114445857.44909  21778310.400    89178592.42148
  23485062.440   123414858.36208  23485058.220    96167392.45946
  22464170.100   118050021.47808  22464166.340    91987015.46147
  22085905.080   116062231.84009  22085900.180    90438093.70547
  21560512.380   113301302.32109  21560510.660    88286745.40148
 15 03 03 00 44 30.0000000  0  6G16G18G19G21G22G27
  20565401.100   108071934.41109  20565397.600    84211892.20848
  21775345.400   114430255.27209  21775341.440    89166434.89347
  23470880.600   123340333.41108  23470876.500    96109321.12946
  22476561.140   118115136.14409  22476557.120    92037754.15247
  22071392.580   115985967.90109  22071387.520    90378667.27847
  21550791.340   113250218.32409  21550789.620    88246939.69548
 15 03 03 00 45  0.0000000  0  6G16G18G19G21G22G27
  20560772.480   108047610.17109  20560768.680    84192938.26148
  21772468.500   114415137.80709  21772464.660    89154655.07447
  23456714.300   123265889.00808  23456710.240    96051312.52947
  22488978.760   118180390.50008  22488974.500    92088601.70447
  22056938.640   115910011.95009  22056933.520    90319480.85547
  21541096.900   113199274.14209  21541095.200    88207242.94248
 15 03 03 00 45 30.0000000  0  6G16G18G19G21G22G27
  20556238.880   108023785.42209  20556234.860    84174373.52348
  21769683.380   114400502.45409  21769679.560    89143250.92047
  23442562.900   123191522.12308  23442558.880    95993364.33747
  22501422.100   118245780.01009  22501417.740    92139554.56047
  22042543.120   115834363.31009  22042538.020    90260533.89247
  21531428.540   113148467.18409  21531426.940    88167653.12248
 15 03 03 00 46  0.0000000  0  6G16G18G19G21G22G27
  20551802.080   108000469.40009  20551798.080    84156205.19048
  21766991.820   114386358.89409  21766988.080    89132229.96647
  23428427.760   123117240.39508  23428422.980    95935482.45447
  22513892.220   118311310.55409  22513887.900    92190617.31647
  22028208.040   115759032.30609  22028202.880    90201834.44347
  21521787.780   113097805.68609  21521786.380    88128176.64048
 15 03 03 00 46 30.0000000  0  6G16G18G19G21G22G27
  20547461.520   107977658.89609  20547457.500    84138430.77648
  21764392.920   114372702.24509  21764389.260    89121588.44547
  23414308.000   123043040.05308  23414302.940    95877664.04946
  22526388.020   118376976.02508  22526383.740    92241785.20947
  22013933.040   115684016.86109  22013927.800    90143380.87047
  21512173.980   113047285.61209  21512172.760    88088810.35248
 15 03 03 00 47  0.0000000  0  6G16G18G19G21G22G27
  20543217.240   107955354.55809  20543213.180    84121050.77048
  21761886.760   114359532.83909  21761883.140    89111326.58847
  23400203.600   122968920.40808  23400198.700    95819908.53847
  22538909.020   118442774.35808  22538904.860    92293056.63747
  21999718.420   115609318.50509  21999713.160    90085174.38547
  21502587.160   112996906.87209  21502586.020    88049554.20048
 15 03 03 00 47 30.0000000  0  6G16G18G19G21G22G27
  20539070.360   107933562.19909  20539066.220    84104069.70748
  21759474.340   114346855.46309  21759470.700    89101448.12147
  23386115.380   122894885.98108  23386110.420    95762219.38946
  22551455.700   118508707.98508  22551451.700    92344433.47747
  21985565.400   115534943.97709  21985560.180    90027220.24747
  21493028.220   112946674.22409  21493027.120    88010411.88948
 15 03 03 00 48  0.0000000  0  6G16G18G19G21G22G27
  20535020.320   107912278.78209  20535016.060    84087485.22048
  21757154.860   114334666.15109  21757151.140    89091949.95747
  23372042.480   122820932.62608  23372037.460    95704593.43547
  22564027.020   118574770.89808  22564023.120    92395911.06847
  21971473.760   115460891.81709  21971468.520    89969517.29047
  21483496.340   112896583.92809  21483495.220    87971380.49548
 15 03 03 00 48 30.0000000  0  6G16G18G19G21G22G27
  20531067.980   107891509.04009  20531063.680    84071301.00448
  21754929.080   114322969.14909  21754925.300    89082835.42348
  23357985.560   122747063.76208  23357980.640    95647033.33247
  22576623.460   118640965.60109  22576619.640    92447491.34747
  21957444.480   115387167.66609  21957439.320    89912069.92447
  21473992.180   112846639.95809  21473991.140    87932463.12448
 15 03 03 00 49  0.0000000  0  6G16G18G19G21G22G27
  20527213.220   107871252.08409  20527208.900    84055516.35948
  21752796.580   114311762.87209  21752792.860    89074103.26747
  23343944.440   122673277.84108  23343939.820    95589537.83047
  22589244.240   118707288.06909  22589240.460    92499171.18647
  21943477.720   115313771.88409  21943472.520    89854878.43447
  21464515.480   112796840.87909  21464514.620    87893658.65048
 15 03 03 00 49 30.0000000  0  6G16G18G19G21G22G27
  20523456.800   107851511.74309  20523452.600    84040134.27548
  21750758.000   114301050.32709  21750754.440    89065755.85847
  23329919.500   122599577.42608  23329914.920    95532108.96847
  22601889.600   118773739.23209  22601885.660    92550951.32047
  21929574.300   115240709.22109  21929569.120    89797946.52348
  21455066.960   112747189.56009  21455066.300    87854969.32848
 15 03 03 00 50  0.0000000  0  6G16G18G19G21G22G27
  20519797.960   107832284.28609  20519793.760    84025151.82648
  21748812.520   114290826.98409  21748809.040    89057789.62547
  23315909.940   122525957.63008  23315905.320    95474742.90347
  22614558.240   118840312.44909  22614554.020    92602826.54447
  21915733.800   115167977.18309  21915728.680    89741272.23947
  21445645.940   112697681.73109  21445645.280    87816391.81048
 15 03 03 00 50 30.0000000  0  6G16G18G19G21G22G27
  20516238.240   107813577.63709  20516234.000    84010575.21448
  21746961.460   114281100.15309  21746958.060    89050210.30547
  23301917.080   122452425.42708  23301912.660    95417445.11947
  22627251.060   118907012.71209  22627246.580    92654800.76947
  21901957.940   115095584.92909  21901952.800    89684862.72347
  21436253.740   112648324.57309  21436252.960    87777931.70048
 15 03 03 00 51  0.0000000  0  6G16G18G19G21G22G27
  20512776.600   107795386.66409  20512772.420    83996400.42248
  21745203.900   114271864.24909  21745200.480    89043013.49947
  23287939.780   122378974.78208  23287935.740    95360210.89147
  22639966.620   118973832.64009  22639961.880    92706868.24947
  21888246.020   115023528.51809  21888240.780    89628714.88747
  21426889.180   112599112.50309  21426888.320    87739584.63548
 15 03 03 00 51 30.0000000  0  6G16G18G19G21G22G27
  20509413.660   107777714.12909  20509409.480    83982629.61848
  21743540.140   114263121.02609  21743536.580    89036200.59847
  23273978.580   122305607.81808  23273974.420    95303041.84947
  22652704.740   119040771.97809  22652699.900    92759028.75847
  21874598.740   114951812.01409  21874593.440    89572831.92947
  21417552.480   112550047.51909  21417551.540    87701352.19248
 15 03 03 00 52  0.0000000  0  6G16G18G19G21G22G27
  20506150.560   107760566.25509  20506146.300    83969267.63648
  21741971.120   114254875.55509  21741967.500    89029775.55747
  23260034.240   122232328.95008  23260029.640    95245941.44747
  22665466.080   119107833.95608  22665461.320    92811284.83647
  21861017.440   114880442.26909  21861012.200    89517219.18448
  21408244.780   112501135.02309  21408243.740    87663238.56548
 15 03 03 00 52 30.0000000  0  6G16G18G19G21G22G27
  20502986.020   107743936.68709  20502981.840    83956309.52748
  21740495.500   114247121.22509  21740491.880    89023733.23847
  23246105.360   122159131.46308  23246100.520    95188904.48347
  22678248.980   119175010.07508  22678244.520    92863629.85647
  21847501.300   114809414.68109  21847496.140    89461873.03448
  21398964.880   112452368.49109  21398963.680    87625238.67848
 15 03 03 00 53  0.0000000  0  6G16G18G19G21G22G27
  20499920.980   107727830.14609  20499916.840    83943758.97348
  21739114.040   114239861.81409  21739110.420    89018076.57147
  23232192.820   122086019.38408  23232187.940    95131934.07346
  22691053.920   119242302.21808  22691049.880    92916065.28647
  21834051.460   114738735.30809  21834046.180    89406798.22248
  21389713.580   112403752.18709  21389712.240    87587355.86348
 15 03 03 00 53 30.0000000  0  6G16G18G19G21G22G27
  20496956.840   107712253.62109  20496952.640    83931621.42648
  21737827.940   114233103.10009  21737824.240    89012810.04948
  23218297.360   122012998.09208  23218292.800    95075034.41447
  22703881.660   119309714.33308  22703878.000    92968594.19647
  21820669.340   114668411.81909  21820663.980    89352000.72948
  21380491.980   112355291.98409  21380490.600    87549594.67248
 15 03 03 00 54  0.0000000  0  6G16G18G19G21G22G27
  20494092.820   107697203.21009  20494088.560    83919893.83348
  21736636.340   114226841.10709  21736632.720    89007930.59348
  23204418.120   121940063.09208  23204413.660    95018201.97147
  22716731.140   119377239.96308  22716727.740    93021211.56247
  21807354.520   114598441.75209  21807349.160    89297478.61648
  21371299.280   112306983.65709  21371297.880    87511951.82548
 15 03 03 00 54 30.0000000  0  6G16G18G19G21G22G27
  20491329.460   107682682.08609  20491325.320    83908578.66548
  21735539.740   114221078.13109  21735536.120    89003439.97048
  23190555.760   121867216.93908  23190551.460    94961438.74547
  22729602.480   119444879.60808  22729599.160    93073917.77347
  21794107.600   114528828.95409  21794102.320    89243234.89948
  21362136.080   112258829.99309  21362134.580    87474429.49848
 15 03 03 00 55  0.0000000  0  6G16G18G19G21G22G27
  20488665.560   107668683.83109  20488661.560    83897670.93648
  21734536.740   114215807.17309  21734533.180    88999332.74448
  23176708.960   121794452.67508  23176704.840    94904739.37447
  22742494.120   119512624.97608  22742490.760    93126706.36747
  21780927.820   114459569.30509  21780922.660    89189266.37748
  21353001.060   112210824.55909  21352999.500    87437022.67048
 15 03 03 00 55 30.0000000  0  6G16G18G19G21G22G27
  20486102.700   107655216.93009  20486098.940    83887177.23948
  21733628.720   114211035.20909  21733625.180    88995614.34948
  23162879.100   121721777.41608  23162875.040    94848109.32247
  22755407.000   119580481.08908  22755403.480    93179581.27547
  21767816.960   114390671.85709  21767811.920    89135580.08648
  21343895.620   112162974.78109  21343894.040    87399737.13348
 15 03 03 00 56  0.0000000  0  6G16G18G19G21G22G27
  20483640.460   107642278.54108  20483636.920    83877095.37348
  21732815.040   114206759.06809  21732811.440    88992282.29347
  23149065.540   121649187.76908  23149061.680    94791545.99247
  22768339.980   119648443.23308  22768336.300    93232538.77647
  21754774.780   114322135.09309  21754769.780    89082174.84048
  21334819.140   112115277.59009  21334817.580    87362570.50848
 15 03 03 00 56 30.0000000  0  6G16G18G19G21G22G27
  20481279.540   107629872.07309  20481276.120    83867427.99148
  21732096.260   114202981.43109  21732092.560    88989338.67848
  23135269.020   121576686.32008  23135264.920    94735051.37147
  22781293.140   119716511.85508  22781289.220    93285579.25047
  21741802.160   114253963.70709  21741797.140    89029054.30048
  21325772.240   112067736.08609  21325770.760    87325525.18248
 15 03 03 00 57  0.0000000  0  6G16G18G19G21G22G27
  20479019.800   107617996.67809  20479016.340    83858174.43248
  21731472.020   114199700.60209  21731468.220    88986782.19047
  23121489.080   121504271.57108  23121484.620    94678624.29847
  22794266.000   119784683.96708  22794261.800    93338700.37247
  21728899.120   114186157.89509  21728894.000    88976218.61248
  21316754.700   112020348.99309  21316753.340    87288600.17249
 15 03 03 00 57 30.0000000  0  6G16G18G19G21G22G27
  20476862.160   107606657.89309  20476858.600    83849339.01448
  21730943.140   114196921.22109  21730939.320    88984616.45147
  23107726.540   121431948.04208  23107721.760    94622268.33447
  22807259.080   119852962.53708  22807254.680    93391904.44947
  21716067.000   114118724.54109  21716061.800    88923673.16248
  21307767.520   111973121.58209  21307766.340    87251799.59048
 15 03 03 00 58  0.0000000  0  6G16G18G19G21G22G27
  20474806.180   107595853.54509  20474802.560    83840920.04748
  21730509.080   114194640.20809  21730505.160    88982839.04447
  23093980.900   121359713.25208  23093975.820    94565981.48447
  22820271.480   119921343.03508  22820267.000    93445187.95947
  21703305.700   114051663.34409  21703300.400    88871417.70948
  21298810.280   111926051.39909  21298809.240    87215121.52548
 15 03 03 00 58 30.0000000  0  6G16G18G19G21G22G27
  20472852.060   107585584.89608  20472848.420    83832918.49848
  21730170.000   114192858.44809  21730166.100    88981450.66647
  23080252.200   121287567.88208  23080246.940    94509764.31947
  22833302.960   119989824.35308  22833298.580    93498550.01747
  21690615.660   113984976.43409  21690610.240    88819453.89348
  21289883.220   111879139.50509  21289882.200    87178566.80748
 15 03 03 00 59  0.0000000  0  6G16G18G19G21G22G27
  20470999.960   107575852.45209  20470996.400    83825334.77848
  21729925.780   114191575.48709  21729922.020    88980450.97847
  23066540.440   121215511.66008  23066535.240    94453616.65947
  22846353.220   120058404.61208  22846349.020    93551989.17647
  21677997.200   113918665.60609  21677991.760    88767783.13748
  21280986.240   111832385.99109  21280985.180    87142135.51548
 15 03 03 00 59 30.0000000  0  6G16G18G19G21G22G27
  20469249.840   107566655.72509  20469246.400    83818168.48548
  21729776.360   114190790.72909  21729772.800    88979839.48748
  23052845.520   121143543.78408  23052840.180    94397537.81547
  22859421.780   120127081.09408  22859417.760    93605503.29847
  21665450.480   113852732.02909  21665445.100    88716406.34048
  21272119.320   111785790.49309  21272118.160    87105827.33348
 15 03 03 01 00  0.0000000  0  6G16G18G19G21G22G27
  20467603.820   107558005.21109  20467600.300    83811427.82948
  21729723.480   114190513.03909  21729719.960    88979623.11847
  23039169.040   121071673.43908  23039163.840    94341534.98947
  22872510.180   120195861.22409  22872506.160    93659098.19447
  21652977.640   113787186.80209  21652972.300    88665332.17448
  21263284.400   111739362.81909  21263283.120    87069649.92748
 15 03 03 01 00 30.0000000  0  6G16G18G19G21G22G27
  20466059.980   107549891.77009  20466056.320    83805105.66748
  21729765.220   114190732.46609  21729761.660    88979794.11447
  23025509.380   120999891.47009  23025504.140    94285601.01247
  22885616.340   120264734.28108  22885612.200    93712765.51147
  21640577.180   113722022.34209  21640571.900    88614554.70148
  21254479.780   111693093.76109  21254478.400    87033596.12848
 15 03 03 01 01  0.0000000  0  6G16G18G19G21G22G27
  20464619.240   107542320.47308  20464615.480    83799205.95348
  21729902.400   114191453.43909  21729898.780    88980355.92747
  23011867.380   120928202.43108  23011862.060    94229739.44247
  22898740.740   120333702.99808  22898736.520    93766507.36447
  21628250.360   113657245.06209  21628245.260    88564078.93948
  21245706.320   111646988.41609  21245704.860    86997669.90148
 15 03 03 01 01 30.0000000  0  6G16G18G19G21G22G27
  20463280.520   107535285.73808  20463276.740    83793724.33748
  21730133.880   114192669.59009  21730130.160    88981303.58447
  22998241.960   120856600.08408  22998236.480    94173945.43047
  22911881.760   120402759.21208  22911877.540    93820317.39147
  21615996.500   113592850.97109  21615991.480    88513901.75748
  21236962.760   111601040.99209  21236961.260    86961866.71648
 15 03 03 01 02  0.0000000  0  6G16G18G19G21G22G27
  20462045.380   107528795.40409  20462041.640    83788666.92248
  21730461.040   114194388.50209  21730457.120    88982642.99347
  22984634.460   120785091.83508  22984628.860    94118224.72247
  22925040.520   120471908.78908  22925036.340    93874200.15947
  21603817.320   113528849.30909  21603812.360    88464030.36448
  21228250.620   111555259.43809  21228249.240    86926192.77448
 15 03 03 01 02 30.0000000  0  6G16G18G19G21G22G27
  20460913.780   107522848.68809  20460910.060    83784033.11948
  21730883.460   114196608.06609  21730879.420    88984372.53047
  22971044.660   120713676.26009  22971038.780    94062576.25347
  22938216.420   120541148.55608  22938212.260    93928153.22047
  21591712.940   113465240.21809  21591707.940    88414464.87148
  21219569.800   111509642.49909  21219568.620    86890647.11148
 15 03 03 01 03  0.0000000  0  6G16G18G19G21G22G27
  20459886.000   107517447.39409  20459882.340    83779824.31049
  21731401.360   114199329.32609  21731397.240    88986493.00047
  22957472.880   120642355.29208  22957466.820    94007001.47547
  22951409.520   120610478.69308  22951405.320    93982176.70447
  21579683.940   113402027.27009  21579678.860    88365208.05148
  21210920.860   111464192.37709  21210919.860    86855231.44448
 15 03 03 01 03 30.0000000  0  6G16G18G19G21G22G27
  20458961.720   107512589.82309  20458958.060    83776039.18448
  21732014.220   114202549.68509  21732010.180    88989002.38148
  22943918.540   120571126.21608  22943912.440    93951498.31547
  22964618.960   120679894.74508  22964614.720    94036267.12646
  21567730.200   113339209.94809  21567725.080    88316259.50548
  21202303.340   111418906.95709  21202302.460    86819944.10548
 15 03 03 01 04  0.0000000  0  6G16G18G19G21G22G27
  20458141.580   107508279.87208  20458137.880    83772680.77648
  21732722.600   114206272.55409  21732718.640    88991903.34548
  22930382.320   120499992.64708  22930376.340    93896069.60547
  22977845.140   120749398.91108  22977840.860    94090426.22047
  21555852.700   113276793.10909  21555847.440    88267623.02748
  21193717.940   111373790.38309  21193717.200    86784788.33648
 15 03 03 01 04 30.0000000  0  6G16G18G19G21G22G27
  20457425.580   107504517.53909  20457421.760    83769749.07448
  21733526.500   114210497.13809  21733522.600    88995195.23948
  22916864.160   120428954.40008  22916858.120    93840715.14347
  22991087.640   120818988.95708  22991083.380    94144652.22246
  21544051.780   113214778.84309  21544046.440    88219300.23948
  21185164.680   111328842.60109  21185163.920    86749764.09248
 15 03 03 01 05  0.0000000  0  6G16G18G19G21G22G27
  20456814.180   107501304.24609  20456810.160    83767245.21548
  21734425.940   114215223.89009  21734422.060    88998878.44047
  22903364.320   120358012.69809  22903358.360    93785435.93247
  23004346.360   120888664.43208  23004342.120    94198944.79646
  21532328.020   113153169.99209  21532322.680    88171293.37148
  21176643.920   111284065.28209  21176642.940    86714872.68348
 15 03 03 01 05 30.0000000  0  7G04G16G18G19G21G22G27
  24572911.380   129131517.78107  24572911.660   100621962.25944
  20456307.500   107498640.92309  20456303.480    83765169.89348
  21735420.920   114220452.87909  21735417.120    89002952.99247
  22889882.880   120287167.97208  22889876.980    93730232.28847
  23017621.060   120958423.82708  23017616.780    94253302.76246
  21520681.780   113091968.52209  21520676.360    88123603.93048
  21168155.840   111239459.15709  21168154.480    86680114.66548
 15 03 03 01 06  0.0000000  0  7G04G16G18G19G21G22G27
  24554070.140   129032507.07907  24554070.640   100544811.31744
  20455909.420   107496547.80009  20455905.280    83763538.88649
  21736515.200   114226203.89809  21736511.360    89007434.32148
  22876423.760   120216440.21608  22876417.920    93675119.78047
  23030915.300   121028285.53808  23030910.900    94307740.45746
  21509117.200   113031195.97609  21509111.660    88076248.72248
  21159704.200   111195044.66609  21159702.500    86645505.98848
 15 03 03 01 06 30.0000000  0  7G04G16G18G19G21G22G27
  24535251.560   128933615.73308  24535252.220   100467753.36744
  20455611.060   107494979.25909  20455606.840    83762316.64448
  21737700.080   114232430.50209  21737696.220    89012286.22947
  22862978.180   120145783.47908  22862972.280    93620062.61147
  23044219.980   121098202.09008  23044215.520    94362220.89346
  21497625.840   112970808.36409  21497620.300    88029193.45848
  21151280.280   111150776.48609  21151278.540    86611011.31048
 15 03 03 01 07  0.0000000  0  7G04G16G18G19G21G22G27
  24516460.460   128834868.57208  24516461.180   100390807.75844
  20455417.060   107493959.67909  20455412.860    83761522.16249
  21738979.920   114239156.30909  21738976.080    89017527.12648
  22849550.800   120075222.31008  22849544.880    93565079.89647
  23057539.360   121168195.95708  23057534.880    94416761.56647
  21486212.680   112910831.76909  21486207.140    87982458.47448
  21142888.820   111106679.33709  21142887.220    86576649.90148
 15 03 03 01 07 30.0000000  0  7G04G16G18G19G21G22G27
  24497697.860   128736270.83508  24497698.400   100313978.57245
  20455328.460   107493494.38809  20455324.260    83761159.58949
  21740355.480   114246385.39409  21740351.720    89023160.18947
  22836142.460   120004761.16009  22836136.640    93510175.14747
  23070874.020   121238270.43308  23070869.540    94471365.04446
  21474878.860   112851272.16109  21474873.300    87936048.39648
  21134530.820   111062758.14209  21134529.380    86542425.59448
 15 03 03 01 08  0.0000000  0  7G04G16G18G19G21G22G27
  24478963.240   128637819.88108  24478963.600   100237263.78145
  20455344.680   107493580.11909  20455340.600    83761226.38248
  21741826.100   114254113.84609  21741822.420    89029182.37847
  22822752.600   119934396.81409  22822746.760    93455345.78047
  23084222.880   121308420.29608  23084218.540    94526027.25946
  21463624.180   112792128.09509  21463618.580    87889962.12548
  21126205.700   111019009.99309  21126204.420    86508336.13748
 15 03 03 01 08 30.0000000  0  7G04G16G18G19G21G22G27
  24460257.000   128539518.27908  24460257.080   100160665.33845
  20455466.200   107494218.76609  20455462.120    83761724.02949
  21743392.040   114262343.00309  21743388.280    89035594.70647
  22809381.500   119864131.20908  22809375.680    93400593.36047
  23097586.080   121378645.69508  23097581.980    94580748.34446
  21452449.180   112733403.05809  21452443.560    87844202.37748
  21117914.000   110975437.41409  21117912.800    86474383.48448
 15 03 03 01 09  0.0000000  0  7G04G16G18G19G21G22G27
  24441578.760   128441364.43708  24441578.800   100084182.05545
  20455692.560   107495408.63409  20455688.580    83762651.18748
  21745052.760   114271070.42109  21745049.000    89042395.30447
  22796028.800   119793962.35409  22796022.940    93345916.36247
  23110962.940   121448942.80808  23110958.920    94635525.29446
  21441353.880   112675096.73409  21441348.120    87798768.88648
  21109655.480   110932038.65909  21109654.300    86440566.26948
 15 03 03 01 09 30.0000000  0  7G04G16G18G19G21G22G27
  24422929.840   128343365.31208  24422929.980   100007819.33345
  20456024.980   107497155.74209  20456021.060    83764012.56648
  21746809.360   114280301.26409  21746805.560    89049588.17747
  22782695.700   119723896.55409  22782689.800    93291319.64247
  23124354.460   121519316.38808  23124350.540    94690361.84546
  21430339.680   112617216.58309  21430333.880    87753667.48648
  21101431.440   110888820.39609  21101430.160    86406889.71448
 15 03 03 01 10  0.0000000  0  7G04G16G18G19G21G22G27
  24404309.300   128245515.68208  24404309.740    99931573.06345
  20456462.460   107499454.91209  20456458.540    83765804.12348
  21748660.600   114290029.32809  21748656.840    89057168.49447
  22769381.160   119653928.52908  22769375.280    93236799.13047
  23137759.240   121589758.85908  23137755.360    94745252.06246
  21419405.840   112559759.01609  21419400.100    87708895.38048
  21093240.800   110845777.54109  21093239.440    86373349.82949
 15 03 03 01 10 30.0000000  0  7G04G16G18G19G21G22G27
  24385717.800   128147818.36908  24385718.600    99855445.51045
  20457005.420   107502308.32809  20457001.580    83768027.56449
  21750606.780   114300256.26809  21750603.020    89065137.55747
  22756085.500   119584060.04408  22756079.680    93182356.16947
  23151177.360   121660270.92008  23151173.480    94800196.51746
  21408553.060   112502727.29309  21408547.360    87664455.09348
  21085083.920   110802912.51109  21085082.620    86339948.51948
 15 03 03 01 11  0.0000000  0  7G04G16G18G19G21G22G27
  24367155.720   128050275.86707  24367156.820    99779438.61745
  20457654.240   107505717.78409  20457650.500    83770684.27548
  21752648.160   114310983.51909  21752644.400    89073496.46447
  22742809.100   119514293.10308  22742803.540    93127992.34347
  23164608.840   121730852.78608  23164604.900    94855195.36946
  21397782.040   112446125.10409  21397776.380    87620349.51348
  21076961.280   110760227.70509  21076960.000    86306687.64649
 15 03 03 01 11 30.0000000  0  7G04G16G18G19G21G22G27
  24348622.760   127952885.97908  24348624.080    99703550.63645
  20458408.280   107509680.58309  20458404.640    83773772.15249
  21754784.000   114322207.24509  21754780.160    89082242.23547
  22729551.520   119444625.27408  22729546.180    93073705.74047
  23178052.880   121801500.36108  23178048.760    94910245.42746
  21387092.420   112389951.19009  21387086.820    87576577.65948
  21068872.600   110717721.02909  21068871.180    86273565.56548
 15 03 03 01 12  0.0000000  0  7G04G16G18G19G21G22G27
  24330120.160   127855655.34207  24330121.480    99627786.72245
  20459268.840   107514202.59309  20459265.220    83777295.79049
  21757015.320   114333932.84209  21757011.300    89091379.07247
  22716313.960   119375062.36008  22716308.880    93019500.90047
  23191510.200   121872217.90108  23191505.960    94965349.99446
  21376485.780   112334213.32709  21376480.120    87533145.56848
  21060819.040   110675398.86309  21060817.480    86240587.26649
 15 03 03 01 12 30.0000000  0  7G04G16G18G19G21G22G27
  24311646.840   127758578.97207  24311648.200    99552143.00745
  20460235.040   107519279.24909  20460231.280    83781251.62449
  21759340.860   114346153.94509  21759336.860    89100902.02447
  22703095.400   119305599.14708  22703090.540    92965373.75247
  23204979.460   121942998.40708  23204975.040    95020503.63146
  21365961.340   112278907.33209  21365955.760    87490050.00648
  21052799.460   110633256.31109  21052798.040    86207748.91848
 15 03 03 01 13  0.0000000  0  7G04G16G18G19G21G22G27
  24293203.360   127661659.05207  24293204.800    99476621.19845
  20461307.000   107524911.61509  20461303.020    83785640.47648
  21761760.880   114358871.42709  21761756.820    89110811.75747
  22689896.220   119236237.32909  22689891.520    92911325.58847
  23218460.640   122013841.53508  23218456.100    95075706.05846
  21355519.660   112224036.22209  21355514.180    87447293.31448
  21044814.340   110591295.31209  21044813.160    86175052.03448
 15 03 03 01 13 30.0000000  0  7G04G16G18G19G21G22G27
  24274790.500   127564900.12007  24274791.980    99401224.90644
  20462485.300   107531103.24509  20462481.120    83790465.12248
  21764275.980   114372088.57209  21764271.880    89121110.82847
  22676717.240   119166981.01709  22676712.600    92857359.65847
  23231954.140   122084749.69708  23231949.600    95130959.16146
  21345161.840   112169605.62109  21345156.380    87404879.87448
  21036864.700   110549520.43109  21036863.680    86142500.17648
 15 03 03 01 14  0.0000000  0  7G04G16G18G19G21G22G27
  24256407.920   127468299.80607  24256409.420    99325952.11745
  20463769.420   107537851.40909  20463765.240    83795723.43448
  21766885.500   114385801.71109  21766881.440    89131796.39947
  22663557.780   119097827.28308  22663552.940    92803473.63947
  23245459.140   122155718.60408  23245454.560    95186259.60846
  21334887.580   112115613.99909  21334882.080    87362808.50148
  21028950.140   110507929.18009  21028949.060    86110091.41148
 15 03 03 01 14 30.0000000  0  7G04G16G18G19G21G22G27
  24238056.060   127371860.94307  24238057.760    99250805.20845
  20465159.900   107545158.62809  20465155.740    83801417.36348
  21769589.620   114400012.35709  21769585.680    89142869.64247
  22650418.300   119028778.82609  22650413.260    92749669.65947
  23258975.780   122226748.83508  23258971.340    95241607.83246
  21324697.520   112062065.14109  21324692.060    87321082.13048
  21021071.120   110466524.45909  21021069.920    86077828.00049
 15 03 03 01 15  0.0000000  0  7G04G16G18G19G21G22G27
  24219735.380   127275585.07007  24219736.820    99175785.23044
  20466656.980   107553025.71009  20466652.760    83807547.56149
  21772388.460   114414720.59109  21772384.580    89154330.61648
  22637298.940   118959836.42308  22637293.760    92695948.33147
  23272503.860   122297839.71408  23272499.640    95297003.30046
  21314592.160   112008961.32609  21314586.740    87279702.55348
  21013227.860   110425307.69109  21013226.580    86045711.05148
 15 03 03 01 15 30.0000000  0  7G04G16G18G19G21G22G27
  24201445.040   127179468.33007  24201446.080    99100889.30844
  20468259.660   107561447.83709  20468255.440    83814110.25148
  21775280.980   114429921.03109  21775277.120    89166175.11748
  22624198.940   118890996.07108  22624193.800    92642306.51647
  23286042.440   122368985.55008  23286038.300    95352441.60146
  21304570.920   111956299.76909  21304565.540    87238667.59648
  21005419.600   110384275.14009  21005418.300    86013737.64048
 15 03 03 01 16  0.0000000  0  7G04G16G18G19G21G22G27
  24183185.660   127083513.63907  24183186.080    99026119.63444
  20469968.400   107570427.40009  20469964.220    83821107.29948
  21778267.480   114445615.34709  21778263.720    89178404.46447
  22611118.820   118822260.05708  22611113.580    92588745.99247
  23299591.640   122440187.01908  23299587.520    95407923.25546
  21294634.580   111904084.52009  21294629.240    87197980.40348
  20997646.880   110343429.67509  20997645.700    85981910.00749
 15 03 03 01 16 30.0000000  0  7G04G16G18G19G21G22G27
  24164957.920   126987725.00008  24164957.820    98951479.30244
  20471783.780   107579967.83309  20471779.780    83828541.39448
  21781348.420   114461805.97709  21781344.660    89191020.55047
  22598059.260   118753632.07108  22598054.000    92535269.65647
  23313151.840   122511445.86008  23313147.660    95463449.61046
  21284784.160   111852320.15609  21284778.840    87157644.55148
  20989910.500   110302775.20709  20989909.500    85950231.20948
 15 03 03 01 17  0.0000000  0  7G04G16G18G19G21G22G27
  24146761.560   126892102.51707  24146761.240    98876968.51045
  20473705.840   107590068.70209  20473701.980    83836412.19348
  21784523.640   114478491.54509  21784519.840    89204022.29747
  22585020.180   118685111.87708  22585014.980    92481877.30747
  23326722.620   122582760.32208  23326718.320    95519019.31946
  21275019.680   111801007.49609  21275014.360    87117660.67948
  20982210.520   110262311.89109  20982209.620    85918701.35948
 15 03 03 01 17 30.0000000  0  7G04G16G18G19G21G22G27
  24128596.760   126796646.31108  24128596.140    98802587.24344
  20475734.380   107600729.06509  20475730.600    83844718.96748
  21787792.820   114495670.86009  21787788.940    89217408.77947
  22572001.540   118616699.24208  22571996.540    92428568.77347
  23340303.560   122654128.24408  23340299.200    95574630.69946
  21265341.400   111750147.74209  21265336.060    87078029.72048
  20974546.960   110222039.86409  20974546.140    85887320.56449
 15 03 03 01 18  0.0000000  0  7G04G16G18G19G21G22G27
  24110464.140   126701359.69808  24110463.280    98728338.07643
  20477869.940   107611951.48709  20477866.100    83853463.72048
  21791156.240   114513345.63609  21791152.300    89231181.33347
  22559004.000   118548397.13708  22558999.060    92375346.37147
  23353894.880   122725551.30008  23353890.580    95630284.99546
  21255749.980   111699744.76509  21255744.680    87038754.69848
  20966920.460   110181962.47009  20966919.660    85856091.42849
 15 03 03 01 18 30.0000000  0  7G04G16G18G19G21G22G27
  24092363.620   126606242.37608  24092362.980    98654220.88144
  20480112.220   107623735.03209  20480108.480    83862645.69549
  21794613.580   114531514.21409  21794609.640    89245338.66547
  22546027.400   118480204.81208  22546022.340    92322209.52347
  23367496.160   122797027.08408  23367492.000    95685980.39546
  21246245.740   111649799.46609  21246240.460    86999836.29348
  20959331.040   110142079.56709  20959330.160    85825013.84249
 15 03 03 01 19  0.0000000  0  7G04G16G18G19G21G22G27
  24074295.420   126511295.19708  24074295.140    98580236.23344
  20482461.300   107636079.82809  20482457.660    83872265.01049
  21798164.680   114550175.69909  21798160.860    89259880.10047
  22533071.920   118412122.87908  22533066.740    92269158.66747
  23381107.140   122868554.38308  23381103.160    95741715.94746
  21236828.840   111600313.36909  21236823.540    86961275.72348
  20951778.920   110102391.98909  20951777.840    85794088.46549
 15 03 03 01 19 30.0000000  0  7G04G16G18G19G21G22G27
  24056259.400   126416517.03008  24056259.180    98506383.26044
  20484916.840   107648984.02209  20484913.240    83882320.22049
  21801809.140   114569327.86009  21801805.360    89274803.86447
  22520137.380   118344150.32208  22520131.940    92216193.04847
  23394727.260   122940130.11308  23394723.460    95797489.23946
  21227499.260   111551286.32109  21227493.980    86923072.84948
  20944263.880   110062898.86809  20944262.520    85763314.60449
 15 03 03 01 20  0.0000000  0  7G04G16G18G19G21G22G27
  24038256.000   126321909.71508  24038255.800    98432663.42544
  20487479.040   107662448.52309  20487475.540    83892812.03648
  21805547.000   114588970.88009  21805543.280    89290110.12447
  22507223.760   118276288.22908  22507218.260    92163313.52647
  23408356.540   123011753.67408  23408352.940    95853299.80446
  21218257.520   111502720.72409  21218252.260    86885229.53848
  20936786.060   110023601.89209  20936784.560    85732693.58649
 15 03 03 01 20 30.0000000  0  7G04G16G18G19G21G22G27
  24020285.300   126227473.52708  24020285.040    98359076.97044
  20490147.780   107676472.71309  20490144.260    83903739.96948
  21809378.100   114609103.47309  21809374.320    89305797.85847
  22494330.980   118208536.41508  22494325.620    92110519.92547
  23421994.760   123083423.78208  23421991.400    95909146.63346
  21209103.720   111454617.40109  21209098.400    86847746.45648
  20929345.440   109984501.53809  20929344.000    85702225.77749
 15 03 03 01 21  0.0000000  0  7G04G16G18G19G21G22G27
  24002347.260   126133208.68208  24002346.960    98285624.02644
  20492922.860   107691055.70409  20492919.260    83915103.33548
  21813302.100   114629724.10109  21813298.300    89321865.89247
  22481459.120   118140894.95709  22481453.980    92057812.31847
  23435641.600   123155138.56508  23435638.380    95965028.27646
  21200038.140   111406977.54309  21200032.680    86810624.49548
  20921942.120   109945597.90309  20921940.780    85671911.25748
 15 03 03 01 21 30.0000000  0  7G04G16G18G19G21G22G27
  23984442.420   126039117.85608  23984442.040    98212306.62845
  20495804.740   107706200.01509  20495801.020    83926904.09748
  21817319.180   114650833.73309  21817315.380    89338314.97747
  22468608.680   118073366.34008  22468603.840    92005192.62947
  23449297.220   123226899.06208  23449293.960    96020945.52346
  21191061.400   111359804.73209  21191055.960    86773866.48948
  20914576.940   109906894.15709  20914575.640    85641752.50048
 15 03 03 01 22  0.0000000  0  7G04G16G18G19G21G22G27
  23966570.520   125945200.17408  23966570.060    98139124.14645
  20498792.980   107721903.29109  20498789.260    83939140.40148
  21821428.940   114672430.33209  21821425.020    89355143.49547
  22455779.540   118005949.56108  22455775.040    91952660.06748
  23462961.020   123298701.64308  23462957.600    96076895.58346
  21182173.580   111313098.65209  21182168.120    86737472.15348
  20907249.620   109868389.23009  20907248.360    85611748.66748
 15 03 03 01 22 30.0000000  0  7G04G16G18G19G21G22G27
  23948732.160   125851458.77108  23948731.700    98066079.03645
  20501888.100   107738168.10409  20501884.320    83951814.27748
  21825631.740   114694515.70109  21825627.780    89372352.88247
  22442972.220   117938647.22909  22442967.920    91900216.72047
  23476633.240   123370548.28308  23476629.660    96132879.97646
  21173375.340   111266863.49609  21173369.860    86701444.78248
  20899960.720   109830086.66109  20899959.500    85581902.51348
 15 03 03 01 23  0.0000000  0  7G04G16G18G19G21G22G27
  23930927.440   125757894.20908  23930926.860    97993171.72045
  20505090.040   107754994.16809  20505086.100    83964925.49048
  21829927.220   114717088.19009  21829923.200    89389941.84148
  22430186.920   117871459.70609  22430182.560    91847862.81948
  23490313.440   123442437.19508  23490309.720    96188897.29946
  21164666.900   111221100.18809  21164661.300    86665785.07248
  20892710.360   109791986.86309  20892709.280    85552214.36548
 15 03 03 01 23 30.0000000  0  7G04G16G18G19G21G22G27
  23913156.440   125664507.39508  23913155.780    97920402.90145
  20508398.800   107772381.59009  20508394.880    83978474.12249
  21834315.360   114740147.45209  21834311.280    89407910.10347
  22417423.780   117804387.93509  22417419.300    91795599.12048
  23504001.600   123514368.03108  23503997.740    96244947.29746
  21156048.560   111175810.42409  21156042.880    86630494.35948
  20885498.920   109754091.29709  20885497.980    85522685.36248
 15 03 03 01 24  0.0000000  0  7G04G16G18G19G21G22G27
  23895420.080   125571303.04208  23895419.540    97847776.28846
  20511815.020   107790333.76909  20511811.140    83992462.82349
  21838796.700   114763696.38509  21838792.540    89426259.92147
  22404683.440   117737436.07209  22404678.860    91743428.85947
  23517698.000   123586342.63108  23517693.980    96301031.38346
  21147521.340   111130999.83609  21147515.720    86595577.03448
  20878327.300   109716404.51009  20878326.520    85493319.03749
 15 03 03 01 24 30.0000000  0  7G04G16G18G19G21G22G27
  23877717.460   125478276.62007  23877716.980    97775288.28445
  20515337.640   107808845.13309  20515333.820    84006887.25649
  21843370.000   114787728.97309  21843365.760    89444986.61347
  22391965.060   117670599.91108  22391960.300    91691348.74648
  23531401.540   123658355.27208  23531397.320    96357145.11946
  21139084.500   111086664.35009  21139078.880    86561029.90648
  20871194.720   109678922.33709  20871194.000    85464112.14549
 15 03 03 01 25  0.0000000  0  7G04G16G18G19G21G22G27
  23860049.060   125385430.53308  23860048.880    97702940.85546
  20518966.880   107827916.95509  20518963.160    84021748.40048
  21848035.180   114812245.60809  21848031.140    89464090.49947
  22379268.960   117603881.20809  22379264.100    91639360.16747
  23545112.340   123730406.35708  23545108.120    96413288.81146
  21130738.640   111042806.91109  21130733.140    86526855.29548
  20864101.680   109641647.06209  20864100.820    85435066.48049
 15 03 03 01 25 30.0000000  0  7G04G16G18G19G21G22G27
  23842415.160   125292766.17007  23842415.280    97630735.02445
  20522703.080   107847550.56309  20522699.340    84037047.30948
  21852792.460   114837246.54409  21852788.620    89483571.76047
  22366595.400   117537281.35608  22366590.560    91587464.19548
  23558830.480   123802495.79508  23558826.360    96469462.38746
  21122484.160   110999429.85709  21122478.760    86493055.00548
  20857048.540   109604580.84009  20857047.340    85406183.72249
 15 03 03 01 26  0.0000000  0  7G04G16G18G19G21G22G27
  23824816.400   125200286.16107  23824816.800    97558672.81346
  20526546.300   107867746.79409  20526542.480    84052784.62848
  21857642.160   114862732.53109  21857638.440    89503430.97947
  22353944.800   117470802.70308  22353940.180    91535662.66348
  23572555.940   123874623.85608  23572551.740    96525666.05246
  21114321.800   110956536.29709  21114316.440    86459631.45448
  20850035.620   109567726.00209  20850034.040    85377465.67449
 15 03 03 01 26 30.0000000  0  7G04G16G18G19G21G22G27
  23807251.160   125107982.04908  23807251.900    97486747.69446
  20530494.880   107888496.54409  20530490.900    84068953.26848
  21862582.360   114888693.46009  21862578.540    89523660.27447
  22341315.660   117404436.90808  22341311.260    91483949.06948
  23586286.760   123946780.33508  23586282.460    96581891.87246
  21106249.980   110914118.53109  21106244.620    86426578.66448
  20843061.220   109531074.60209  20843059.580    85348906.14449
 15 03 03 01 27  0.0000000  0  7G04G16G18G19G21G22G27
  23789721.400   125015863.36408  23789722.060    97414967.04646
  20534550.240   107909807.80908  20534546.200    84085559.44148
  21867614.420   114915137.16609  21867610.520    89544265.76747
  22328709.800   117338193.11608  22328705.500    91432330.55448
  23600024.560   124018973.02408  23600020.000    96638145.92045
  21098270.660   110872186.59609  21098265.320    86393904.44148
  20836127.260   109494636.28809  20836125.660    85320512.64949
 15 03 03 01 27 30.0000000  0  7G04G16G18G19G21G22G27
  23772226.040   124923924.14508  23772226.580    97343326.22645
  20538711.100   107931674.05709  20538707.220    84102598.05748
  21872736.880   114942055.92309  21872733.060    89565241.43247
  22316126.040   117272065.20509  22316121.680    91380802.33247
  23613767.740   124091194.15408  23613763.100    96694422.11846
  21090382.760   110830735.38609  21090377.360    86361604.80948
  20829232.720   109458405.31209  20829231.120    85292280.71549
 15 03 03 01 28  0.0000000  0  7G04G16G18G19G21G22G27
  23754766.920   124832175.09408  23754767.040    97271833.54245
  20542979.460   107954104.99209  20542975.700    84120076.70148
  21877951.500   114969458.87809  21877947.600    89586594.39247
  22303566.520   117206064.09609  22303561.940    91329372.90548
  23627518.060   124163452.92008  23627513.580    96750727.64646
  21082588.460   110789776.26209  21082583.140    86329688.63548
  20822379.740   109422392.90609  20822378.200    85264219.10949
 15 03 03 01 28 30.0000000  0  7G04G16G18G19G21G22G27
  23737342.460   124740607.83508  23737342.120    97200482.58145
  20547353.540   107977090.82909  20547349.840    84137987.73849
  21883256.340   114997335.61109  21883252.340    89608316.52647
  22291029.480   117140180.96709  22291024.720    91278035.41248
  23641273.580   124235739.01808  23641269.420    96807054.45946
  21074886.260   110749300.93909  21074881.000    86298149.43448
  20815566.720   109386590.70209  20815565.280    85236321.27949
 15 03 03 01 29  0.0000000  0  7G04G16G18G19G21G22G27
  23719953.640   124649227.68408  23719952.660    97129277.33045
  20551834.020   108000635.83709  20551830.420    84156334.48748
  21888652.080   115025689.78109  21888647.920    89630410.68647
  22278515.900   117074421.14309  22278510.900    91226793.99948
  23655034.920   124308055.73108  23655031.040    96863405.12946
  21067277.260   110709315.50509  21067271.980    86266991.97448
  20808794.740   109351004.22209  20808793.460    85208591.55849
 15 03 03 01 29 30.0000000  0  7G04G16G18G19G21G22G27
  23702601.020   124558039.55208  23702599.840    97058221.84845
  20556421.560   108024743.22309  20556417.860    84175119.46348
  21894139.240   115054524.68309  21894135.000    89652879.44547
  22266026.600   117008789.43109  22266021.460    91175652.42448
  23668802.720   124380406.49208  23668799.020    96919782.33746
  21059762.580   110669825.55909  21059757.240    86236220.61048
  20802064.820   109315638.82309  20802063.700    85181034.11749
 15 03 03 01 30  0.0000000  0  7G04G16G18G19G21G22G27
  23685284.160   124467039.34607  23685282.840    96987312.59446
  20561115.380   108049408.72009  20561111.520    84194339.32648
  21899716.660   115083834.21209  21899712.420    89675718.04247
  22253560.780   116943281.68809  22253555.600    91124607.43147
  23682575.720   124452785.32208  23682572.300    96976181.38746
  21052341.440   110630827.22309  21052336.060    86205832.30648
  20795376.220   109280490.50009  20795375.200    85153645.81649
 15 03 03 01 30 30.0000000  0  7G04G16G18G19G21G22G27
  23668003.160   124376228.95708  23668002.140    96916551.42145
  20565915.500   108074632.70609  20565911.520    84213994.37249
  21905384.420   115113618.69509  21905380.360    89698926.73547
  22241118.960   116877899.96609  22241113.820    91073660.63948
  23696354.220   124525192.55108  23696350.960    97032602.57945
  21045014.360   110592323.31809  21045008.920    86175829.27448
  20788729.400   109245561.71709  20788728.380    85126428.58249
 15 03 03 01 31  0.0000000  0  7G04G16G18G19G21G22G27
  23650758.140   124285608.01707  23650757.340    96845937.81046
  20570821.600   108100413.65509  20570817.440    84234083.42448
  21911142.120   115143875.87809  21911138.320    89722503.76747
  22228701.060   116812643.87409  22228695.980    91022811.75448
  23710137.920   124597626.40208  23710134.680    97089044.52646
  21037781.380   110554313.86709  21037775.860    86146211.52448
  20782124.400   109210852.46809  20782123.180    85099382.41848
 15 03 03 01 31 30.0000000  0  7G04G16G18G19G21G22G27
  23633549.400   124195176.48408  23633548.660    96775471.80245
  20575833.260   108126749.85209  20575829.060    84254605.13948
  21916989.440   115174603.77309  21916985.740    89746447.59447
  22216307.000   116747512.83508  22216302.040    90972060.32248
  23723926.340   124670084.47108  23723923.040    97145505.34746
  21030642.640   110516799.22809  21030637.080    86116979.35448
  20775561.240   109176362.69509  20775559.700    85072507.28048
 15 03 03 01 32  0.0000000  0  7G04G16G18G19G21G22G27
  23616376.860   124104935.16008  23616376.280    96705153.97145
  20580950.340   108153641.01109  20580946.300    84275559.26548
  21922926.260   115205801.93809  21922922.520    89770757.85947
  22203937.040   116682508.14609  22203932.100    90921407.33048
  23737719.340   124742566.13708  23737715.900    97201984.57445
  21023598.360   110479780.79509  21023592.680    86088133.83248
  20769040.100   109142093.73409  20769038.500    85045804.19849
 15 03 03 01 32 30.0000000  0  7G04G16G18G19G21G22G27
  23599240.860   124014886.11008  23599240.240    96634985.94744
  20586173.260   108181088.60808  20586169.420    84296946.98648
  21928952.480   115237470.04609  21928948.620    89795434.30247
  22191591.580   116617631.98308  22191586.660    90870854.47348
  23751516.980   124815072.41808  23751513.340    97258482.96046
  21016649.060   110443261.54109  21016643.240    86059677.27948
  20762561.420   109108048.16909  20762560.020    85019275.18249
 15 03 03 01 33  0.0000000  0  7G04G16G18G19G21G22G27
  23582141.980   123925031.36708  23582141.500    96564969.40445
  20591502.200   108209093.20409  20591498.560    84318768.73748
  21935068.240   115269608.70009  21935064.300    89820477.40747
  22179270.780   116552885.78109  22179266.020    90820402.91048
  23765319.240   124887602.96708  23765315.440    97315000.26946
  21009795.020   110407243.15209  21009789.200    86031611.02448
  20756125.680   109074228.07209  20756124.400    84992921.86249
 15 03 03 01 33 30.0000000  0  7G04G16G18G19G21G22G27
  23565079.480   123835366.37908  23565078.560    96495100.61545
  20596936.180   108237648.86709  20596932.580    84341019.89348
  21941272.400   115302211.47309  21941268.320    89845882.16247
  22166973.860   116488265.23809  22166969.200    90770049.24048
  23779124.800   124960151.39608  23779121.040    97371531.48946
  21003035.580   110371721.94809  21003029.780    86003932.18048
  20749732.080   109040629.25909  20749730.760    84966740.98149
 15 03 03 01 34  0.0000000  0  7G04G16G18G19G21G22G27
  23548054.320   123745897.25608  23548053.240    96425384.55246
  20602475.940   108266760.35309  20602472.260    84363704.16948
  21947565.620   115335282.32609  21947561.580    89871651.66747
  22154701.980   116423776.60609  22154697.380    90719798.39648
  23792934.720   125032722.84408  23792931.100    97428080.67046
  20996371.780   110336703.79709  20996366.000    85976645.33848
  20743381.840   109007258.41009  20743380.500    84940737.72449
 15 03 03 01 34 30.0000000  0  7G04G16G18G19G21G22G27
  23531066.700   123656625.80308  23531065.420    96355822.48646
  20608121.560   108296428.10709  20608117.840    84386821.89648
  21953947.840   115368821.43909  21953943.960    89897786.05147
  22142455.660   116359421.80309  22142451.000    90669651.80548
  23806749.060   125105317.08408  23806745.420    97484647.60646
  20989804.260   110302191.94809  20989798.760    85949753.01348
  20737075.440   108974117.71309  20737074.200    84914913.80449
 15 03 03 01 35  0.0000000  0  7G04G16G18G19G21G22G27
  23514116.220   123567550.15108  23514114.820    96286413.01644
  20613872.500   108326649.17009  20613868.700    84410370.77848
  21960418.400   115402824.95009  21960414.700    89924282.30647
  22130234.460   116295198.89009  22130229.760    90619607.99748
  23820567.040   125177931.31908  23820563.460    97541230.11946
  20983332.860   110268184.80309  20983327.500    85923253.95748
  20730812.660   108941205.65909  20730811.460    84889268.04049
 15 03 03 01 35 30.0000000  0  7G04G16G18G19G21G22G27
  23497203.180   123478671.61007  23497201.700    96217157.05545
  20619728.660   108357423.42809  20619724.800    84434350.71548
  21966977.360   115437292.60909  21966973.660    89951140.23747
  22118038.640   116231109.35509  22118033.920    90569668.11248
  23834388.640   125250564.84008  23834385.180    97597827.65746
  20976957.840   110234683.92309  20976952.420    85897149.38648
  20724593.700   108908523.93409  20724592.420    84863801.76549
 15 03 03 01 36  0.0000000  0  7G04G16G18G19G21G22G27
  23480327.660   123389990.49608  23480325.500    96148054.90845
  20625689.700   108388749.07809  20625685.900    84458760.29848
  21973624.340   115472222.47009  21973620.480    89978358.31647
  22105868.180   116167153.51808  22105863.400    90519832.41248
  23848213.600   125323216.04708  23848210.260    97654438.97546
  20970679.200   110201689.67609  20970673.760    85871439.60348
  20718418.620   108876073.23109  20718417.200    84838515.50549
 15 03 03 01 36 30.0000000  0  7G04G16G18G19G21G22G27
  23463489.800   123301507.54908  23463487.760    96079107.33345
  20631755.840   108420626.32009  20631751.980    84483599.70048
  21980359.080   115507613.32609  21980354.980    90005935.59747
  22093723.340   116103332.39509  22093718.540    90470101.67348
  23862041.900   125395884.60108  23862038.600    97711063.79646
  20964497.300   110169203.47709  20964491.800    85846125.69448
  20712287.680   108843854.87109  20712286.120    84813410.28749
 15 03 03 01 37  0.0000000  0  7G04G16G18G19G21G22G27
  23446689.620   123213222.03608  23446687.440    96010313.47846
  20637926.540   108453053.46209  20637922.700    84508867.59648
  21987180.900   115543462.39209  21987176.700    90033869.94047
  22081604.020   116039645.32409  22081599.300    90420475.39248
  23875873.060   125468568.05308  23875869.880    97767700.21346
  20958411.960   110137224.89509  20958406.360    85821207.32848
  20706200.900   108811868.49009  20706199.220    84788485.84249
 15 03 03 01 37 30.0000000  0  7G04G16G18G19G21G22G27
  23429927.220   123125135.10308  23429925.200    95941674.42445
  20644201.660   108486029.57209  20644197.800    84534563.25248
  21994089.760   115579769.37509  21994085.580    90062161.10347
  22069510.480   115976093.20609  22069505.760    90370954.27848
  23889707.240   125541266.06408  23889703.920    97824348.00145
  20952423.480   110105755.07009  20952417.860    85796685.40348
  20700158.480   108780115.54209  20700156.780    84763743.28849
 15 03 03 01 38  0.0000000  0  7G04G16G18G19G21G22G27
  23413202.920   123037248.20008  23413201.120    95873191.15246
  20650581.360   108519554.93209  20650577.500    84560686.90148
  22001085.680   115616533.70809  22001081.580    90090808.64047
  22057443.080   115912678.17309  22057438.360    90321539.98348
  23903544.240   125613978.43908  23903540.600    97881006.97146
  20946532.280   110074796.25609  20946526.580    85772561.66248
  20694160.740   108748598.00509  20694159.120    84739184.16649
 15 03 03 01 38 30.0000000  0  7G04G16G18G19G21G22G27
  23396517.100   122949563.70808  23396515.120    95804865.62746
  20657065.640   108553629.98809  20657061.820    84587238.87848
  22008168.660   115653755.59209  22008164.620    90119812.71547
  22045402.220   115849402.37509  22045397.460    90272234.16448
  23917384.140   125686706.19608  23917380.380    97937677.93646
  20940738.780   110044350.85309  20940732.980    85748837.98648
  20688208.320   108717318.74909  20688206.880    84714810.72349
 15 03 03 01 39  0.0000000  0  7G04G16G18G19G21G22G27
  23379869.820   122862082.20308  23379868.120    95736698.35246
  20663654.420   108588254.25809  20663650.600    84614218.81748
  22015338.500   115691433.91209  22015334.400    90149172.44647
  22033387.880   115786266.39809  22033383.140    90223037.32148
  23931226.740   125759448.39708  23931222.800    97994360.16646
  20935043.160   110014419.65809  20935037.180    85725514.97948
  20682301.500   108686278.74909  20682300.260    84690623.72349
 15 03 03 01 39 30.0000000  0  7G04G16G18G19G21G22G27
  23363261.440   122774805.32808  23363259.880    95668690.47946
  20670347.780   108623428.25209  20670343.940    84641627.11448
  22022595.140   115729568.15709  22022590.980    90178887.45247
  22021400.480   115723272.14609  22021395.720    90173950.91448
  23945071.960   125832205.04308  23945067.840    98051053.63245
  20929445.760   109985004.89609  20929439.720    85702594.40648
  20676440.720   108655480.15809  20676439.540    84666624.83149
 15 03 03 01 40  0.0000000  0  7G04G16G18G19G21G22G27
  23346691.440   122687729.92608  23346689.760    95600839.61145
  20677144.880   108659147.16209  20677141.020    84669460.02648
  22029937.700   115768153.44409  22029933.640    90208953.90947
  22009439.560   115660416.93009  22009434.740    90124972.84648
  23958918.940   125904972.11108  23958914.700    98107755.24146
  20923946.080   109956103.67809  20923940.020    85680073.97848
  20670625.440   108624920.46609  20670624.240    84642812.09949
 15 03 03 01 40 30.0000000  0  7G04G16G18G19G21G22G27
  23330160.140   122600857.40907  23330158.360    95533146.77345
  20684045.560   108695410.26409  20684041.660    84697716.97948
  22037366.000   115807188.68309  22037361.820    90239370.97347
  21997505.420   115597702.12509  21997500.440    90076104.17948
  23972767.720   125977748.83708  23972763.460    98164464.37845
  20918544.280   109927717.16909  20918538.280    85657954.63548
  20664855.900   108594601.17409  20664854.640    84619186.68049
 15 03 03 01 41  0.0000000  0  7G04G16G18G19G21G22G27
  23313668.200   122514191.51308  23313666.200    95465614.92546
  20691050.340   108732220.24309  20691046.400    84726400.06948
  22044880.420   115846676.18109  22044876.060    90270140.44947
  21985598.760   115535131.95009  21985593.660    90027348.19648
  23986618.880   126050538.03308  23986614.780    98221183.21645
  20913241.200   109899849.90009  20913235.400    85636239.89948
  20659132.980   108564526.95009  20659131.640    84595752.21849
 15 03 03 01 41 30.0000000  0  7G04G16G18G19G21G22G27
  23297214.940   122427729.24808  23297212.280    95398241.77845
  20698158.380   108769572.73009  20698154.340    84755505.90148
  22052479.880   115886610.80109  22052475.440    90301258.35347
  21973719.080   115472703.43709  21973713.840    89978702.62848
  24000471.520   126123335.02208  24000467.480    98277908.12945
  20908036.380   109872498.93809  20908030.640    85614927.47748
  20653456.200   108534695.14709  20653454.800    84572506.66549
 15 03 03 01 42  0.0000000  0  7G04G16G18G19G21G22G27
  23280800.880   122341473.84008  23280798.400    95331029.87844
  20705369.940   108807469.30509  20705365.700    84785035.69848
  22060164.600   115926993.71209  22060160.180    90332725.55747
  21961867.060   115410420.00009  21961861.600    89930170.10448
  24014326.120   126196141.72308  24014322.080    98334640.62946
  20902930.360   109845667.34509  20902924.740    85594019.76648
  20647826.280   108505109.49109  20647824.800    84549452.92049
 15 03 03 01 42 30.0000000  0  7G04G16G18G19G21G22G27
  23264426.300   122255426.53308  23264424.380    95263980.12345
  20712684.920   108845909.61409  20712680.560    84814989.17748
  22067934.480   115967824.06909  22067929.980    90364541.42747
  21950042.940   115348283.38909  21950037.260    89881751.98048
  24028182.600   126268958.17708  24028178.680    98391380.69445
  20897923.640   109819356.95309  20897918.020    85573518.17148
  20642243.560   108475771.88709  20642242.040    84526592.44349
 15 03 03 01 43  0.0000000  0  7G04G16G18G19G21G22G27
  23248090.880   122169584.84508  23248088.840    95197090.47445
  20720102.520   108884889.44409  20720098.080    84845363.06648
  22075788.660   116009097.49309  22075784.020    90396702.53947
  21938246.180   115286291.01509  21938240.400    89833446.24448
  24042040.100   126341780.18608  24042036.460    98448125.09445
  20893015.680   109793565.40709  20893009.920    85553420.87348
  20636707.620   108446680.15209  20636706.120    84503923.56549
 15 03 03 01 43 30.0000000  0  7G04G16G18G19G21G22G27
  23231795.080   122083949.64708  23231793.200    95130361.80744
  20727622.600   108924407.88609  20727618.200    84876156.65848
  22083726.840   116050812.73709  22083722.100    90429207.91447
  21926476.960   115224443.91409  21926471.180    89785253.69848
  24055898.460   126414606.69808  24055894.900    98504872.97945
  20888206.680   109768293.62109  20888200.740    85533728.56448
  20631218.620   108417835.66009  20631217.260    84481447.33349
 15 03 03 01 44  0.0000000  0  7G04G16G18G19G21G22G27
  23215538.860   121998522.87608  23215537.440    95063795.58645
  20735245.280   108964466.02009  20735241.120    84907370.77248
  22091748.980   116092969.89309  22091744.420    90462057.66247
  21914735.900   115162744.90809  21914730.180    89737176.56148
  24069758.020   126487439.40608  24069754.520    98561625.74845
  20883496.920   109743543.83909  20883491.000    85514443.04348
  20625777.160   108389241.45609  20625775.960    84459166.13149
 15 03 03 01 44 30.0000000  0  7G04G16G18G19G21G22G27
  23199323.080   121913309.46408  23199322.020    94997395.57646
  20742971.200   109005066.28509  20742967.180    84939007.33248
  22099855.660   116135571.69609  22099851.360    90495253.87647
  21903024.020   115101198.79709  21903018.380    89689218.56948
  24083619.340   126560281.62607  24083615.820    98618385.90545
  20878887.440   109719321.06309  20878881.480    85495568.15748
  20620384.420   108360902.75509  20620383.160    84437084.02249
 15 03 03 01 45  0.0000000  0  7G04G16G18G19G21G22G27
  23183146.880   121828303.91608  23183146.080    94931157.58346
  20750798.940   109046201.72309  20750795.100    84971060.90748
  22108045.580   116178610.79109  22108041.560    90528790.84847
  21891340.340   115039800.46809  21891334.800    89641375.72348
  24097481.120   126633126.30208  24097477.540    98675147.95845
  20874377.200   109695619.78609  20874371.280    85477099.65248
  20615039.500   108332814.51709  20615037.960    84415197.09649
 15 03 03 01 45 30.0000000  0  7G04G16G18G19G21G22G27
  23167010.720   121743508.86108  23167010.040    94865083.58845
  20758728.860   109087874.07809  20758725.200    85003532.84948
  22116318.860   116222087.54609  22116314.920    90562668.83947
  21879685.320   114978553.01609  21879679.920    89593650.44048
  24111343.700   126705974.33908  24111339.920    98731912.64245
  20869966.740   109672442.77509  20869960.840    85459039.64448
  20609742.880   108304979.91309  20609741.080    84393507.79049
 15 03 03 01 46  0.0000000  0  7G04G16G18G19G21G22G27
  23150914.360   121658923.10308  23150913.860    94799172.68846
  20766760.360   109130080.11009  20766756.800    85036420.65148
  22124674.840   116265998.49709  22124670.820    90596885.17047
  21868058.840   114917455.49109  21868053.500    89546041.99748
  24125206.720   126778824.17308  24125202.660    98788678.75245
  20865655.860   109649789.00609  20865649.980    85441387.37248
  20604494.460   108277398.57309  20604492.580    84372015.84149
 15 03 03 01 46 30.0000000  0  7G04G16G18G19G21G22G27
  23134858.380   121574549.76508  23134858.240    94733427.32146
  20774893.700   109172820.79809  20774890.100    85069725.08748
  22133113.680   116310345.00309  22133109.680    90631440.89547
  21856461.520   114856511.00509  21856456.120    89498552.80848
  24139070.340   126851677.08208  24139066.020    98845447.22645
  20861445.120   109627661.64609  20861439.260    85424145.28848
  20599294.880   108250073.92309  20599292.920    84350723.91249
 15 03 03 01 47  0.0000000  0  7G04G16G18G19G21G22G27
  23118842.920   121490389.20508  23118842.920    94667847.71747
  20783128.580   109216095.16409  20783124.960    85103445.36048
  22141635.020   116355125.19609  22141631.060    90666334.55547
  21844893.580   114795720.61309  21844888.000    89451183.68648
  24152934.340   126924532.15508  24152929.860    98902217.42145
  20857334.600   109606060.93609  20857328.840    85407313.58948
  20594144.300   108223007.09809  20594142.300    84329632.87749
 15 03 03 01 47 30.0000000  0  7G04G16G18G19G21G22G27
  23102867.720   121406438.99408  23102867.500    94602432.01846
  20791464.100   109259898.71709  20791460.520    85137577.99548
  22150238.080   116400334.59209  22150234.100    90701562.66447
  21833354.520   114735081.89409  21833348.680    89403932.75748
  24166797.980   126997385.64108  24166793.580    98958986.35545
  20853323.860   109584984.34509  20853318.060    85390890.28748
  20589042.400   108196196.12509  20589040.340    84308741.21849
 15 03 03 01 48  0.0000000  0  7G04G16G18G19G21G22G27
  23086933.140   121322701.45708  23086932.980    94537182.07346
  20799900.460   109304232.11509  20799896.860    85172123.47848
  22158922.900   116445973.86809  22158918.980    90737125.73847
  21821844.960   114674598.29409  21821838.860    89356802.68648
  24180661.540   127070238.94908  24180657.340    99015755.15245
  20849413.460   109564434.90209  20849407.660    85374877.75248
  20583989.840   108169644.28609  20583987.660    84288051.47249
 15 03 03 01 48 30.0000000  0  7G04G16G18G19G21G22G27
  23071039.720   121239179.93608  23071039.280    94472100.39946
  20808438.020   109349097.51109  20808434.360    85207083.52348
  22167689.520   116492043.60309  22167685.660    90773024.24747
  21810365.400   114614272.85909  21810359.320    89309795.86348
  24194525.280   127143093.83108  24194521.420    99072525.16545
  20845603.920   109544415.33909  20845598.020    85359278.10248
  20578987.160   108143355.25109  20578985.020    84267566.51149
 15 03 03 01 49  0.0000000  0  7G04G16G18G19G21G22G27
  23055186.620   121155870.41108  23055186.020    94407183.93946
  20817075.620   109394488.83309  20817072.000    85242453.35648
  22176537.000   116538538.21209  22176533.180    90809253.79847
  21798915.180   114554102.55309  21798909.480    89262909.91248
  24208388.340   127215945.38908  24208384.900    99129292.56945
  20841894.460   109524921.77809  20841888.400    85344088.31548
  20574033.860   108117325.82309  20574031.820    84247283.83449
 15 03 03 01 49 30.0000000  0  7G04G16G18G19G21G22G27
  23039375.120   121072779.49508  23039374.260    94342437.81846
  20825814.280   109440410.47809  20825810.580    85278236.45848
  22185466.160   116585461.77709  22185462.380    90845817.62547
  21787495.700   114494094.07909  21787490.400    89216150.07848
  24222251.840   127288798.82008  24222248.640    99186061.45445
  20838286.280   109505960.68709  20838280.280    85329313.46048
  20569131.280   108091563.17709  20569129.380    84227209.04949
 15 03 03 01 50  0.0000000  0  7G04G16G18G19G21G22G27
  23023604.500   120989904.12508  23023603.460    94277859.64946
  20834653.000   109486857.93209  20834649.160    85314429.27548
  22194475.980   116632809.13509  22194472.320    90882711.67847
  21776106.500   114434244.55909  21776101.400    89169514.09048
  24236115.000   127361650.04908  24236111.900    99242828.64045
  20834778.940   109487529.27809  20834772.940    85314951.32548
  20564279.020   108066064.96709  20564277.240    84207340.32049
 15 03 03 01 50 30.0000000  0  8G04G11G16G18G19G21G22G27
  23007875.060   120907245.71508  23007874.140    94213450.59245
  24680193.540                                                  
  20843591.760   109533830.97809  20843587.780    85351031.64948
  22203566.400   116680579.69809  22203562.920    90919935.49847
  21764748.040   114374556.15509  21764742.960    89123003.65948
  24249977.740   127434499.27908  24249974.660    99299594.25945
  20831372.640   109469628.65209  20831366.520    85301002.79548
  20559477.520   108040833.28509  20559475.840    84187679.26549
 15 03 03 01 51  0.0000000  0  8G04G11G16G18G19G21G22G27
  22992186.580   120824802.32508  22992185.600    94149209.02045
  24662920.060   129604525.94007  24662919.780   100990529.56345
  20852629.680   109581325.40009  20852625.780    85388040.27948
  22212736.720   116728769.41909  22212733.280    90957485.93647
  21753419.960   114315026.87509  21753414.820    89076617.21648
  24263839.380   127507343.21407  24263836.360    99356355.76945
  20828066.880   109452256.58709  20828060.780    85287466.13048
  20554726.500   108015866.58509  20554724.860    84168224.69849
 15 03 03 01 51 30.0000000  0  8G04G11G16G18G19G21G22G27
  22976538.860   120742572.86708  22976537.300    94085134.11046
  24645661.420   129513828.41907  24645658.900   100919856.03143
  20861766.300   109629338.73109  20861762.520    85425453.25048
  22221986.360   116777375.32109  22221982.660    90995360.66247
  21742122.240   114255656.84009  21742117.060    89030354.86248
  24277699.420   127580179.36707  24277696.740    99413111.17845
  20824861.540   109435412.59309  20824855.500    85274340.95248
  20550025.940   107991164.84409  20550024.300    84148976.59249
 15 03 03 01 52  0.0000000  0  8G04G11G16G18G19G21G22G27
  22960933.160   120660563.90808  22960931.140    94021231.08045
  24628416.600   129423206.37508  24628414.380   100849241.72645
  20871002.460   109677875.13209  20870998.820    85463273.80848
  22231315.880   116826401.34109  22231311.940    91033562.76647
  21730856.120   114196452.78509  21730850.920    88984221.85448
  24291559.100   127653013.39907  24291556.500    99469864.93345
  20821757.760   109419102.49709  20821751.820    85261631.80148
  20545377.140   107966734.95409  20545375.460    84129940.32049
 15 03 03 01 52 30.0000000  0  8G04G11G16G18G19G21G22G27
  22945368.960   120578773.03108  22945367.000    93957497.99445
  24611185.720   129332658.15205  24611183.640   100778684.75644
  20880337.380   109726930.41709  20880333.700    85501498.70348
  22240724.520   116875843.37109  22240720.240    91072089.02647
  21719621.180   114137413.02909  21719616.100    88938216.86648
  24305417.960   127725842.45207  24305415.320    99526614.81345
  20818755.120   109403324.19309  20818749.200    85249337.02848
  20540779.700   107942575.42509  20540778.040    84111114.70949
 15 03 03 01 53  0.0000000  0  8G04G11G16G18G19G21G22G27
  22929846.800   120497203.71008  22929845.000    93893937.49746
  24593969.460   129242186.74708  24593967.700   100708187.65644
  20889771.480   109776506.82409  20889767.840    85540129.65548
  22250212.500   116925702.59609  22250208.100    91110940.36447
  21708418.180   114078541.40809  21708413.280    88892342.88648
  24319276.340   127798668.17407  24319273.500    99583362.11045
  20815854.240   109388080.53809  20815848.420    85237458.86848
  20536234.380   107918690.43309  20536232.800    84092503.02049
 15 03 03 01 53 30.0000000  0  8G04G11G16G18G19G21G22G27
  22914365.560   120415850.04408  22914363.960    93830545.11046
  24576766.640   129151786.20307  24576764.500   100637745.67644
  20899303.100   109826596.11709  20899299.480    85579160.26348
  22259778.180   116975970.54909  22259773.820    91150110.20447
  21697246.020   114019832.23809  21697241.380    88846595.50248
  24333132.780   127871483.27507  24333129.600    99640101.14645
  20813054.080   109373365.77209  20813048.300    85225992.82548
  20531740.340   107895074.66309  20531738.820    84074101.13249
 15 03 03 01 54  0.0000000  0  8G04G11G16G18G19G21G22G27
  22898927.240   120334721.46908  22898925.880    93767328.07746
  24559579.220   129061466.28407  24559577.400   100567366.71545
  20908933.720   109877205.45609  20908930.100    85618596.10548
  22269422.860   117026654.58109  22269418.700    91189604.26047
  21686106.780   113961295.64709  21686102.300    88800982.57348
  24346988.780   127944296.09807  24346985.280    99696838.39045
  20810356.400   109359189.13109  20810350.560    85214946.10048
  20527299.580   107871738.18809  20527298.060    84055916.87049
 15 03 03 01 54 30.0000000  0  8G04G11G16G18G19G21G22G27
  22883529.860   120253808.59208  22883528.840    93704279.14447
  24542405.460   128971216.95407  24542403.340   100497042.59843
  20918661.140   109928323.81109  20918657.620    85658428.56948
  22279144.600   117077743.32109  22279140.600    91229413.67647
  21674998.860   113902922.94709  21674994.320    88755497.37348
  24360842.580   128017097.33307  24360838.760    99753566.61745
  20807759.340   109345541.18109  20807753.460    85204311.34648
  20522910.320   107848672.57609  20522908.880    84037943.67949
 15 03 03 01 55  0.0000000  0  8G04G11G16G18G19G21G22G27
  22868174.300   120173114.83508  22868173.180    93641400.93647
  24525245.780   128881041.20008  24525243.600   100426775.83645
  20928485.820   109979953.10209  20928482.340    85698659.16348
  22288943.660   117129237.99209  22288939.580    91269539.39447
  21663922.980   113844717.78809  21663918.320    88710142.70748
  24374694.500   128089887.81707  24374690.280    99810286.45245
  20805263.320   109332424.51309  20805257.380    85194090.56748
  20518573.260   107825881.76909  20518571.980    84020184.60149
 15 03 03 01 55 30.0000000  0  8G04G11G16G18G19G21G22G27
  22852861.860   120092646.65508  22852860.260    93578698.46946
  24508101.260   128790945.68207  24508099.140   100356571.60444
  20938408.560   110032097.38409  20938405.100    85739291.05748
  22298820.840   117181142.91209  22298816.580    91309984.77047
  21652880.260   113786687.18209  21652875.580    88664924.06448
  24388545.520   128162673.51908  24388540.880    99867002.56944
  20802869.600   109319845.59209  20802863.740    85184288.83248
  20514289.840   107803372.95209  20514288.680    84002645.25749
 15 03 03 01 56  0.0000000  0  8G04G11G16G18G19G21G22G27
  22837591.500   120012400.12708  22837589.860    93516168.79946
  24490971.280   128700926.92407  24490969.040   100286427.15743
  20948428.200   110084751.07709  20948424.720    85780319.89448
  22308775.020   117233452.21109  22308770.640    91350745.25447
  21641870.040   113728828.03909  21641865.320    88619839.01948
  24402394.720   128235450.02408  24402389.800    99923711.52244
  20800577.540   109307800.94309  20800571.720    85174903.39548
  20510059.560   107781143.19509  20510058.460    83985323.37349
 15 03 03 01 56 30.0000000  0  8G04G11G16G18G19G21G22G27
  22822363.160   119932374.20808  22822361.640    93453810.97346
  24473855.740   128610983.41408  24473853.000   100216341.41345
  20958544.200   110137910.70009  20958540.620    85821742.96148
  22318805.560   117286162.54209  22318801.100    91391818.23547
  21630892.200   113671139.88809  21630887.540    88574887.21648
  24416241.600   128308215.06508  24416236.580    99980411.53045
  20798386.820   109296288.84009  20798380.960    85165932.93948
  20505882.240   107759191.98709  20505881.300    83968218.54249
 15 03 03 01 57  0.0000000  0  8G04G11G16G18G19G21G22G27
  22807177.820   119852573.65208  22807176.120    93391628.76247
  24456755.200   128521119.54608  24456752.000   100146317.73443
  20968757.060   110191579.20609  20968753.440    85863562.56548
  22328912.720   117339276.26809  22328908.380    91433205.54847
  21619947.960   113613627.86009  21619943.220    88530072.64948
  24430086.820   128380971.94807  24430081.920   100037105.19145
  20796298.280   109285313.36909  20796292.360    85157380.62948
  20501758.980   107737524.76409  20501758.160    83951334.99749
 15 03 03 01 57 30.0000000  0  8G04G11G16G18G19G21G22G27
  22792034.720   119772995.76408  22792032.460    93329620.02246
  24439669.640   128431333.23907  24439666.440   100076354.38945
  20979065.820   110245751.40609  20979062.120    85905774.66048
  22339095.560   117392788.21509  22339091.540    91474903.17647
  21609036.980   113556289.80309  21609032.020    88485393.64148
  24443929.820   128453716.95808  24443925.060   100093789.59745
  20794311.400   109274871.81609  20794305.460    85149244.35648
  20497689.420   107716139.76009  20497688.720    83934671.35449
 15 03 03 01 58  0.0000000  0  8G04G11G16G18G19G21G22G27
  22776934.760   119693645.23608  22776931.980    93267788.47245
  24422599.420   128341628.58308  24422596.000   100006454.76744
  20989471.100   110300430.75709  20989467.280    85948381.95248
  22349354.700   117446701.26909  22349350.960    91516913.34547
  21598160.240   113499131.41809  21598155.160    88440854.66048
  24457771.380   128526454.58908  24457766.940   100150468.24045
  20792426.980   109264968.88909  20792420.960    85141527.79548
  20493674.720   107695042.36609  20493673.980    83918231.83449
 15 03 03 01 58 30.0000000  0  8G04G11G16G18G19G21G22G27
  22761877.480   119614519.22808  22761874.860    93206131.93645
  24405544.160   128252002.67907  24405540.600    99936616.39844
  20999971.860   110355612.02209  20999967.920    85991380.33648
  22359689.260   117501010.52609  22359685.620    91559232.24747
  21587317.180   113442150.18309  21587312.000    88396453.70648
  24471610.560   128599180.13108  24471606.400   100207137.43845
  20790644.320   109255601.15509  20790638.400    85134228.27048
  20489714.440   107674230.40509  20489713.580    83902014.72649
 15 03 03 01 59  0.0000000  0  8G04G11G16G18G19G21G22G27
  22746863.320   119535619.97408  22746861.180    93144652.08345
  24388504.060   128162457.77308  24388501.160    99866841.36445
  21010568.100   110411295.52609  21010564.120    86034770.08548
  22370099.180   117555715.70509  22370095.640    91601859.68047
  21576508.400   113385349.00909  21576503.100    88352193.05748
  24485447.720   128671895.15807  24485443.680   100263798.47245
  20788963.860   109246770.25109  20788957.940    85127347.05748
  20485809.060   107653706.92709  20485808.200    83886022.41449
 15 03 03 01 59 30.0000000  0  8G04G11G16G18G19G21G22G27
  22731891.960   119456945.54708  22731889.920    93083347.34546
  24371479.020   128072992.04008  24371476.140    99797127.90042
  21021259.000   110467476.92609  21021255.160    86078547.77948
  22380583.780   117610812.84709  22380580.240    91644792.50747
  21565733.680   113328726.83209  21565728.260    88308071.89348
  24499282.320   128744596.67107  24499278.360   100320448.97145
  20787385.140   109238474.49009  20787379.380    85120882.83548
  20481958.300   107633470.94409  20481957.560    83870254.11149
 15 03 03 02 00  0.0000000  0  8G04G11G16G18G19G21G22G27
  22716963.280   119378495.32208  22716961.120    93022217.31646
  24354468.880   127983604.60608  24354466.400    99727475.37446
  21032044.140   110524153.54809  21032040.280    86122711.37948
  22391142.580   117666298.94309  22391138.760    91688028.42847
  21554992.960   113272283.38709  21554987.340    88264089.99948
  24513114.040   128817283.16308  24513110.020   100377087.78144
  20785907.960   109230712.36909  20785902.320    85114834.43948
  20478162.180   107613522.36209  20478161.520    83854709.76449
 15 03 03 02 00 30.0000000  0  8G04G11G16G18G19G21G22G27
  22702077.420   119300270.04108  22702075.140    92961262.60946
  24337473.880   127894296.57407  24337471.740    99657884.84144
  21042923.460   110581324.92609  21042919.700    86167260.49048
  22401775.160   117722172.55609  22401771.080    91731566.31147
  21544286.480   113216020.20509  21544280.680    88220248.56148
  24526942.940   128889954.59707  24526938.720   100433714.86245
  20784532.500   109223484.66409  20784526.940    85109202.47848
  20474421.180   107593863.01409  20474420.440    83839390.79149
 15 03 03 02 01  0.0000000  0  8G04G11G16G18G19G21G22G27
  22687235.580   119222275.64608  22687233.200    92900487.77646
  24320495.000   127805073.48107  24320492.620    99588360.24346
  21053897.420   110638993.70309  21053893.720    86212197.17748
  22412482.000   117778436.92809  22412477.800    91775408.68346
  21533615.480   113159943.84009  21533609.620    88176552.69048
  24540769.840   128962615.85907  24540765.760   100490333.99945
  20783259.780   109216796.41709  20783254.160    85103990.86348
  20470736.440   107574499.25109  20470735.660    83824302.15149
 15 03 03 02 01 30.0000000  0  8G04G11G16G18G19G21G22G27
  22672436.600   119144506.16008  22672434.340    92839888.24946
  24303531.380   127715929.37708  24303529.600    99518897.51945
  21064964.580   110697152.06409  21064960.900    86257515.36248
  22423261.740   117835084.55509  22423257.480    91819549.68247
  21522979.020   113104049.25209  21522973.300    88132998.47448
  24554593.480   129035259.88007  24554589.640   100546939.70345
  20782088.520   109210641.27809  20782082.900    85099194.65748
  20467106.980   107555426.22409  20467106.180    83809440.05649
 15 03 03 02 02  0.0000000  0  8G04G11G16G18G19G21G22G27
  22657680.800   119066963.58508  22657678.640    92779465.48946
  24286582.980   127626866.22107  24286580.500    99449497.67844
  21076125.000   110755800.44009  21076121.240    86303215.37948
  22434114.300   117892114.89809  22434110.000    91863988.92147
  21512377.600   113048339.08909  21512372.120    88089587.95748
  24568414.140   129107888.41407  24568410.420   100603533.32745
  20781019.100   109205021.43609  20781013.540    85094815.58048
  20463533.300   107536646.58509  20463532.560    83794806.56949
 15 03 03 02 02 30.0000000  0  8G04G11G16G18G19G21G22G27
  22642968.380   118989648.97508  22642966.300    92719220.36747
  24269650.660   127537885.37308  24269647.820    99380162.00145
  21087378.300   110814937.40909  21087374.640    86349296.11048
  22445039.500   117949526.76009  22445035.260    91908725.43747
  21501811.580   112992814.87609  21501806.340    88046322.34048
  24582231.800   129180501.01707  24582228.040   100660114.54845
  20780051.560   109199937.13409  20780045.960    85090853.79848
  20460015.880   107518162.23909  20460015.140    83780403.19149
 15 03 03 02 03  0.0000000  0  8G04G11G16G18G19G21G22G27
  22628299.760   118912564.93808  22628297.560    92659154.93347
  24252734.300   127448988.82508  24252731.580    99310892.14244
  21098724.600   110874563.36209  21098721.160    86395757.85848
  22456037.460   118007320.67309  22456033.160    91953759.66147
  21491281.720   112937480.01909  21491276.480    88003204.27748
  24596046.820   129253099.68707  24596043.140   100716684.91344
  20779186.260   109195390.35609  20779180.620    85087310.87148
  20456555.300   107499976.57909  20456554.540    83766232.55149
 15 03 03 02 03 30.0000000  0  8G04G11G16G18G19G21G22G27
  22613674.580   118835709.35908  22613672.360    92599267.53246
  24235833.560   127360174.60108  24235829.940    99241686.18844
  21110163.240   110934673.98109  21110159.780    86442597.28748
  22467107.220   118065492.19009  22467102.820    91999088.11347
  21480787.800   112882333.39109  21480782.320    87960232.88448
  24609858.660   129325681.47207  24609854.920   100773242.12644
  20778422.860   109191378.61209  20778417.120    85084184.83248
  20453151.300   107482088.31209  20453150.560    83752293.63549
 15 03 03 02 04  0.0000000  0  8G04G11G16G18G19G21G22G27
  22599093.000   118759082.57609  22599090.760    92539558.38946
  24218948.820   127271443.60007  24218945.700    99172545.27944
  21121693.820   110995267.33509  21121690.360    86489812.88048
  22478248.380   118124039.34909  22478244.000    92044709.26847
  21470329.960   112827376.04609  21470324.100    87917409.00248
  24623667.200   129398245.68707  24623663.280   100829785.66044
  20777761.240   109187901.56309  20777755.520    85081475.46248
  20449804.140   107464498.73909  20449803.400    83738587.48749
 15 03 03 02 04 30.0000000  0  8G04G11G16G18G19G21G22G27
  22584555.160   118682686.07309  22584552.920    92480028.69746
  24202080.040   127182796.95307  24202076.840    99103469.98444
  21133316.260   111056342.91609  21133312.720    86537404.24348
  22489460.840   118182961.09509  22489456.440    92090622.32347
  21459908.440   112772609.84309  21459902.280    87874734.05048
  24637472.460   129470793.01507  24637468.460   100886316.02144
  20777201.600   109184960.29309  20777195.840    85079183.56748
  20446514.180   107447209.84309  20446513.480    83725115.61449
 15 03 03 02 05  0.0000000  0  8G04G11G16G18G19G21G22G27
  22570061.240   118606520.86409  22570059.120    92420679.20346
  24185227.440   127094235.71108  24185224.100    99034461.28044
  21145030.340   111117899.95709  21145026.640    86585370.78248
  22500744.460   118242256.97409  22500740.040    92136826.89647
  21449523.640   112718037.15809  21449517.420    87832209.88948
  24651274.580   129543324.33907  24651270.660   100942833.87245
  20776744.080   109182555.89909  20776738.380    85077310.02648
  20443281.900   107430223.90009  20443281.160    83711879.82249
 15 03 03 02 05 30.0000000  0  8G04G11G16G18G19G21G22G27
  22555611.340   118530587.08308  22555609.240    92361510.02946
  24168391.000   127005759.71108  24168387.520    98965519.05744
  21156835.400   111179935.54109  21156831.640    86633710.18948
  22512098.680   118301924.17309  22512094.360    92183320.81747
  21439175.560   112663658.09909  21439169.520    87789836.60048
  24665073.380   129615837.97407  24665069.660   100999337.96445
  20776388.480   109180686.99509  20776382.760    85075853.74648
  20440107.420   107413541.39609  20440106.500    83698880.47449
 15 03 03 02 06  0.0000000  0  8G04G11G16G18G19G21G22G27
  22541204.460   118454879.98408  22541202.660    92302517.51346
  24151570.000   126917364.56307  24151566.240    98896639.68744
  21168730.280   111242442.99509  21168726.360    86682417.30848
  22523522.300   118361955.60909  22523518.040    92230098.56447
  21428863.540   112609469.25509  21428857.820    87747611.53348
  24678867.920   129688328.37708  24678864.140   101055823.96845
  20776133.780   109179348.56709  20776127.900    85074810.82448
  20436990.040   107397158.71509  20436988.920    83686114.75949
 15 03 03 02 06 30.0000000  0  8G04G11G16G18G19G21G22G27
  22526842.460   118379408.71508  22526840.940    92243708.77346
  24134765.960   126829059.53807  24134762.600    98827830.72045
  21180716.180   111305429.37909  21180712.320    86731497.59048
  22535016.700   118422358.32409  22535012.300    92277165.59847
  21418589.560   112555480.55609  21418584.260    87705542.42248
  24692659.840   129760804.43407  24692656.000   101112298.79545
  20775981.760   109178549.41209  20775975.680    85074188.10948
  20433931.580   107381085.91609  20433930.380    83673590.49649
 15 03 03 02 07  0.0000000  0  8G04G11G16G18G19G21G22G27
  22512524.700   118304168.67808  22512523.200    92185080.17946
  24117978.140   126740840.03108  24117975.240    98759088.31345
  21192791.860   111368887.61609  21192787.960    86780945.56048
  22546580.580   118483125.99409  22546575.960    92324517.02747
  21408353.040   112501688.29909  21408347.940    87663626.37948
  24706447.960   129833260.61307  24706443.860   101168758.12345
  20775931.400   109178284.39109  20775925.200    85073981.59248
  20430931.320   107365319.14909  20430930.100    83661304.69949
 15 03 03 02 07 30.0000000  0  8G04G11G16G18G19G21G22G27
  22498250.240   118229156.29608  22498248.880    92126629.01446
  24101206.200   126652702.40508  24101203.380    98690409.68244
  21204956.260   111432812.23809  21204952.400    86830756.94448
  22558212.680   118544252.33509  22558207.900    92372147.93446
  21398153.460   112448089.74109  21398148.360    87621861.27748
  24720231.360   129905692.71707  24720227.160   101225198.66344
  20775981.740   109178548.93409  20775975.580    85074187.73248
  20427988.740   107349855.75509  20427987.560    83649255.29349
 15 03 03 02 08  0.0000000  0  8G04G11G16G18G19G21G22G27
  22484021.340   118154383.36408  22484020.060    92068364.45846
  24084452.060   126564658.57408  24084448.960    98621804.12245
  21217211.000   111497212.00709  21217207.340    86880938.55348
  22569914.640   118605746.76809  22569909.840    92420065.67846
  21387993.220   112394697.20909  21387988.000    87580256.72348
  24734012.020   129978111.26207  24734007.920   101281628.68844
  20776135.020   109179354.50009  20776128.940    85074815.45248
  20425106.280   107334708.28909  20425105.020    83637452.07349
 15 03 03 02 08 30.0000000  0  8G04G11G16G18G19G21G22G27
  22469836.680   118079841.96809  22469835.220    92010280.26646
  24067714.100   126476700.61008  24067711.040    98553265.54945
  21229554.320   111562077.21608  21229550.800    86931482.85248
  22581684.420   118667598.97708  22581679.880    92468262.20146
  21377870.880   112341503.70909  21377865.580    87538807.24848
  24747788.680   130050508.33807  24747784.740   101338041.93944
  20776389.560   109180692.43409  20776383.560    85075858.00448
  20422282.640   107319869.66309  20422281.320    83625889.50449
 15 03 03 02 09  0.0000000  0  8G04G11G16G18G19G21G22G27
  22455696.640   118005535.04908  22455695.000    91952378.78147
  24050992.980   126388831.37508  24050990.080    98484796.10345
  21241986.420   111627409.06009  21241983.080    86982390.75948
  22593522.380   118729810.06008  22593518.300    92516738.37346
  21367787.120   112288513.15109  21367781.800    87497515.91648
  24761561.560   130122885.72407  24761557.840   101394439.85545
  20776745.800   109182565.21109  20776739.920    85077317.32948
  20419518.500   107305343.81509  20419517.140    83614570.65949
 15 03 03 02 09 30.0000000  0  8G04G11G16G18G19G21G22G27
  22441600.360   117931458.60808  22441598.680    91894656.92447
  24034288.340   126301047.33408  24034284.800    98416392.92244
  21254505.940   111693200.64609  21254502.860    87033656.89348
  22605427.520   118792373.50408  22605423.740    92565489.08846
  21357741.400   112235722.48809  21357736.020    87456380.34548
  24775329.800   130195238.79907  24775326.540   101450818.81945
  20777202.860   109184967.70009  20777197.040    85079189.41748
  20416813.260   107291127.53309  20416811.860    83603493.03749
 15 03 03 02 10  0.0000000  0  8G04G11G16G18G19G21G22G27
  22427548.940   117857617.84208  22427547.220    91837118.70447
  24017600.880   126213353.63308  24017597.480    98348060.30345
  21267113.600   111759454.85109  21267110.680    87085283.52248
  22617400.360   118855292.08008  22617396.740    92614516.55046
  21347734.920   112183137.74509  21347729.420    87415405.22948
  24789094.300   130267571.98507  24789091.060   101507182.29545
  20777761.680   109187904.95209  20777755.920    85081478.20148
  20414168.140   107277226.97709  20414166.700    83592661.43649
 15 03 03 02 10 30.0000000  0  8G04G11G16G18G19G21G22G27
  22413541.920   117784011.00508  22413540.240    91779762.76346
  24000930.260   126125748.29208  24000926.120    98279796.38144
  21279808.640   111826167.26109  21279805.640    87137267.20348
  22629440.080   118918562.04308  22629436.620    92663817.81446
  21337767.380   112130757.76609  21337761.820    87374589.66748
  24802854.640   130339882.80207  24802851.100   101563528.39144
  20778421.800   109191374.28509  20778416.140    85084181.58348
  20411582.860   107263641.13909  20411581.460    83582075.06549
 15 03 03 02 11  0.0000000  0  8G04G11G16G18G19G21G22G27
  22399579.320   117710637.47708  22399577.700    91722588.61547
  23984276.320   126038231.03208  23984272.300    98211601.20745
  21292590.580   111893335.71809  21292587.360    87189606.26148
  22641546.060   118982180.39008  22641542.760    92713390.55846
  21327838.800   112078583.11009  21327833.280    87333934.10348
  24816610.520   130412170.09007  24816606.860   101619856.10744
  20779183.000   109195374.22809  20779177.320    85087298.43548
  20409057.500   107250370.31909  20409056.080    83571734.16849
 15 03 03 02 11 30.0000000  0  8G04G11G16G18G19G21G22G27
  22385661.620   117637500.05908  22385660.060    91665598.44346
  23967639.720   125950804.82708  23967635.900    98143476.96445
  21305459.220   111960960.07409  21305455.840    87242300.55248
  22653718.480   119046147.52208  22653715.300    92763235.07546
  21317949.860   112026617.42209  21317944.520    87293441.36048
  24830362.200   130484435.73007  24830358.600   101676166.95244
  20780045.700   109199907.05109  20780039.820    85090830.49648
  20406592.740   107237418.21209  20406591.380    83561641.60749
 15 03 03 02 12  0.0000000  0  8G04G11G16G18G19G21G22G27
  22371788.800   117564598.52808  22371787.260    91608792.08447
  23951020.240   125863469.25908  23951016.600    98075423.34245
  21318414.100   112029037.64509  21318410.520    87295348.00448
  22665956.940   119110460.85908  22665953.660    92813349.36546
  21308100.880   111974861.44309  21308095.640    87253112.03148
  24844109.620   130556679.19006  24844106.380   101732460.51945
  20781009.520   109204971.52609  20781003.540    85094776.84448
  20404188.740   107224785.37209  20404187.440    83551797.83849
 15 03 03 02 12 30.0000000  0  8G04G11G16G18G19G21G22G27
  22357960.860   117491932.10808  22357959.040    91552168.92046
  23934418.000   125776223.62108  23934413.880    98007439.75045
  21331454.620   112097565.18909  21331450.820    87348746.09448
  22678260.780   119175117.46208  22678257.260    92863731.13346
  21298291.980   111923315.24909  21298286.760    87212946.17248
  24857852.580   130628898.95607  24857849.480   101788735.57944
  20782074.120   109210566.01609  20782068.220    85099136.19748
  20401845.580   107212472.02009  20401844.260    83542203.01649
 15 03 03 02 13  0.0000000  0  8G04G11G16G18G19G21G22G27
  22344178.260   117419503.37008  22344176.260    91495730.95946
  23917833.240   125689070.55008  23917829.160    97939528.36445
  21344580.820   112166543.75609  21344576.880    87402495.62947
  22690629.920   119240117.49708  22690626.280    92914380.49546
  21288523.700   111871982.33109  21288518.500    87172946.50448
  24871591.480   130701096.70907  24871588.320   101844993.50945
  20783239.980   109216692.72509  20783234.120    85103910.26148
  20399563.900   107200481.52209  20399562.560    83532859.76849
 15 03 03 02 13 30.0000000  0  8G04G11G16G18G19G21G22G27
  22330440.000   117347307.61709  22330438.060    91439474.56746
  23901265.580   125602006.13608  23901261.400    97871685.94845
  21357791.300   112235965.63609  21357787.380    87456590.59747
  22703063.080   119305454.38108  22703059.560    92965292.35946
  21278795.260   111820859.35209  21278790.200    87133110.42248
  24885325.380   130773267.78407  24885321.900   101901230.69044
  20784506.080   109223346.04409  20784500.180    85109094.67348
  20397343.100   107188810.37409  20397341.620    83523765.37449
 15 03 03 02 14  0.0000000  0  8G04G11G16G18G19G21G22G27
  22316747.660   117275353.35408  22316745.680    91383406.32346
  23884716.020   125515038.34408  23884711.900    97803918.96044
  21371087.340   112305837.14009  21371083.560    87511035.91647
  22715561.500   119371134.03208  22715558.100    93016471.30346
  21269108.420   111769955.15509  21269103.520    87093444.82348
  24899055.500   130845419.65507  24899051.980   101957452.89444
  20785873.820   109230533.37709  20785867.900    85114695.19248
  20395184.700   107177467.61909  20395183.100    83514926.86449
 15 03 03 02 14 30.0000000  0  8G04G11G16G18G19G21G22G27
  22303099.500   117203631.87908  22303097.480    91327519.48947
  23868183.340   125428159.17608  23868179.580    97736220.92545
  21384466.840   112376147.36008  21384463.240    87565823.08047
  22728123.200   119437145.36208  22728119.720    93067908.70246
  21259461.900   111719262.41409  21259457.060    87053943.98948
  24912780.220   130917542.98807  24912776.740   102013652.87044
  20787341.460   109238245.68009  20787335.540    85120704.78148
  20393087.300   107166445.79209  20393085.600    83506338.42549
 15 03 03 02 15  0.0000000  0  8G04G11G16G18G19G21G22G27
  22289497.080   117132151.23608  22289495.120    91271820.32847
  23851669.000   125341376.22808  23851665.200    97668597.88845
  21397930.800   112446901.15508  21397927.260    87620955.89348
  22740749.320   119503494.30509  22740745.640    93119609.16646
  21249857.320   111668789.80009  21249852.520    87014614.68648
  24926500.860   130989644.92308  24926497.460   102069836.17944
  20788910.240   109246489.68009  20788904.380    85127128.69248
  20391052.500   107155753.36909  20391050.880    83498006.66449
 15 03 03 02 15 30.0000000  0  8G04G11G16G18G19G21G22G27
  22275939.380   117060905.41208  22275937.440    91216304.12446
  23835171.800   125254683.90808  23835167.940    97601045.45345
  21411477.520   112518090.23208  21411474.140    87676427.86048
  22753438.100   119570172.41809  22753434.160    93171566.14847
  21240293.780   111618532.40109  21240288.980    86975453.09948
  24940216.180   131061719.28207  24940212.900   102125998.00145
  20790578.860   109255258.63109  20790573.020    85133961.64748
  20389079.460   107145385.54109  20389077.940    83489927.83549
 15 03 03 02 16  0.0000000  0  8G04G11G16G18G19G21G22G27
  22262428.180   116989904.04508  22262426.120    91160978.41047
  23818693.500   125168091.88008  23818690.260    97533571.21945
  21425108.700   112589722.24309  21425105.380    87732244.99548
  22766190.860   119637186.91609  22766186.680    93223785.23947
  21230773.180   111568501.04009  21230768.340    86936467.62548
  24953927.880   131133774.95407  24953924.760   102182145.27044
  20792348.980   109264560.96909  20792343.080    85141210.22248
  20387170.220   107135352.76709  20387168.760    83482110.08749
 15 03 03 02 16 30.0000000  0  8G04G11G16G18G19G21G22G27
  22248961.420   116919136.16608  22248959.220    91105834.63947
  23802232.320   125081589.51908  23802229.640    97466166.90144
  21438821.660   112661783.71709  21438818.360    87788396.77948
  22779005.140   119704524.90909  22779000.640    93276256.40046
  21221293.600   111518685.60309  21221288.660    86897650.40548
  24967633.700   131205800.47106  24967630.780   102238269.01044
  20794218.460   109274385.25009  20794212.560    85148865.51048
  20385322.860   107125644.96109  20385321.360    83474545.56349
 15 03 03 02 17  0.0000000  0  8G04G11G16G18G19G21G22G27
  22235540.300   116848608.25608  22235538.180    91050877.85346
  23785789.600   124995182.93908  23785786.820    97398837.03745
  21452617.020   112734278.14209  21452613.660    87844885.92548
  22791881.680   119772190.24309  22791876.840    93328982.62946
  21211856.500   111469093.50709  21211851.420    86859007.22448
  24981334.720   131277801.50606  24981332.280   102294373.67245
  20796188.320   109284737.26009  20796182.420    85156932.02148
  20383538.780   107116269.40509  20383537.220    83467239.94549
 15 03 03 02 17 30.0000000  0  8G04G11G16G18G19G21G22G27
  22222164.900   116778320.08408  22222162.980    90996107.89647
  23769364.980   124908872.64608  23769362.320    97331582.34345
  21466494.360   112807203.26309  21466490.900    87901710.67248
  22804819.900   119840180.54609  22804814.920    93381962.09046
  21202462.120   111419725.86709  21202456.980    86820538.93548
  24995031.100   131349777.70906  24995029.040   102350458.98644
  20798258.320   109295615.71109  20798252.440    85165408.74748
  20381818.080   107107226.98609  20381816.480    83460193.90349
 15 03 03 02 18  0.0000000  0  8G04G11G16G18G19G21G22G27
  22208834.980   116708270.38809  22208833.160    90941523.73547
  23752958.580   124822657.38408  23752956.440    97264401.70745
  21480453.000   112880555.62809  21480449.380    87958868.33848
  22817819.020   119908492.25509  22817814.180    93435191.98946
  21193110.440   111370582.20809  21193105.200    86782245.17448
  25008722.560   131421727.15607  25008720.680   102406523.45744
  20800428.020   109307018.08209  20800422.260    85174293.71748
  20380160.660   107098517.29609  20380159.060    83453407.12349
 15 03 03 02 18 30.0000000  0  8G04G11G16G18G19G21G22G27
  22195549.840   116638455.81509  22195547.960    90887122.79446
  23736569.960   124736534.14708  23736567.280    97197292.61446
  21494491.680   112954328.79309  21494487.860    88016353.91948
  22830878.160   119977119.61109  22830873.580    93488667.86346
  21183801.040   111321660.10009  21183795.620    86744124.05448
  25022408.340   131493646.01607  25022406.300   102462564.09244
  20802696.680   109318940.07609  20802690.940    85183583.59348
  20378566.100   107090137.86609  20378564.440    83446877.70149
 15 03 03 02 19  0.0000000  0  8G04G11G16G18G19G21G22G27
  22182310.840   116568883.18909  22182308.780    90832910.38347
  23720200.000   124650509.66308  23720197.320    97130260.64345
  21508611.220   113028527.40309  21508607.380    88074171.00248
  22843998.320   120046067.22109  22843994.040    93542393.27546
  21174535.400   111272967.44609  21174529.760    86706181.73648
  25036089.780   131565541.22807  25036087.560   102518586.31344
  20805065.400   109331387.53709  20805059.600    85193282.92348
  20377035.800   107082096.33009  20377034.100    83440611.56949
 15 03 03 02 19 30.0000000  0  8G04G11G16G18G19G21G22G27
  22169117.320   116499549.83508  22169115.140    90778884.42147
  23703848.400   124564581.57508  23703846.120    97063303.76645
  21522810.780   113103146.31609  21522806.840    88132315.60148
  22857178.620   120115330.12809  22857174.500    93596364.36446
  21165313.100   111224502.72109  21165307.260    86668417.01748
  25049766.060   131637408.93607  25049763.360   102574587.08744
  20807533.500   109344357.22409  20807527.680    85203389.17348
  20375569.500   107074391.15009  20375567.880    83434607.52649
 15 03 03 02 20  0.0000000  0  7G04G11G16G18G19G22G27
  22155968.280   116430450.24409  22155965.880    90725040.60947
  23687514.180   124478744.38108  23687511.580    96996417.65345
  21537088.580   113178176.80809  21537084.620    88190780.90548
  22870417.520   120184900.32409  22870413.360    93650574.89746
  21156133.100   111176261.26709  21156127.300    86630826.26848
  20810099.660   109357841.98709  20810093.780    85213896.77248
  20374166.260   107067017.36809  20374164.660    83428861.72249
 15 03 03 02 20 30.0000000  0  7G04G11G16G18G19G22G27
  22142865.680   116361595.06708  22142863.060    90671387.23447
  23671199.540   124393008.99208  23671197.140    96929610.97145
  21551446.400   113253627.82709  21551442.460    88249573.89348
  22883716.480   120254786.70909  22883712.120    93705031.82146
  21146997.740   111128255.33609  21146992.140    86593419.05748
  20812765.760   109371852.04009  20812759.880    85224813.70148
  20372828.320   107059986.84809  20372826.820    83423383.39949
 15 03 03 02 21  0.0000000  0  7G04G11G16G18G19G22G27
  22129809.440   116292984.18609  22129806.780    90617924.23747
  23654904.280   124307375.69808  23654901.300    96862883.70146
  21565883.720   113329496.66609  21565879.760    88308692.47347
  22897074.880   120324986.63108  22897070.420    93759733.04946
  21137907.420   111080486.31209  21137901.920    86556196.44748
  20815531.520   109386386.27809  20815525.680    85236139.09848
  20371555.860   107053300.31209  20371554.460    83418173.11549
 15 03 03 02 21 30.0000000  0  8G01G04G11G16G18G19G22G27
  24594946.340                                                  
  22116799.280   116224616.12209  22116796.760    90564650.44547
  23638628.140   124221842.90708  23638624.920    96796234.81444
  21580399.600   113405778.95309  21580395.680    88368133.20147
  22910492.060   120395496.19608  22910487.700    93814675.58146
  21128861.920   111032952.53209  21128856.460    86519157.13248
  20818396.400   109401441.70209  20818390.580    85247870.60148
  20370348.700   107046957.01109  20370347.380    83413230.27549
 15 03 03 02 22  0.0000000  0  8G01G04G11G16G18G19G22G27
  24579210.520   129164623.16907  24579213.260   100647761.45045
  22103838.000   116156505.19808  22103835.660    90511577.02447
  23622373.780   124136425.46608  23622370.420    96729675.79145
  21594996.520   113482486.77109  21594992.720    88427905.51748
  22923970.620   120466327.61308  22923966.400    93869868.88146
  21119864.240   110985669.68809  21119858.720    86482313.36848
  20821362.980   109417031.81609  20821357.280    85260018.75448
  20369209.840   107040972.32709  20369208.560    83408566.88349
 15 03 03 02 22 30.0000000  0  8G01G04G11G16G18G19G22G27
  24563495.840   129082042.03207  24563498.600   100583412.70045
  22090918.540   116088613.96509  22090916.320    90458674.78647
  23606134.240   124051085.89208  23606130.680    96663177.46944
  21609666.800   113559579.83609  21609663.120    88487978.02148
  22937502.960   120537440.57909  22937498.920    93925281.58246
  21110907.400   110938601.32909  21110901.880    86445636.73248
  20824424.080   109433118.10509  20824418.440    85272553.52748
  20368132.340   107035309.73209  20368131.120    83404154.46549
 15 03 03 02 23  0.0000000  0  8G01G04G11G16G18G19G22G27
  24547806.220   128999591.69708  24547808.600   100519165.76045
  22078045.180   116020964.81109  22078042.960    90405961.19047
  23589913.920   123965847.17008  23589910.260    96596757.71245
  21624414.080   113637078.13309  21624410.600    88548366.29248
  22951092.860   120608855.54709  22951088.960    93980929.60246
  21101995.900   110891771.55909  21101990.560    86409146.01248
  20827583.720   109449721.61609  20827577.940    85285491.33548
  20367120.600   107029992.52409  20367119.420    83400011.18949
 15 03 03 02 23 30.0000000  0  8G01G04G11G16G18G19G22G27
  24532141.800   128917274.52807  24532144.120   100455022.60346
  22065218.400   115953560.06108  22065216.280    90353438.02447
  23573713.220   123880711.65408  23573709.260    96530418.33945
  21639238.440   113714981.54809  21639235.120    88609070.24148
  22964740.260   120680572.71308  22964736.560    94036813.09846
  21093130.500   110845184.12209  21093125.420    86372844.11348
  20830842.140   109466843.59609  20830836.220    85298833.13248
  20366175.180   107025023.98009  20366173.940    83396139.59449
 15 03 03 02 24  0.0000000  0  8G01G04G11G16G18G19G22G27
  24516502.780   128835092.09707  24516505.440   100390984.56946
  22052438.420   115886401.41209  22052436.260    90301106.64647
  23557532.380   123795681.18908  23557528.600    96464160.89745
  21654139.540   113793287.90909  21654136.440    88670088.17148
  22978444.920   120752591.11708  22978441.380    94092931.34346
  21084311.660   110798841.15409  21084306.800    86336732.70848
  20834199.400   109484485.03109  20834193.300    85312579.70548
  20365296.500   107020406.63809  20365295.280    83392541.66149
 15 03 03 02 24 30.0000000  0  8G01G04G11G16G18G19G22G27
  24500888.060   128753037.29107  24500890.880   100327045.82845
  22039704.080   115819481.74309  22039701.680    90248961.45647
  23541370.040   123710748.22008  23541366.540    96397979.40845
  21669115.960   113871989.26709  21669112.900    88731413.89248
  22992205.160   120824901.50308  22992201.580    94149277.08246
  21075538.160   110752736.21609  21075533.360    86300806.78648
  20837653.800   109502637.31109  20837647.560    85326724.33848
  20364483.360   107016134.07309  20364482.180    83389212.37549
 15 03 03 02 25  0.0000000  0  8G01G04G11G16G18G19G22G27
  24485298.160   128671113.10907  24485301.020   100263208.92246
  22027015.740   115752803.79309  22027013.200    90197004.62847
  23525227.080   123625917.07108  23525223.740    96331877.24145
  21684167.600   113951085.39109  21684164.440    88793047.23348
  23006021.180   120897504.80509  23006017.360    94205851.08246
  21066810.960   110706874.09209  21066806.040    86265070.08148
  20841205.640   109521302.26109  20841199.400    85341268.46248
  20363736.660   107012210.27509  20363735.540    83386154.86649
 15 03 03 02 25 30.0000000  0  8G01G04G11G16G18G19G22G27
  24469733.800   128589322.38907  24469736.340   100199476.07446
  22014373.960   115686370.56709  22014371.180    90145238.47247
  23509104.100   123541190.58908  23509100.720    96265856.64045
  21699294.340   114030576.34509  21699291.120    88854988.20848
  23019892.900   120970401.02808  23019888.880    94262653.32546
  21058130.700   110661258.75509  21058125.660    86229525.65848
  20844855.220   109540481.33609  20844849.080    85356213.20148
  20363057.080   107008638.93409  20363056.040    83383371.98349
 15 03 03 02 26  0.0000000  0  8G01G04G11G16G18G19G22G27
  24454194.620   128507663.57308  24454196.700   100135845.86944
  22001778.280   115620180.26909  22001775.440    90093661.63546
  23493000.780   123456567.16308  23492997.500    96199916.34145
  21714495.420   114110457.83709  21714492.080    88917233.51048
  23033819.600   121043586.53509  23033815.580    94319680.98946
  21049497.280   110615889.75809  21049492.220    86194173.19148
  20848602.160   109560171.94109  20848596.020    85371556.53048
  20362444.520   107005419.28709  20362443.320    83380863.17749
 15 03 03 02 26 30.0000000  0  9G01G04G11G16G18G19G22G27G32
  24438680.000   128426133.52907  24438681.920   100072316.10345
  21989228.240   115554229.94208  21989225.520    90042271.79647
  23476916.560   123372044.01908  23476913.100    96134054.16145
  21729769.760   114190724.20509  21729766.180    88979778.73448
  23047800.280   121117055.89408  23047796.360    94376929.83446
  21040910.280   110570764.74309  21040905.240    86159010.84548
  20852445.580   109580369.68309  20852439.540    85387295.03448
  20361898.500   107002549.18709  20361897.180    83378626.73749
  23146547.540   121635928.86805  23146544.480    94781209.73743
 15 03 03 02 27  0.0000000  0  9G01G04G11G16G18G19G22G27G32
  24423190.740   128344736.51608  24423192.460   100008889.95046
  21976724.660   115488523.62408  21976721.940    89991072.08847
  23460852.240   123287625.32108  23460848.700    96068273.36445
  21745117.360   114271376.15609  21745113.660    89042624.39848
  23061835.360   121190810.72108  23061831.560    94434401.11146
  21032370.740   110525889.11809  21032365.660    86124042.83448
  20856386.040   109601077.54109  20856380.080    85403431.03248
  20361419.860   107000033.60409  20361418.500    83376666.54549
  23125113.500   121523291.22905  23125112.180    94693468.36043
 15 03 03 02 27 30.0000000  0  9G01G04G11G16G18G19G22G27G32
  24407728.600   128263482.63807  24407730.260    99945575.34845
  21964269.420   115423071.42209  21964266.840    89940070.40346
  23444809.840   123203321.86208  23444806.260    96002582.38945
  21760539.960   114352422.11209  21760536.220    89105777.06548
  23075926.400   121264859.24709  23075922.680    94492101.26646
  21023880.780   110481274.24509  21023875.720    86089278.00648
  20860425.300   109622304.44809  20860419.420    85419971.48348
  20361010.680   106997883.60109  20361009.480    83374991.20749
  23103717.840   121410855.77205  23103718.140    94605856.50443
 15 03 03 02 28  0.0000000  0  9G01G04G11G16G18G19G22G27G32
  24392288.480   128182344.55407  24392290.020    99882350.96545
  21951857.420   115357846.05009  21951855.000    89889245.46147
  23428783.840   123119106.19208  23428780.500    95936959.84745
  21776031.880   114433832.35409  21776028.080    89169213.60148
  23090067.620   121339171.47308  23090063.840    94550006.90346
  21015435.460   110436894.02509  21015430.440    86054696.01548
  20864557.860   109644021.66509  20864552.000    85436893.98748
  20360666.060   106996072.67909  20360664.880    83373580.08949
  23082355.840   121298597.64205  23082356.820    94518378.78443
 15 03 03 02 28 30.0000000  0  9G01G04G11G16G18G19G22G27G32
  24376875.020   128101345.79907  24376876.500    99819235.14445
  21939493.060   115292870.83709  21939490.660    89838615.43047
  23412779.160   123035002.07408  23412775.620    95871424.18745
  21791596.840   114515626.87309  21791593.060    89232949.56048
  23104262.980   121413768.77008  23104259.080    94608134.65646
  21007039.540   110392773.01509  21007034.480    86020316.01148
  20868787.900   109666251.19809  20868782.180    85454215.70648
  20360390.620   106994625.13209  20360389.300    83372452.13249
  23061032.440   121186542.88305  23061033.240    94431063.49143
 15 03 03 02 29  0.0000000  0  9G01G04G11G16G18G19G22G27G32
  24361488.220   128020487.71408  24361489.480    99756228.92445
  21927176.620   115228147.27409  21927174.140    89788181.49347
  23396796.000   122951011.32608  23396792.580    95805976.93245
  21807234.680   114597804.17509  21807230.880    89296983.79248
  23118512.320   121488650.22408  23118508.420    94666483.84346
  20998693.480   110348913.58609  20998688.320    85986139.83648
  20873115.640   109688993.63609  20873109.960    85471937.09048
  20360184.800   106993543.31709  20360183.280    83371609.14849
  23039748.340   121074695.58305  23039747.600    94343909.90643
 15 03 03 02 29 30.0000000  0  9G01G04G11G16G18G19G22G27G32
  24346125.680   127939758.52207  24346127.200    99693323.25345
  21914905.820   115163663.47709  21914903.380    89737934.40047
  23380832.500   122867122.71208  23380829.240    95740609.21445
  21822942.860   114680350.95509  21822939.060    89361305.93448
  23132812.980   121563801.62708  23132809.120    94725043.37846
  20990395.260   110305305.31709  20990389.960    85952159.36848
  20877538.540   109712235.60909  20877532.740    85490047.72348
  20360046.520   106992816.23809  20360044.900    83371042.59549
  23018501.920   120963046.40305  23018501.660    94256910.69943
 15 03 03 02 30  0.0000000  0  9G01G04G11G16G18G19G22G27G32
  24330788.580   127859163.49806  24330790.280    99630521.99345
  21902681.700   115099424.63409  21902679.220    89687878.17647
  23364889.360   122783341.17208  23364886.140    95675324.92346
  21838721.720   114763269.11109  21838717.820    89425917.47048
  23147165.620   121639225.84608  23147161.720    94783815.48846
  20982146.100   110261954.82509  20982140.680    85918379.77148
  20882057.260   109735981.10709  20882051.320    85508550.71048
  20359976.780   106992450.00709  20359975.320    83370757.21049
  22997294.720   120851603.07905  22997294.260    94170071.87644
 15 03 03 02 30 30.0000000  0  9G01G04G11G16G18G19G22G27G32
  24315476.660   127778700.40507  24315478.660    99567823.57544
  21890503.780   115035428.52809  21890501.200    89638011.10747
  23348966.260   122699664.91308  23348962.700    95610122.64445
  21854570.300   114846553.59109  21854566.300    89490814.46547
  23161569.480   121714918.57508  23161565.480    94842796.82546
  20973945.680   110218860.96909  20973940.200    85884800.14248
  20886671.060   109760226.34309  20886665.000    85527443.10648
  20359975.400   106992443.20909  20359974.100    83370751.89249
  22976126.780   120740366.00205  22976126.340    94083393.69744
 15 03 03 02 31  0.0000000  0  9G01G04G11G16G18G19G22G27G32
  24300190.560   127698372.64806  24300192.740    99505230.64646
  21878372.640   114971678.35309  21878369.960    89588335.65647
  23333063.920   122616097.85508  23333060.360    95545005.48045
  21870488.680   114930204.85909  21870484.660    89555997.27148
  23176024.740   121790880.84608  23176020.720    94901988.20546
  20965794.880   110176028.23109  20965789.380    85851423.97648
  20891380.400   109784973.88209  20891374.260    85546726.91248
  20360043.300   106992800.17909  20360042.120    83371030.04849
  22954999.260   120629341.24405  22954998.880    93996880.95244
 15 03 03 02 31 30.0000000  0  9G01G04G11G16G18G19G22G27G32
  24284930.020   127618177.44308  24284931.880    99442740.95045
  21866287.740   114908171.48009  21866285.000    89538849.79847
  23317181.720   122532637.22408  23317178.740    95479971.29245
  21886475.780   115014217.71209  21886471.840    89621461.82047
  23190530.260   121867107.35308  23190526.260    94961385.47146
  20957693.500   110133454.98509  20957687.820    85818250.02648
  20896184.460   109810219.17209  20896178.220    85566398.56748
  20360180.060   106993518.88609  20360178.860    83371590.07449
  22933912.120   120518528.40506  22933911.440    93910533.40244
 15 03 03 02 32  0.0000000  0  9G01G04G11G16G18G19G22G27G32
  24269695.160   127538116.98007  24269696.820    99380356.25845
  21854249.500   114844910.19109  21854246.880    89489555.31247
  23301320.340   122449285.94008  23301317.380    95415022.24845
  21902531.600   115098591.64209  21902527.740    89687207.72747
  23205086.020   121943598.03108  23205082.040    95020988.59346
  20949642.140   110091144.68409  20949636.280    85785280.96448
  20901083.420   109835963.13109  20901077.120    85586458.79548
  20360386.260   106994602.52709  20360385.060    83372434.46549
  22912866.240   120407932.38406  22912865.200    93824354.74644
 15 03 03 02 32 30.0000000  0  9G01G04G11G16G18G19G22G27G32
  24254485.800   127458190.40008  24254487.540    99318075.94546
  21842257.840   114781893.33009  21842255.180    89440451.27247
  23285479.740   122366043.18808  23285476.720    95350157.78246
  21918655.560   115183323.38509  21918651.840    89753232.46048
  23219691.500   122020350.06508  23219687.660    95080795.36046
  20941640.780   110049097.73709  20941634.920    85752517.11448
  20906076.700   109862203.23609  20906070.460    85606905.63248
  20360661.860   106996050.91709  20360660.620    83373563.07949
  22891861.920   120297554.82606  22891860.920    93738346.36444
 15 03 03 02 33  0.0000000  0  9G01G04G11G16G18G19G22G27G32
  24239302.260   127378399.95207  24239303.540    99255901.65245
  21830313.060   114719123.17709  21830310.520    89391539.50347
  23269660.320   122282911.53008  23269656.960    95285379.90245
  21934847.440   115268412.03109  21934843.860    89819535.29148
  23234346.660   122097363.29308  23234342.880    95140805.65746
  20933690.140   110007317.66109  20933684.420    85719961.21348
  20911164.660   109888940.84109  20911158.500    85627740.13148
  20361007.480   106997867.25009  20361006.240    83374978.40549
  22870900.180   120187400.67006  22870899.340    93652512.04844
 15 03 03 02 33 30.0000000  0  9G01G04G11G16G18G19G22G27G32
  24224144.360   127298743.32508  24224145.280    99193831.58246
  21818414.780   114656597.38509  21818412.200    89342818.11847
  23253861.720   122199888.99508  23253858.240    95220687.05446
  21951106.040   115353852.05009  21951102.620    89886111.90648
  23249050.620   122174633.04808  23249046.820    95201015.85646
  20925790.060   109965803.01509  20925784.380    85687612.14248
  20916346.560   109916171.92709  20916340.440    85648959.16048
  20361422.780   107000049.90209  20361421.640    83376679.17349
  22849981.020   120077469.89706  22849980.240    93566851.78544
 15 03 03 02 34  0.0000000  0  9G01G04G11G16G18G19G22G27G32
  24209012.080   127219222.26607  24209013.080    99131867.30846
  21806563.280   114594317.62909  21806560.700    89294288.46747
  23238084.200   122116977.68408  23238080.920    95156080.88945
  21967431.500   115439643.46009  21967428.180    89952962.34548
  23263803.260   122252158.93108  23263799.420    95261425.62346
  20917941.160   109924557.05909  20917935.480    85655472.43848
  20921622.400   109943896.84009  20921616.380    85670562.99248
  20361908.280   107002601.63709  20361907.320    83378667.52849
  22829105.260   119967767.08206  22829104.340    93481369.17545
 15 03 03 02 34 30.0000000  0  9G01G04G11G16G18G19G22G27G32
  24193905.760   127139837.62408  24193906.540    99070009.12146
  21794758.740   114532284.71009  21794756.200    89245951.14147
  23222328.100   122034178.59108  23222324.540    95091562.10345
  21983823.440   115525784.05609  21983820.140    90020084.88048
  23278604.220   122329938.94208  23278600.460    95322033.42046
  20910143.860   109883581.94209  20910138.100    85623543.78148
  20926992.020   109972114.51509  20926986.080    85692550.78748
  20362464.340   107005523.95709  20362463.460    83380944.65449
  22808273.480   119858295.42106  22808272.600    93396066.65645
 15 03 03 02 35  0.0000000  0  9G01G04G11G16G18G19G22G27G32
  24178825.440   127060590.98506  24178826.540    99008258.58446
  21783001.480   114470500.49909  21782999.020    89197807.61247
  23206593.820   121951494.09508  23206590.240    95027132.66846
  22000281.480   115612272.02709  22000278.240    90087478.08948
  23293453.440   122407972.89008  23293449.700    95382839.08946
  20902398.620   109842880.45509  20902392.840    85591828.33948
  20932455.560   110000825.79009  20932449.640    85714923.21148
  20363091.400   107008819.43209  20363090.500    83383512.55049
  22787486.480   119749059.30307  22787485.540    93310947.68945
 15 03 03 02 35 30.0000000  0  9G01G04G11G16G18G19G22G27G32
  24163770.340   126981476.84908  24163771.520    98946611.35645
  21771290.440   114408959.19909  21771288.040    89149853.38347
  23190880.340   121868918.78208  23190876.720    94962788.30445
  22016804.240   115699100.03709  22016801.020    90155136.25848
  23308349.520   122486252.64708  23308345.640    95443836.29645
  20894704.540   109802448.18309  20894698.780    85560322.68548
  20938011.620   110030023.24309  20938005.760    85737674.48548
  20363788.620   107012483.34509  20363787.580    83386367.54649
  22766743.720   119640055.70807  22766742.820    93226009.91346
 15 03 03 02 36  0.0000000  0  9G01G04G11G16G18G19G22G27G32
  24148741.020   126902498.34307  24148741.920    98885069.67845
  21759626.260   114347663.87409  21759623.860    89102090.80547
  23175188.260   121786456.09008  23175184.660    94898531.69945
  22033391.660   115786267.58609  22033388.420    90223059.01148
  23323292.700   122564779.38308  23323288.780    95505025.95546
  20887062.480   109762289.38609  20887056.800    85529030.11348
  20943660.600   110059708.86509  20943654.700    85760806.13448
  20364556.740   107016519.55409  20364555.620    83389512.63349
  22746046.340   119531290.24707  22746045.260    93141257.67545
 15 03 03 02 36 30.0000000  0  9G01G04G11G16G18G19G22G27G32
  24133737.680   126823656.91708  24133738.780    98823634.88045
  21748009.180   114286615.91209  21748006.680    89054520.99247
  23159517.860   121704107.66108  23159514.420    94834364.12946
  22050043.520   115873773.55909  22050040.280    90291245.47048
  23338282.800   122643552.19908  23338278.880    95566407.37646
  20879473.020   109722407.00909  20879467.480    85497952.93248
  20949402.420   110089882.66609  20949396.500    85784318.20448
  20365396.180   107020930.44909  20365395.020    83392949.70149
  22725395.060   119422767.04608  22725393.820    93056694.21445
 15 03 03 02 37  0.0000000  0  9G01G04G11G16G18G19G22G27G32
  24118760.460   126744954.25306  24118761.900    98762308.18644
  21736439.500   114225817.12709  21736437.100    89007145.33147
  23143869.620   121621875.74708  23143866.280    94770287.32146
  22066759.700   115961617.62508  22066756.460    90359695.36348
  23353319.640   122722570.53008  23353315.740    95627980.09446
  20871936.800   109682804.08209  20871931.400    85467093.50448
  20955237.040   110120544.47709  20955231.200    85808210.52748
  20366307.440   107025718.52509  20366306.280    83396680.66049
  22704790.800   119314490.38808  22704789.500    92972322.86345
 15 03 03 02 37 30.0000000  0  9G01G04G11G16G18G19G22G27G32
  24103808.860   126666383.99807  24103810.480    98701084.66845
  21724916.040   114165260.89109  21724913.680    88959958.67647
  23128242.440   121539754.33308  23128239.040    94706296.61546
  22083538.260   116049789.91808  22083535.100    90428401.02148
  23368401.520   122801825.49308  23368397.500    95689737.20346
  20864452.900   109643475.25909  20864447.420    85436447.67548
  20961163.100   110151686.53709  20961157.360    85832477.06848
  20367289.320   107030878.04009  20367288.100    83400701.06449
  22684232.700   119206456.31008  22684231.280    92888140.52445
 15 03 03 02 38  0.0000000  0  9G01G04G11G16G18G19G22G27G32
  24088883.660   126587951.16706  24088885.600    98639968.23445
  21713439.760   114104952.41209  21713437.280    88912965.05847
  23112637.180   121457748.70308  23112633.980    94642396.17346
  22100379.680   116138292.79508  22100376.600    90497364.27748
  23383528.980   122881319.78708  23383524.820    95751680.79446
  20857022.440   109604427.15609  20857016.840    85406020.59448
  20967181.280   110183312.38609  20967175.540    85857120.58948
  20368342.960   107036414.97909  20368341.720    83405015.56049
  22663722.220   119098672.58208  22663720.680    92804153.27546
 15 03 03 02 38 30.0000000  0  9G01G04G11G16G18G19G22G27G32
  24073984.580   126509657.66007  24073986.540    98578960.38645
  21702011.040   114044893.81809  21702008.400    88866166.15547
  23097054.520   121375861.67908  23097051.700    94578588.15646
  22117283.960   116227125.62208  22117280.900    90566584.63848
  23398702.060   122961053.85608  23398697.780    95813811.23846
  20849645.860   109565662.89609  20849640.240    85375814.67948
  20973291.660   110215422.55809  20973285.860    85882141.50248
  20369468.960   107042332.20109  20369467.660    83409626.37449
  22643260.200   118991143.76008  22643258.560    92720364.63646
 15 03 03 02 39  0.0000000  0  9G01G04G11G16G18G19G22G27G32
  24059111.320   126431498.18007  24059113.280    98518056.91346
  21690628.680   113985079.21209  21690626.000    88819557.38847
  23081493.240   121294087.70208  23081490.420    94514868.18245
  22134249.460   116316279.64009  22134246.380    90636055.28048
  23413919.080   123041019.55008  23413914.680    95876122.17046
  20842322.380   109527178.10109  20842316.840    85345826.53348
  20979492.800   110248009.71809  20979486.940    85907534.09548
  20370666.440   107048624.82309  20370665.040    83414529.71749
  22622846.040   118883866.78208  22622844.360    92636772.24546
 15 03 03 02 39 30.0000000  0  9G01G04G11G16G18G19G22G27G32
  24044264.520   126353478.53408  24044266.740    98457262.58946
  21679293.920   113925514.84909  21679291.200    88773143.60447
  23065954.740   121212433.28708  23065951.980    94451241.40045
  22151276.860   116405758.62409  22151273.680    90705779.15048
  23429180.740   123121220.71608  23429176.200    95938616.58145
  20835053.540   109488980.43009  20835048.080    85316062.10648
  20985785.580   110281078.67609  20985779.760    85933302.11248
  20371936.760   107055299.88909  20371935.300    83419731.06449
  22602481.460   118776850.43408  22602479.820    92553382.93046
 15 03 03 02 40  0.0000000  0  9G01G04G11G16G18G19G22G27G32
  24029443.920   126275593.97908  24029445.960    98396573.30946
  21668005.720   113866195.38009  21668003.180    88726920.67547
  23050438.200   121130893.75508  23050435.480    94387704.09846
  22168364.520   116495554.50309  22168361.240    90775749.94847
  23444485.620   123201649.84108  23444481.200    96001288.60845
  20827838.580   109451065.77509  20827833.180    85286518.21948
  20992168.800   110314622.71309  20992163.080    85959440.33548
  20373279.000   107062352.96209  20373277.440    83425226.95449
  22582165.940   118670092.06608  22582164.360    92470194.65546
 15 03 03 02 40 30.0000000  0  9G01G04G11G16G18G19G22G27G32
  24014649.720   126197849.09707  24014652.020    98335993.02546
  21656765.140   113807125.98309  21656762.660    88680892.57947
  23034944.540   121049474.57108  23034941.740    94324260.64645
  22185512.880   116585669.50409  22185509.580    90845969.41047
  23459834.420   123282309.74008  23459830.320    96064140.46345
  20820678.720   109413440.41709  20820673.280    85257199.76548
  20998643.160   110348645.01609  20998637.340    85985951.21848
  20374694.160   107069789.77009  20374692.580    83431021.87449
  22561900.920   118563599.23708  22561899.440    92387213.28946
 15 03 03 02 41  0.0000000  0  9G01G04G11G16G18G19G22G27G32
  23999881.140   126120239.86707  23999882.960    98275518.29845
  21645571.280   113748302.10409  21645568.940    88635055.81147
  23019473.120   120968171.62908  23019469.980    94260907.70045
  22202720.540   116676096.16009  22202717.180    90916431.71347
  23475225.960   123363193.52508  23475222.080    96127166.78146
  20813573.420   109376101.44809  20813567.980    85228104.47049
  21005207.400   110383139.70509  21005201.440    86012830.20048
  20376181.600   107077606.91309  20376180.120    83437113.14249
  22541686.140   118457370.30808  22541684.700    92304437.55646
 15 03 03 02 41 30.0000000  0  9G01G04G11G16G18G19G22G27G32
  23985138.180   126042764.86307  23985139.940    98215148.23146
  21634423.940   113689722.60809  21634421.800    88589409.47347
  23004023.820   120886984.57308  23004020.500    94197645.10246
  22219986.880   116766831.06809  22219983.380    90987134.21947
  23490659.740   123444298.17908  23490655.820    96190365.20546
  20806522.620   109339049.01309  20806517.300    85199232.44548
  21011860.920   110418103.82909  21011854.880    86040074.97248
  20377741.360   107085803.83309  20377739.940    83443500.34649
  22521521.840   118351406.57808  22521520.360    92221868.47846
 15 03 03 02 42  0.0000000  0  9G01G04G11G16G18G19G22G27G32
  23970422.200   125965430.18507  23970423.500    98154887.43045
  21623324.300   113631393.40409  21623322.300    88543958.15947
  22988597.740   120805919.21408  22988594.200    94134477.28845
  22237312.440   116857877.05909  22237308.820    91058079.12847
  23506136.360   123525627.23908  23506132.360    96253738.47145
  20799527.660   109302290.16109  20799522.440    85170589.17748
  21018604.700   110453542.24309  21018598.640    86067689.31748
  20379374.760   107094387.19809  20379373.260    83450188.68349
  22501409.600   118245716.41409  22501408.120    92139512.56047
 15 03 03 02 42 30.0000000  0  9G01G04G11G16G18G19G22G27G32
  23955731.840   125888231.30707  23955733.260    98094732.60246
  21612271.520   113573310.07709  21612269.480    88498698.44347
  22973194.140   120724972.16608  22973190.620    94071401.67646
  22254695.820   116949226.94109  22254692.080    91129260.84447
  23521654.440   123607174.38508  23521650.480    96317281.69446
  20792587.960   109265821.62309  20792582.680    85142172.14548
  21025437.480   110489448.68409  21025431.380    86095668.37048
  20381081.020   107103353.62309  20381079.500    83457175.50549
  22481349.140   118140298.30808  22481347.700    92057368.63047
 15 03 03 02 43  0.0000000  0  9G01G04G11G16G18G19G22G27G32
  23941068.240   125811174.51506  23941070.080    98034688.45746
  21601266.740   113515478.91109  21601264.540    88453635.21347
  22957814.200   120644149.80508  22957810.720    94008423.24346
  22272137.640   117040883.83509  22272133.740    91200681.80347
  23537214.560   123688943.31008  23537210.720    96380997.74846
  20785705.160   109229651.84209  20785699.680    85113987.89848
  21032360.120   110525827.83109  21032354.020    86124015.76948
  20382861.380   107112709.87209  20382859.900    83464466.08949
  22461342.100   118035160.86608  22461340.620    91975443.41647
 15 03 03 02 43 30.0000000  0  9G01G04G11G16G18G19G22G27G32
  23926430.880   125734254.58708  23926431.780    97974750.76945
  21590308.980   113457894.51409  21590306.580    88408764.27047
  22942457.020   120563447.36308  22942453.720    93945538.23646
  22289636.340   117132839.92209  22289632.380    91272335.89047
  23552815.300   123770926.31708  23552811.480    96444880.61046
  20778878.400   109193775.97209  20778872.640    85086032.68348
  21039371.320   110562672.36109  21039365.220    86152725.79548
  20384715.080   107122451.43609  20384713.740    83472056.90049
  22441387.940   117930301.25509  22441386.400    91893734.67647
 15 03 03 02 44  0.0000000  0  9G01G04G11G16G18G19G22G27G32
  23911819.980   125657475.71007  23911821.500    97914923.32846
  21579399.000   113400561.22609  21579396.460    88364088.99747
  22927123.440   120482869.46108  22927120.560    93882750.32046
  22307192.220   117225096.75209  22307188.300    91344224.32147
  23568457.360   123853126.19408  23568453.560    96508932.45446
  20772108.720   109158199.94209  20772102.720    85058311.11148
  21046471.620   110599985.17809  21046465.660    86181800.72848
  20386643.180   107132583.50009  20386641.860    83479952.01649
  22421487.980   117825726.52209  22421486.420    91812247.91647
 15 03 03 02 44 30.0000000  0  9G01G04G11G16G18G19G22G27G32
  23897234.780   125580829.92007  23897236.020    97855199.21945
  21568535.120   113343470.76709  21568532.380    88319602.93047
  22911812.160   120402408.42508  22911809.280    93820053.38446
  22324803.120   117317643.05509  22324799.380    91416338.30347
  23584138.680   123935531.95808  23584134.800    96573144.71745
  20765394.640   109122916.88209  20765388.620    85030817.81248
  21053659.220   110637756.38909  21053653.220    86211232.83448
  20388644.200   107143098.46609  20388642.900    83488145.48449
  22401641.100   117721430.97609  22401639.540    91730978.70046
 15 03 03 02 45  0.0000000  0  9G01G04G11G16G18G19G22G27G32
  23882675.480   125504322.57608  23882677.260    97795583.28346
  21557718.440   113286628.79609  21557715.600    88275310.49947
  22896524.340   120322070.54708  22896521.480    93757452.48146
  22342469.720   117410481.93509  22342466.080    91488680.27547
  23599859.980   124018147.34508  23599856.020    96637520.32545
  20758737.540   109087933.91909  20758731.640    85003558.35648
  21060934.860   110675990.21209  21060928.900    86241025.42548
  20390719.300   107154002.91109  20390718.040    83496642.44249
  22381848.940   117617422.89608  22381847.360    91649933.48246
 15 03 03 02 45 30.0000000  0  9G01G04G11G16G18G19G22G27G32
  23868142.980   125427954.12007  23868144.320    97736075.34645
  21546948.980   113230035.62109  21546946.180    88231211.94447
  22881260.000   120241856.19008  22881257.240    93694947.82446
  22360191.560   117503610.89609  22360187.900    91561248.28747
  23615620.760   124100970.01508  23615616.680    96702057.46945
  20752137.760   109053252.28009  20752131.960    84976533.70848
  21068298.080   110714684.61209  21068292.120    86271176.91448
  20392868.620   107165297.55609  20392867.420    83505443.45849
  22362111.980   117513704.92109  22362110.360    91569114.32347
 15 03 03 02 46  0.0000000  0  9G01G04G11G16G18G19G22G27G32
  23853637.020   125351724.92508  23853638.160    97676676.07846
  21536226.940   113173691.58009  21536224.100    88187307.50647
  22866019.460   120161766.72508  22866016.620    93632540.46745
  22377968.100   117597027.00309  22377964.360    91634040.05046
  23631420.680   124183998.37208  23631416.400    96766754.88145
  20745595.700   109018874.03009  20745589.940    84949745.46648
  21075748.760   110753838.83009  21075742.940    86301686.69648
  20395092.500   107176983.77809  20395091.200    83514549.60949
  22342430.860   117410280.14709  22342429.240    91488523.63447
 15 03 03 02 46 30.0000000  0 10G01G04G11G14G16G18G19G22G27G32
  23839156.960   125275631.40708  23839158.080    97617382.55844
  21525551.580   113117593.01509  21525548.820    88143594.36547
  22850802.180   120081798.81408  22850799.180    93570227.83246
  24145213.680   126883953.69605  24145212.300    98870602.92442
  22395798.140   117690724.22208  22395794.420    91707050.87046
  23647258.640   124267226.68108  23647254.060    96831608.10345
  20739110.940   108984797.14509  20739105.380    84923192.04748
  21083285.980   110793447.49609  21083280.220    86332550.59648
  20397390.300   107189058.58809  20397388.980    83523958.55249
  22322805.320   117307147.40909  22322803.700    91408160.50447
 15 03 03 02 47  0.0000000  0 10G01G04G11G14G16G18G19G22G27G32
  23824703.200   125199677.24408  23824703.720    97558197.46245
  21514923.720   113061743.66209  21514920.900    88100075.39547
  22835608.720   120001956.37508  22835605.700    93508012.97346
  24131875.220   126813858.75105  24131872.940    98815983.53244
  22413681.820   117784703.63908  22413678.240    91780281.57146
  23663134.880   124350656.69008  23663130.120    96896618.49645
  20732684.460   108951026.31209  20732679.100    84896877.11249
  21090910.120   110833512.34909  21090904.320    86363769.95648
  20399762.800   107201526.50909  20399761.440    83533673.81549
  22303236.640   117204313.22309  22303235.020    91328030.01747
 15 03 03 02 47 30.0000000  0 10G01G04G11G14G16G18G19G22G27G32
  23810276.080   125123862.50606  23810276.740    97499121.05345
  21504343.340   113006143.58209  21504340.520    88056750.66147
  22820439.420   119922240.42908  22820436.340    93445896.67446
  24118566.940   126743922.71305  24118564.080    98761487.93044
  22431618.540   117878961.96508  22431615.160    91853729.58446
  23679048.900   124434286.13408  23679044.120    96961784.27445
  20726316.500   108917562.69009  20726311.340    84870801.56448
  21098620.820   110874032.00909  21098615.020    86395343.71948
  20402210.100   107214388.09809  20402208.880    83543695.82249
  22283725.220   117101779.91409  22283723.620    91248133.97447
 15 03 03 02 48  0.0000000  0 10G01G04G11G14G16G18G19G22G27G32
  23795875.660   125048187.94308  23795876.400    97440153.93545
  21493810.480   112950793.27309  21493807.600    88013620.54547
  22805294.320   119842652.00809  22805291.300    93383879.74946
  24105289.760   126674149.81305  24105286.940    98707119.49544
  22449608.020   117973497.42809  22449604.780    91927393.56946
  23695000.580   124518113.56908  23694995.860    97027104.36745
  20720007.460   108884408.84509  20720002.440    84844967.40148
  21106417.840   110915005.43409  21106412.040    86427271.07348
  20404732.660   107227645.07309  20404731.640    83554025.92249
  22264271.740   116999550.98109  22264270.100    91168475.10347
 15 03 03 02 48 30.0000000  0 10G01G04G11G14G16G18G19G22G27G32
  23781501.400   124972651.59607  23781502.700    97381294.55846
  21483324.780   112895691.06809  21483321.980    87970683.77847
  22790173.220   119763189.67108  22790170.140    93321961.05346
  24092043.800   126604540.81205  24092041.060    98652878.74643
  22467649.320   118068305.10509  22467646.100    92001269.66647
  23710989.180   124602134.88108  23710984.580    97092575.52145
  20713757.200   108851563.96609  20713752.220    84819373.99648
  21114300.480   110956428.79009  21114294.620    86459549.01148
  20407330.340   107241296.04509  20407329.360    83564663.04349
  22244876.220   116897626.89909  22244874.560    91089053.78148
 15 03 03 02 49  0.0000000  0 10G01G04G11G14G16G18G19G22G27G32
  23767153.900   124897254.37507  23767155.200    97322543.45046
  21472886.280   112840837.43909  21472883.740    87927940.71147
  22775076.320   119683854.85508  22775072.980    93260141.71046
  24078829.560   126535099.08605  24078826.400    98598768.33944
  22485742.020   118163382.55408  22485738.760    92075355.97647
  23727014.480   124686348.71108  23727009.980    97158196.67545
  20707566.160   108819030.22309  20707561.100    84794023.03549
  21122268.560   110998301.17309  21122262.600    86492176.84148
  20410003.300   107255342.44409  20410002.340    83575608.28649
  22225539.360   116796010.99809  22225537.640    91009872.60947
 15 03 03 02 49 30.0000000  0 10G01G04G11G14G16G18G19G22G27G32
  23752832.880   124821998.12107  23752834.560    97263902.37346
  21462495.600   112786234.88809  21462493.280    87885393.27547
  22760004.020   119604650.19608  22760000.840    93198423.82646
  24065647.960   126465829.64705  24065645.120    98544792.17543
  22503886.020   118258729.56808  22503882.720    92149652.33047
  23743076.460   124770754.71208  23743072.040    97223967.58345
  20701435.000   108786811.02809  20701429.840    84768917.18348
  21130322.200   111040622.88209  21130316.060    86525154.79548
  20412752.040   107269787.11009  20412751.060    83586863.85949
  22206262.020   116694707.89809  22206260.280    90930935.17347
 15 03 03 02 50  0.0000000  0 10G01G04G11G14G16G18G19G22G27G32
  23738538.800   124746882.47107  23738540.540    97205370.71445
  21452152.560   112731882.36909  21452150.460    87843040.68347
  22744956.420   119525575.40708  22744953.560    93136807.13246
  24052499.280   126396734.59305  24052495.640    98490952.92443
  22522080.640   118354342.64708  22522077.300    92224156.00847
  23759174.560   124855350.42308  23759170.300    97289886.30545
  20695363.780   108754907.16609  20695358.740    84744057.02348
  21138460.860   111083391.44809  21138454.640    86558480.95448
  20415576.600   107284630.07109  20415575.540    83598429.79449
  22187044.540   116593719.48009  22187042.800    90852242.93447
 15 03 03 02 50 30.0000000  0 10G01G04G11G14G16G18G19G22G27G32
  23724271.120   124671906.22608  23724273.040    97146947.74246
  21441856.920   112677779.00409  21441854.960    87800882.23347
  22729933.400   119446630.16808  22729930.800    93075291.37646
  24039384.200   126327816.05405  24039381.000    98437250.22343
  22540325.080   118450217.69808  22540321.740    92298863.80647
  23775308.140   124940132.73508  23775304.060    97355950.43145
  20689352.620   108723319.00309  20689347.780    84719442.87648
  21146684.000   111126604.28509  21146677.780    86592153.29348
  20418476.940   107299870.98009  20418475.700    83610305.82949
  22167887.280   116493047.32309  22167885.500    90773797.14247
 15 03 03 02 51  0.0000000  0 10G01G04G11G14G16G18G19G22G27G32
  23710029.480   124597067.24807  23710031.600    97088631.74945
  21431608.440   112623922.68909  21431606.440    87758916.28847
  22714934.740   119367812.83908  22714932.280    93013875.31746
  24026303.000   126259074.71705  24026300.860    98383685.51944
  22558618.460   118546350.16909  22558615.100    92373772.20347
  23791476.260   125025097.12608  23791472.420    97422156.44046
  20683401.380   108692045.61709  20683396.700    84695074.00648
  21154991.020   111170257.50509  21154984.780    86626168.79348
  20421452.780   107315508.29909  20421451.340    83622490.75349
  22148790.220   116392691.69209  22148788.420    90695597.98947
 15 03 03 02 51 30.0000000  0 10G01G04G11G14G16G18G19G22G27G32
  23695814.720   124522367.27308  23695816.720    97030423.96846
  21421407.260   112570314.97909  21421405.200    87717144.06547
  22699961.000   119289125.55608  22699958.460    92952560.57146
  24013256.440   126190514.91005  24013254.520    98330262.37244
  22576960.480   118642738.31109  22576957.160    92448879.82747
  23807678.900   125110243.05708  23807675.260    97488503.90945
  20677510.680   108661090.15309  20677506.140    84670952.85749
  21163381.800   111214350.58709  21163375.480    86660527.02848
  20424504.440   107331544.33409  20424502.840    83634986.35749
  22129754.200   116292656.76309  22129752.380    90617648.73747
 15 03 03 02 52  0.0000000  0 10G01G04G11G14G16G18G19G22G27G32
  23681626.300   124447806.30208  23681627.700    96972324.56245
  21411253.440   112516955.85109  21411251.120    87675565.55247
  22685012.280   119210568.86108  22685009.360    92891347.57146
  24000245.020   126122139.81206  24000242.960    98276983.12045
  22595350.640   118739379.58509  22595347.340    92524184.69647
  23823915.900   125195568.89408  23823912.260    97554991.55246
  20671680.840   108630453.81409  20671676.220    84647080.39149
  21171856.000   111258882.17009  21171849.540    86695226.96348
  20427632.140   107347979.88309  20427630.480    83647793.28049
  22110779.660   116192945.18008  22110777.840    90539951.44247
 15 03 03 02 52 30.0000000  0 10G01G04G11G14G16G18G19G22G27G32
  23667464.440   124373383.55507  23667465.200    96914332.83146
  21401146.860   112463844.68209  21401144.220    87634180.22547
  22670088.400   119132142.64608  22670085.040    92830236.25346
  23987269.180   126053951.36806  23987267.020    98223849.27644
  22613788.180   118836269.96909  22613784.940    92599683.66847
  23840186.380   125281070.74408  23840182.720    97621616.35145
  20665911.900   108600137.46409  20665907.180    84623457.25349
  21180413.080   111303849.32409  21180406.560    86730266.30048
  20430835.720   107364814.65209  20430834.060    83660911.26249
  22091866.940   116093558.54608  22091865.100    90462507.34647
 15 03 03 02 53  0.0000000  0 10G01G04G11G14G16G18G19G22G27G32
  23653328.980   124299099.78708  23653329.440    96856449.43746
  21391087.660   112410982.18609  21391084.680    87592988.67047
  22655189.560   119053848.18608  22655186.080    92769227.60046
  23974329.600   125985953.11107  23974327.360    98170863.65044
  22632272.840   118933407.90409  22632269.620    92675375.53547
  23856490.200   125366747.90708  23856486.440    97688377.76545
  20660204.300   108570143.05109  20660199.440    84600084.97749
  21189052.700   111349250.90509  21189046.240    86765644.15548
  20434115.520   107382050.11009  20434113.820    83674341.47849
  22073016.660   115994500.14208  22073014.840    90385319.01347
 15 03 03 02 53 30.0000000  0 10G01G04G11G14G16G18G19G22G27G32
  23639220.000   124224956.76208  23639220.640    96798675.76245
  21381076.100   112358370.13209  21381072.900    87551992.26847
  22640316.300   118975687.93308  22640312.700    92708323.53846
  23961427.320   125918150.00307  23961424.840    98118030.09844
  22650804.440   119030792.35109  22650801.220    92751259.49847
  23872827.360   125452600.03908  23872823.480    97755275.52445
  20654558.620   108540473.81009  20654553.500    84576966.09849
  21197774.960   111395087.19009  21197768.560    86801360.73448
  20437472.020   107399688.70209  20437470.200    83688085.84649
  22054229.560   115895774.34008  22054227.880    90308389.86747
 15 03 03 02 54  0.0000000  0 10G01G04G11G14G16G18G19G22G27G32
  23625137.460   124150952.91208  23625138.340    96741010.48946
  21371111.820   112306006.79109  21371108.640    87511189.68147
  22625468.320   118897660.62008  22625464.580    92647523.05346
  23948562.340   125850543.10407  23948559.680    98065349.42444
  22669381.980   119128418.06909  22669378.780    92827331.46247
  23889197.160   125538623.39808  23889193.340    97822306.69845
  20648974.720   108511129.41809  20648969.360    84554100.33449
  21206579.220   111441354.63409  21206572.960    86837413.29148
  20440905.040   107417729.34409  20440903.200    83702143.48549
  22035505.880   115797381.91708  22035504.460    90231720.49847
 15 03 03 02 54 30.0000000  0 10G01G04G11G14G16G18G19G22G27G32
  23611081.520   124077088.90308  23611082.380    96683454.15846
  21361194.960   112253892.94509  21361191.820    87470581.49248
  22610645.860   118819767.73308  22610642.160    92586827.31146
  23935735.340   125783136.03107  23935732.280    98012824.44944
  22688005.180   119226283.62409  22688002.000    92903590.31247
  23905599.280   125624816.72608  23905595.580    97889470.33546
  20643453.040   108482112.12909  20643447.580    84531489.46449
  21215465.320   111488052.08809  21215459.320    86873800.92348
  20444414.740   107436173.39109  20444413.120    83716515.45749
  22016846.260   115699326.13508  22016845.020    90155313.43847
 15 03 03 02 55  0.0000000  0 10G01G04G11G14G16G18G19G22G27G32
  23597051.980   124003363.48307  23597052.580    96626005.77246
  21351325.220   112202027.10609  21351322.260    87430166.56348
  22595848.760   118742008.50308  22595845.080    92526235.72846
  23922946.620   125715930.39707  23922943.460    97960456.45544
  22706673.340   119324384.99209  22706670.120    92980032.90747
  23922033.000   125711176.46908  23922029.440    97956763.61645
  20637993.520   108453421.88209  20637988.140    84509133.42349
  21224432.600   111535176.17709  21224426.840    86910520.99948
  20448001.000   107455020.05809  20447999.660    83731201.16049
  21998250.980   115601608.09108  21998249.760    90079169.54647
 15 03 03 02 55 30.0000000  0 10G01G04G11G14G16G18G19G22G27G32
  23583049.420   123929780.16708  23583050.180    96568668.19146
  21341503.220   112150413.01009  21341500.560    87389947.81547
  22581077.960   118664387.45908  22581074.380    92465751.81646
  23910197.220   125648932.46306  23910194.360    97908250.28944
  22725386.480   119422722.41509  22725383.180    93056659.45347
  23938498.600   125797704.32708  23938495.040    98024187.90545
  20632597.040   108425063.33509  20632591.760    84487035.85649
  21233481.480   111582728.92809  21233475.860    86947575.09048
  20451664.720   107474273.59909  20451663.460    83746203.91349
  21979721.280   115504233.89708  21979719.980    90003293.58647
 15 03 03 02 56  0.0000000  0 10G01G04G11G14G16G18G19G22G27G32
  23569073.620   123856337.54108  23569075.040    96511440.26347
  21331728.820   112099049.16909  21331726.300    87349924.05147
  22566333.120   118586903.23008  22566329.620    92405374.53046
  23897487.560   125582143.81306  23897485.020    97856207.24644
  22744143.660   119521291.16809  22744140.260    93133466.23847
  23954995.320   125884396.08208  23954991.720    98091739.88745
  20627263.640   108397036.67609  20627258.440    84465196.89649
  21242611.320   111630706.87109  21242605.780    86984960.50248
  20455405.780   107493933.10709  20455404.540    83761522.99849
  21961257.340   115407204.50908  21961255.880    89927686.29347
 15 03 03 02 56 30.0000000  0 10G01G04G11G14G16G18G19G22G27G32
  23555124.260   123783033.19907  23555125.320    96454319.96646
  21322001.400   112047933.06608  21321999.100    87310093.34747
  22551614.040   118509554.16908  22551610.700    92345102.54046
  23884817.880   125515564.92506  23884815.620    97804327.64543
  22762944.040   119620086.86509  22762940.540    93210449.87347
  23971522.440   125971247.64308  23971518.800    98159416.43845
  20621993.260   108369341.10709  20621988.120    84443615.93849
  21251821.260   111679105.67609  21251815.800    87022673.85748
  20459223.800   107513996.68809  20459222.540    83777156.95549
  21942859.060   115310519.94208  21942857.460    89852347.70047
 15 03 03 02 57  0.0000000  0 10G01G04G11G14G16G18G19G22G27G32
  23541201.320   123709867.83107  23541202.220    96397308.06946
  21312321.260   111997065.48109  21312319.160    87270456.29547
  22536920.880   118432341.64608  22536917.680    92284936.97146
  23872188.900   125449199.25806  23872186.520    97752614.17344
  22781787.060   119719107.02009  22781783.540    93287608.40748
  23988079.760   126058257.63308  23988076.080    98227216.41845
  20616786.200   108341978.27109  20616781.140    84422294.25449
  21261111.040   111727924.27309  21261105.760    87060714.32648
  20463119.000   107534465.69209  20463117.700    83793106.82649
  21924526.980   115214183.51208  21924525.280    89777280.38147
 15 03 03 02 57 30.0000000  0 10G01G04G11G14G16G18G19G22G27G32
  23527305.060   123636843.26208  23527305.560    96340405.82946
  21302688.980   111946448.47509  21302687.020    87231014.49147
  22522254.300   118355268.30308  22522251.020    92224879.82746
  23859601.400   125383051.67006  23859599.020    97701070.62243
  22800672.480   119818350.18309  22800668.980    93364940.71147
  24004667.340   126145425.99908  24004663.800    98295139.78545
  20611643.080   108314951.56609  20611638.180    84401234.47949
  21270480.680   111777162.57009  21270475.520    87099081.84148
  20467091.740   107555342.47909  20467090.380    83809374.44249
  21906261.880   115118199.32208  21906260.020    89702487.52847
 15 03 03 02 58  0.0000000  0 10G01G04G11G14G16G18G19G22G27G32
  23513435.380   123563958.96507  23513436.480    96283612.99446
  21293104.400   111896081.18809  21293102.340    87191767.26847
  22507614.240   118278334.12408  22507610.740    92164931.12046
  23847055.820   125317124.48406  23847053.160    97649698.82143
  22819599.800   119917813.86309  22819596.340    93442444.85348
  24021284.580   126232749.95808  24021281.220    98363184.43545
  20606564.020   108288261.86409  20606559.320    84380437.30749
  21279929.660   111826817.85209  21279924.500    87137774.27148
  20471142.060   107576627.07309  20471140.760    83825959.83649
  21888064.100   115022569.36909  21888062.160    89627970.70847
 15 03 03 02 58 30.0000000  0 10G01G04G11G14G16G18G19G22G27G32
  23499592.240   123491213.09907  23499593.340    96226927.94946
  21283567.120   111845961.67609  21283564.900    87152713.10547
  22493000.380   118201537.80908  22492996.860    92105089.85546
  23834552.280   125251418.66506  23834549.580    97598499.52144
  22838568.020   120017492.59509  22838564.620    93520116.56448
  24037930.780   126320225.57308  24037927.620    98431347.23945
  20601549.180   108261908.65209  20601544.420    84359902.33049
  21289457.360   111876886.56709  21289452.060    87176788.84348
  20475269.720   107598318.10709  20475268.520    83842861.92649
  21869933.900   114927294.21809  21869931.840    89553730.34947
 15 03 03 02 59  0.0000000  0 10G01G04G11G14G16G18G19G22G27G32
  23485776.040   123418608.15508  23485777.000    96170352.71046
  21274077.500   111796092.51909  21274075.160    87113854.03448
  22478413.360   118124882.38508  22478409.760    92045358.37746
  23822091.920   125185939.41807  23822089.560    97547476.76644
  22857577.100   120117385.98509  22857573.760    93597955.54248
  24054605.960   126407853.15008  24054603.000    98499628.46445
  20596599.280   108235895.82209  20596594.240    84339632.60949
  21299063.920   111927369.56109  21299058.560    87216126.24848
  20479475.260   107620418.61109  20479474.140    83860083.08949
  21851872.100   114832378.70009  21851869.980    89479770.23247
 15 03 03 02 59 30.0000000  0 10G01G04G11G14G16G18G19G22G27G32
  23471986.640   123346143.88308  23471987.040    96113887.06246
  21264635.480   111746473.57309  21264633.000    87075189.92347
  22463853.240   118048368.36208  22463849.480    91985737.07746
  23809675.360   125120689.70707  23809673.220    97496632.83443
  22876626.520   120217491.45209  22876623.260    93675959.76948
  24071309.660   126495630.85608  24071306.760    98568026.66045
  20591714.360   108210224.52709  20591709.120    84319629.00249
  21308748.920   111978264.44909  21308743.520    87255784.60148
  20483758.780   107642928.91209  20483757.720    83877623.57449
  21833879.140   114737825.15709  21833877.020    89406092.17347
 15 03 03 03 00  0.0000000  0 10G01G04G11G14G16G18G19G22G27G32
  23458223.460   123273817.76608  23458224.120    96057529.13946
  21255240.620   111697102.48309  21255238.040    87036718.95647
  22449319.600   117971993.71009  22449315.720    91926224.38646
  23797302.580   125055669.99207  23797300.240    97445968.16743
  22895715.300   120317803.64409  22895712.060    93754125.08347
  24088040.800   126583553.88408  24088038.060    98636538.10545
  20586894.120   108184893.41909  20586888.860    84299890.48149
  21318511.560   112029566.77209  21318505.960    87295760.42948
  20488119.900   107665846.95209  20488118.880    83895481.78149
  21815955.000   114643633.27609  21815952.940    89332695.93147
 15 03 03 03 00 30.0000000  0 10G01G04G11G14G16G18G19G22G27G32
  23444487.740   123201635.38108  23444488.420    96001283.11346
  21245893.820   111647984.30309  21245891.220    86998445.07148
  22434813.700   117895764.76808  22434809.720    91866825.22446
  23784975.120   124990888.31107  23784972.340    97395488.96244
  22914843.840   120418324.65309  22914840.600    93832453.10948
  24104800.040   126671625.28908  24104797.300    98705165.17145
  20582139.900   108159909.54809  20582134.700    84280422.52649
  21328352.400   112081279.99109  21328346.620    87336056.44348
  20492559.740   107689178.74709  20492558.740    83913662.39249
  21798101.180   114549811.11509  21798099.200    89259587.77847
 15 03 03 03 01  0.0000000  0 10G01G04G11G14G16G18G19G22G27G32
  23430778.040   123129589.84908  23430778.360    95945143.74146
  21236593.840   111599112.80909  21236591.280    86960363.40547
  22420334.400   117819675.65109  22420330.240    91807535.03846
  23772692.200   124926340.66607  23772689.000    97345192.11043
  22934010.240   120519044.59409  22934006.980    93910936.15647
  24121585.880   126759836.60308  24121583.160    98773901.25645
  20577450.620   108135267.34709  20577445.500    84261220.81649
  21338269.840   112133395.47909  21338263.940    87376665.91348
  20497077.140   107712917.96809  20497076.160    83932160.49049
  21780316.860   114456354.20109  21780314.900    89186764.23347
 15 03 03 03 01 30.0000000  0 10G01G04G11G14G16G18G19G22G27G32
  23417095.000   123057685.19908  23417095.420    95889114.24446
  21227341.420   111550491.56609  21227338.980    86922476.73847
  22405882.600   117743730.75109  22405878.220    91748357.19946
  23760454.980   124862034.05807  23760452.060    97295083.11643
  22953214.920   120619965.73009  22953211.640    93989575.97747
  24138399.000   126848189.96408  24138395.980    98842748.02045
  20572827.400   108110972.39609  20572822.300    84242289.67949
  21348264.220   112185915.31009  21348258.160    87417590.46148
  20501672.960   107737069.16009  20501672.020    83950979.58849
  21762603.260   114363268.95909  21762601.260    89114230.29547
 15 03 03 03 02  0.0000000  0 10G01G04G11G14G16G18G19G22G27G32
  23403437.980   122985917.92508  23403438.400    95833191.70346
  21218135.840   111502117.33009  21218133.720    86884782.54447
  22391457.680   117667927.43408  22391453.340    91689289.68446
  23748263.480   124797967.77107  23748260.900    97245161.38243
  22972456.620   120721081.35609  22972453.300    94068367.34247
  24155238.240   126936679.57708  24155234.800    98911700.95545
  20568269.780   108087022.10409  20568264.620    84223627.12149
  21358334.380   112238833.78509  21358328.200    87458825.62248
  20506346.520   107761629.20409  20506345.660    83970117.27549
  21744960.160   114270554.17909  21744958.180    89041985.02847
 15 03 03 03 02 30.0000000  0 10G01G04G11G14G16G18G19G22G27G32
  23389807.740   122914291.34508  23389808.460    95777378.84146
  21208977.820   111453993.23609  21208976.000    86847283.25548
  22377060.320   117592269.48808  22377056.200    91630335.46546
  23736119.020   124734148.04307  23736116.200    97195431.67243
  22991735.300   120822391.37209  22991731.900    94147310.18947
  24172103.760   127025306.72208  24172099.880    98980761.04645
  20563778.740   108063421.61609  20563773.580    84205237.14449
  21368480.620   112292152.50409  21368474.420    87500372.67448
  20511098.620   107786601.90009  20511097.840    83989576.51249
  21727388.680   114178215.69709  21727386.780    88970032.98647
 15 03 03 03 03  0.0000000  0 10G01G04G11G14G16G18G19G22G27G32
  23376204.880   122842807.96808  23376205.860    95721677.52446
  21199867.940   111406121.85508  21199866.400    86809980.89048
  22362691.260   117516760.13508  22362687.280    91571497.00846
  23724022.520   124670580.21807  23724019.140    97145898.32844
  23011050.920   120923895.63509  23011047.480    94226404.39147
  24188995.560   127114072.12208  24188991.200    99049928.88245
  20559354.960   108040174.70309  20559349.820    84187122.66249
  21378703.060   112345872.05209  21378696.920    87542232.06048
  20515929.840   107811990.18509  20515929.000    84009359.58149
  21709889.780   114086258.21509  21709887.900    88898377.82848
 15 03 03 03 03 30.0000000  0 10G01G04G11G14G16G18G19G22G27G32
  23362628.460   122771463.75408  23362629.300    95666084.64646
  21190805.460   111358499.12309  21190804.240    86772872.29448
  22348349.820   117441396.04508  22348345.940    91512771.77646
  23711973.660   124607263.05707  23711970.280    97096560.30344
  23030402.200   121025587.25609  23030398.740    94305644.58846
  24205912.360   127202969.71808  24205907.740    99119199.70945
  20554997.980   108017278.53409  20554992.840    84169281.49849
  21389000.640   112399986.48109  21388994.500    87584399.15048
  20520839.520   107837790.52809  20520838.580    84029463.75149
  21692463.080   113994680.16209  21692461.180    88827018.32748
 15 03 03 03 04  0.0000000  0 10G01G04G11G14G16G18G19G22G27G32
  23349078.480   122700259.96208  23349079.420    95610601.26146
  21181790.700   111311126.29809  21181789.440    86735958.42148
  22334036.420   117366179.32209  22334032.660    91454161.35746
  23699973.240   124544200.83707  23699969.820    97047420.94644
  23049788.880   121127464.92909  23049785.400    94385029.76546
  24222853.920   127291998.59008  24222849.360    99188572.85445
  20550708.220   107994735.75409  20550703.060    84151715.69749
  21399373.200   112454495.19309  21399367.080    87626873.47748
  20525827.980   107864004.62109  20525826.900    84049890.31949
  21675109.280   113903485.18809  21675107.360    88755957.33347
 15 03 03 03 04 30.0000000  0 10G01G04G11G14G16G18G19G22G27G32
  23335555.660   122629197.30508  23335556.820    95555227.81746
  21172823.760   111264003.94309  21172822.360    86699239.72548
  22319751.440   117291111.08009  22319747.700    91395666.63947
  23688021.860   124481396.80207  23688018.900    96998482.80844
  23069210.500   121229526.09908  23069207.000    94464557.91946
  24239819.940   127381157.42408  24239815.860    99258047.29145
  20546486.100   107972548.48209  20546480.920    84134426.91649
  21409820.400   112509396.11509  21409814.300    87669653.40548
  20530895.360   107890633.44309  20530894.240    84070640.04749
  21657828.940   113812676.17609  21657826.980    88685197.09048
 15 03 03 03 05  0.0000000  0 10G01G04G11G14G16G18G19G22G27G32
  23322059.340   122558273.47008  23322060.040    95499962.48746
  21163904.160   111217129.98809  21163902.500    86662714.57448
  22305494.400   117216189.76308  22305490.580    91337286.41146
  23676119.800   124418851.58007  23676117.240    96949746.31344
  23088665.960   121331765.23908  23088662.520    94544224.75346
  24256809.860   127470441.71108  24256806.380    99327619.43445
  20542331.360   107950715.72509  20542326.380    84117414.37649
  21420341.440   112564685.32309  21420335.480    87712735.90948
  20536041.260   107917675.12609  20536040.100    84091711.48149
  21640622.040   113722253.12209  21640620.020    88614737.59048
 15 03 03 03 05 30.0000000  0 10G01G04G11G14G16G18G19G22G27G32
  23308589.980   122487491.14308  23308590.680    95444807.48046
  21155032.320   111170507.07209  21155030.340    86626385.03748
  22291265.920   117141419.08509  22291262.060    91279023.57146
  23664268.160   124356570.92007  23664265.760    96901215.96944
  23108155.460   121434183.28708  23108152.000    94624030.98946
  24273823.880   127559852.64807  24273820.880    99397290.29845
  20538244.880   107929241.41909  20538240.000    84100681.15749
  21430936.440   112620363.73209  21430930.800    87756121.68948
  20541266.280   107945132.83009  20541265.200    84113107.08149
  21623489.480   113632221.05609  21623487.460    88544582.76048
 15 03 03 03 06  0.0000000  0 10G01G04G11G14G16G18G19G22G27G32
  23295147.260   122416848.21408  23295147.600    95389761.05846
  21146207.840   111124133.00509  21146205.640    86590249.40848
  22277065.760   117066797.47608  22277061.960    91220876.85146
  23652467.000   124294555.36107  23652464.560    96852892.18244
  23127677.880   121536774.42008  23127674.500    94703972.10545
  24290861.280   127649386.03508  24290858.640    99467056.55744
  20534226.540   107908124.88909  20534221.700    84084226.71849
  21441604.700   112676427.12009  21441599.320    87799807.44448
  20546570.100   107973004.76309  20546569.040    84134825.46049
  21606431.260   113542580.20408  21606429.360    88474732.78347
 15 03 03 03 06 30.0000000  0 10G01G04G11G14G16G18G19G22G27G32
  23281731.220   122346346.00408  23281731.320    95334824.28546
  21137430.940   111078009.26409  21137428.480    86554308.83548
  22262894.380   116992326.87609  22262890.760    91162847.86146
  23640717.120   124232809.12307  23640714.460    96804778.25244
  23147233.060   121639537.68508  23147229.740    94784047.34345
  24307921.980   127739041.07307  24307919.200    99536917.60345
  20530276.840   107887368.78909  20530272.000    84068053.13649
  21452346.200   112732874.94809  21452341.020    87843792.76248
  20551953.160   108001292.66909  20551952.000    84156867.97649
  21589448.140   113453334.22608  21589446.440    88405190.50747
 15 03 03 03 07  0.0000000  0 10G01G04G11G14G16G18G19G22G27G32
  23268341.100   122275979.81808  23268341.140    95279993.50346
  21128700.740   111032131.00209  21128697.980    86518559.54848
  22248751.120   116918003.61908  22248747.660    91104933.62746
  23629018.120   124171330.24208  23629015.380    96756872.64544
  23166819.440   121742464.77508  23166816.080    94864250.23845
  24325004.680   127828811.27007  24325001.880    99606868.40645
  20526395.180   107866969.82409  20526390.300    84052157.84449
  21463159.660   112789700.33209  21463154.600    87888072.29048
  20557414.580   108029992.15509  20557413.320    84179231.20749
  21572539.720   113364480.59308  21572538.140    88335953.95348
 15 03 03 03 07 30.0000000  0 10G01G04G11G14G16G18G19G22G27G32
  23254977.840   122205754.81808  23254978.100    95225272.79246
  21120018.180   110986503.35009  21120015.220    86483005.53848
  22234637.160   116843833.44509  22234633.780    91047138.72447
  23617371.480   124110126.69608  23617368.420    96709181.60145
  23186437.540   121845558.71207  23186434.240    94944583.11544
  24342110.060   127918699.61908  24342107.000    99676911.26745
  20522582.680   107846934.63909  20522577.760    84036546.00849
  21474045.720   112846906.57209  21474040.580    87932648.57748
  20562955.400   108059108.80309  20562954.100    84201919.49749
  21555707.500   113276026.83809  21555705.900    88267028.97647
 15 03 03 03 08  0.0000000  0 10G01G04G11G14G16G18G19G22G27G32
  23241641.640   122135672.72208  23241641.760    95170663.37346
  21111383.600   110941128.15509  21111380.440    86447648.24747
  22220552.840   116769818.69009  22220549.400    90989464.88947
  23605778.100   124049203.00708  23605774.860    96661708.58144
  23206087.100   121948817.81007  23206083.920    95025044.73944
  24359237.940   128008706.01108  24359234.540    99747046.09845
  20518839.780   107827265.92709  20518834.800    84021219.72649
  21485004.200   112904493.08209  21484998.920    87977521.18248
  20568575.980   108088644.62809  20568574.620    84224934.41649
  21538952.200   113187976.91409  21538950.460    88198418.67047
 15 03 03 03 08 30.0000000  0 10G01G04G11G14G16G18G19G22G27G32
  23228331.600   122065728.12908  23228331.960    95116161.14247
  21102796.020   110895999.98609  21102792.840    86412483.46548
  22206497.280   116695954.89409  22206493.740    90931908.71346
  23594237.460   123988556.67408  23594233.980    96614451.72444
  23225766.600   122052234.37007  23225763.420    95105629.02744
  24376386.900   128098823.04308  24376383.020    99817267.16845
  20515165.900   107807959.62509  20515160.760    84006175.87149
  21496033.640   112962452.62109  21496028.300    88022684.46748
  20574275.300   108118594.53009  20574273.920    84248271.99549
  21522273.160   113100327.61509  21522271.200    88130120.53347
 15 03 03 03 09  0.0000000  0 10G01G04G11G14G16G18G19G22G27G32
  23215048.500   121995924.87308  23215049.020    95061769.02246
  21094256.120   110851122.66609  21094253.000    86377514.14348
  22192471.240   116622246.33209  22192467.440    90874473.49747
  23582750.800   123928194.08908  23582747.340    96567415.96644
  23245476.260   122155809.42407  23245473.100    95186336.82244
  24393557.280   128189052.64308  24393553.060    99887575.93544
  20511562.040   107789020.92709  20511556.780    83991418.45449
  21507134.420   113020786.82209  21507128.960    88068139.68848
  20580054.180   108148962.64509  20580052.780    84271935.44849
  21505671.500   113013084.97909  21505669.400    88062139.28147
 15 03 03 03 09 30.0000000  0 10G01G04G11G14G16G18G19G22G27G32
  23201792.200   121926262.68008  23201792.920    95007486.77847
  21085763.920   110806495.98009  21085760.840    86342740.10648
  22178474.720   116548693.82609  22178470.820    90817159.86046
  23571318.500   123868117.71408  23571315.320    96520603.22745
  23265215.380   122259539.06906  23265212.220    95267165.07044
  24410748.560   128279392.27608  24410744.180    99957970.44845
  20508028.340   107770451.13409  20508023.060    83976948.48249
  21518306.120   113079493.46409  21518300.500    88113885.12348
  20585912.660   108179749.00709  20585911.280    84295924.81149
  21489147.680   112926251.07509  21489145.440    87994476.51748
 15 03 03 03 10  0.0000000  0 10G01G04G11G14G16G18G19G22G27G32
  23188562.580   121856740.78908  23188563.160    94953313.90347
  21077319.120   110762119.09809  21077316.260    86308160.74448
  22164507.820   116475297.46308  22164503.880    90759967.91347
  23559941.200   123808330.04308  23559938.280    96474015.46945
  23284983.340   122363420.08706  23284980.300    95348111.29943
  24427960.280   128369839.77908  24427955.640   100028449.01545
  20504564.940   107752250.53509  20504559.680    83962766.19049
  21529548.120   113138569.85009  21529542.320    88159918.66848
  20591850.720   108210953.24809  20591849.220    84320239.80049
  21472702.000   112839827.42209  21472699.560    87927133.41547
 15 03 03 03 10 30.0000000  0 10G01G04G11G14G16G18G19G22G27G32
  23175359.540   121787359.36208  23175360.340    94899250.51047
  21068921.860   110717992.21009  21068919.320    86273776.17948
  22150570.740   116402057.87908  22150566.620    90702898.12647
  23548619.320   123748833.48008  23548616.440    96427654.54145
  23304779.640   122467449.85906  23304776.780    95429173.44544
  24445192.020   128460393.16508  24445187.380   100099010.06544
  20501172.120   107734420.49109  20501166.760    83948872.65249
  21540860.020   113198013.89209  21540854.020    88206238.69748
  20597868.320   108242575.67609  20597866.760    84344880.64349
  21456334.740   112753816.12009  21456332.160    87860111.62347
 15 03 03 03 11  0.0000000  0 10G01G04G11G14G16G18G19G22G27G32
  23162183.140   121718118.38708  23162184.100    94845296.54146
  21060572.180   110674115.39609  21060570.000    86239586.46048
  22136663.660   116328975.88209  22136659.380    90645951.13646
  23537353.480   123689631.07108  23537350.580    96381522.82245
  23324603.740   122571625.74606  23324600.820    95510349.37043
  24462443.400   128551050.47008  24462438.980   100169652.16844
  20497850.080   107716962.56109  20497844.560    83935269.06849
  21552241.440   113257823.73109  21552235.340    88252843.77748
  20603965.540   108274616.61509  20603963.920    84369847.60249
  21440046.260   112668219.52509  21440043.600    87793412.99447
 15 03 03 03 11 30.0000000  0 10G01G04G11G14G16G18G19G22G27G32
  23149033.740   121649019.31108  23149034.860    94791453.12946
  21052270.380   110630490.02309  21052268.440    86205592.67748
  22122786.960   116256053.55209  22122782.580    90589128.54546
  23526144.540   123630727.24108  23526141.680    96335623.77145
  23344455.280   122675946.00605  23344452.620    95591637.85443
  24479714.260   128641811.25907  24479710.440   100240374.82044
  20494599.240   107699879.38209  20494593.660    83921957.49149
  21563692.360   113317998.73309  21563686.200    88299733.38248
  20610142.680   108307077.73609  20610141.140    84395141.97249
  21423837.320   112583041.12209  21423834.540    87727040.20747
 15 03 03 03 12  0.0000000  0 10G01G04G11G14G16G18G19G22G27G32
  23135910.620   121580058.40008  23135911.780    94737717.38147
  21044015.820   110587112.49309  21044014.000    86171792.01447
  22108940.240   116183288.14609  22108935.860    90532428.27146
  23514992.140   123572120.72408  23514989.160    96289956.38145
  23364333.000   122780404.13805  23364329.480    95673033.80543
  24497003.740   128732669.72407  24497000.480   100311173.64845
  20491419.320   107683168.65309  20491413.620    83908936.14049
  21575211.640   113378532.86809  21575205.480    88346902.83848
  20616399.060   108339955.54809  20616397.560    84420761.03449
  21407707.740   112498279.53709  21407704.860    87660992.21847
 15 03 03 03 12 30.0000000  0 10G01G04G11G14G16G18G19G22G27G32
  23122814.500   121511239.19108  23122816.000    94684092.07546
  21035809.120   110543986.16709  21035807.300    86138187.09548
  22095124.280   116110684.12109  22095119.880    90475853.72547
  23503897.500   123513817.93108  23503894.440    96244525.66545
  23384237.100   122885000.76005  23384233.320    95754537.59143
  24514312.020   128823627.77007  24514309.400   100382050.02544
  20488311.220   107666834.99909  20488305.340    83896208.61849
  21586799.660   113439427.74909  21586793.400    88394353.39048
  20622735.460   108373253.84609  20622734.020    84446707.75249
  21391658.480   112413940.31909  21391655.660    87595273.36347
 15 03 03 03 13  0.0000000  0 10G01G04G11G14G16G18G19G22G27G32
  23109745.180   121442561.18508  23109746.880    94630576.77847
  21027650.240   110501110.52209  21027648.240    86104777.51248
  22081339.040   116038241.57809  22081334.720    90419405.01947
  23492861.020   123455820.92908  23492857.880    96199333.22645
  23404166.940   122989732.41905  23404163.040    95836146.64142
  24531638.880   128914683.01707  24531636.640   100453002.21544
  20485275.100   107650879.38709  20485269.080    83883775.68749
  21598455.800   113500680.78109  21598449.520    88442083.02448
  20629151.740   108406972.31409  20629150.380    84472981.87249
  21375689.840   112330025.07709  21375687.160    87529884.88447
 15 03 03 03 13 30.0000000  0 10G01G04G11G14G16G18G19G22G27G32
  23096701.600   121374017.58708  23096703.400    94577166.23846
  21019537.900   110458479.11209  21019535.540    86071558.24448
  22067583.300   115965954.61609  22067579.040    90363077.51447
  23481881.980   123398125.90608  23481878.700    96154376.10045
  23424120.640   123094579.19505                                
  24548982.680   129005826.38907  24548980.420   100524023.01645
  20482309.780   107635296.14409  20482303.680    83871632.90149
  21610178.340   113562283.14709  21610172.060    88490084.87048
  20635646.680   108441104.40209  20635645.420    84499578.29049
  21359800.960   112246529.23509  21359798.460    87464823.21547
 15 03 03 03 14  0.0000000  0 10G01G04G11G14G16G18G19G22G27G32
  23083685.260   121305615.80708  23083686.820    94523866.13546
  21011473.480   110416099.07209  21011470.820    86038534.84048
  22053858.680   115893831.40609  22053854.460    90306877.64147
  23470962.260   123340742.67108  23470959.060    96109661.91145
  23444099.040   123199566.99404  23444095.820    95999650.54043
  24566344.660   129097063.85007  24566342.220   100595117.16244
  20479416.960   107620093.97309  20479410.800    83859787.05549
  21621968.300   113624240.21509  21621962.120    88538363.11348
  20642221.900   108475657.65309  20642220.620    84526502.89549
  21343993.780   112163462.32409  21343991.420    87400095.77747
 15 03 03 03 14 30.0000000  0  9G01G04G11G14G18G19G22G27G32
  23070696.220   121237357.45208  23070697.660    94470677.83946
  21003457.200   110373972.16709  21003454.200    86005708.68448
  22040165.660   115821874.46809  22040161.520    90250807.30247
  23460102.720   123283675.80208  23460099.740    96065194.25246
  24583724.660   129188395.01107  24583721.760   100666284.26544
  20476597.140   107605275.86609  20476591.060    83848240.47249
  21633825.700   113686551.46709  21633819.600    88586917.33148
  20648877.660   108510633.92909  20648876.400    84553757.12849
  21328268.960   112080828.01608  21328266.740    87335705.43648
 15 03 03 03 15  0.0000000  0  9G01G04G11G14G18G19G22G27G32
  23057732.900   121169233.05408  23057733.800    94417593.89746
  20995487.180   110332088.82209  20995484.020    85973072.32448
  22026502.620   115750074.94009  22026498.440    90194859.61147
  23449302.040   123226918.39808  23449299.060    96020967.73246
  24601120.420   129279808.56507  24601116.720   100737515.63544
  20473848.760   107590833.23409  20473842.820    83836986.47749
  21645748.140   113749205.13709  21645742.240    88635738.37548
  20655612.160   108546023.75509  20655610.820    84581333.62249
  21312625.020   111998618.87208  21312622.920    87271646.41148
 15 03 03 03 15 30.0000000  0  9G01G04G11G14G18G19G22G27G32
  23044796.680   121101251.15608  23044797.180    94364621.00847
  20987565.080   110290457.53309  20987562.000    85940632.36848
  22012871.220   115678442.34309  22012867.200    90139042.02847
  23438562.420   123170482.00508  23438559.660    95976991.35645
  24618533.220   129371310.99208  24618528.380   100808816.19944
  20471173.760   107576776.22709  20471167.880    83826032.96949
  21657737.040   113812207.96809  21657731.260    88684831.47748
  20662427.080   108581836.04709  20662425.760    84609239.29149
  21297064.020   111916845.60909  21297062.060    87207927.02548
 15 03 03 03 16  0.0000000  0  9G01G04G11G14G18G19G22G27G32
  23031886.600   121033406.86708  23031886.960    94311755.35246
  20979689.900   110249073.44509  20979686.920    85908385.04448
  21999270.840   115606972.43609  21999266.860    90083351.20447
  23427883.480   123114364.26608  23427880.720    95933263.26345
  24635961.660   129462895.69008  24635955.900   100880180.91744
  20468571.360   107563101.17109  20468565.500    83815377.08649
  21669791.100   113875552.81709  21669785.340    88734191.09148
  20669321.460   108618065.90909  20669320.180    84637470.34249
  21281585.520   111835505.30409  21281583.580    87144544.99948
 15 03 03 03 16 30.0000000  0  9G01G04G11G14G18G19G22G27G32
  23019003.360   120965704.20308  23019003.800    94259000.07547
  20971862.500   110207940.69809  20971859.680    85876333.57948
  21985702.400   115535670.27809  21985698.440    90027791.10147
  23417266.420   123058571.93608  23417263.700    95889788.75146
  24653406.080   129554564.98908  24653399.700   100951611.56044
  20466042.620   107549813.29109  20466036.760    83805022.90449
  21681910.700   113939241.69809  21681904.960    88783818.78248
  20676296.020   108654717.56609  20676294.800    84666030.06749
  21266190.600   111754604.08009  21266188.620    87081505.11548
 15 03 03 03 17  0.0000000  0  9G01G04G11G14G18G19G22G27G32
  23006146.740   120898141.94708  23006147.200    94206354.17547
  20964082.740   110167058.09909  20964080.020    85844477.01448
  21972165.820   115464535.37509  21972161.800    89972361.31947
  23406711.540   123003106.25008  23406708.980    95846568.77946
  24670865.740   129646315.47807  24670859.340   101023105.45744
  20463587.640   107536912.58109  20463581.840    83794970.41349
  21694095.200   114003271.31709  21694089.480    88833711.98848
  20683350.580   108691789.85709  20683349.480    84694917.55549
  21250879.340   111674142.72109  21250877.280    87018807.97548
 15 03 03 03 17 30.0000000  0  9G01G04G11G14G18G19G22G27G32
  22993316.860   120830720.46408  22993317.140    94153817.97946
  20956350.700   110126425.89909  20956347.940    85812815.55848
  21958661.260   115393568.92509  21958657.220    89917062.79847
  23396219.520   122947970.25508  23396216.920    95803605.68246
  24688340.200   129738145.60107  24688334.380   101094661.36944
  20461206.520   107524400.39409  20461200.960    83785220.64949
  21706344.200   114067639.83209  21706338.460    88883869.26848
  20690485.240   108729283.12709  20690484.220    84724133.06749
  21235652.180   111594123.51309  21235650.000    86956455.36248
 15 03 03 03 18  0.0000000  0  9G01G04G11G14G18G19G22G27G32
  22980513.340   120763437.82808  22980513.700    94101389.99046
  20948666.020   110086042.44409  20948663.120    85781347.93348
  21945188.500   115322769.74708  21945184.660    89861894.61447
  23385790.440   122893164.78108  23385787.780    95760900.14646
  24705828.980   129830051.96206  24705823.980   101166276.73444
  20458899.240   107512276.43109  20458893.920    83775773.39349
  21718656.860   114132343.13609  21718651.140    88934287.42448
  20697699.740   108767195.87709  20697698.680    84753675.46449
  21220509.240   111514546.78209  21220506.940    86894447.53748
 15 03 03 03 18 30.0000000  0  9G01G04G11G14G18G19G22G27G32
  22967737.240   120696298.88808  22967737.800    94049073.96147
  20941029.620   110045912.39209  20941026.560    85750077.75848
  21931748.720   115252143.74709  21931744.960    89806861.38247
  23375425.720   122838697.30308  23375422.920    95718457.96046
  24723332.520   129922037.35906  24723328.620   101237953.67045
  20456667.000   107500546.69509  20456661.900    83766633.33349
  21731033.760   114197384.11709  21731028.080    88984968.70148
  20704995.020   108805532.81409  20704993.980    84783548.39149
  21205451.760   111435419.27909  21205449.340    86832789.75448
 15 03 03 03 19  0.0000000  0  9G01G04G11G14G18G19G22G27G32
  22954987.660   120629300.16508  22954988.460    93996867.20647
  20933440.760   110006032.10909  20933437.640    85719002.22748
  21918341.460   115181688.42208  21918337.760    89751961.14547
  23365125.260   122784567.10308  23365122.360    95676278.60246
  24740850.040   130014096.48706  24740847.080   101309688.04543
  20454509.440   107489208.94809  20454504.380    83757798.72949
  21743473.880   114262757.24409  21743468.220    89035908.79848
  20712370.460   108844290.54509  20712369.340    84813749.21749
  21190479.420   111356739.36209  21190476.940    86771480.74148
 15 03 03 03 19 30.0000000  0  9G01G04G11G14G18G19G22G27G32
  22942264.720   120562441.37908  22942265.740    93944769.47247
  20925899.380   109966401.65109  20925896.260    85688121.35548
  21904966.760   115111404.20908  21904963.140    89697194.23247
  23354889.340   122730776.35208  23354886.480    95634363.75846
  24758381.260   130106227.66306  24758379.440   101381478.63445
  20452426.620   107478263.80509  20452421.580    83749270.04449
  21755976.860   114328459.93809  21755971.120    89087105.69448
  20719825.920   108883468.85309  20719824.660    84844277.76849
  21175592.540   111278508.86309  21175590.080    86710521.90748
 15 03 03 03 20  0.0000000  0  9G01G04G11G14G18G19G22G27G32
  22929568.420   120495722.16908  22929569.200    93892780.50647
  20918405.320   109927020.47509  20918402.340    85657434.73148
  21891624.760   115041291.46109  21891621.200    89642560.93147
  23344718.360   122677327.51308  23344715.520    95592715.34646
  24775925.980   130198428.62207  24775924.820   101453323.47744
  20450418.740   107467712.35609  20450413.680    83741048.13349
  21768542.120   114394490.08709  21768536.220    89138557.76248
  20727361.300   108923067.39509  20727360.040    84875133.76449
  21160791.500   111200729.25609  21160789.140    86649914.42748
 15 03 03 03 20 30.0000000  0  9G01G04G11G14G18G19G22G27G32
  22916897.960   120429138.59908  22916898.720    93840897.24846
  20910957.920   109887884.91809  20910955.100    85626939.50948
  21878314.980   114971347.17809  21878311.240    89588058.91147
  23334612.100   122624219.17108  23334609.300    95551332.24946
  24793483.260   130290693.35807  24793482.280   101525218.11444
  20448485.200   107457551.82709  20448480.120    83733130.83549
  21781168.260   114460841.11009  21781162.260    89190259.86548
  20734975.900   108963082.22709  20734974.740    84906314.14549
  21146075.840   111123398.55809  21146073.660    86589656.75347
 15 03 03 03 21  0.0000000  0  9G01G04G11G14G18G19G22G27G32
  22904254.000   120362694.06508  22904254.620    93789122.31347
  20903557.900   109848998.27809  20903555.200    85596638.24848
  21865038.140   114901575.62509  21865034.080    89533691.48247
  23324571.740   122571457.34008  23324569.040    95510219.16546
  24811053.440   130383023.49007  24811052.220   101597163.70044
  20446626.960   107447786.39909  20446621.720    83725521.41249
  21793855.620   114527514.48109  21793849.660    89242213.13648
  20742670.400   109003516.81909  20742669.160    84937821.60749
  21131446.600   111046522.11609  21131444.620    86529753.05947
 15 03 03 03 21 30.0000000  0  9G01G04G11G14G18G19G22G27G32
  22891636.920   120296390.61508  22891637.200    93737457.29347
  20896205.620   109810362.35109  20896203.060    85566532.33948
  21851794.760   114831979.74809  21851790.300    89479460.94547
  23314598.280   122519046.67008  23314595.660    95469379.72045
  24828636.360   130475419.17108  24828633.960   101669160.37144
  20444844.620   107438419.70109  20444839.160    83718222.69849
  21806604.280   114594510.07909  21806598.460    89294417.49148
  20750445.120   109044373.13309  20750443.900    84969657.68149
  21116904.620   110970103.80609  21116902.700    86470206.34147
 15 03 03 03 22  0.0000000  0  9G01G04G11G14G18G19G22G27G32
  22879045.680   120230223.29708  22879046.020    93685898.37547
  20888900.200   109771972.51909  20888897.700    85536618.19548
  21838583.900   114762555.54309  21838579.140    89425364.18047
  23304691.260   122466984.71308  23304688.360    95428811.98245
  24846230.500   130567873.84307  24846227.260   101741203.04244
  20443137.360   107429447.93609  20443131.960    83711231.70849
  21819412.960   114661821.05309  21819407.340    89346867.59048
  20758299.180   109085646.25509  20758297.940    85001818.55049
  21102449.260   110894140.51808  21102447.260    86411014.18647
 15 03 03 03 22 30.0000000  0  9G01G04G11G14G18G19G22G27G32
  22866481.900   120164200.42908  22866482.380    93634452.01347
  20881643.180   109733837.12109  20881640.760    85506902.30448
  21825407.320   114693312.15609  21825402.440    89371408.31647
  23294852.640   122415282.39708  23294849.440    95388524.47245
  24863837.000   130660393.71607  24863833.040   101813296.44444
  20441507.000   107420880.45209  20441501.740    83704555.73449
  21832282.760   114729453.30209  21832277.320    89399568.04048
  20766234.120   109127344.43909  20766232.820    85034310.62449
  21088082.480   110818642.54009  21088080.500    86352184.62347
 15 03 03 03 23  0.0000000  0  9G01G04G11G14G18G19G22G27G32
  22853944.600   120098316.70908  22853945.320    93583114.08047
  20874433.460   109695950.63809  20874431.180    85477380.37648
  21812264.200   114624245.05109  21812259.360    89317589.80847
  23285081.900   122363937.01908  23285078.660    95348515.11546
  24881454.480   130752972.34607  24881450.220   101885435.60944
  20439952.960   107412713.46009  20439947.660    83698191.85049
  21845212.240   114797399.47309  21845206.940    89452513.10648
  20774248.920   109169462.35509  20774247.420    85067129.78249
  21073803.660   110743606.44109  21073801.660    86293714.95448
 15 03 03 03 23 30.0000000  0  9G01G04G11G14G18G19G22G27G32
  22841432.920   120032567.82608  22841433.760    93531881.20347
  20867270.380   109658308.86409  20867268.180    85448049.14148
  21799153.960   114555350.89509  21799149.180    89263906.05247
  23275378.760   122312946.57708  23275375.560    95308782.31846
  24899082.040   130845603.43707  24899076.960   101957615.77844
  20438474.460   107404943.24909  20438468.980    83692137.15549
  21858200.320   114865653.21209  21858195.260    89505697.83948
  20782342.680   109211995.57709  20782341.140    85100272.54649
  21059612.200   110669029.57609  21059610.080    86235603.14048
 15 03 03 03 24  0.0000000  0  8G01G04G11G14G19G22G27G32
  22828949.480   119966966.92708  22828950.460    93480763.63147
  20860156.460   109620925.08509  20860154.240    85418918.94548
  21786079.340   114486643.72909  21786074.700    89210368.01947
  23265746.140   122262326.97808  23265743.160    95269338.49446
  20437074.120   107397584.29909  20437068.500    83686402.90249
  21871249.220   114934225.43109  21871244.220    89559130.72148
  20790517.940   109254957.19509  20790516.480    85133749.12549
  21045511.020   110594927.00209  21045508.740    86177860.87648
 15 03 03 03 24 30.0000000  0  8G01G04G11G14G19G22G27G32
  22816491.780   119901501.16608  22816492.800    93429751.36547
  20853089.280   109583786.44609  20853087.000    85389979.75648
  21773038.040   114418111.67909  21773033.580    89156966.44047
  23256182.120   122212068.00008  23256179.320    95230175.68346
  20435749.820   107390624.93509  20435744.160    83680980.02549
  21884356.080   115003101.24209  21884350.920    89612800.17248
  20798772.320   109298334.32509  20798770.920    85167549.48349
  21031498.000   110521287.67709  21031495.700    86120479.59948
 15 03 03 03 25  0.0000000  0  8G01G04G11G14G19G22G27G32
  22804061.120   119836177.87008  22804062.040    93378850.12847
  20846070.220   109546900.17209  20846067.820    85361237.21948
  21760031.660   114349762.89509  21760027.340    89103707.66247
  23246688.600   122162179.37608  23246685.680    95191301.44346
  20434503.100   107384073.23509  20434497.560    83675874.79649
  21897521.620   115072285.58409  21897516.320    89666710.03648
  20807107.140   109342134.08709  20807105.860    85201679.15549
  21017574.860   110448120.75709  21017572.440    86063466.42848
 15 03 03 03 25 30.0000000  0  8G01G04G11G14G19G22G27G32
  22791656.840   119770993.68508  22791657.700    93328057.28347
  20839098.560   109510262.97709  20839095.960    85332688.74948
  21747059.640   114281594.77809  21747055.480    89050589.66447
  23237265.400   122112660.13608  23237262.520    95152715.03446
  20433333.580   107377927.15909  20433328.040    83671085.64049
  21910744.800   115141772.99909  21910739.400    89720856.07048
  20815521.720   109386353.09309  20815520.460    85236135.50049
  21003741.220   110375424.58009  21003738.840    86006820.06948
 15 03 03 03 26  0.0000000  0  8G01G04G11G14G19G22G27G32
  22779279.600   119705951.67508  22779280.560    93277375.23847
  20832174.900   109473878.11509  20832172.040    85304336.91948
  21734122.740   114213611.67109  21734118.760    88997615.83247
  23227913.600   122063515.90408  23227910.740    95114420.84446
  20432242.120   107372191.08809  20432236.560    83666615.97649
  21924025.840   115211564.66009  21924020.360    89775239.18948
  20824016.660   109430994.26909  20824015.300    85270920.82749
  20989998.100   110303203.98409  20989995.800    85950544.30248
 15 03 03 03 26 30.0000000  0  8G01G04G11G14G19G22G27G32
  22766927.760   119641042.71408  22766928.740    93226796.85847
  20825297.480   109437736.26709  20825294.280    85276174.43448
  21721219.560   114145805.45209  21721215.680    88944779.82947
  23218631.920   122014740.02608  23218628.980    95076413.68646
  20431227.140   107366857.07409  20431221.580    83662459.59649
  21937362.780   115281649.60709  21937357.080    89829850.83648
  20832590.160   109476048.30009  20832588.860    85306027.85849
  20976344.100   110231451.58009  20976341.780    85894633.35048
 15 03 03 03 27  0.0000000  0  8G01G04G11G14G19G22G27G32
  22754603.560   119576278.47208  22754604.320    93176331.20247
  20818468.480   109401849.02309  20818464.980    85248210.35148
  21708352.460   114078188.37209  21708348.620    88892091.20347
  23209423.000   121966346.68808  23209420.020    95038704.60246
  20430291.020   107361937.51209  20430285.420    83658626.16349
  21950757.200   115352036.70009  21950751.200    89884697.92648
  20841244.380   109521526.64609  20841243.140    85341465.51149
  20962781.660   110160180.63209  20962779.340    85839097.56548
 15 03 03 03 27 30.0000000  0  8G01G04G11G14G19G22G27G32
  22742305.460   119511650.95808  22742306.180    93125972.14547
  20811686.400   109366208.68909  20811682.780    85220438.66948
  21695520.100   114010753.53409  21695516.260    88839544.57847
  23200285.760   121918330.35708  23200282.740    95001289.29246
  20429432.520   107357425.74709  20429426.860    83655110.50949
  21964207.160   115422716.09709  21964200.900    89939772.77448
  20849977.820   109567421.25409  20849976.640    85377227.52949
  20949309.660   110089384.96209  20949307.400    85783932.13348
 15 03 03 03 28  0.0000000  0  8G01G04G11G14G19G22G27G32
  22730033.880   119447162.57608  22730034.560    93075721.45447
  20804951.680   109330817.56509  20804948.160    85192861.17248
  21682723.040   113943504.10209  21682719.100    88787142.44247
  23191221.140   121870695.73808  23191218.120    94964171.42346
  20428652.120   107353325.01109  20428646.500    83651915.12949
  21977712.680   115493687.88909  21977706.260    89995075.46148
  20858790.980   109613734.18409  20858789.700    85413315.51449
  20935928.900   110019068.63809  20935926.620    85729140.19648
 15 03 03 03 28 30.0000000  0  8G01G04G11G14G19G22G27G32
  22717789.180   119382816.20408  22717789.860    93025581.45347
  20798264.920   109295678.59309  20798261.580    85165480.16348
  21669962.000   113876443.78709  21669957.800    88734887.67247
  23182230.180   121823448.23208  23182227.240    94927355.19346
  20427950.680   107349639.19009  20427945.080    83649043.05449
  21991273.960   115564952.91309  21991267.380    90050606.63648
  20867684.240   109660468.22909  20867682.980    85449731.63249
  20922640.020   109949236.15108  20922637.920    85674725.30648
 15 03 03 03 29  0.0000000  0  8G01G04G11G14G19G22G27G32
  22705570.720   119318607.99708  22705571.500    92975549.09847
  20791625.340   109260787.89609  20791622.240    85138292.61948
  21657236.440   113809570.02209  21657232.100    88682778.25847
  23173312.600   121776586.23208  23173309.660    94890839.38646
  20427327.640   107346365.40809  20427322.040    83646492.06149
  22004889.880   115636505.15509  22004883.280    90106361.62848
  20876656.800   109707619.27909  20876655.460    85486472.70249
  20909442.860   109879885.32908  20909440.860    85620685.72147
 15 03 03 03 29 30.0000000  0  8G01G04G11G14G19G22G27G32
  22693379.140   119254541.23508  22693380.080    92925626.97647
  20785033.660   109226148.81409  20785030.680    85111301.13748
  21644547.080   113742886.92209  21644542.600    88630817.40347
  23164469.460   121730115.53308  23164466.520    94854628.47046
  20426783.920   107343508.35009  20426778.320    83644265.78749
  22018560.620   115708345.74609  22018554.140    90162341.30748
  20885709.260   109755190.36609  20885707.960    85523541.07249
  20896338.220   109811021.00608  20896336.440    85567025.25047
 15 03 03 03 30  0.0000000  0  8G01G04G11G14G19G22G27G32
  22681214.000   119190613.45508  22681215.100    92875813.12047
  20778489.360   109191758.75109  20778486.460    85084503.69548
  21631893.600   113676392.91909  21631889.280    88579003.90747
  23155700.880   121684036.25808  23155697.960    94818722.54646
  20426319.180   107341066.16709  20426313.620    83642362.78749
  22032285.300   115780469.89409  22032278.920    90218541.94048
  20894841.140   109803178.76709  20894839.840    85560934.61449
  20883326.040   109742642.33209  20883324.320    85513743.17547
 15 03 03 03 30 30.0000000  0  8G01G04G11G14G19G22G27G32
  22669075.520   119126825.89308  22669076.700    92826108.54847
  20771992.700   109157619.21609  20771989.920    85057901.46448
  21619276.500   113610090.07309  21619272.480    88527339.36247
  23147007.440   121638351.87308  23147004.580    94783124.35646
  20425933.840   107339041.17609  20425928.300    83640784.87849
  22046063.820   115852877.02309  22046057.640    90274963.07948
  20904052.620   109851585.46809  20904051.260    85598654.11449
  20870406.980   109674752.25809  20870405.100    85460841.82547
 15 03 03 03 31  0.0000000  0  8G01G04G11G14G19G22G27G32
  22656962.660   119063172.65208  22656963.900    92776508.64547
  20765542.560   109123724.14209  20765539.940    85031489.72748
  21606694.900   113543973.56609  21606691.020    88475820.01047
  23138388.540   121593058.79608  23138385.720    94747831.06546
  20425626.900   107337428.44509  20425621.400    83639528.19849
  22059894.660   115925558.90609  22059888.740    90331598.30948
  20913342.480   109900404.25909  20913341.220    85636694.72449
  20857580.120   109607346.28109  20857578.040    85408317.69148
 15 03 03 03 31 30.0000000  0  8G01G04G11G14G19G22G27G32
  22644877.360   118999664.20308  22644878.500    92727021.56947
  20759141.020   109090084.08809  20759138.520    85005276.70048
  21594151.000   113478054.86109  21594147.040    88424454.78947
  23129846.400   121548169.60208  23129843.660    94712852.51246
  20425400.640   107336239.54309  20425395.140    83638601.77949
  22073779.440   115998523.71509  22073773.700    90388453.99248
  20922712.700   109949645.34209  20922711.580    85675064.38249
  20844847.680   109540436.52409  20844845.620    85356180.23048
 15 03 03 03 32  0.0000000  0  8G01G04G11G14G19G22G27G32
  22632818.500   118936294.73208  22632819.400    92677642.76847
  20752787.000   109056693.25409  20752784.480    84979257.87648
  21581643.800   113412329.26509  21581639.820    88373240.05847
  23121380.500   121503681.09208  23121377.820    94678186.15346
  20425254.160   107335469.65409  20425248.640    83638001.85949
  22087716.720   116071763.63309  22087710.900    90445524.05248
  20932162.020   109999302.56109  20932161.080    85713758.30149
  20832208.880   109474018.61409  20832206.800    85304426.02048
 15 03 03 03 32 30.0000000  0  8G01G04G11G14G19G22G27G32
  22620786.120   118873064.75508  22620786.980    92628372.69947
  20746480.580   109023552.34909  20746477.860    84953433.80848
  21569173.500   113346797.93209  21569169.520    88322176.69647
  23112991.380   121459596.10308  23112988.680    94643834.24846
  20425187.840   107335120.49109  20425182.340    83637729.78949
  22101706.060   116145276.88409  22101700.060    90502807.10048
  20941690.660   110049376.13809  20941689.840    85752776.65649
  20819664.120   109408094.58309  20819661.860    85253056.64648
 15 03 03 03 33  0.0000000  0  8G01G04G11G14G19G22G27G32
  22608780.360   118809974.55408  22608781.200    92579211.52247
  20740221.720   108990661.47909  20740218.820    84927804.56148
  21556740.320   113281462.00809  21556736.480    88271265.59447
  23104679.480   121415916.96808  23104676.640    94609798.57146
  20425201.720   107335192.89209  20425196.220    83637786.19349
  22115747.000   116219061.60209  22115740.880    90560301.68448
  20951298.620   110099865.95409  20951297.740    85792119.36449
  20807213.600   109342666.26709  20807211.300    85202073.56148
 15 03 03 03 33 30.0000000  0  8G01G04G11G14G19G22G27G32
  22596801.000   118747022.67908  22596801.720    92530158.11547
  20734010.120   108958019.29209  20734007.180    84902369.09548
  21544344.260   113216321.20309  21544340.620    88220506.53047
  23096445.020   121372644.63108  23096442.000    94576079.88746
  20425295.660   107335686.29309  20425290.100    83638170.65749
  22129838.640   116293113.98809  22129832.580    90618004.84648
  20960985.420   110150770.20809  20960984.580    85831784.99649
  20794857.320   109277733.58309  20794855.000    85151476.68448
 15 03 03 03 34  0.0000000  0  8G01G04G11G14G19G22G27G32
  22584848.480   118684211.32708  22584849.100    92481214.23147
  20727846.220   108925627.76909  20727843.300    84877128.95948
  21531985.980   113151378.57909  21531982.440    88169901.89947
  23088288.760   121329783.45508  23088285.700    94542681.56646
  20425470.340   107336603.89609  20425464.660    83638885.67049
  22143981.220   116367434.53609  22143975.280    90675916.96748
  20970751.520   110202090.72409  20970750.500    85871775.01149
  20782595.960   109213300.16909  20782593.760    85101268.86048
 15 03 03 03 34 30.0000000  0  8G01G04G11G14G19G22G27G32
  22572922.060   118621536.71208  22572922.460    92432376.87147
  20721729.360   108893483.45509  20721726.460    84852081.44448
  21519665.020   113086631.65709  21519661.440    88119449.76347
  23080210.460   121287331.92308  23080207.340    94509602.45646
  20425725.180   107337942.90209  20425719.400    83639929.05649
  22158173.700   116442016.92109  22158167.780    90734033.11148
  20980596.000   110253823.33209  20980594.920    85912086.11749
  20770429.160   109149363.63709  20770427.060    85051448.21648
 15 03 03 03 35  0.0000000  0  8G01G04G11G14G19G22G27G32
  22561022.140   118559001.14108  22561022.320    92383647.88147
  20715659.900   108861588.70109  20715657.120    84827228.39148
  21507381.940   113022083.54409  21507378.260    88069152.55147
  23072211.100   121245294.61608  23072207.880    94476846.12346
  20426060.760   107339706.29509  20426055.000    83641303.11849
  22172416.220   116516861.66409  22172410.140    90792353.68048
  20990519.200   110305969.94009  20990518.160    85952719.81549
  20758357.660   109085927.76509  20758355.600    85002017.69048
 15 03 03 03 35 30.0000000  0  8G01G04G11G14G19G22G27G32
  22549148.700   118496604.61908  22549148.640    92335027.22247
  20709637.780   108829943.31309  20709635.140    84802569.66648
  21495136.860   112957735.08109  21495133.100    88019010.90547
  23064290.960   121203673.86308  23064287.800    94444414.39046
  20426477.220   107341894.98309  20426471.520    83643008.58749
  22186708.160   116591966.30309  22186701.900    90850876.77948
  21000521.160   110358530.09309  21000520.020    85993675.77449
  20746381.820   109022993.99109  20746379.700    84952978.39748
 15 03 03 03 36  0.0000000  0  8G01G04G11G14G19G22G27G32
  22537301.960   118434348.98308  22537301.740    92286516.35847
  20703663.500   108798549.16909  20703660.860    84778106.69248
  21482930.360   112893589.31709  21482926.520    87969027.20347
  23056450.840   121162473.67008  23056447.740    94412310.36646
  20426975.220   107344512.11209  20426969.460    83645047.91249
  22201049.460   116667330.58409  22201043.060    90909602.18548
  21010602.100   110411505.22809  21010600.860    86034955.08849
  20734502.180   108960565.46509  20734500.020    84904332.82848
 15 03 03 03 36 30.0000000  0  8G01G04G11G14G19G22G27G32
  22525482.020   118372234.78708  22525481.840    92238115.71447
  20697737.280   108767406.77309  20697734.660    84753839.90848
  21470762.680   112829647.50109  21470758.760    87919202.42247
  23048691.180   121121696.68408  23048688.260    94380536.13046
  20427554.920   107347558.58709  20427549.060    83647421.79749
  22215439.780   116742952.91009  22215433.460    90968528.67247
  21020762.020   110464895.40309  21020760.640    86076557.81849
  20722719.020   108898644.01009  20722716.600    84856082.35048
 15 03 03 03 37  0.0000000  0  8G01G04G11G14G19G22G27G32
  22513688.380   118310259.06108  22513688.340    92189822.95547
  20691858.540   108736513.37009  20691855.960    84729767.13748
  21458633.460   112765907.72009  21458629.440    87869535.05847
  23041011.940   121081341.93408  23041008.940    94349090.89846
  20428215.960   107351032.63609  20428210.120    83650128.85249
  22229878.160   116818827.98109  22229871.980    91027652.08247
  21031000.200   110518697.19709  21030998.700    86118481.29249
  20711032.020   108837228.06409  20711029.440    84808225.77448
 15 03 03 03 37 30.0000000  0  8G01G04G11G14G19G22G27G32
  22501921.300   118248423.13508  22501921.420    92141639.15647
  20686027.440   108705870.42509  20686024.900    84705889.52848
  21446543.180   112702372.46509  21446539.080    87820027.07747
  23033413.820   121041413.28909  23033410.680    94317977.69646
  20428958.660   107354936.38409  20428952.960    83653170.73249
  22244364.600   116894955.09409  22244358.620    91086971.91548
  21041316.800   110572911.47709  21041315.360    86160726.17349
  20699441.740   108776320.26609  20699439.100    84760765.16348
 15 03 03 03 38  0.0000000  0  8G01G04G11G14G19G22G27G32
  22490180.460   118186725.24608  22490180.680    92093562.90947
  20680243.600   108675476.01209  20680241.060    84682205.57248
  21434491.680   112639040.94309  21434487.440    87770677.84747
  23025896.840   121001910.81208  23025893.600    94287196.55746
  20429783.000   107359268.62709  20429777.400    83656546.50849
  22258898.360   116971330.37909  22258892.560    91146485.12248
  21051711.380   110627535.92909  21051710.120    86203290.66049
  20687947.940   108715920.00309  20687945.240    84713700.02148
 15 03 03 03 38 30.0000000  0  8G01G04G11G14G19G22G27G32
  22478466.700   118125169.71808  22478466.960    92045597.56047
  20674507.900   108645334.38509  20674505.300    84658718.59848
  21422479.860   112575918.25309  21422475.500    87721491.35447
  23018462.100   120962840.78208  23018458.660    94256752.37846
  20430689.960   107364034.66309  20430684.440    83660260.29849
  22273479.780   117047955.82809  22273474.040    91206193.26148
  21062184.700   110682574.38209  21062183.600    86246177.74849
  20676551.800   108656032.97009  20676549.160    84667034.79848
 15 03 03 03 39  0.0000000  0  8G01G04G11G14G19G22G27G32
  22466779.340   118063752.56008  22466779.580    91997740.05747
  20668819.580   108615441.62809  20668816.860    84635425.55348
  21410507.220   112513001.50009  21410502.680    87672465.32147
  23011109.340   120924201.80908  23011105.920    94226644.09646
  20431678.920   107369231.13909  20431673.360    83664309.50249
  22288107.600   117124825.51709  22288101.920    91266091.72348
  21072736.020   110738022.35009  21072734.940    86289383.95949
  20665252.720   108596656.46809  20665250.040    84620767.41148
 15 03 03 03 39 30.0000000  0  8G01G04G11G14G19G22G27G32
  22455118.880   118002476.37408  22455118.960    91949992.39447
  20663179.160   108585800.44809  20663176.360    84612328.54248
  21398574.520   112450294.63609  21398569.860    87623602.83647
  23003839.280   120885998.10308  23003835.940    94196874.99346
  20432750.380   107374861.60509  20432744.800    83668696.87249
  22302781.920   117201939.62109  22302776.280    91326180.62848
  21083365.660   110793881.80409  21083364.580    86332910.80649
  20654051.560   108537794.18009  20654048.840    84574900.68648
 15 03 03 03 40  0.0000000  0  8G01G04G11G14G19G22G27G32
  22443485.100   117941340.09308  22443485.000    91902353.75647
  20657586.460   108556409.79109  20657583.580    84589426.73548
  21386681.680   112387797.22409  21386677.060    87574903.56047
  22996652.260   120848230.91508  22996649.000    94167446.02546
  20433904.360   107380925.87909  20433898.800    83673422.27849
  22317502.180   117279294.90109  22317496.440    91386457.46948
  21094073.260   110850151.15509  21094072.300    86376757.04549
  20642948.240   108479446.21809  20642945.660    84529434.77548
 15 03 03 03 40 30.0000000  0  8G01G04G11G14G19G22G27G32
  22431877.340   117880340.15909  22431877.000    91854821.34447
  20652040.800   108527266.17909  20652037.860    84566717.42348
  21374828.060   112325506.55909  21374823.560    87526365.39347
  22989548.060   120810898.75408  22989544.820    94138356.02646
  20435140.340   107387420.97109  20435134.820    83678483.38549
  22332267.300   117356885.81509  22332261.380    91446917.91548
  21104858.100   110906826.20509  21104857.260    86420919.41049
  20631942.380   108421610.32309  20631939.900    84484367.85548
 15 03 03 03 41  0.0000000  0  8G01G04G11G14G19G22G27G32
  22420296.340   117819481.05908  22420295.940    91807398.68447
  20646542.980   108498373.94209  20646539.900    84544203.99748
  21363014.860   112263428.48109  21363010.520    87477992.87147
  22982527.820   120774007.70908  22982524.740    94109609.76746
  20436459.300   107394352.01909  20436453.820    83683884.19749
  22347077.680   117434714.61709  22347071.600    91507563.72848
  21115720.920   110963910.92009  21115720.120    86465400.98848
  20621034.960   108364291.96909  20621032.620    84439704.24448
 15 03 03 03 41 30.0000000  0  9G01G04G11G14G19G22G27G28G32
  22408742.160   117758763.11808  22408741.880    91760086.02147
  20641093.000   108469733.47009  20641089.760    84521886.74948
  21351242.340   112201564.32709  21351238.220    87429787.04147
  22975592.080   120737560.34908  22975589.020    94081209.23746
  20437861.440   107401720.37509  20437856.000    83689625.77349
  22361932.960   117512779.45609  22361926.920    91568393.46748
  21126661.700   111021404.98109  21126660.880    86510201.54649
  25089096.420   131844095.71007  25089092.220   102735638.26744
  20610226.420   108307492.70809  20610224.020    84395445.09048
 15 03 03 03 42  0.0000000  0  9G01G04G11G14G19G22G27G28G32
  22397213.860   117698181.55608  22397213.800    91712879.62547
  20635689.920   108441339.97809  20635686.520    84499761.96248
  21339509.860   112139910.20709  21339505.900    87381744.88247
  22968740.140   120701553.91008  22968737.420    94053152.30846
  20439345.980   107409521.69609  20439340.540    83695704.72749
  22376831.800   117591073.43609  22376825.800    91629401.75748
  21137679.420   111079302.95909  21137678.580    86555316.84849
  25074757.780   131768742.67908  25074753.620   102676921.58544
  20599516.020   108251208.87709  20599513.560    84351587.58248
 15 03 03 03 42 30.0000000  0 10G01G03G04G11G14G19G22G27G28G32
  22385712.160   117637740.28508  22385712.320    91665782.56547
  23883930.700   125510909.21605  23883934.520    97800700.34241
  20630334.540   108413197.59709  20630331.100    84477832.83848
  21327818.400   112078471.07509  21327814.480    87333870.24047
  22961973.240   120665994.25908  22961970.780    94025443.52346
  20440913.760   107417760.65109  20440908.360    83702124.68149
  22391774.520   117669598.20209  22391768.600    91690589.89447
  21148774.680   111137608.10309  21148773.760    86600749.41849
  25060479.980   131693711.27807  25060475.120   102618455.57844
  20588904.660   108195445.38009  20588902.100    84308135.52348
 15 03 03 03 43  0.0000000  0 10G01G03G04G11G14G19G22G27G28G32
  22374238.740   117577447.65708  22374239.060    91618801.30148
  23864596.360   125409307.14606  23864599.480    97721530.01944
  20625028.320   108385314.40009  20625025.020    84456105.67748
  21316169.620   112017256.17109  21316165.700    87286170.32747
  22955293.480   120630891.79208  22955291.080    93998090.97747
  20442566.480   107426446.05009  20442561.140    83708892.52149
  22406762.360   117748359.90909  22406756.480    91751962.64648
  21159948.860   111196328.13809  21159947.900    86646505.27049
  25046265.040   131619011.81608  25046260.220   102560248.17644
  20578394.120   108140211.63609  20578391.420    84265096.25248
 15 03 03 03 43 30.0000000  0 10G01G03G04G11G14G19G22G27G28G32
  22362789.640   117517282.69308  22362790.200    91571919.52747
  23845293.980   125307872.22406  23845296.660    97642489.97044
  20619767.400   108357669.65009  20619764.360    84434564.32448
  21304559.660   111956245.57109  21304555.800    87238629.61847
  22948697.140   120596227.26008  22948694.640    93971079.65647
  20444300.400   107435557.87109  20444295.000    83715992.63549
  22421790.920   117827335.47209  22421784.960    91813502.04647
  21171197.780   111255441.37209  21171196.780    86692567.51649
  25032109.600   131544625.34106  25032105.120   102502284.71844
  20567980.500   108085487.72809  20567977.700    84222454.26048
 15 03 03 03 44  0.0000000  0 10G01G03G04G11G14G19G22G27G28G32
  22351368.320   117457263.57708  22351369.040    91525151.40248
  23826027.240   125206624.47006  23826029.520    97563595.73344
  20614555.360   108330281.51109  20614552.600    84413222.93048
  21292992.220   111895458.72109  21292988.520    87191263.25448
  22942188.000   120562020.76308  22942185.400    93944425.26146
  20446119.000   107445114.80809  20446113.640    83723439.59249
  22436863.300   117906541.06909  22436857.140    91875220.68947
  21182524.780   111314965.36109  21182523.780    86738949.83549
  25018017.740   131470572.41607  25018013.300   102444581.09144
  20557667.560   108031292.90709  20557664.660    84180224.53248
 15 03 03 03 44 30.0000000  0 10G01G03G04G11G14G19G22G27G28G32
  22339973.600   117397384.05609  22339974.340    91478492.05947
  23806795.220   125105559.10707  23806797.140    97484843.62844
  20609391.060   108303143.56209  20609388.500    84392076.47848
  21281466.380   111834890.17009  21281462.780    87144066.97447
  22935765.120   120528268.01408  22935762.340    93918124.43046
  20448021.260   107455111.46209  20448015.880    83731229.19549
  22451977.820   117985968.02209  22451971.400    91937111.80747
  21193928.620   111374893.03709  21193927.620    86785646.71349
  25003988.080   131396848.55707  25003984.680   102387133.99444
  20547454.200   107977621.84809  20547451.360    84138402.94348
 15 03 03 03 45  0.0000000  0 10G01G03G04G11G14G19G22G27G28G32
  22328604.940   117337641.25808  22328605.600    91431939.22947
  23787597.680   125004675.01207  23787599.320    97406232.74545
  20604273.960   108276252.98609  20604271.500    84371122.78448
  21269981.700   111774537.98809  21269978.200    87097039.30847
  22929428.340   120494968.11608  22929425.400    93892176.46946
  20450006.840   107465545.50509  20450001.360    83739359.60849
  22467133.520   118065611.40809  22467126.820    91999171.57447
  21205408.640   111435220.86509  21205407.640    86832655.40449
  24990021.400   131323453.20007  24990018.400   102329942.73544
  20537340.220   107924472.62209  20537337.260    84096987.95448
 15 03 03 03 45 30.0000000  0 10G01G03G04G11G14G19G22G27G28G32
  22317263.400   117278041.18108  22317263.920    91385497.62547
  23768436.020   124903979.83507  23768437.440    97327769.09445
  20599205.200   108249616.13609  20599202.780    84350366.80548
  21258539.580   111714409.31209  21258536.120    87050185.81347
  22923179.180   120462128.67108  22923176.080    93866587.32146
  20452076.900   107476423.54409  20452071.320    83747836.00249
  22482331.040   118145475.08309  22482324.300    92061403.01547
  21216965.760   111495954.13809  21216964.820    86879980.02048
  24976118.880   131250394.38907  24976115.940   102273013.75045
  20527326.860   107871852.24909  20527323.800    84055985.08648
 15 03 03 03 46  0.0000000  0 10G01G03G04G11G14G19G22G27G28G32
  22305948.720   117218582.42308  22305949.260    91339166.14447
  23749310.280   124803473.66708  23749311.560    97249452.68945
  20594184.400   108223231.38309  20594181.900    84329807.25248
  21247139.940   111654503.57409  21247136.400    87003506.02747
  22917017.640   120429750.00208  22917014.560    93841357.19646
  20454231.200   107487744.52809  20454225.540    83756657.54049
  22497569.640   118225555.15709  22497563.080    92123803.07147
  21228599.660   111557090.55509  21228598.680    86927618.77949
  24962280.420   131177672.69607  24962277.860   102216347.50445
  20517414.120   107819760.14109  20517411.020    84015393.82948
 15 03 03 03 46 30.0000000  0 10G01G03G04G11G14G19G22G27G28G32
  22294660.180   117159260.94508  22294660.780    91292941.63247
  23730220.060   124703154.20708  23730221.180    97171281.78546
  20589210.760   108197094.68909  20589208.240    84309441.00148
  21235782.260   111594818.03709  21235778.520    86956997.82047
  22910943.460   120397830.09408  22910940.560    93816484.56646
  20456469.180   107499505.21609  20456463.580    83765821.70649
  22512848.300   118305845.88309  22512842.020    92186367.27147
  21240309.360   111618625.39409  21240308.460    86975567.99649
  24948506.040   131105286.14108  24948503.580   102159942.42144
  20507601.220   107768193.17409  20507598.220    83975211.79648
 15 03 03 03 47  0.0000000  0 10G01G03G04G11G14G19G22G27G28G32
  22283398.080   117100078.89808  22283398.740    91246825.77447
  23711166.060   124603025.09408  23711167.040    97093259.21146
  20584284.740   108171208.19009  20584282.120    84289269.71548
  21224467.080   111535355.94409  21224463.060    86910663.73547
  22904957.400   120366372.87908  22904954.440    93791972.47246
  20458791.420   107511708.25109  20458785.880    83775330.56749
  22528167.140   118386347.26609  22528160.940    92249095.62247
  21252095.080   111680559.99409  21252094.260    87023828.71349
  24934796.480   131033239.01908  24934793.140   102103801.77744
  20497888.860   107717154.39409  20497886.020    83935441.34848
 15 03 03 03 47 30.0000000  0 10G01G03G04G11G14G19G22G27G28G32
  22272162.620   117041036.67508  22272163.340    91200818.86347
  23692148.680   124503088.35908  23692149.520    97015386.52846
  20579406.500   108145572.40609  20579403.660    84269293.79248
  21213194.580   111476118.60909  21213190.480    86864504.78547
  22899059.780   120335380.67908  22899056.840    93767822.73746
  20461197.980   107524354.49709  20461192.340    83785184.78249
  22543525.760   118467057.19909  22543519.480    92311986.47647
  21263956.820   111742893.92709  21263956.000    87072400.59449
  24921152.020   130961533.56308  24921148.000   102047927.39844
  20488277.220   107666645.08709  20488274.500    83896083.46548
 15 03 03 03 48  0.0000000  0 10G01G03G04G11G14G19G22G27G28G32
  22260953.960   116982135.56008  22260954.840    91154921.91947
  23673168.440   124403346.87108  23673169.220    96937665.98346
  20574576.160   108120188.49009  20574573.260    84249514.13448
  21201965.120   111417108.36109  21201961.200    86818522.77747
  22893251.060   120304856.00908  22893248.200    93744037.30546
  20463689.220   107537445.86209  20463683.540    83795385.84449
  22558923.940   118547974.88109  22558917.600    92375039.21047
  21275894.600   111805627.59209  21275893.800    87121283.95549
  24907573.060   130890173.22708  24907568.600   101992321.95044
  20478766.660   107616667.31109  20478764.040    83857139.76648
 15 03 03 03 48 30.0000000  0 10G01G03G04G11G14G19G22G27G28G32
  22249772.120   116923375.64508  22249773.200    91109134.98048
  23654225.600   124303802.26908  23654226.400    96860098.85847
  20569793.780   108095056.64309  20569790.840    84229930.87848
  21190779.020   111358326.16709  21190775.360    86772718.48047
  22887531.760   120274801.10808  22887528.840    93720617.91646
  20466265.240   107550982.97609  20466259.540    83805934.23649
  22574361.340   118629098.57409  22574355.020    92438252.47947
  21287908.360   111868760.34509  21287907.580    87170478.29849
  24894059.980   130819160.13208  24894055.020   101936987.07144
  20469357.460   107567221.95009  20469354.980    83818610.93348
 15 03 03 03 49  0.0000000  0 10G01G03G04G11G14G19G22G27G28G32
  22238616.940   116864755.22808  22238618.120    91063456.75047
  23635320.220   124204454.46508  23635321.080    96782685.07947
  20565059.040   108070175.10909  20565056.040    84210542.67648
  21179636.340   111299771.58509  21179632.820    86727091.54147
  22881901.920   120245215.89508  22881898.880    93697564.50046
  20468925.880   107564964.60209  20468920.080    83816829.01849
  22589837.040   118710423.97909  22589830.760    92501622.91447
  21299997.540   111932289.58609  21299996.800    87219981.58449
  24880612.600   130748494.21007  24880607.580   101881922.73844
  20460049.440   107518308.09309  20460046.920    83780496.24848
 15 03 03 03 49 30.0000000  0 10G01G03G04G11G14G19G22G27G28G32
  22227489.220   116806278.57008  22227490.340    91017890.52947
  23616453.400   124105309.22708  23616454.220    96705429.14447
  20560372.740   108045548.30309  20560369.740    84191352.95948
  21168538.120   111241449.83509  21168534.580    86681646.02647
  22876362.500   120216106.02808  22876359.460    93674881.49146
  20471671.940   107579395.35209  20471666.100    83828073.75849
  22605351.500   118791953.45809  22605345.100    92565152.37247
  21312162.780   111996218.73209  21312162.080    87269796.48548
  24867232.440   130678182.09007  24867227.540   101827134.05544
  20450843.600   107469930.82209  20450841.100    83742799.68848
 15 03 03 03 50  0.0000000  0 10G01G03G04G11G14G19G22G27G28G32
  22216388.060   116747941.06808  22216389.060    90972432.75448
  23597624.580   124006363.50108  23597625.360    96628328.67347
  20555733.960   108021171.63809  20555731.020    84172358.15748
  21157483.580   111183357.23109  21157479.980    86636379.07647
  22870912.980   120187468.74608  22870909.880    93652566.72846
  20474502.660   107594271.35909  20474496.980    83839665.44449
  22620903.520   118873680.13309  22620896.960    92628835.48147
  21324403.140   112060542.23409  21324402.500    87319918.67849
  24853919.080   130608221.25907  24853914.920   101772619.09544
  20441739.040   107422086.11809  20441736.520    83705518.11248
 15 03 03 03 50 30.0000000  0 10G01G03G04G11G14G19G22G27G28G32
  22205314.020   116689745.90409  22205314.880    90927085.89147
  23578834.580   123907621.98608  23578835.360    96551387.33547
  20551143.320   107997048.09009  20551140.440    84153560.59848
  21146473.380   111125497.72409  21146469.760    86591293.77147
  22865554.240   120159308.81308  22865551.180    93630623.93846
  20477418.880   107609596.17209  20477413.280    83851606.86349
  22636493.300   118955604.81409  22636486.620    92692672.88447
  21336719.040   112125262.33909  21336718.360    87370349.91848
  24840672.960   130538616.61407  24840670.220   101718381.76144
  20432736.540   107374778.00509  20432734.080    83668654.66048
 15 03 03 03 51  0.0000000  0 10G01G03G04G11G14G19G22G27G28G32
  22194266.560   116631690.54808  22194267.200    90881847.94948
  23560083.280   123809083.72908  23560084.060    96474604.35747
  20546600.400   107973175.26609  20546597.540    84134958.40548
  21135507.360   111067870.28509  21135503.640    86546389.27348
  22860286.140   120131625.38908  22860283.200    93609052.46146
  20480420.120   107625367.65309  20480414.580    83863896.32049
  22652120.060   119037723.33509  22652113.260    92756661.32847
  21349109.720   112190375.62909  21349108.920    87421087.53248
  24827495.040   130469367.60608  24827492.880   101664421.44244
  20423835.820   107328004.51409  20423833.320    83632207.78848
 15 03 03 03 51 30.0000000  0 10G01G03G04G11G14G19G22G27G28G32
  22183245.280   116573772.97308  22183245.660    90836717.40048
  23541370.580   123710748.21308  23541371.360    96397979.37847
  20542104.900   107949551.30909  20542102.000    84116550.14548
  21124585.240   111010473.93909  21124581.460    86501664.85248
  22855108.640   120104418.01008  22855105.680    93587851.92746
  20483505.980   107641584.10409  20483500.460    83876532.51449
  22667782.820   119120031.25009  22667776.060    92820797.35447
  21361574.660   112255879.15209  21361573.740    87472129.23048
  24814384.920   130400474.26207  24814382.980   101610738.30844
  20415036.540   107281764.32909  20415034.000    83596176.49248
 15 03 03 03 52  0.0000000  0 10G01G03G04G11G14G19G22G27G28G32
  22172250.860   116515997.14508  22172251.180    90791697.28447
  23522697.520   123612620.83008  23522698.220    96321516.57047
  20537657.400   107926179.65709  20537654.460    84098338.47948
  21113708.000   110953313.57809  21113704.260    86457124.31548
  22850022.940   120077692.36308  22850019.960    93567026.75646
  20486677.240   107658249.74009  20486671.760    83889518.70749
  22683481.880   119202530.38109  22683475.280    92885082.39947
  21374114.480   112321775.85409  21374113.440    87523477.30648
  24801343.780   130331942.23808  24801341.600   101557336.74044
  20406339.580   107236062.07109  20406337.200    83560564.35148
 15 03 03 03 52 30.0000000  0 10G01G03G04G11G14G19G22G27G28G32
  22161282.780   116458359.97908  22161283.100    90746785.22748
  23504063.800   123514700.11808  23504064.440    96245214.80947
  20533257.460   107903057.71609  20533254.480    84080321.38848
  21102875.300   110896387.15309  21102871.540    86412766.07048
  22845028.600   120051446.80608  22845025.700    93546575.69946
  20489933.500   107675362.08709  20489928.020    83902853.00449
  22699216.200   119285215.35009  22699209.880    92949512.23547
  21386728.300   112388061.72109  21386727.240    87575128.61848
  24788371.400   130263770.54207  24788368.480   101504215.90844
  20397744.480   107190895.21509  20397742.260    83525369.41448
 15 03 03 03 53  0.0000000  0 10G01G03G04G11G14G19G22G27G28G32
  22150341.820   116400865.68708  22150342.280    90701984.49548
  23485470.480   123416991.66908  23485471.040    96169078.44347
  20528905.880   107880189.54909  20528902.820    84062502.03548
  21092088.120   110839699.63309  21092084.280    86368593.98648
  22840126.680   120025686.92708  22840123.720    93526503.07646
  20493275.720   107692925.76409  20493270.260    83916538.98849
  22714986.340   119368088.50209  22714980.320    93014088.70447
  21399416.780   112454739.96709  21399415.740    87627085.68349
  24775468.600   130195965.09308  24775465.200   101451380.54544
  20389252.200   107146268.57909  20389250.080    83490595.43048
 15 03 03 03 53 30.0000000  0 10G01G03G04G11G14G19G22G27G28G32
  22139427.720   116343512.22508  22139428.340    90657293.49347
  23466917.440   123319495.01508  23466917.980    96093107.11847
  20524602.140   107857572.97509  20524598.980    84044878.73948
  21081346.300   110783250.40709  21081342.280    86324607.58048
  22835317.040   120000412.29508  22835314.240    93506808.59446
  20496703.560   107710939.04309  20496698.180    83930575.31349
  22730791.540   119451145.39709  22730785.700    93078808.35647
  21412179.360   112521807.53909  21412178.260    87679346.12048
  24762635.700   130128525.86907  24762631.900   101398830.46644
  20380862.500   107102180.66309  20380860.320    83456241.22048
 15 03 03 03 54  0.0000000  0 10G01G03G04G11G14G19G22G27G28G32
  22128540.680   116286300.69808  22128541.460    90612713.11248
  23448405.120   123222212.66608  23448405.680    96017302.77647
  20520346.440   107835209.28109  20520343.300    84027452.47948
  21070650.120   110727041.39209  21070645.940    86280808.34147
  22830600.040   119975624.83408  22830597.360    93487493.72046
  20500217.220   107729403.31109  20500211.860    83944963.04249
  22746631.560   119534385.00909  22746625.760    93143670.37147
  21425016.040   112589264.47409  21425014.940    87731909.95048
  24749872.780   130061455.67007  24749868.600   101346567.99744
  20372575.660   107058633.10609  20372573.460    83422308.06948
 15 03 03 03 54 30.0000000  0 10G01G03G04G11G14G19G22G27G28G32
  22117680.660   116229231.43908  22117681.680    90568243.59448
  23429933.860   123125146.42208  23429934.500    95941666.83146
  20516138.940   107813099.01309  20516135.900    84010223.70648
  21059999.900   110671073.99209  21059995.620    86237197.40148
  22825976.380   119951327.34508  22825973.660    93468560.63446
  20503816.840   107748319.17209  20503811.440    83959702.67649
  22762505.940   119617805.64408  22762500.260    93208673.47847
  21437926.700   112657110.11409  21437925.580    87784776.67848
  24737180.460   129994757.04207  24737176.380   101294595.04244
  20364391.880   107015626.76809  20364389.800    83388796.65848
 15 03 03 03 55  0.0000000  0 10G01G03G04G11G14G19G22G27G28G32
  22106847.740   116172303.90508  22106848.740    90523884.47048
  23411503.820   123028297.15107  23411504.640    95866199.95046
  20511979.540   107791241.33409  20511976.600    83993191.76048
  21049395.740   110615348.82109  21049391.360    86193775.20247
  22821446.120   119927520.36808  22821443.180    93450009.77046
  20507502.300   107767686.32909  20507496.960    83974793.96149
  22778414.200   119701404.57908  22778408.640    93273815.48947
  21450911.020   112725342.81109  21450909.860    87837945.00349
  24724559.080   129928431.14508  24724555.360   101242912.49444
  20356311.080   106973161.53609  20356308.980    83355706.87748
 15 03 03 03 55 30.0000000  0 10G01G03G04G11G14G19G22G27G28G32
  22096041.220   116115514.81509  22096042.160    90479633.24048
  23393114.720   122931663.07408  23393115.720    95790900.76346
  20507867.600   107769632.94109  20507864.720    83976354.06848
  21038837.180   110559863.50309  21038832.700    86150539.90248
  22817008.820   119904201.96308  22817005.700    93431839.59446
  20511273.100   107787501.88009  20511267.700    83990234.64649
  22794355.340   119785176.40809  22794349.880    93339092.23347
  21463968.160   112793958.22209  21463966.960    87891411.54949
  24712008.220   129862476.31107  24712004.740   101191519.10344
  20348332.740   106931234.65609  20348330.540    83323036.59148
 15 03 03 03 56  0.0000000  0 10G01G03G04G11G14G19G22G27G28G32
  22085262.920   116058873.92508  22085263.860    90435497.48948
  23374768.740   122835255.33308  23374769.940    95715777.92646
  20503804.880   107748283.70009  20503802.080    83959718.30248
  21028326.240   110504628.81809  21028321.780    86107499.90647
  22812666.620   119881383.51408  22812663.440    93414058.99946
  20515131.200   107807775.93309  20515125.700    84006032.60749
  22810330.800   119869128.73208  22810325.320    93404509.62647
  21477099.780   112862965.05609  21477098.540    87945183.10249
  24699529.840   129796904.13907  24699526.700   101140423.91244
  20340458.820   106889856.29109  20340456.500    83290793.72148
 15 03 03 03 56 30.0000000  0 10G01G03G04G11G14G19G22G27G28G32
  22074510.460   116002368.58109  22074511.340    90391467.37148
  23356463.800   122739062.75208  23356465.140    95640822.73446
  20499788.960   107727180.92509  20499786.300    83943274.58148
  21017860.700   110449633.36109  21017856.440    86064646.31747
  22808417.320   119859053.11608  22808414.040    93396658.71146
  20519074.160   107828496.15909  20519068.560    84022178.23649
  22826337.680   119953246.33908  22826332.240    93470055.79947
  21490303.260   112932349.51809  21490302.060    87999248.90049
  24687122.480   129731703.95507  24687119.480   101089618.53544
  20332686.880   106849014.07609  20332684.400    83258968.62548
 15 03 03 03 57  0.0000000  0 10G01G03G04G11G14G19G22G27G28G32
  22063784.580   115946002.89708  22063785.260    90347546.05548
  23338200.960   122643090.78908  23338202.340    95566039.43546
  20495820.860   107706328.73409  20495818.240    83927026.12548
  21007441.580   110394882.15809  21007437.620    86021983.04247
  22804261.960   119837216.29108  22804258.580    93379643.02247
  20523102.700   107849666.44609  20523097.060    84038674.57149
  22842376.560   120037531.87708  22842371.160    93535732.83947
  21503579.140   113002114.55909  21503577.960    88053611.26248
  24674787.380   129666881.83708  24674784.300   101039107.80844
  20325017.800   106808712.60309  20325015.280    83227564.89248
 15 03 03 03 57 30.0000000  0 10G01G03G04G11G14G19G22G27G28G32
  22053085.860   115889780.27608  22053086.460    90303736.24948
  23319981.080   122547344.27908  23319982.340    95491431.82446
  20491901.260   107685730.44809  20491898.480    83910975.52248
  20997069.880   110340379.70709  20997066.220    85979513.61347
  22800201.420   119815877.84908  22800198.060    93363015.68347
  20527217.560   107871290.79009  20527212.080    84055524.70849
  22858447.720   120121986.46408  22858442.340    93601541.59647
  21516927.800   113072262.48609  21516926.660    88108271.97348
  24662524.960   129602442.62407  24662521.800   100988895.47144
  20317452.260   106768955.69709  20317449.780    83196585.50648
 15 03 03 03 58  0.0000000  0 10G01G03G04G11G14G19G22G27G28G32
  22042414.980   115833704.13108  22042415.460    90260040.57148
  23301805.020   122451828.01608  23301806.180    95417003.61246
  20488030.740   107665389.55409  20488027.640    83895125.47748
  20986746.580   110286130.39709  20986742.980    85937241.42147
  22796236.680   119795042.76308  22796233.280    93346780.55247
  20531419.540   107893372.62309  20531414.180    84072731.33149
  22874551.360   120206611.24308  22874546.060    93667482.97047
  21530349.740   113142795.54009  21530348.640    88163232.78048
  24650336.540   129538391.51407  24650332.520   100938985.49744
  20309991.000   106729746.90809  20309988.540    83166033.21748
 15 03 03 03 58 30.0000000  0 10G01G03G04G11G14G19G22G27G28G32
  22031770.240   115777765.14909  22031770.540    90216451.76748
  23283671.220   122356534.06408  23283672.280    95342748.63946
  20484207.360   107645296.68209  20484204.040    83879468.69548
  20976470.060   110232126.13409  20976466.300    85895160.19147
  22792366.120   119774702.92308  22792362.860    93330931.34847
  20535706.920   107915902.82309  20535701.640    84090287.33349
  22890685.300   120291394.59509  22890680.000    93733547.89547
  21543842.980   113213703.23109  21543841.860    88218485.52348
  24638220.620   129474721.22507  24638216.000   100889372.26944
  20302632.400   106691077.36409  20302629.860    83135901.10948
 15 03 03 03 59  0.0000000  0 10G01G03G04G11G14G19G22G27G28G32
  22021153.100   115721971.10209  22021153.120    90172975.90548
  23265581.400   122261471.50508  23265582.420    95268673.97347
  20480432.520   107625459.64309  20480429.120    83864011.26648
  20966241.860   110178375.39009  20966237.820    85853276.50347
  22788591.460   119754867.36608  22788588.440    93315475.09247
  20540081.160   107938889.28309  20540075.840    84108198.85649
  22906850.560   120376342.37709  22906845.180    93799740.95647
  21557408.740   113284992.12809  21557407.680    88274035.29448
  24626178.780   129411441.23907  24626174.140   100840063.20344
  20295377.940   106652955.08809  20295375.380    83106195.45148
 15 03 03 03 59 30.0000000  0 10G01G03G04G11G14G19G22G27G28G32
  22010562.960   115666318.81609  22010562.580    90129610.50447
  23247535.260   122166638.60708  23247536.280    95194778.26947
  20476705.660   107605875.10809  20476702.340    83848750.59048
  20956061.500   110124876.41009  20956057.260    85811589.00047
  22784912.320   119735534.00608  22784909.480    93300410.16547
  20544541.660   107962329.18009  20544536.260    84126463.69949
  22923046.020   120461449.22408  22923040.480    93866057.96347
  21571046.280   113356657.89509  21571045.300    88329878.73948
  24614210.760   129348549.76007  24614206.100   100791056.86444
  20288227.100   106615377.23309  20288224.480    83076914.01848
 15 03 03 04 00  0.0000000  0 10G01G03G04G11G14G19G22G27G28G32
  21999999.680   115610808.12609  21999999.060    90086355.42948
  23229533.020   122072036.46808  23229534.020    95121062.39647
  20473026.780   107586543.10409  20473023.720    83833686.69548
  20945929.060   110071629.66809  20945924.720    85770098.03347
  22781328.980   119716703.81908  22781326.140    93285737.31646
  20549088.480   107986222.38909  20549082.960    84145081.77749
  22939271.220   120546712.83409  22939265.480    93932497.12747
  21584755.300   113428699.09009  21584754.360    88386014.72048
  24602317.240   129286048.43908  24602312.720   100742354.50944
  20281179.920   106578343.78409  20281177.220    83048056.78348
 15 03 03 04 00 30.0000000  0 10G01G03G04G11G14G19G22G27G28G32
  21989463.220   115555439.13109  21989462.560    90043210.78647
  23211574.940   121977666.52808  23211575.980    95047527.46247
  20469396.020   107567463.63709  20469393.160    83818819.59248
  20935844.820   110018636.46409  20935840.520    85728804.63548
  22777841.600   119698378.00708  22777838.720    93271457.48846
  20553721.660   108010569.12809  20553716.000    84164053.26949
  22955525.840   120632131.21008  22955519.960    93999056.90747
  21598535.540   113501114.57409  21598534.480    88442442.35648
  24590498.260   129223939.15407  24590494.380   100693957.65945
  20274236.360   106541855.00209  20274233.700    83019623.98048
 15 03 03 04 01  0.0000000  0 10G01G03G04G11G14G19G22G27G28G32
  21978954.120   115500214.09209  21978953.460    90000178.31547
  23193661.780   121883532.48408  23193662.880    94974176.35147
  20465813.760   107548638.96209  20465811.000    83804151.04148
  20925809.340   109965900.20209  20925805.200    85687711.45647
  22774450.920   119680560.07408  22774448.020    93257573.40246
  20558441.480   108035371.31909  20558435.700    84183379.65649
  22971809.960   120717704.48609  22971804.000    94065737.37647
  21612387.280   113573905.37609  21612386.000    88499162.46548
  24578754.740   129162225.93807  24578751.360   100645869.43145
  20267396.940   106505913.37309  20267394.180    82991617.52448
 15 03 03 04 01 30.0000000  0 10G01G03G04G11G14G19G22G27G28G32
  21968472.060   115445130.94709  21968471.480    89957256.38648
  23175793.420   121789633.34808  23175794.400    94901008.26047
  20462279.580   107530067.01509  20462276.800    83789679.39448
  20915822.640   109913420.23809  20915818.580    85646817.97648
  22771156.700   119663248.97808  22771153.740    93244084.24746
  20563247.560   108060627.34609  20563241.800    84203059.66249
  22988122.680   120803428.40309  22988116.760    94132535.21347
  21626309.780   113647068.11609  21626308.420    88556172.38248
  24567086.380   129100908.31607  24567083.240   100598089.48044
  20260661.260   106470517.04409  20260658.540    82964035.98348
 15 03 03 04 02  0.0000000  0 10G01G03G04G11G14G19G22G27G28G32
  21958017.720   115390193.06909  21958017.240    89914447.66448
  23157970.720   121695973.96708  23157971.420    94828026.98447
  20458794.160   107511751.17509  20458791.360    83775407.31248
  20905885.560   109861200.39109  20905881.460    85606127.20048
  22767959.880   119646449.33608  22767956.660    93230993.61146
  20568140.620   108086340.61509  20568134.820    84223095.97449
  23004464.300   120889304.19908  23004458.460    94199451.40747
  21640303.400   113720604.91409  21640302.040    88613473.78048
  24555494.280   129039991.17708  24555491.100   100550621.55145
  20254029.940   106435669.36109  20254027.320    82936881.96948
 15 03 03 04 02 30.0000000  0 10G01G03G04G11G14G19G22G27G28G32
  21947590.500   115335397.13009  21947590.120    89871749.54248
  23140193.240   121602552.29308  23140193.600    94755230.92646
  20455356.860   107493687.95409  20455354.080    83761332.07848
  20895997.700   109809238.48009  20895993.520    85565637.39548
  22764859.920   119630158.69208  22764856.740    93218299.61347
  20573120.000   108112507.82509  20573114.300    84243485.99549
  23020833.800   120975326.67308  23020828.040    94266481.88547
  21654367.280   113794511.12409  21654365.940    88671063.02948
  24543977.820   128979472.81508  24543974.580   100503464.37944
  20247502.480   106401367.18009  20247499.820    82910153.00348
 15 03 03 04 03  0.0000000  0 10G01G03G04G11G14G19G22G27G28G32
  21937190.480   115280743.75509  21937190.080    89829162.49648
  23122461.300   121509370.15908  23122461.440    94682621.51246
  20451967.760   107475878.12209  20451965.040    83747454.27848
  20886159.200   109757535.94109  20886154.980    85525349.71748
  22761857.160   119614378.84308  22761854.020    93206003.65547
  20578185.940   108139129.54309  20578180.220    84264230.19149
  23037230.900   121061494.05908  23037225.120    94333625.29747
  21668501.300   113868786.05209  21668500.020    88728939.58348
  24532537.780   128919355.25908  24532534.540   100456619.51444
  20241078.940   106367611.26509  20241076.320    82883849.71248
 15 03 03 04 03 30.0000000  0 10G01G03G04G11G14G19G22G27G28G32
  21926818.200   115226236.54309  21926817.840    89786689.37548
  23104775.820   121416432.47908  23104775.800    94610202.57946
  20448627.560   107458325.22109  20448624.880    83733776.69548
  20876370.980   109706097.67309  20876366.740    85485267.95348
  22758952.460   119599114.35708  22758949.460    93194109.27747
  20583339.060   108166209.39309  20583333.320    84285331.37249
  23053655.840   121147807.96408  23053650.060    94400882.86947
  21682705.880   113943431.97109  21682704.720    88787105.24048
  24521175.280   128859643.93308  24521171.860   100410091.23344
  20234760.020   106334405.21709  20234757.400    82857974.88748
 15 03 03 04 04  0.0000000  0 10G01G03G04G11G14G19G22G27G28G32
  21916472.500   115171869.37009  21916472.160    89744325.34448
  23087135.920   121323734.38108  23087135.800    94537970.33846
  20445335.100   107441023.13209  20445332.380    83720294.55648
  20866631.980   109654918.69009  20866627.740    85445388.22948
  22756144.940   119584360.13309  22756141.920    93182612.51047
  20588578.180   108193741.03109  20588572.400    84306784.60149
  23070107.120   121234260.15809  23070101.360    94468248.20547
  21696979.640   114018441.42509  21696978.540    88845554.15548
  24509889.360   128800334.30708  24509885.320   100363875.89944
  20228544.580   106301742.95909  20228541.940    82832523.79148
 15 03 03 04 04 30.0000000  0 10G01G03G04G11G14G19G22G27G28G32
  21906154.400   115117647.58809  21906154.040    89702074.61448
  23069542.800   121231282.41108  23069542.680    94465929.88546
  20442091.320   107423976.98509  20442088.500    83707011.84648
  20856943.460   109604005.48409  20856939.140    85405715.60148
  22753435.700   119570122.26409  22753432.380    93171518.07247
  20593904.260   108221730.10609  20593898.520    84328594.26249
  23086585.360   121320853.72308  23086579.600    94535723.70047
  21711323.280   114093818.31909  21711322.280    88904289.38948
  24498680.920   128741433.35508  24498676.740   100317979.08044
  20222433.640   106269629.70809  20222430.920    82807500.48348
 15 03 03 04 05  0.0000000  0 10G01G03G04G11G14G19G22G27G28G32
  21895863.240   115063568.19209  21895862.940    89659934.83448
  23051996.120   121139074.76008  23051996.000    94394079.82547
  20438895.700   107407184.05909  20438892.720    83693926.46448
  20847305.060   109553355.69509  20847300.580    85366248.24048
  22750824.320   119556398.70209  22750820.860    93160824.40247
  20599316.720   108250173.34809  20599311.100    84350757.81349
  23103089.540   121407583.63508  23103083.800    94603305.44147
  21725736.000   114169558.27009  21725735.140    88963307.52948
  24487550.200   128682939.76008  24487545.820   100272399.63544
  20216426.620   106238062.51309  20216423.840    82782902.68048
 15 03 03 04 05 30.0000000  0 10G01G03G04G11G14G19G22G27G28G32
  21885600.300   115009637.32609  21885600.220    89617910.79548
  23034497.320   121047118.82308  23034497.240    94322425.91147
  20435749.420   107390650.28009  20435746.300    83681043.00848
  20837718.180   109502976.60509  20837713.600    85326991.81348
  22748312.140   119543196.51609  22748308.540    93150536.98646
  20604816.780   108279076.88409  20604811.260    84373280.04249
  23119620.500   121494453.98308  23119614.740    94670996.60147
  21740218.740   114245666.08709  21740218.020    89022612.29848
  24476498.060   128624860.95907  24476493.580   100227143.42644
  20210524.660   106207047.46109  20210521.860    82758735.11648
 15 03 03 04 06  0.0000000  0 10G01G03G04G11G14G19G22G27G28G32
  21875364.340   114955848.21508  21875364.460    89575997.21548
  23017045.460   120955409.08408  23017045.380    94250963.84747
  20432651.160   107374368.92709  20432648.060    83668356.24748
  20828181.780   109452862.49809  20828177.180    85287941.85948
  22745898.080   119530510.07709  22745894.160    93140651.46046
  20610403.120   108308433.63809  20610397.640    84396155.43349
  23136176.480   121581455.86108  23136170.640    94738790.26847
  21754769.980   114322133.49009  21754769.280    89082197.28648
  24465523.660   128567191.65007  24465519.560   100182206.26645
  20204726.460   106176577.69109  20204723.620    82734992.44248
 15 03 03 04 06 30.0000000  0 10G01G03G04G11G14G19G22G27G28G32
  21865156.420   114902206.41808  21865156.640    89534198.42648
  22999641.840   120863952.24408  22999641.580    94179698.81647
  20429601.960   107358345.39409  20429598.980    83655870.37348
  20818697.080   109403019.98109  20818692.460    85249103.54348
  22743583.180   119518345.50509  22743579.160    93131172.58746
  20616076.780   108338248.99909  20616071.380    84419388.17549
  23152758.040   121668592.71508  23152752.240    94806689.09747
  21769390.440   114398964.65009  21769389.740    89142065.70548
  24454628.440   128509938.95307  24454625.020   100137593.80545
  20199032.960   106146658.66409  20199030.220    82711678.92748
 15 03 03 04 07  0.0000000  0 10G01G03G04G11G14G19G22G27G28G32
  21854976.160   114848709.43209  21854976.440    89492512.46748
  22982286.120   120772746.95509  22982285.720    94108629.78147
  20426601.300   107342577.14709  20426598.480    83643583.42448
  20809263.700   109353447.15609  20809259.080    85210475.37448
  22741367.260   119506701.31409  22741363.200    93122099.20546
  20621837.320   108368520.68009  20621831.880    84442976.48949
  23169364.380   121755859.91809  23169358.740    94874689.47847
  21784079.420   114476155.55009  21784078.640    89202214.44348
  24443811.900   128453101.65907  24443809.220   100093304.99445
  20193443.760   106117287.73009  20193441.060    82688792.48748
 15 03 03 04 07 30.0000000  0 10G01G03G04G11G14G19G22G27G28G32
  21844822.460   114795351.27109  21844822.740    89450934.69548
  22964977.300   120681788.44508  22964976.940    94037753.04547
  20423648.180   107327058.20309  20423645.320    83631490.74248
  20799880.760   109304139.76009  20799876.280    85172054.04248
  22739249.360   119495572.25709  22739245.440    93113427.22646
  20627683.440   108399242.28009  20627677.980    84466915.38949
  23185994.140   121843249.42609  23185988.640    94942785.19547
  21798835.500   114553698.79609  21798834.640    89262637.74748
  24433074.160   128396675.40807  24433071.540   100049336.46045
  20187957.740   106088458.72309  20187955.140    82666328.34448
 15 03 03 04 08  0.0000000  0 10G01G03G04G11G14G19G22G27G28G32
  21834697.480   114742143.85809  21834697.720    89409474.39848
  22947717.860   120591089.71708  22947717.640    93967078.76347
  20420744.820   107311800.60409  20420741.800    83619601.71248
  20790550.760   109255110.51809  20790546.400    85133849.44748
  22737231.940   119484971.01408  22737228.240    93105166.53546
  20633617.420   108430425.53709  20633611.880    84491214.02749
  23202649.140   121930770.94108  23202643.560    95010983.77347
  21813660.640   114631604.79109  21813659.660    89323343.71748
  24422417.400   128340673.40707  24422414.580   100005698.56845
  20182577.040   106060183.33809  20182574.440    82644295.59148
 15 03 03 04 08 30.0000000  0 10G01G03G04G11G14G19G22G27G28G32
  21824599.680   114689079.07209  21824599.820    89368125.22548
  22930506.520   120500643.81208  22930506.380    93896601.48747
  20417889.560   107296795.95409  20417886.420    83607909.77648
  20781272.340   109206352.03209  20781268.020    85095855.83148
  22735313.540   119474890.18508  22735309.920    93097311.36047
  20639637.660   108462062.26409  20639632.120    84515866.01649
  23219327.320   122018414.38309  23219321.580    95079277.33846
  21828552.880   114709863.93009  21828551.820    89384324.85648
  24411840.000   128285089.22808  24411837.300    99962386.20145
  20177300.180   106032453.38809  20177297.660    82622687.85448
 15 03 03 04 09  0.0000000  0 10G01G03G04G11G14G19G22G27G28G32
  21814529.000   114636156.90809  21814529.020    89326887.17748
  22913343.580   120410451.90608  22913343.420    93826322.12547
  20415082.380   107282044.49109  20415079.280    83596415.14348
  20772045.760   109157865.60609  20772041.420    85058074.20948
  22733494.280   119465330.33808  22733490.700    93089862.14947
  20645744.080   108494151.98809  20645738.620    84540870.99249
  23236028.220   122106177.72908  23236022.340    95147664.34547
  21843512.020   114788474.67309  21843510.880    89445579.98348
  24401342.840   128229924.04708  24401339.940    99919400.32444
  20172127.120   106005268.42209  20172124.540    82601504.77048
 15 03 03 04 09 30.0000000  0 10G01G03G04G11G14G19G22G27G28G32
  21804486.760   114583384.59409  21804486.900    89285765.92248
  22896230.540   120320522.31108  22896230.340    93756247.16347
  20412324.680   107267553.20809  20412321.700    83585123.24648
  20762872.340   109109659.10309  20762868.080    85020510.71048
  22731775.660   119456299.49108  22731772.360    93082825.15447
  20651938.100   108526701.92009  20651932.720    84566234.57149
  23252752.820   122194066.20308  23252746.920    95216148.84947
  21858539.160   114867442.74609  21858538.020    89507113.54448
  24390926.840   128175186.50708  24390924.060    99876747.73544
  20167059.140   105978635.58209  20167056.560    82580751.92448
 15 03 03 04 10  0.0000000  0 10G01G03G04G11G14G19G22G27G28G32
  21794472.220   114530757.77309  21794472.360    89244758.01648
  22879166.760   120230851.77308  22879166.580    93686374.06147
  20409615.680   107253317.68209  20409612.800    83574030.64548
  20753751.500   109061729.42009  20753747.360    84983162.91148
  22730157.000   119447793.89008  22730153.840    93076197.43646
  20658218.840   108559707.54909  20658213.520    84591953.24949
  23269499.860   122282072.80308  23269494.140    95284725.40847
  21873633.100   114946762.21709  21873632.020    89568920.91148
  24380591.480   128120873.71308  24380588.860    99834426.05744
  20162095.400   105952550.15809  20162092.600    82560425.63048
 15 03 03 04 10 30.0000000  0 10G01G03G04G11G14G19G22G27G28G32
  21784485.460   114478277.15509  21784485.660    89203864.03848
  22862152.640   120141442.09208  22862152.540    93616704.21147
  20406955.440   107239338.60709  20406952.640    83563137.86548
  20744683.800   109014078.72609  20744679.740    84946032.50048
  22728638.680   119439815.19108  22728635.440    93069980.27147
  20664586.340   108593169.14009  20664581.140    84618027.20849
  23286269.200   122370196.45508  23286263.620    95353393.17547
  21888793.660   115026432.23809  21888792.740    89631001.42948
  24370337.380   128066987.68608  24370334.980    99792436.92044
  20157235.860   105927012.62509  20157232.900    82540526.25948
 15 03 03 04 11  0.0000000  0 10G01G03G04G11G14G19G22G27G28G32
  21774526.420   114425941.95709  21774526.740    89163083.37048
  22845188.160   120052293.51808  22845188.180    93547237.83747
  20404343.720   107225615.10609  20404341.100    83552444.23048
  20735669.200   108966706.60209  20735665.160    84909119.15948
  22727220.560   119432362.92208  22727217.380    93064173.31746
  20671040.420   108627085.25709  20671035.220    84644455.35349
  23303060.260   122458434.43408  23303054.740    95422150.01947
  21904020.480   115106450.40809  21904019.720    89693353.22848
  24360164.720   128013529.05608  24360162.380    99750780.81145
  20152480.260   105902021.59709  20152477.220    82521052.73548
 15 03 03 04 11 30.0000000  0 10G01G03G04G11G14G19G22G27G28G32
  21764595.120   114373752.19509  21764595.400    89122416.04448
  22828273.560   119963407.16908  22828273.580    93477975.80247
  20401780.680   107212147.42209  20401778.280    83541949.93548
  20726707.940   108919614.41609  20726703.820    84872423.95548
  22725902.700   119425437.63408  22725899.540    93058777.00946
  20677580.940   108661455.79109  20677575.800    84671237.58949
  23319872.580   122546784.44108  23319867.140    95490994.16447
  21919313.340   115186815.20309  21919312.640    89755975.12948
  24350073.640   127960498.67208  24350071.460    99709458.46045
  20147828.560   105877576.93309  20147825.500    82502004.96948
 15 03 03 04 12  0.0000000  0 10G01G03G04G11G14G19G22G27G28G32
  21754692.660   114321713.81809  21754692.800    89081866.66948
  22811410.180   119874790.02308  22811410.200    93408923.53247
  20399267.600   107198941.17109  20399265.280    83531659.34448
  20717801.300   108872809.07109  20717797.080    84835952.27048
  22724686.300   119419045.92708  22724683.320    93053796.48346
  20684209.060   108696286.88309  20684203.940    84698378.68349
  23336707.000   122635250.35208  23336701.580    95559928.61747
  21934673.080   115267530.88509  21934672.320    89818870.45348
  24340065.220   127907903.94408  24340063.240    99668475.55144
  20143281.820   105853684.13309  20143278.840    82483387.21648
 15 03 03 04 12 30.0000000  0 10G01G03G04G11G14G19G22G27G28G32
  21744817.540   114269819.56709  21744817.600    89041429.61548
  22794596.900   119786435.89808  22794596.860    93340076.20947
  20396803.000   107185988.92509  20396800.540    83521566.70348
  20708948.020   108826284.12709  20708943.700    84799699.07548
  22723570.120   119413181.04508  22723567.160    93049226.46747
  20690923.240   108731570.53609  20690918.180    84725872.43549
  23353561.840   122723822.98708  23353556.420    95628946.23747
  21950097.920   115348588.63309  21950097.180    89882032.32948
  24330138.780   127855739.30408  24330136.060    99627827.72844
  20138838.680   105830335.58009  20138835.700    82465193.55648
 15 03 03 04 13  0.0000000  0 10G01G03G04G11G14G19G22G27G28G32
  21734970.320   114218072.20809  21734970.340    89001107.01448
  22777834.380   119698348.52408  22777834.320    93271436.73347
  20394387.380   107173293.77309  20394384.780    83511674.37948
  20700148.760   108780043.34609  20700144.360    84763667.30248
  22722554.880   119407846.15108  22722551.860    93045069.41146
  20697723.940   108767309.00809  20697718.980    84753720.58949
  23370437.100   122812502.98708  23370431.680    95698047.52747
  21965588.020   115429989.51609  21965587.360    89945461.57048
  24320295.000   127804008.39108  24320291.840    99587517.93845
  20134499.500   105807533.38509  20134496.580    82447425.62048
 15 03 03 04 13 30.0000000  0 10G01G03G04G11G14G19G22G27G28G32
  21725150.580   114166469.59709  21725150.680    88960897.19548
  22761122.480   119610526.83408  22761122.440    93203004.27847
  20392020.160   107160853.23909  20392017.520    83501980.45448
  20691403.240   108734085.46509  20691398.700    84727855.97048
  22721640.220   119403039.80908  22721637.160    93041324.22446
  20704610.800   108803499.65709  20704605.820    84781921.08849
  23387332.000   122901286.27308  23387326.580    95767229.29446
  21981142.720   115511729.77909  21981142.040    90009155.27148
  24310533.820   127752710.41908  24310530.180    99547545.52145
  20130263.900   105785275.18809  20130260.920    82430081.57548
 15 03 03 04 14  0.0000000  0 10G01G03G04G11G14G19G22G27G28G32
  21715359.420   114115017.22909  21715359.600    88920804.45648
  22744462.380   119522977.27308  22744462.320    93134783.88047
  20389702.500   107148672.86009  20389699.740    83492489.25448
  20682712.760   108688417.47309  20682708.240    84692270.52848
  22720827.240   119398767.98508  22720824.120    93037995.54246
  20711584.820   108840147.70909  20711579.740    84810478.01449
  23404247.140   122990176.11208  23404241.860    95836494.09047
  21996762.720   115593813.20509  21996761.960    90073116.37848
  24300856.200   127701852.12208  24300851.820    99507915.65745
  20126132.780   105763565.81909  20126129.800    82413165.19048
 15 03 03 04 14 30.0000000  0 10G01G03G04G11G14G19G22G27G28G32
  21705597.200   114063716.96109  21705597.500    88880830.22948
  22727854.620   119435702.66608  22727854.520    93066777.73947
  20387434.660   107136754.36309  20387431.720    83483202.12248
  20674077.920   108643041.76309  20674073.500    84656912.84048
  22720116.400   119395032.68808  22720113.340    93035084.92946
  20718646.180   108877254.62909  20718641.020    84839392.48749
  23421182.460   123079172.19008  23421177.340    95905841.66847
  22012448.040   115676239.92109  22012447.240    90137344.98448
  24291262.260   127651436.33408  24291257.660    99468630.63145
  20122106.380   105742406.61309  20122103.300    82396677.50548
 15 03 03 04 15  0.0000000  0 10G01G03G04G11G14G19G22G27G28G32
  21695862.500   114012560.80109  21695862.720    88840968.29848
  22711297.820   119348696.02308  22711297.620    92998980.39147
  20385215.000   107125089.64809  20385211.980    83474112.74348
  20665497.440   108597951.46409  20665493.200    84621777.54448
  22719506.240   119391826.55408  22719503.240    93032586.65746
  20725793.280   108914812.09709  20725788.000    84868658.04049
  23438136.060   123168264.70508  23438131.140    95975264.38946
  22028196.820   115759000.26009  22028196.020    90201833.54248
  24281751.380   127601456.45608  24281746.820    99429685.25844
  20118183.020   105721789.11509  20118180.000    82380611.93448
 15 03 03 04 15 30.0000000  0 10G01G03G04G11G14G19G22G27G28G32
  21686156.700   113961555.94209  21686156.720    88801224.26248
  22694793.500   119261965.49708  22694793.200    92931398.18547
  20383044.900   107113686.02409  20383041.960    83465226.80748
  20656972.920   108553154.88309  20656968.780    84586871.11948
  22718998.240   119389156.83508  22718995.220    93030506.35547
  20733027.340   108952826.63709  20733021.960    84898279.75449
  23455109.020   123257458.49308  23455104.160    96044766.01846
  22044010.080   115842099.73909  22044009.360    90266586.36848
  24272324.840   127551920.82907  24272320.620    99391086.08044
  20114364.000   105701719.86609  20114361.020    82364973.56548
 15 03 03 04 16  0.0000000  0 10G01G03G04G11G14G19G22G27G28G32
  21676479.220   113910699.44009  21676478.960    88761595.84248
  22678341.300   119175509.04908  22678340.900    92864029.54447
  20380923.800   107102540.41709  20380921.060    83456541.92848
  20648503.900   108508649.91409  20648499.740    84552191.93548
  22718591.920   119387021.12909  22718588.900    93028842.19346
  20740347.680   108991294.69509  20740342.100    84928254.85949
  23472100.420   123346748.70108  23472095.400    96114342.78446
  22059887.000   115925533.59609  22059886.320    90331599.75048
  24262982.140   127502827.38407  24262978.360    99352831.43944
  20110648.580   105682195.30009  20110645.620    82349759.63148
 15 03 03 04 16 30.0000000  0 10G01G03G04G11G14G19G22G27G28G32
  21666829.800   113859990.41009  21666829.260    88722082.31948
  22661941.260   119089326.70908  22661940.980    92796874.49947
  20378851.600   107091651.87609  20378848.960    83448057.34948
  20640090.340   108464436.56009  20640086.100    84517739.97548
  22718287.120   119385418.81808  22718283.900    93027593.64547
  20747754.040   109030215.09809  20747748.300    84958582.43649
  23489109.640   123436132.35808  23489104.420    96183992.35346
  22075827.100   116009299.21009  22075826.440    90396871.64848
  24253723.900   127454176.53308  24253720.660    99314921.68345
  20107036.560   105663213.98309  20107033.620    82334968.99948
 15 03 03 04 17  0.0000000  0 10G01G03G04G11G14G19G22G27G28G32
  21657208.500   113809429.77009  21657207.860    88682684.42348
  22645593.820   119003420.37108  22645593.700    92729934.52647
  20376828.520   107081021.06009  20376825.820    83439773.59848
  20631732.620   108420516.87809  20631728.440    84483516.84948
  22718084.020   119384350.90308  22718080.640    93026761.50247
  20755246.480   109069588.04409  20755240.700    84989262.63549
  23506136.400   123525608.27108  23506131.080    96253713.83946
  22091830.180   116093395.77209  22091829.560    90462401.41948
  24244550.600   127405970.51408  24244547.340    99277358.54544
  20103527.860   105644776.17109  20103524.860    82320601.88148
 15 03 03 04 17 30.0000000  0 10G01G03G04G11G14G19G22G27G28G32
  21647615.860   113759020.34309  21647615.220    88643404.36848
  22629299.680   118917793.72508  22629299.560    92663212.49947
  20374855.240   107070650.97009  20374852.260    83431693.02548
  20623431.500   108376894.55609  20623427.480    84449525.43148
  22717983.140   119383820.74608  22717979.860    93026348.41347
  20762825.480   109109415.80809  20762819.700    85020297.25749
  23523180.820   123615177.27908  23523175.360    96323507.86946
  22107896.420   116177824.25909  22107895.800    90528189.84148
  24235462.600   127358212.79608  24235458.820    99240144.74345
  20100122.960   105626883.92809  20100120.060    82306659.89448
 15 03 03 04 18  0.0000000  0 10G01G03G04G11G14G19G22G27G28G32
  21638052.080   113708762.78409  21638051.520    88604242.64648
  22613059.040   118832448.32808  22613058.820    92596709.60747
  20372931.740   107060542.12109  20372928.500    83423816.00048
  20615187.420   108333571.22609  20615183.460    84415766.99448
  22717984.680   119383829.32008  22717981.480    93026355.10247
  20770491.060   109149698.55309  20770485.340    85051686.39249
  23540242.620   123704838.09508  23540237.200    96393373.40946
  22124025.580   116262583.58309  22124024.940    90594236.05148
  24226460.180   127310904.97008  24226456.160    99203281.49245
  20096821.860   105609537.20609  20096818.940    82293142.97848
 15 03 03 04 18 30.0000000  0 10G01G03G04G11G14G19G22G27G28G32
  21628516.060   113658651.72209  21628515.700    88565195.07448
  22596871.000   118747379.63008  22596870.640    92530422.31847
  20371056.840   107050688.76109  20371053.480    83416138.05948
  20606999.440   108290542.51209  20606995.400    84382238.14448
  22718087.600   119384370.91408  22718084.520    93026777.14646
  20778242.020   109190430.06209  20778236.340    85083425.23349
  23557320.400   123794583.23908  23557315.020    96463304.68046
  22140216.380   116347666.47509  22140215.620    90660534.39648
  24217542.600   127264043.02008  24217539.220    99166765.71545
  20093623.520   105592729.87109  20093620.620    82280046.36848
 15 03 03 04 19  0.0000000  0 10G01G03G04G11G14G19G22G27G28G32
  21619009.340   113608694.73009  21619009.200    88526267.55848
  22580737.200   118662596.08108  22580736.840    92464357.23747
  20369232.060   107041098.87909  20369228.660    83408665.42548
  20598869.040   108247816.73809  20598864.940    84348945.32948
  22718293.600   119385453.81408  22718290.580    93027620.98446
  20786079.620   109231617.38809  20786074.080    85115519.23749
  23574415.240   123884418.10708  23574409.900    96533305.86346
  22156469.840   116433078.73409  22156469.020    90727089.39148
  24208711.520   127217635.46808  24208708.520    99130603.98144
  20090529.180   105576468.82109  20090526.120    82267375.41948
 15 03 03 04 19 30.0000000  0 10G01G03G04G11G14G19G22G27G28G32
  21609531.080   113558887.63309  21609531.240    88487456.83148
  22564656.960   118578094.35108  22564656.700    92398511.77647
  20367456.520   107031767.91709  20367453.100    83401394.55248
  20590795.720   108205390.82409  20590791.520    84315886.18048
  22718601.860   119387073.76608  22718598.620    93028883.29046
  20794003.080   109273256.07409  20793997.660    85147964.94549
  23591525.960   123974336.62208  23591520.800    96603372.21846
  22172784.780   116518814.30709  22172784.060    90793896.31848
  24199966.320   127171679.17707  24199962.640    99094793.83444
  20087537.860   105560749.08109  20087534.680    82255126.27848
