     2.11           OBSERVATION DATA    G                   RINEX VERSION / TYPE
SPIDER V4,0,0,3554                      2015 03 24 00:26    PGM / RUN BY / DATE 
CBEJ                                                        MARKER NAME         
CBEJ                                                        MARKER NUMBER       
                                                            OBSERVER / AGENCY   
496519              LEICA GRX1200+GNSS  8.10/4.007          REC # / TYPE / VERS 
                    LEIAR25         NONE                    ANT # / TYPE        
  5095766.4657   453329.2088  3797108.6657                  APPROX POSITION XYZ 
        0.0730        0.0000        0.0000                  ANTENNA: DELTA H/E/N
     1     1                                                WAVELENGTH FACT L1/2
     4    C1    L1    P2    L2                              # / TYPES OF OBSERV 
    30.000                                                  INTERVAL            
  2015    03    03    00    00    0.0000000     GPS         TIME OF FIRST OBS   
  2015    03    03    23    59   30.0000000     GPS         TIME OF LAST OBS    
    16                                                      LEAP SECONDS        
    30                                                      # OF SATELLITES     
   G 1   775   775   775   775                              PRN / # OF OBS      
   G 2   813   813   812   812                              PRN / # OF OBS      
   G 3   780   780   780   780                              PRN / # OF OBS      
   G 4   806   806   806   806                              PRN / # OF OBS      
   G 5   564   564   564   564                              PRN / # OF OBS      
   G 6   578   578   578   578                              PRN / # OF OBS      
   G 7   588   588   588   588                              PRN / # OF OBS      
   G 9   737   737   737   737                              PRN / # OF OBS      
   G10   658   658   657   657                              PRN / # OF OBS      
   G11   751   751   750   750                              PRN / # OF OBS      
   G12   777   777   776   776                              PRN / # OF OBS      
   G13   753   753   753   753                              PRN / # OF OBS      
   G14   807   805   805   805                              PRN / # OF OBS      
   G15   617   617   617   617                              PRN / # OF OBS      
   G16   650   650   650   650                              PRN / # OF OBS      
   G17   802   802   800   800                              PRN / # OF OBS      
   G18   792   792   793   793                              PRN / # OF OBS      
   G19   641   640   640   640                              PRN / # OF OBS      
   G20   663   663   663   663                              PRN / # OF OBS      
   G21   599   599   594   594                              PRN / # OF OBS      
   G22   660   658   657   657                              PRN / # OF OBS      
   G23   640   637   633   633                              PRN / # OF OBS      
   G24   760   760   760   760                              PRN / # OF OBS      
   G25   811   811   810   810                              PRN / # OF OBS      
   G27   792   792   792   792                              PRN / # OF OBS      
   G28   766   766   766   766                              PRN / # OF OBS      
   G29   709   708   708   708                              PRN / # OF OBS      
   G30   571   571   565   565                              PRN / # OF OBS      
   G31   661   660   658   658                              PRN / # OF OBS      
   G32   693   693   692   692                              PRN / # OF OBS      
BIT 2 OF LLI FLAGS DATA COLLECTED UNDER A/S CONDITION       COMMENT             
SNR is mapped to RINEX snr flag value [2-9]                 COMMENT             
Lx:     = 25dBHz -> 1; 26-27dBHz -> 2; 28-31dBHz -> 3       COMMENT             
       32-35dBHz -> 4; 36-38dBHz -> 5; 39-41dBHz -> 6       COMMENT             
       42-44dBHz -> 7; 45-48dBHz -> 8; >=49dBHz -> 9        COMMENT             
                                                            END OF HEADER       
 15 03 03 00 00  0.0000000  0  7G16G18G21G22G27G29G31
 -23766449.260  -124893532.41509 -23766453.400   -97319643.95048
 -22749883.760  -119551189.10109 -22749886.120   -93156704.61147
 -23640730.200  -124232865.42807 -23640733.620   -96804839.63446
 -21514918.820  -113061599.10408 -21514920.420   -88099934.82246
 -22522432.960  -118356146.85608 -22522431.980   -92225557.15347
 -20820164.560  -109410718.00108 -20820165.380   -85255113.13246
 -21576916.180  -113387508.20908 -21576918.060   -88353921.57446
 15 03 03 00 00 30.0000000  0  7G16G18G21G22G27G29G31
 -24008465.400  -126165336.08509 -24008469.380   -98310659.78948
 -22990580.820  -120816059.13608 -22990583.020   -94142317.60747
 -23862591.000  -125398753.58707 -23862594.840   -97713323.89046
 -21763106.560  -114365832.08408 -21763108.220   -89116219.71246
 -22764882.080  -119630224.58008 -22764881.280   -93218344.93447
 -21035919.200  -110544516.61808 -21035920.300   -86138592.56746
 -21788993.200  -114501981.29309 -21788994.520   -89222342.44246
 15 03 03 00 01  0.0000000  0  7G16G18G21G22G27G29G31
 -24250416.920  -127436799.70509 -24250420.640   -99301410.65348
 -23231211.620  -122080580.76709 -23231213.780   -95127659.11346
 -24084396.280  -126564349.59607 -24084400.240   -98621580.52246
 -22011281.400  -115669998.38108 -22011282.900   -90132452.68446
 -23007310.420  -120904193.88208 -23007309.560   -94211048.26247
 -21251668.340  -111678286.42708 -21251669.680   -87022049.59646
 -22001052.540  -115616360.68908 -22001053.320   -90090690.28746
 15 03 03 00 01 30.0000000  0  7G16G18G21G22G27G29G31
 -24492301.380  -128707910.85109 -24492304.980  -100291886.85948
 -23471773.500  -123344741.59509 -23471775.520   -96112719.45147
 -24306144.540  -127729645.58407 -24306148.600   -99529603.38846
 -22259441.100  -116974085.18208 -22259442.100   -91148623.75546
 -23249716.200  -122178044.54908 -23249714.900   -95203659.16948
 -21467409.940  -112812017.61608 -21467411.580   -87905476.56946
 -22213092.700  -116730639.08708 -22213093.160   -90958959.45546
 15 03 03 00 02  0.0000000  0  7G16G18G21G22G27G29G31
 -24734119.520  -129978673.73009 -24734123.120  -101282091.68948
 -23712267.400  -124608545.65409 -23712269.180   -97097501.82447
 -24527837.180  -128894648.80407 -24527841.220  -100437398.09146
 -22507586.660  -118278096.16308 -22507587.240   -92164735.79246
 -23492100.480  -123451782.83908 -23492099.120   -96196182.49048
 -21683145.440  -113945716.53508 -21683147.140   -88788878.35446
 -22425115.420  -117844825.95608 -22425115.980   -91827157.31546
 15 03 03 00 02 30.0000000  0  7G16G18G21G22G27G29G31
 -24975870.400  -131249082.76609 -24975873.940  -102272020.80648
 -23952692.480  -125871988.21009 -23952694.060   -98082002.54748
 -24749474.060  -130059358.06207 -24749477.800  -101344963.78345
 -22755716.640  -119582025.50008 -22755717.500   -93180784.22446
 -23734462.560  -124725405.45908 -23734461.740   -97188615.65548
 -21898874.260  -115079380.07908 -21898876.100   -89672252.57346
 -22637120.680  -118958921.33808 -22637121.740   -92695283.90347
 15 03 03 00 03  0.0000000  0  7G16G18G21G22G27G29G31
 -25217553.560  -132519135.53009 -25217556.940  -103261672.30848
 -24193047.860  -127135065.97109 -24193049.840   -99066218.95247
 -24971055.160  -131223774.27107 -24971058.940  -102252301.06646
 -23003830.220  -120885869.64908 -23003831.220   -94196766.29647
 -23976802.420  -125998911.34508 -23976801.780   -98180957.88048
 -22114596.140  -116213007.28908 -22114598.080   -90555598.49846
 -22849108.700  -120072927.02608 -22849110.240   -93563340.59746
 15 03 03 00 03 30.0000000  0  7G16G18G21G22G27G29G31
 -25459168.500  -133788830.42309 -25459171.920  -104251044.95248
 -24433333.480  -128397777.41809 -24433336.140  -100050149.91347
 -25192581.080  -132387900.80607 -25192584.820  -103159412.66045
 -23251926.800  -122189626.77809 -23251928.160   -95212680.55946
 -24219120.260  -127272301.15408 -24219119.500   -99173209.67048
 -22330311.560  -117346599.39108 -22330313.360   -91438917.03146
 -23061080.280  -121186846.62408 -23061081.720   -94431330.22646
 15 03 03 00 04  0.0000000  0  7G16G18G21G22G27G29G31
 -25700715.520  -135058167.52409 -25700718.860  -105240138.78948
 -24673549.780  -129660123.13809 -24673552.780  -101033795.90147
 -25414052.300  -133551741.22607 -25414056.200  -104066301.25444
 -23500006.760  -123493296.65809 -23500008.460   -96228526.86447
 -24461416.660  -128545577.23008 -24461416.200  -100165372.82448
 -22546020.760  -118480158.27008 -22546022.160   -92322209.66747
 -23273036.520  -122300685.90708 -23273037.360   -95299257.28846
 15 03 03 00 04 30.0000000  0  7G16G18G21G22G27G29G31
 -25942194.640  -136327147.33509 -25942197.820  -106228954.24348
 -24913696.940  -130922103.58709 -24913699.960  -102017157.28746
 -25635469.820  -134715299.85506 -25635474.060  -104972970.27245
 -23748070.420  -124796879.10908 -23748072.480   -97244305.07246
 -24703692.120  -129818741.96508 -24703692.020  -101157449.23447
 -22761724.060  -119613686.83908 -22761725.160   -93205478.72646
 -23484978.460  -123414450.25508 -23484978.900   -96167125.96845
 15 03 03 00 05  0.0000000  0  7G16G18G21G22G27G29G31
 -26183604.300  -137595764.26009 -26183607.660  -107217486.89748
 -25153773.460  -132183712.94509 -25153776.740  -103000229.47146
 -25856833.760  -135878575.30006 -25856838.280  -105879418.67544
 -23996116.540  -126100368.06908 -23996119.140   -98260010.45646
 -24945945.540  -131091791.73808 -24945945.320  -102149436.05848
 -22977421.040  -120747182.04008 -22977422.100   -94088721.76946
 -23696906.040  -124528139.14208 -23696906.300   -97034935.86046
 15 03 03 00 05 30.0000000  0  7G16G18G21G22G27G29G31
 -26424944.880  -138864019.03909 -26424948.520  -108205737.36448
 -25393779.380  -133444952.20209 -25393782.720  -103983013.26547
 -26078145.140  -137041571.07005 -26078149.140  -106785649.16645
 -24244144.780  -127403763.63308 -24244148.120   -99275643.06446
 -25188177.500  -132364729.11408 -25188177.260  -103141335.31848
 -23193112.300  -121880646.22108 -23193113.360   -94971940.64445
 -23908820.380  -125641758.15708 -23908820.260   -97902691.31647
 15 03 03 00 06  0.0000000  0  7G16G18G21G22G27G29G31
 -26666217.480  -140131914.88409 -26666220.980  -109193708.16148
 -25633715.360  -134705825.29109 -25633718.720  -104965511.74146
 -26299404.960  -138204295.45205 -26299408.440  -107691668.17945
 -24492155.660  -128707068.94408 -24492159.320  -100291205.34346
 -25430388.900  -133637559.59209 -25430389.060  -104133151.24047
 -23408798.660  -123014085.37808 -23408799.680   -95855140.03645
 -24120723.140  -126755315.92508 -24120722.120   -98770399.03646
 15 03 03 00 06 30.0000000  0  7G16G18G21G22G27G29G31
 -26907422.360  -141399454.82609 -26907425.720  -110181401.64048
 -25873582.120  -135966334.70309 -25873585.440  -105947726.83847
 -26520614.000  -139366755.70206 -26520617.140  -108597481.40445
 -24740150.180  -130010286.04708 -24740153.240  -101306698.94846
 -25672580.860  -134910288.18508 -25672581.300  -105124887.77048
 -23624481.020  -124147504.46008 -23624482.260   -96738323.82945
 -24332615.920  -127868820.72908 -24332614.260   -99638065.50447
 15 03 03 00 07  0.0000000  0  7G16G18G21G22G27G29G31
 -27148558.620  -142666635.19209 -27148562.020  -111168814.89848
 -26113379.240  -137226477.23609 -26113382.480  -106929656.05047
 -26741772.220  -140528950.90906 -26741775.400  -109503088.05346
 -24988127.140  -131313411.01608 -24988129.620  -102322120.78347
 -25914753.260  -136182913.23308 -25914753.840  -106116543.62748
 -23840159.280  -125280902.08608 -23840160.840   -97621490.84146
 -24544498.940  -128982273.93208 -24544497.540  -100505691.77646
 15 03 03 00 07 30.0000000  0  7G16G18G21G22G27G29G31
 -27389625.160  -143933448.07409 -27389628.740  -112155941.80548
 -26353105.440  -138486245.06308 -26353108.380  -107911293.32047
 -26962879.000  -141690877.21606 -26962882.540  -110408485.15946
 -25236084.320  -132616435.11309 -25236087.000  -103337463.98746
 -26156904.940  -137455428.13808 -26156905.380  -107108113.67348
 -24055832.420  -126414272.10208 -24055833.960   -98504636.31646
 -24756371.480  -130095672.01508 -24756370.960  -101373275.11846
 15 03 03 00 08  0.0000000  0  7G16G18G21G22G27G29G31
 -27630621.780  -145199891.45009 -27630625.180  -113142780.79348
 -26592759.940  -139745635.80808 -26592762.500  -108892636.75847
 -27183935.160  -142852537.37207 -27183939.380  -111313674.90446
 -25484021.680  -133919355.77608 -25484024.980  -104352726.60047
 -26399035.460  -138727833.34709 -26399036.060  -108099598.22948
 -24271500.200  -127547614.85809 -24271501.940   -99387760.60446
 -24968234.140  -131209018.48408 -24968234.420  -102240818.24646
 15 03 03 00 08 30.0000000  0  7G16G18G21G22G27G29G31
 -27871547.820  -146465963.97609 -27871550.720  -114129330.81248
 -26832342.420  -141004648.74308 -26832344.680  -109873685.78847
 -27404941.320  -144013933.03607 -27404946.080  -112218658.55546
 -25731939.360  -135222171.05608 -25731943.060  -105367907.10646
 -26641145.200  -140000129.39909 -26641145.820  -109090997.72248
 -24487162.960  -128680931.38609 -24487165.080  -100270864.47046
 -25180087.500  -132322317.13908 -25180088.500  -103108324.14646
 15 03 03 00 09  0.0000000  0  7G16G18G21G22G27G29G31
 -28112402.620  -147731664.53509 -28112405.340  -115115590.98748
 -27071852.620  -142263283.05609 -27071854.840  -110854439.78147
 -27625897.840  -145175067.63807 -27625902.980  -113123438.73046
 -25979837.040  -136524879.59208 -25979840.780  -106383004.45646
 -26883234.460  -141272317.11208 -26883235.120  -110082312.78348
 -24702821.020  -129814222.41908 -24702823.320  -101153948.44146
 -25391932.240  -133435571.69608 -25391934.040  -103975795.70746
 15 03 03 00 09 30.0000000  0  7G16G18G21G22G27G29G31
 -28353184.360  -148996981.99409 -28353187.260  -116101552.61748
 -27311288.360  -143521527.39409 -27311290.840  -111834889.86647
 -27846803.320  -146335933.29707 -27846808.340  -114028009.40446
 -26227712.000  -137827469.54908 -26227715.540  -107398009.41546
 -27125301.540  -142544387.13108 -27125301.820  -111073536.15648
 -24918472.520  -130947478.95508 -24918475.060  -102037005.51346
 -25603767.240  -134548776.21008 -25603769.480  -104843228.28345
 15 03 03 00 10  0.0000000  0  6G16G18G21G22G27G31
 -28593896.340  -150261931.20908 -28593899.360  -117087227.34448
 -27550652.740  -144779397.06509 -27550655.640  -112815048.01047
 -28067661.640  -147496549.58707 -28067666.060  -114932385.76746
 -26475566.840  -139129955.07808 -26475570.280  -108412933.00646
 -27367349.420  -143816356.55108 -27367348.800  -112064681.15848
 -25815596.500  -135661950.87208 -25815598.380  -105710637.61846
 15 03 03 00 10 30.0000000  0  6G16G18G21G22G27G31
 -28834539.060  -151526516.43609 -28834542.120  -118072618.43948
 -27789946.760  -146036896.30309 -27789949.800  -113794917.53847
 -28288473.720  -148656923.90607 -28288477.680  -115836573.55247
 -26723402.680  -140432340.06708 -26723405.720  -109427778.29147
 -27609379.640  -145088231.35808 -27609378.200  -113055752.45348
 -26027422.040  -136775104.72008 -26027422.920  -106578030.72846
 15 03 03 00 11  0.0000000  0  7G16G18G19G21G22G27G31
 -29075109.860  -152790725.22209 -29075113.020  -119057716.18848
 -28029168.000  -147294013.08409 -28029171.140  -114774489.05247
 -25612672.380                                                  
 -28509237.860  -149817047.99608 -28509241.880  -116740566.35146
 -26971216.700  -141734611.47409 -26971219.460  -110442535.07847
 -27851390.020  -146360000.96608 -27851388.960  -114046741.74547
 -26239242.620  -137888230.20608 -26239242.380  -107445401.74046
 15 03 03 00 11 30.0000000  0  7G16G18G19G21G22G27G31
 -29315607.000  -154054546.67209 -29315610.160  -120042512.13548
 -28268314.440  -148550737.07309 -28268317.620  -115753754.47747
 -25858366.580  -135886642.05606 -25858367.820  -105885701.01745
 -28729952.780  -150976914.50008 -28729957.000  -117644358.43346
 -27219006.880  -143036757.78708 -27219010.140  -111457194.37146
 -28093378.120  -147631656.38908 -28093377.740  -115037642.02847
 -26451057.060  -139001321.38708 -26451055.620  -108312746.01746
 15 03 03 00 12  0.0000000  0  7G16G18G19G21G22G27G31
 -29556030.560  -155317980.13209 -29556033.640  -121027005.76148
 -28507385.940  -149807067.15509 -28507389.060  -116732712.96647
 -26104049.740  -137177717.14206 -26104051.880  -106891733.47844
 -28950619.440  -152136527.34608 -28950624.100  -118547952.82946
 -27466773.240  -144338777.78309 -27466777.680  -112471755.22646
 -28335344.320  -148903198.80009 -28335344.340  -116028454.28047
 -26662865.740  -140114382.48308 -26662863.140  -109180066.88646
 15 03 03 00 12 30.0000000  0  7G16G18G19G21G22G27G31
 -29796379.520  -156581022.93909 -29796382.640  -122011194.96148
 -28746381.960  -151063000.71209 -28746384.980  -117711362.47548
 -26349720.440  -138468728.27106 -26349724.260  -107897716.15244
 -29171238.120  -153295887.11207 -29171243.100  -119451350.04246
 -27714514.840  -145640668.02109 -27714519.620  -113486214.97647
 -28577288.700  -150174627.45509 -28577289.300  -117019177.87048
 -26874669.020  -141227416.22408 -26874665.580  -110047366.45646
 15 03 03 00 13  0.0000000  0  7G16G18G19G21G22G27G31
 -30036653.400  -157843672.04809 -30036656.600  -122995077.36148
 -28985302.160  -152318535.24009 -28985305.120  -118689701.06848
 -26595378.520  -139759674.65407 -26595384.800  -108903648.27945
 -29391809.100  -154454994.61607 -29391813.920  -120354550.70047
 -27962230.940  -146942424.90709 -27962235.340  -114500570.85647
 -28819211.460  -151445941.21708 -28819211.960  -118009811.96048
 -27086467.240  -142340424.47207 -27086463.480  -110914646.18846
 15 03 03 00 13 30.0000000  0  7G16G18G19G21G22G27G31
 -30276852.020  -159105925.44809 -30276855.120  -123978651.42948
 -29224146.220  -153573669.10709 -29224149.300  -119667727.46647
 -26841024.480  -141050556.00307 -26841032.840  -109909529.73944
 -29612332.580  -155613851.87707 -29612337.000  -121257556.35646
 -28209921.160  -148244045.75409 -28209925.120  -115514820.72347
 -29061112.320  -152717139.79809 -29061112.700  -119000356.27948
 -27298260.840  -143453409.95108 -27298257.420  -111781908.16146
 15 03 03 00 14  0.0000000  0  7G16G18G19G21G22G27G31
 -30516974.800  -160367780.00909 -30516978.000  -124961914.74248
 -29462913.440  -154828399.32209 -29462916.860  -120645439.27347
 -27086658.680  -142341371.42407 -27086668.000  -110915359.88744
 -29832808.780  -156772459.54007 -29832812.520  -122160367.53646
 -28457584.980  -149545526.98709 -28457588.760  -116528961.80547
 -29302991.080  -153988221.96009 -29302991.340  -119990809.89148
 -27510050.400  -144566374.46508 -27510047.740  -112649153.84345
 15 03 03 00 14 30.0000000  0  7G16G18G19G21G22G27G31
 -30757022.780  -161629241.42009 -30757026.200  -125944871.67748
 -29701605.020  -156082732.04409 -29701608.900  -121622841.32447
 -27332282.340  -143632128.34207 -27332290.240  -111921144.43644
 -30053239.180  -157930827.12907 -30053242.300  -123062991.62746
 -28705223.100  -150846873.80009 -28705227.240  -117542998.13547
 -29544849.340  -155259195.26408 -29544849.360  -120981178.70148
 -27721838.060  -145679328.97508 -27721836.200  -113516391.73646
 15 03 03 00 15  0.0000000  0  7G16G18G19G21G22G27G31
 -30996994.760  -162890302.23009 -30996998.020  -126927516.44348
 -29940219.680  -157336659.92309 -29940223.480  -122599927.95047
 -27577893.960  -144922821.22707 -27577899.120  -112926879.18244
 -30273622.960  -159088951.17407 -30273625.580  -123965425.91946
 -28952834.040  -152148077.68809 -28952838.280  -118556923.10747
 -29786685.760  -156530053.98708 -29786686.020  -121971458.21748
 -27933623.320  -146792270.82908 -27933622.380  -114383619.77945
 15 03 03 00 15 30.0000000  0  7G16G18G19G21G22G27G31
 -31236890.080  -164150959.54409 -31236893.040  -127909846.82248
 -30178757.080  -158590180.36808 -30178760.380  -123576697.15947
 -27823492.920  -146213449.18807 -27823495.840  -113932563.30044
 -30493960.500  -160246832.18307 -30493962.880  -124867670.88646
 -29200417.300  -153449135.56308 -29200421.240  -119570734.32447
 -30028500.060  -157800797.07009 -30028500.700  -122961647.59448
 -28145406.460  -147905202.07108 -28145406.300  -115250839.56145
 15 03 03 00 16  0.0000000  0  7G16G18G19G21G22G27G31
 -31476708.900  -165411215.68109 -31476711.680  -128891864.58548
 -30417217.300  -159843295.90809 -30417220.360  -124553150.81047
 -28069080.220  -147504016.80306 -28069082.280  -114938200.35645
 -30714253.200  -161404476.52507 -30714255.580  -125769731.42246
 -29447973.020  -154750048.57209 -29447976.560  -120584432.64747
 -30270293.160  -159071428.48409 -30270293.920  -123951750.00348
 -28357188.840  -149018129.72808 -28357188.920  -116118056.56645
 15 03 03 00 16 30.0000000  0  7G16G18G19G21G22G27G31
 -31716450.280  -166671065.69309 -31716453.220  -129873565.89348
 -30655599.220  -161096001.71209 -30655602.620  -125529285.13647
 -28314655.600  -148794520.93205 -28314657.260  -115943788.01545
 -30934500.480  -162561882.76607 -30934503.220  -126671606.43045
 -29695499.980  -156050811.38209 -29695503.360  -121598013.93747
 -30512064.320  -160341945.25909 -30512065.520  -124941763.03748
 -28568970.400  -150131053.67808 -28568970.300  -116985270.67745
 15 03 03 00 17  0.0000000  0  7G16G18G19G21G22G27G31
 -31956113.640  -167930505.96809 -31956116.840  -130854947.91948
 -30893902.600  -162348294.91309 -30893905.980  -126505098.00547
 -28560218.380  -150084959.94406 -28560219.800  -116949324.84445
 -31154702.240  -163719051.71808 -31154705.580  -127573296.51045
 -29942997.680  -157351420.03209 -29943001.700  -122611475.10246
 -30753813.180  -161612345.60409 -30753815.080  -125931685.34948
 -28780751.420  -151243975.53408 -28780751.180  -117852483.18645
 15 03 03 00 17 30.0000000  0  7G16G18G19G21G22G27G31
 -32195698.620  -169189534.23409 -32195702.000  -131836008.90048
 -31132127.060  -163600173.19909 -31132130.420  -127480587.57847
 -28805768.400  -151375333.31707 -28805770.880  -117954810.55144
 -31374858.920  -164875984.53808 -31374862.700  -128474802.57546
 -30190465.600  -158651871.25308 -30190470.100  -123624813.58647
 -30995539.820  -162882628.74309 -30995541.840  -126921516.35048
 -28992532.420  -152356897.55008 -28992531.960  -118719695.80246
 15 03 03 00 18  0.0000000  0  7G16G18G19G21G22G27G31
 -32435205.680  -170448153.18409 -32435209.180  -132816750.93048
 -31370273.340  -164851639.64009 -31370276.420  -128455756.25047
 -29051306.640  -152665645.84207 -29051310.360  -118960248.79244
 -31594971.900  -166032687.77608 -31594975.640  -129376129.78845
 -30437903.960  -159952167.26309 -30437908.020  -124638031.18546
 -31237245.120  -164152799.31909 -31237247.200  -127911259.63347
 -29204314.860  -153469827.49408 -29204314.040  -119586914.59945
 15 03 03 00 18 30.0000000  0  7G16G18G19G21G22G27G31
 -32674633.960  -171706357.29509 -32674637.380  -133797169.70248
 -31608340.180  -166102689.09209 -31608343.040  -129430599.95248
 -29296832.620  -153955893.91707 -29296836.560  -119965636.83945
 -31815040.760  -167189159.52708 -31815044.700  -130277276.60146
 -30685311.280  -161252301.83309 -30685315.280  -125651122.95647
 -31478928.400  -165422853.53809 -31478930.460  -128900912.23148
 -29416098.640  -154582764.68909 -29416097.440  -120454139.04946
 15 03 03 00 19  0.0000000  0  7G16G18G19G21G22G27G31
 -32913982.960  -172964144.05209 -32913986.360  -134777263.27048
 -31846327.140  -167353319.25009 -31846330.100  -130405116.92547
 -29542346.160  -155246076.86107 -29542350.100  -120970974.14745
 -32035065.920  -168345402.19308 -32035070.300  -131178244.89346
 -30932686.960  -162552271.57909 -30932691.400  -126664086.27346
 -31720589.760  -166692790.57708 -31720591.460  -129890473.54648
 -29627884.340  -155695711.56208 -29627882.880  -121321371.05445
 15 03 03 00 19 30.0000000  0  7G16G18G19G21G22G27G31
 -33153251.840  -174221510.67309 -33153255.440  -135757029.47748
 -32084234.080  -168603528.07409 -32084237.040  -131379305.60847
 -29787846.920  -156536194.01807 -29787851.040  -121976260.22445
 -32255047.440  -169501414.58308 -32255052.300  -132079033.77546
 -31180030.960  -163852073.18209 -31180035.540  -127676918.60547
 -31962228.560  -167962609.40309 -31962229.680  -130879942.74648
 -29839672.440  -156808670.13708 -29839670.800  -122188612.18246
 15 03 03 00 20  0.0000000  0  7G16G18G19G21G22G27G31
 -33392440.560  -175478456.53209 -33392444.260  -136736467.81548
 -32322060.780  -169853314.85409 -32322063.500  -132353165.42847
 -30033335.140  -157826246.44507 -30033338.960  -122981495.84345
 -32474986.280  -170657200.84107 -32474991.380  -132979646.42746
 -31427342.960  -165151705.31909 -31427347.620  -128689618.87146
 -32203844.840  -169232311.01408 -32203845.460  -131869320.61548
 -30051463.820  -157921644.62508 -30051462.080  -123055865.71746
 15 03 03 00 20 30.0000000  0  7G16G18G19G21G22G27G31
 -33631549.100  -176734981.07409 -33631552.800  -137715577.85448
 -32559807.140  -171102679.71409 -32559809.780  -133326696.44347
 -30278811.120  -159116235.21307 -30278814.520  -123986681.90646
 -32694883.260  -171812764.53806 -32694887.820  -133880085.67946
 -31674622.640  -166451166.54308 -31674627.000  -129702185.97947
 -32445438.920  -170501896.45508 -32445439.460  -132858607.95348
 -30263259.380  -159034639.26008 -30263257.380  -123923134.94446
 15 03 03 00 21  0.0000000  0  7G16G18G19G21G22G27G31
 -33870576.840  -177991080.81209 -33870580.540  -138694356.88248
 -32797472.560  -172351619.31909 -32797475.080  -134299896.11247
 -30524274.500  -160406159.01008 -30524278.280  -124991817.25445
 -32914738.400  -172968105.63605 -32914741.480  -134780351.50545
 -31921868.760  -167750452.37209 -31921872.920  -130714616.41947
 -32687010.400  -171771363.84208 -32687011.200  -133847803.29548
 -30475059.280  -160147655.03408 -30475056.620  -124790420.61646
 15 03 03 00 21 30.0000000  0  7G16G18G19G21G22G27G31
 -34109523.640  -179246754.78109 -34109527.300  -139672804.13348
 -33035056.860  -173600132.90409 -33035059.320  -135272763.84547
 -30769725.840  -161696018.90608 -30769731.080  -125996902.78345
 -33134551.300  -174123226.55906 -33134553.400  -135680445.79646
 -32169081.120  -169049561.80909 -32169084.820  -131726909.40347
 -32928559.940  -173040714.03808 -32928560.340  -134836907.33248
 -30686864.040  -161260695.77208 -30686860.580  -125657725.78345
 15 03 03 00 22  0.0000000  0  7G16G18G19G21G22G27G31
 -34348388.740  -180501999.19409 -34348392.400  -140650916.64849
 -33272559.400  -174848217.39609 -33272562.000  -136245297.20747
 -31015165.500  -162985812.54707 -31015172.100  -127001936.71744
 -33354321.700  -175278127.54907 -33354323.720  -136580368.66846
 -32416258.980  -170348490.17509 -32416262.080  -132739061.31547
 -33170086.960  -174309944.87208 -33170086.740  -135825918.37948
 -30898673.680  -162373762.74608 -30898669.620  -126525051.38246
 15 03 03 00 22 30.0000000  0  7G16G18G19G21G22G27G31
 -34587172.620  -181756816.93409 -34587176.340  -141628696.70649
 -33509980.800  -176095875.78109 -33509983.740  -137217498.52847
 -31260594.140  -164275545.02907 -31260601.820  -128006922.97545
 -33574051.240  -176432815.72807 -33574053.500  -137480125.68047
 -32663402.920  -171647239.57809 -32663406.220  -133751073.76547
 -33411592.100  -175579060.88908 -33411591.400  -136814839.95348
 -31110489.700  -163486863.59108 -31110485.440  -127392403.35946
 15 03 03 00 23  0.0000000  0  7G16G18G19G21G22G27G31
 -34825873.600  -183011198.60109 -34825877.240  -142606136.97048
 -33747319.380  -177343099.07009 -33747322.500  -138189360.81047
 -31506009.740  -165565208.41307 -31506017.200  -129011855.41645
 -33793739.020  -177587284.88207 -33793741.680  -138379712.02647
 -32910510.720  -172945799.69009 -32910514.960  -134762938.70147
 -33653073.520  -176848054.21109 -33653072.520  -137803665.91048
 -31322311.100  -164599993.53808 -31322306.940  -128259778.01046
 15 03 03 00 23 30.0000000  0  7G16G18G19G21G22G27G31
 -35064491.080  -184265140.93909 -35064494.440  -143583234.88748
 -33984574.740  -178589884.37109 -33984577.980  -139160881.79347
 -31751411.660  -166854801.51907 -31751418.140  -130016733.09145
 -34013385.020  -178741534.97807 -34013388.220  -139279127.66647
 -33157581.580  -174244166.67409 -33157586.420  -135774653.13447
 -33894531.020  -178116923.26209 -33894530.280  -138792395.02048
 -31534138.160  -165713154.07808 -31534134.080  -129127176.49446
 15 03 03 00 24  0.0000000  0  7G16G18G19G21G22G27G31
 -35303025.720  -185518648.55709 -35303029.020  -144559994.06648
 -34221747.840  -179836237.10509 -34221751.040  -140132065.71547
 -31996800.920  -168144330.72808 -31996806.300  -131021560.98345
 -34232990.920  -179895574.11207 -34232994.640  -140178378.91646
 -33404616.420  -175542344.18209 -33404621.340  -136786219.94647
 -34135965.880  -179385674.02409 -34135966.200  -139781031.93748
 -31745972.540  -166826354.18308 -31745968.580  -129994605.83746
 15 03 03 00 24 30.0000000  0  7G16G18G19G21G22G27G31
 -35541476.420  -186771716.00509 -35541479.880  -145536410.25148
 -34458837.720  -181082152.01709 -34458840.640  -141102908.50647
 -32242177.340  -169433792.50507 -32242181.660  -132026336.38846
 -34452556.520  -181049401.43207 -34452560.500  -141077465.12145
 -33651614.320  -176840326.67109 -33651618.700  -137797634.81347
 -34377377.720  -180654302.88909 -34377378.820  -140769573.88048
 -31957814.300  -167939593.77908 -31957810.460  -130862065.92645
 15 03 03 00 25  0.0000000  0  7G16G18G19G21G22G27G31
 -35779842.840  -188024341.22909 -35779846.540  -146512481.86048
 -34695843.860  -182327627.09209 -34695846.580  -142073408.56247
 -32487541.680  -170723186.43707 -32487544.680  -133031058.94946
 -34672082.180  -182203018.22507 -34672086.420  -141976387.29145
 -33898574.620  -178138110.51408 -33898578.480  -138808894.91147
 -34618766.380  -181922809.21909 -34618767.480  -141758020.37148
 -32169664.000  -169052874.90908 -32169660.140  -131729558.36246
 15 03 03 00 25 30.0000000  0  7G16G18G19G21G22G27G31
 -36018123.780  -189276516.75309 -36018127.580  -147488203.03648
 -34932764.880  -183572655.91809 -34932767.700  -143043560.87847
 -32732891.880  -172012506.82207 -32732894.200  -134035724.13345
 -34891567.140  -183356419.97707 -34891571.420  -142875141.88445
 -34145495.580  -179435687.76809 -34145499.440  -139819993.98347
 -34860130.740  -183191187.07108 -34860131.780  -142746366.73348
 -32381521.180  -170166194.80508 -32381517.280  -132597080.96945
 15 03 03 00 26  0.0000000  0  7G16G18G19G21G22G27G31
 -36256320.100  -190528246.70609 -36256323.780  -148463577.03148
 -35169601.500  -184817242.27509 -35169604.580  -144013368.39847
 -32978228.820  -173301759.23107 -32978231.760  -135040336.30145
 -35111012.960  -184509614.86907 -35111017.120  -143773735.29244
 -34392377.800  -180733061.31908 -34392381.520  -140830934.35547
 -35101471.780  -184459441.70608 -35101472.780  -143734617.09448
 -32593387.340  -171279561.86508 -32593383.560  -133464640.32545
 15 03 03 00 26 30.0000000  0  7G16G18G19G21G22G27G31
 -36494431.440  -191779529.88809 -36494435.020  -149438602.87948
 -35406353.840  -186061386.24009 -35406357.260  -144982831.17947
 -33223552.700  -174590944.45407 -33223556.000  -136044896.16845
 -35330419.940  -185662605.77407 -35330423.880  -144672169.76744
 -34639220.940  -182030229.72909 -34639224.260  -141841714.88347
 -35342789.320  -185727573.94809 -35342790.100  -144722772.09648
 -32805263.240  -172392980.54708 -32805259.760  -134332239.90145
 15 03 03 00 27  0.0000000  0  7G16G18G19G21G22G27G31
 -36732457.180  -193030363.12409 -36732460.760  -150413278.12248
 -35643021.640  -187305084.80309 -35643025.140  -145951946.93448
 -33468863.220  -175880061.65908 -33468866.300  -137049403.01146
 -35549788.160  -186815392.88807 -35549792.800  -145570445.42743
 -34886024.020  -183327189.32509 -34886027.560  -142852332.69447
 -35584082.840  -186995582.28509 -35584083.620  -145710830.51248
 -33017149.040  -173506451.63108 -33017145.740  -135199880.29645
 15 03 03 00 27 30.0000000  0  7G16G18G19G21G22G27G31
 -36970397.320  -194280746.53409 -36970400.960  -151387602.85549
 -35879604.960  -188548338.18909 -35879608.420  -146920715.81848
 -33714160.880  -177169111.92708 -33714164.540  -138053857.72546
 -35769117.980  -187967979.06406 -35769122.680  -146468564.52643
 -35132787.000  -184623938.79309 -35132791.460  -143862786.75048
 -35825353.220  -188263467.88709 -35825353.960  -146698793.31349
 -33229045.700  -174619979.74408 -33229042.420  -136067565.13246
 15 03 03 00 28  0.0000000  0  7G16G18G19G21G22G27G31
 -37208251.780  -195530679.85009 -37208255.360  -152361576.87448
 -36116103.680  -189791146.84909 -36116107.120  -147889138.16348
 -33959446.360  -178458096.93808 -33959450.780  -139058261.60545
 -35988410.380  -189120368.10706 -35988415.320  -147366530.06842
 -35379510.020  -185920477.08308 -35379515.280  -144873076.26047
 -36066600.880  -189531231.99609 -36066601.600  -147686661.46048
 -33440954.160  -175733569.26008 -33440950.760  -136935297.79145
 15 03 03 00 28 30.0000000  0  7G16G18G19G21G22G27G31
 -37446019.440  -196780157.23209 -37446022.920  -153335195.60648
 -36352516.700  -191033505.52609 -36352520.320  -148857209.82047
 -34204718.780  -179747012.51208 -34204723.580  -140062611.36445
 -36207664.980  -190272558.49906 -36207669.320  -148264340.76744
 -35626191.940  -187216797.79008 -35626197.040  -145883196.23547
 -36307824.360  -190798870.39609 -36307825.660  -148674431.61748
 -33652874.120  -176847219.04608 -33652870.540  -137803077.41145
 15 03 03 00 29  0.0000000  0  7G16G18G19G21G22G27G31
 -37683699.880  -198029176.91309 -37683703.400  -154308457.69548
 -36588843.840  -192275412.73209 -36588847.380  -149824929.68647
 -34449978.260  -181035858.53907 -34449982.680  -141066906.92445
 -36426882.180  -191424551.13106 -36426885.760  -149161997.41343
 -35872831.960  -188512898.23209 -35872836.500  -146893144.61147
 -36549024.040  -192066382.55209 -36549025.600  -149662103.41348
 -33864806.120  -177960931.90108 -33864802.580  -138670906.20945
 15 03 03 00 29 30.0000000  0  7G16G18G19G21G22G27G31
 -37921293.260  -199277739.68209 -37921297.060  -155281363.75748
 -36825085.480  -193516869.86209 -36825088.700  -150792298.86547
 -34695225.380  -182324637.34507 -34695229.260  -142071150.08046
 -36646062.720  -192576350.38006 -36646065.380  -150059503.38344
 -36119429.760  -189808778.49409 -36119433.900  -147902921.38147
 -36790200.260  -193333770.74508 -36790201.720  -150649678.60148
 -34076751.280  -179074713.48008 -34076747.720  -139538788.47745
 15 03 03 00 30  0.0000000  0  7G16G18G19G21G22G27G31
 -38158799.740  -200525845.61709 -38158803.760  -156253913.83748
 -37061241.720  -194757877.45909 -37061244.460  -151759317.78347
 -34940459.780  -183613350.79208 -34940462.940  -143075342.34145
 -36865206.760  -193727960.09706 -36865209.060  -150956861.59944
 -36365985.360  -191104437.45009 -36365989.300  -148912525.70547
 -37031353.120  -194601036.33208 -37031354.780  -151637158.27348
 -34288710.300  -180188567.54008 -34288706.340  -140406727.31445
 15 03 03 00 30 30.0000000  0  7G16G18G19G21G22G27G31
 -38396217.940  -201773486.88409 -38396221.960  -157226101.82749
 -37297310.900  -195998428.03509 -37297313.120  -152725980.57648
 -35185680.240  -184901992.84908 -35185683.140  -144079478.98546
 -37084313.700  -194879375.22907 -37084316.260  -151854068.14345
 -36612497.380  -192399866.36509 -36612501.180  -149921950.79648
 -37272481.480  -195868172.87408 -37272483.020  -152624537.38048
 -34500682.560  -181302490.99508 -34500677.920  -141274720.17146
 15 03 03 00 31  0.0000000  0  7G16G18G19G21G22G27G31
 -38633546.740  -203020658.10109 -38633550.700  -158197923.55248
 -37533292.040  -197238517.20909 -37533294.180  -153692283.80647
 -35430886.020  -186190559.90708 -35430889.820  -145083557.17945
 -37303383.560  -196030594.82407 -37303386.380  -152751122.39345
 -36858964.240  -193695059.44709 -36858968.360  -150931192.09147
 -37513584.580  -197135176.70809 -37513585.220  -153611813.08148
 -34712667.980  -182416483.55708 -34712662.580  -142142767.00945
 15 03 03 00 31 30.0000000  0  7G16G18G19G21G22G27G31
 -38870786.000  -204267358.30709 -38870789.840  -159169378.26249
 -37769185.260  -198478144.17609 -37769187.600  -154658226.87347
 -35676077.460  -187479052.25808 -35676082.700  -146087577.11545
 -37522416.820  -197181621.02907 -37522419.880  -153648025.94244
 -37105385.840  -194990014.88009 -37105390.460  -151940248.20347
 -37754662.000  -198402047.94709 -37754662.320  -154598985.44048
 -34924667.300  -183530548.34108 -34924661.100  -143010870.12845
 15 03 03 00 32  0.0000000  0  7G16G18G19G21G22G27G31
 -39107936.880  -205513593.84909 -39107940.660  -160140470.90748
 -38004991.700  -199717315.55309 -38004994.160  -155623814.92647
 -35921256.740  -188767477.72407 -35921262.140  -147091544.95146
 -37741414.920  -198332463.18707 -37741418.260  -154544786.05044
 -37351763.320  -196284737.66709 -37351768.100  -152949123.05847
 -37995715.640  -199668793.99709 -37995715.900  -155586060.29348
 -35136682.440  -184644695.81807 -35136675.560  -143879037.81245
 15 03 03 00 32 30.0000000  0  6G16G18G19G21G22G27
 -39344998.560  -206759360.67909 -39345002.200  -161111198.31549
 -38240710.760  -200956028.13109 -38240713.340  -156589045.49048
 -36166423.300  -190055834.18607 -36166428.280  -148095459.05946
 -37960377.760  -199483121.40507 -37960381.180  -155441402.85044
 -37598095.860  -197579223.02709 -37598100.260  -153957812.91847
 -38236744.800  -200935412.41109 -38236745.300  -156573035.67049
 15 03 03 00 33  0.0000000  0  6G16G18G19G21G22G27
 -39581970.300  -208004655.07609 -39581973.840  -162081557.57548
 -38476341.820  -202194278.38409 -38476344.580  -157553915.80048
 -36411576.260  -191344119.32408 -36411581.180  -149099317.57346
 -38179305.420  -200633595.06706 -38179309.420  -156337875.79844
 -37844382.460  -198873466.51109 -37844386.560  -154966314.28648
 -38477749.120  -202201900.62909 -38477749.940  -157559909.61048
 15 03 03 00 33 30.0000000  0  6G16G18G19G21G22G27
 -39818852.760  -209249480.25609 -39818856.300  -163051551.22148
 -38711885.700  -203432070.38709 -38711888.600  -158518429.02947
 -36656716.320  -192632337.97208 -36656721.400  -150103124.25345
 -38398199.380  -201783890.53306 -38398203.580  -157234209.91145
 -38090623.400  -200167470.08608 -38090627.540  -155974628.70448
 -38718729.620  -203468263.24609 -38718731.020  -158546685.64448
 15 03 03 00 34  0.0000000  0  5G16G18G19G22G27
 -40055645.080  -210493831.14809 -40055648.460  -164021175.29948
 -38947341.600  -204669399.56409 -38947344.760  -159482581.59647
 -36901842.640  -193920486.01408 -36901847.360  -151106875.94546
 -38336817.540  -201461228.23309 -38336821.740  -156982751.89247
 -38959685.700  -204734496.47409 -38959687.540  -159533360.86648
 15 03 03 00 34 30.0000000  0  5G16G18G19G22G27
 -40292347.320  -211737708.12009 -40292350.400  -164990430.08548
 -39182709.780  -205906266.60309 -39182712.960  -160446374.07347
 -37146955.940  -195208566.05908 -37146960.140  -152110574.63446
 -38582964.820  -202754739.85409 -38582968.760  -157990683.00447
 -39200617.540  -206000601.69109 -39200619.140  -160519936.36148
 15 03 03 00 35  0.0000000  0  5G16G18G19G22G27
 -40528959.740  -212981113.45209 -40528962.620  -165959317.35348
 -39417990.500  -207142674.59509 -39417993.560  -161409808.85847
 -37392057.060  -196496581.78408 -37392061.040  -153114223.24146
 -38829065.480  -204048006.77309 -38829069.240  -158998423.42447
 -39441525.680  -207266582.54109 -39441527.040  -161506414.92848
 15 03 03 00 35 30.0000000  0  5G16G18G19G22G27
 -40765482.660  -214224049.08409 -40765485.340  -166927838.62548
 -39653184.140  -208378625.69109 -39653187.180  -162372887.62047
 -37637146.440  -197784536.10708 -37637150.080  -154117824.00046
 -39075119.480  -205341029.86109 -39075123.440  -160005973.82747
 -39682410.840  -208532442.04809 -39682412.420  -162492798.93348
 15 03 03 00 36  0.0000000  0  5G16G18G19G22G27
 -41001915.520  -215466512.23609 -41001918.040  -167895991.72649
 -39888290.380  -209614117.94409 -39888293.420  -163335608.84148
 -37882223.740  -199072427.85308 -37882227.060  -155121375.98146
 -39321126.220  -206633804.98809 -39321130.420  -161013331.03248
 -39923272.480  -209798178.55209 -39923274.140  -163479087.09148
 15 03 03 00 36 30.0000000  0  5G16G18G19G22G27
 -41238257.180  -216708497.00709 -41238259.720  -168863772.07049
 -40123308.340  -210849146.11209 -40123311.500  -164297968.43447
 -38127288.420  -200360252.71008 -38127292.340  -156124875.80045
 -39567084.440  -207926325.67209 -39567088.960  -162020489.94947
 -40164109.980  -211063787.33909 -40164111.220  -164465275.78148
 15 03 03 00 37  0.0000000  0  5G16G18G19G22G27
 -41474507.460  -217950001.95009 -41474510.000  -169831178.51449
 -40358237.800  -212083709.10109 -40358241.280  -165259965.54047
 -38372340.840  -201648011.50908 -38372345.860  -157128324.16146
 -39812994.020  -209218589.72009 -39812998.400  -163027448.90048
 -40404923.260  -212329268.45308 -40404924.360  -165451364.94548
 15 03 03 00 37 30.0000000  0  5G16G18G19G22G27
 -41710665.920  -219191024.65509 -41710668.580  -170798209.20349
 -40593078.540  -213317805.12809 -40593082.000  -166221598.79547
 -38617380.580  -202935702.38108 -38617386.440  -158131719.63045
 -40058854.300  -210510593.50009 -40058858.280  -164034205.07848
 -40645712.180  -213594620.30608 -40645713.000  -166437353.40448
 15 03 03 00 38  0.0000000  0  5G16G18G19G22G27
 -41946732.520  -220431564.89709 -41946735.560  -171764863.94649
 -40827830.600  -214551434.66509 -40827833.820  -167182868.56247
 -38862407.500  -204223326.65108 -38862413.400  -159135063.17445
 -40304664.780  -211802335.57809 -40304668.780  -165040757.31648
 -40886476.480  -214859843.75509 -40886476.620  -167423241.80748
 15 03 03 00 38 30.0000000  0  5G16G18G19G22G27
 -42182706.820  -221671619.72709 -42182710.260  -172731140.44448
 -41062493.380  -215784595.28709 -41062496.360  -168143772.93748
 -39107421.280  -205510882.74508 -39107426.540  -160138353.58746
 -40550424.620  -213093812.29609 -40550429.040  -166047102.76447
 -41127215.640  -216124936.91309 -41127215.360  -168409028.68648
 15 03 03 00 39  0.0000000  0  5G16G18G19G22G27
 -42418588.660  -222911187.80909 -42418592.320  -173697037.64549
 -41297066.760  -217017286.02309 -41297069.600  -169104311.16248
 -39352422.400  -206798370.47307 -39352426.420  -161141590.75446
 -40796133.220  -214385021.18609 -40796138.180  -167053239.50248
 -41367929.800  -217389899.44409 -41367929.900  -169394713.75048
 15 03 03 00 39 30.0000000  0  5G16G18G19G22G27
 -42654377.540  -224150266.71509 -42654381.300  -174662553.67049
 -41531550.300  -218249505.10309 -41531553.040  -170064481.86048
 -39597410.180  -208085788.81608 -39597413.560  -162144773.88646
 -41041790.300  -215675958.82709 -41041795.520  -168059164.89748
 -41608618.840  -218654730.02109 -41608619.500  -170380295.98648
 15 03 03 00 40  0.0000000  0  5G16G18G19G22G27
 -42890072.000  -225388848.86109 -42890075.820  -175627682.61249
 -41765942.880  -219481245.93609 -41765945.540  -171024279.91447
 -39842383.260  -209373131.85808 -39842386.660  -163147898.29746
 -41287394.600  -216966616.90209 -41287399.640  -169064872.47448
 -41849281.520  -219919422.20709 -41849282.120  -171365770.40848
 15 03 03 00 40 30.0000000  0  4G18G19G22G27
 -42000244.080  -220712507.19109 -42000246.820  -171983704.25647
 -40087341.800  -210660398.99808 -40087345.340  -164150963.55046
 -41532944.960  -218256992.34609 -41532950.000  -170070359.81747
 -42089917.700  -221183975.17109 -42089918.620  -172351136.33848
 15 03 03 00 41  0.0000000  0  4G18G19G22G27
 -42234454.700  -221943293.12909 -42234457.600  -172942758.20947
 -40332286.940  -211947595.32408 -40332291.200  -165153973.64846
 -41778441.840  -219547088.06509 -41778447.140  -171075629.15648
 -42330528.720  -222448393.70408 -42330529.940  -173336397.50748
 15 03 03 00 41 30.0000000  0  4G18G19G22G27
 -42468574.140  -223173600.10409 -42468577.240  -173901438.93047
 -40577217.980  -213234718.06108 -40577223.300  -166156926.37546
 -42023884.520  -220836898.64509 -42023890.080  -172080676.31047
 -42571113.740  -223712674.59609 -42571114.500  -174321551.45648
 15 03 03 00 42  0.0000000  0  4G18G19G22G27
 -42702602.560  -224403428.30409 -42702605.760  -174859746.57747
 -40822134.960  -214521767.74308 -40822141.180  -167159822.18246
 -42269272.780  -222126422.38909 -42269278.220  -173085499.98748
 -42811672.540  -224976818.03809 -42811672.860  -175306598.30648
 15 03 03 00 42 30.0000000  0  3G18G19G22
 -42936540.960  -225632782.79609 -42936544.220  -175817685.10047
 -41067039.380  -215808749.94508 -41067045.380  -168162665.44846
 -42514607.200  -223415662.83209 -42514612.420  -174090102.90547
 15 03 03 00 43  0.0000000  0  4G16G18G22G27
 -42949672.960  -225702054.76809 -42949590.240  -175871392.26448
                                 -42949531.440  -175870851.17547
 -42759885.940  -224704611.15009 -42759891.180  -175094478.16947
 -42949672.960  -225702832.62709 -42949632.300  -175872157.44148
 15 03 03 00 43 30.0000000  0  1G16
 -42949672.960  -225702054.76809 -42949673.640  -175871733.77349
 15 03 03 00 44  0.0000000  0  2G16G19
 -42949672.960  -225702054.76809 -42949661.400  -175871683.65249
 -41801670.940  -219669257.89108 -41801674.540  -171170853.38846
 15 03 03 00 44 30.0000000  0  3G16G22G27
 -42949672.960  -225702054.76809 -42949552.400  -175871237.31549
 -42949672.960  -225701573.63309 -42949803.600  -175871866.93548
 -42949672.960  -225702530.87509 -42949771.220  -175872491.11849
 15 03 03 00 45  0.0000000  0  1G16
 -42949672.960  -225702054.76809 -42949673.980  -175871735.16548
 15 03 03 00 45 30.0000000  0  3G16G18G27
 -42949672.960  -225702054.76809 -42949698.640  -175871836.14449
 -42949672.960  -225702054.76809 -42949542.640  -175871197.35048
 -42949672.960  -225702054.76809 -42949511.120  -175871068.28148
 15 03 03 00 46  0.0000000  0  3G16G18G27
 -42949672.960  -225702054.76809 -42949624.460  -175871532.38949
 -42949672.960  -225702054.76809 -42949528.160  -175871138.05747
 -42949672.960  -225702054.76809 -42949667.580  -175871708.95848
 15 03 03 00 46 30.0000000  0  4G16G18G22G27
 -42949672.960  -225702054.76809 -42949779.780  -175872168.39849
 -42949672.960  -225702054.76809 -42949748.540  -175872040.47647
 -42949672.960  -225702054.76809 -42949566.620  -175871295.54448
 -42949672.960  -225702054.76809 -42949794.900  -175872230.31248
 15 03 03 00 47  0.0000000  0  4G16G18G22G27
 -42949672.960  -225702054.76809 -42949509.380  -175871061.15649
 -42949672.960  -225702054.76809 -42949547.820  -175871218.56147
 -42949672.960  -225702054.76809 -42949604.640  -175871451.22948
 -42949672.960  -225702054.76808 -42949566.540  -175871295.21648
 15 03 03 00 47 30.0000000  0  4G16G18G22G27
 -42949672.960  -225702054.76809 -42949796.320  -175872236.12749
 -42949672.960  -225702054.76809 -42949581.880  -175871358.03148
 -42949672.960  -225702054.76809 -42949582.740  -175871361.55248
 -42949672.960  -225702054.76809 -42949638.800  -175871591.10949
 15 03 03 00 48  0.0000000  0  4G16G18G22G27
 -42949672.960  -225702054.76809 -42949657.060  -175871665.88048
 -42949672.960  -225702054.76809 -42949522.660  -175871115.53547
 -42949672.960  -225702054.76809 -42949826.920  -175872361.42947
 -42949672.960  -225702054.76809 -42949683.060  -175871772.34648
 15 03 03 00 48 30.0000000  0  4G16G18G22G27
 -42949672.960  -225702054.76809 -42949746.500  -175872032.12248
 -42949672.960  -225702054.76809 -42949698.160  -175871834.17847
 -42949672.960  -225702054.76809 -42949682.820  -175871771.36348
 -42949672.960  -225702054.76809 -42949699.180  -175871838.35549
 15 03 03 00 49  0.0000000  0  4G16G18G22G27
 -42949672.960  -225702054.76809 -42949736.960  -175871993.05848
 -42949672.960  -225702054.76809 -42949780.920  -175872173.06647
 -42949672.960  -225702054.76809 -42949805.740  -175872274.70048
 -42949672.960  -225702054.76809 -42949687.640  -175871791.10049
 15 03 03 00 49 30.0000000  0  4G16G18G22G27
 -42949672.960  -225702054.76809 -42949627.720  -175871545.73848
 -42949672.960  -225702054.76809 -42949768.820  -175872123.51947
 -42949672.960  -225702054.76809 -42949537.940  -175871178.10448
 -42949672.960  -225702054.76809 -42949647.920  -175871628.45448
 15 03 03 00 50  0.0000000  0  4G16G18G22G27
 -42949672.960  -225702054.76808 -42949746.060  -175872030.32148
 -42949672.960  -225702054.76809 -42949662.820  -175871689.46746
 -42949672.960  -225702054.76809 -42949534.580  -175871164.34547
 -42949672.960  -225702054.76809 -42949578.920  -175871345.91048
 15 03 03 00 50 30.0000000  0  5G16G18G21G22G27
 -42949672.960  -225702054.76809 -42949764.220  -175872104.68348
 -42949672.960  -225702054.76809 -42949790.220  -175872211.14847
 -42949672.960  -225702054.76805                                
 -42949672.960  -225702054.76809 -42949795.600  -175872233.17947
 -42949672.960  -225702054.76809 -42949808.200  -175872284.77348
 15 03 03 00 51  0.0000000  0  5G16G18G21G22G27
 -42949672.960  -225702054.76809 -42949682.320  -175871769.31649
 -42949672.960  -225702054.76809 -42949823.440  -175872347.17947
 -42949672.960  -225702054.76806 -42949744.860  -175872025.40743
 -42949672.960  -225702054.76809 -42949665.540  -175871700.60548
 -42949672.960  -225702054.76808 -42949681.800  -175871767.18748
 15 03 03 00 51 30.0000000  0  5G16G18G21G22G27
 -42949672.960  -225702054.76809 -42949827.020  -175872361.83849
 -42949672.960  -225702054.76809 -42949761.880  -175872095.10148
 -42949672.960  -225702054.76805 -42949696.500  -175871827.38142
 -42949672.960  -225702054.76809 -42949798.340  -175872244.39848
 -42949672.960  -225702054.76808 -42949525.300  -175871126.34548
 15 03 03 00 52  0.0000000  0  3G16G19G22
 -42949672.960  -225702054.76809 -42949542.840  -175871198.16949
 -42949672.960  -225702054.76808 -42949539.660  -175871185.14747
 -42949672.960  -225702054.76809 -42949538.200  -175871179.16948
 15 03 03 00 52 30.0000000  0  5G16G18G21G22G27
 -42949672.960  -225702054.76809 -42949812.780  -175872303.52849
 -42949672.960  -225702054.76809 -42949682.820  -175871771.36348
 -42949672.960  -225702054.76806 -42949527.380  -175871134.86344
 -42949672.960  -225702054.76809 -42949540.700  -175871189.40648
 -42949672.960  -225702054.76809 -42949778.820  -175872164.46748
 15 03 03 00 53  0.0000000  0  5G16G18G21G22G27
 -42949672.960  -225702054.76809 -42949654.580  -175871655.72549
 -42949672.960  -225702054.76809 -42949665.820  -175871701.75148
 -42949672.960  -225702054.76807 -42949736.180  -175871989.86443
 -42949672.960  -225702054.76809 -42949806.100  -175872276.17448
 -42949672.960  -225702054.76809 -42949534.280  -175871163.11748
 15 03 03 00 53 30.0000000  0  5G16G18G21G22G27
 -42949672.960  -225702054.76809 -42949723.360  -175871937.36849
 -42949672.960  -225702054.76809 -42949554.520  -175871245.99648
 -42949672.960  -225702054.76807 -42949593.860  -175871407.08743
 -42949672.960  -225702054.76809 -42949677.200  -175871748.35048
 -42949672.960  -225702054.76809 -42949587.560  -175871381.29049
 15 03 03 00 54  0.0000000  0  5G16G18G21G22G27
 -42949672.960  -225702054.76809 -42949691.160  -175871805.51448
 -42949672.960  -225702054.76809 -42949676.820  -175871746.79448
 -42949672.960  -225702054.76807 -42949758.040  -175872079.37743
 -42949672.960  -225702054.76809 -42949810.420  -175872293.86448
 -42949672.960  -225702054.76809 -42949612.540  -175871483.57849
 15 03 03 00 54 30.0000000  0  5G16G18G21G22G27
 -42949672.960  -225702054.76809 -42949558.240  -175871261.22949
 -42949672.960  -225702054.76809 -42949705.740  -175871865.21748
 -42949672.960  -225702054.76808 -42949574.060  -175871326.00941
 -42949672.960  -225702054.76809 -42949550.920  -175871231.25548
 -42949672.960  -225702054.76809 -42949608.580  -175871467.36349
 15 03 03 00 55  0.0000000  0  5G16G18G21G22G27
 -42949672.960  -225702054.76809 -42949651.240  -175871642.04948
 -42949672.960  -225702054.76809 -42949640.060  -175871596.26847
 -42949672.960  -225702054.76807 -42949693.040  -175871813.21341
 -42949672.960  -225702054.76809 -42949551.860  -175871235.10448
 -42949672.960  -225702054.76809 -42949574.740  -175871328.79448
 15 03 03 00 55 30.0000000  0  5G16G18G21G22G27
 -42949672.960  -225702054.76808 -42949643.440  -175871610.10948
 -42949672.960  -225702054.76809 -42949808.760  -175872287.06747
 -42949672.960  -225702054.76807 -42949791.840  -175872217.78241
 -42949672.960  -225702054.76809 -42949813.920  -175872308.19648
 -42949672.960  -225702054.76809 -42949512.780  -175871075.07848
 15 03 03 00 56  0.0000000  0  5G16G18G21G22G27
 -42949672.960  -225702054.76808 -42949533.960  -175871161.80748
 -42949672.960  -225702054.76809 -42949555.800  -175871251.23848
 -42949672.960  -225702054.76806 -42949541.860  -175871194.15643
 -42949672.960  -225702054.76809 -42949680.820  -175871763.17448
 -42949672.960  -225702054.76809 -42949748.440  -175872040.06648
 15 03 03 00 56 30.0000000  0  5G16G18G21G22G27
 -42949672.960  -225702054.76809 -42949649.880  -175871636.48048
 -42949672.960  -225702054.76809 -42949535.500  -175871168.11348
 -42949672.960  -225702054.76806 -42949596.880  -175871419.45342
 -42949672.960  -225702054.76809 -42949807.220  -175872280.76147
 -42949672.960  -225702054.76809 -42949626.300  -175871539.92348
 15 03 03 00 57  0.0000000  0  5G16G18G21G22G27
 -42949672.960  -225702054.76809 -42949663.040  -175871690.36849
 -42949672.960  -225702054.76809 -42949747.860  -175872037.69148
 -42949672.960  -225702054.76807 -42949629.320  -175871552.29042
 -42949672.960  -225702054.76809 -42949537.660  -175871176.95748
 -42949672.960  -225702054.76809 -42949801.560  -175872257.58448
 15 03 03 00 57 30.0000000  0  5G16G18G21G22G27
 -42949672.960  -225702054.76809 -42949574.460  -175871327.64748
 -42949672.960  -225702054.76809 -42949538.460  -175871180.23348
 -42949672.960  -225702054.76806 -42949643.620  -175871610.84653
 -42949672.960  -225702054.76809 -42949526.080  -175871129.53948
 -42949672.960  -225702054.76809 -42949618.900  -175871509.62248
 15 03 03 00 58  0.0000000  0  5G16G18G21G22G27
 -42949672.960  -225702054.76809 -42949711.020  -175871886.83848
 -42949672.960  -225702054.76809 -42949561.940  -175871276.38048
 -42949672.960  -225702054.76806                                
 -42949672.960  -225702054.76809 -42949771.600  -175872134.90348
 -42949672.960  -225702054.76809 -42949733.500  -175871978.88948
 15 03 03 00 58 30.0000000  0  5G16G18G21G22G27
 -42949672.960  -225702054.76809 -42949745.100  -175872026.39048
 -42949672.960  -225702054.76809 -42949819.340  -175872330.39047
 -42949672.960  -225702054.76806                                
 -42949672.960  -225702054.76809 -42949621.020  -175871518.30348
 -42949672.960  -225702054.76809 -42949818.560  -175872327.19648
 15 03 03 00 59  0.0000000  0  5G16G18G21G22G27
 -42949672.960  -225702054.76809 -42949675.840  -175871742.78148
 -42949672.960  -225702054.76808 -42949654.340  -175871654.74347
 -42949672.960  -225702054.76805                                
 -42949672.960  -225702054.76809 -42949728.840  -175871959.80848
 -42949672.960  -225702054.76809 -42949544.900  -175871206.60448
 15 03 03 00 59 30.0000000  0  5G16G18G21G22G27
 -42949672.960  -225702054.76809 -42949829.820  -175872373.30449
 -42949672.960  -225702054.76808 -42949720.620  -175871926.14847
 -42949672.960  -225702054.76805                                
 -42949672.960  -225702054.76809 -42949763.760  -175872102.79948
 -42949672.960  -225702054.76809 -42949566.660  -175871295.70848
 15 03 03 01 00  0.0000000  0  5G16G18G21G22G27
 -42949672.960  -225702054.76809 -42949552.800  -175871238.95348
 -42949672.960  -225702054.76809 -42949691.860  -175871808.38147
 -42949672.960  -225702054.76806 -42949752.420  -175872056.36443
 -42949672.960  -225702054.76809 -42949726.660  -175871950.88148
 -42949672.960  -225702054.76809 -42949557.380  -175871257.70848
 15 03 03 01 00 30.0000000  0  5G16G18G21G22G27
 -42949672.960  -225702054.76809 -42949828.480  -175872367.81748
 -42949672.960  -225702054.76809 -42949568.800  -175871304.47147
 -42949672.960  -225702054.76806 -42949648.020  -175871628.86343
 -42949672.960  -225702054.76809 -42949619.160  -175871510.68648
 -42949672.960  -225702054.76809 -42949517.420  -175871094.07848
 15 03 03 01 01  0.0000000  0  5G16G18G21G22G27
 -42949672.960  -225702054.76809 -42949672.900  -175871730.74348
 -42949672.960  -225702054.76809 -42949678.360  -175871753.10048
 -42949672.960  -225702054.76806 -42949526.240  -175871130.19443
 -42949672.960  -225702054.76809 -42949767.360  -175872117.54148
 -42949672.960  -225702054.76808 -42949773.760  -175872143.74748
 15 03 03 01 01 30.0000000  0  5G16G18G21G22G27
 -42949672.960  -225702054.76809 -42949739.520  -175872003.54048
 -42949672.960  -225702054.76809 -42949691.600  -175871807.31647
 -42949672.960  -225702054.76807 -42949712.440  -175871892.65244
 -42949672.960  -225702054.76809 -42949513.700  -175871078.84547
 -42949672.960  -225702054.76809 -42949669.260  -175871715.83748
 15 03 03 01 02  0.0000000  0  5G16G18G21G22G27
 -42949672.960  -225702054.76809 -42949701.960  -175871849.73849
 -42949672.960  -225702054.76809 -42949609.880  -175871472.68648
 -42949672.960  -225702054.76807 -42949552.720  -175871238.62644
 -42949672.960  -225702054.76809 -42949513.880  -175871079.58248
 -42949672.960  -225702054.76809 -42949533.380  -175871159.43248
 15 03 03 01 02 30.0000000  0  5G16G18G21G22G27
 -42949672.960  -225702054.76809 -42949559.880  -175871267.94548
 -42949672.960  -225702054.76809 -42949760.140  -175872087.97648
 -42949672.960  -225702054.76807 -42949702.720  -175871852.85144
 -42949672.960  -225702054.76809 -42949767.820  -175872119.42448
 -42949672.960  -225702054.76809 -42949692.920  -175871812.72148
 15 03 03 01 03  0.0000000  0  5G16G18G21G22G27
 -42949672.960  -225702054.76809 -42949641.000  -175871600.11748
 -42949672.960  -225702054.76809 -42949815.200  -175872313.43748
 -42949672.960  -225702054.76807 -42949834.320  -175872391.73144
 -42949672.960  -225702054.76809 -42949620.940  -175871517.97548
 -42949672.960  -225702054.76809 -42949819.340  -175872330.39048
 15 03 03 01 03 30.0000000  0  5G16G18G21G22G27
 -42949672.960  -225702054.76809 -42949615.840  -175871497.09148
 -42949672.960  -225702054.76809 -42949773.680  -175872143.42048
 -42949672.960  -225702054.76807 -42949618.880  -175871509.54044
 -42949672.960  -225702054.76809 -42949725.900  -175871947.76948
 -42949672.960  -225702054.76809 -42949584.220  -175871367.61349
 15 03 03 01 04  0.0000000  0  5G16G18G21G22G27
 -42949672.960  -225702054.76809 -42949812.620  -175872302.87348
 -42949672.960  -225702054.76808 -42949635.880  -175871579.15247
 -42949672.960  -225702054.76807 -42949712.680  -175871893.63544
 -42949672.960  -225702054.76809 -42949754.000  -175872062.83448
 -42949672.960  -225702054.76809 -42949643.340  -175871609.69949
 15 03 03 01 04 30.0000000  0  5G16G18G21G22G27
 -42949672.960  -225702054.76809 -42949575.180  -175871330.59649
 -42949672.960  -225702054.76809 -42949729.220  -175871961.36448
 -42949672.960  -225702054.76807 -42949787.560  -175872200.25645
 -42949672.960  -225702054.76809 -42949705.660  -175871864.88948
 -42949672.960  -225702054.76809 -42949668.520  -175871712.80749
 15 03 03 01 05  0.0000000  0  5G16G18G21G22G27
 -42949672.960  -225702054.76809 -42949560.400  -175871270.07448
 -42949672.960  -225702054.76809 -42949727.320  -175871953.58348
 -42949672.960  -225702054.76806 -42949518.060  -175871096.69946
 -42949672.960  -225702054.76809 -42949582.180  -175871359.25948
 -42949672.960  -225702054.76809 -42949660.960  -175871681.85048
 15 03 03 01 05 30.0000000  0  6G16G18G19G21G22G27
  20336741.400   106870297.13809  20336736.580    83275536.24149
  21519794.740   113087284.02309  21519791.260    88119947.74648
  22800343.840   119816617.88708  22800339.980    93363578.60848
  22766586.820   119639223.05006  22766582.620    93225349.08045
  21384491.420   112376260.64809  21384485.920    87565893.91848
  21030655.380   110516841.36808  21030655.140    86117016.65048
 15 03 03 01 06  0.0000000  0  6G16G18G19G21G22G27
  20106276.140   105659194.23609  20106271.420    82331819.68949
  21290279.940   111881175.95209  21290276.520    87180123.28648
  22556182.800   118533544.07608  22556178.940    92363780.86447
  22549307.300   118497412.51706  22549303.480    92335626.58546
  21142281.300   111103438.24909  21142276.120    86574084.27848
  20791519.840   109260176.31209  20791519.820    85137797.12349
 15 03 03 01 06 30.0000000  0  6G16G18G19G21G22G27
  19875915.940   104448643.24309  19875911.260    81388533.19848
  21060860.000   110675566.35609  21060856.560    86240687.25347
  22312039.160   117250561.58108  22312035.280    91364054.26347
  22332043.740   117355685.66806  22332040.120    91445969.27945
  20900147.540   109831018.12109  20900142.840    85582588.06048
  20552417.280   108003684.98509  20552417.380    84158712.97048
 15 03 03 01 07  0.0000000  0  6G16G18G19G21G22G27
  19645660.600   103238643.34609  19645655.860    80445676.12348
  20831534.640   109470453.77109  20831531.180    85301638.50647
  22067912.680   115967669.94408  22067908.320    90364398.43846
  22114795.760   116214039.82707  22114792.400    90556375.04244
  20658090.700   108559001.19609  20658086.060    84591406.03848
  20313347.920   106747367.03909  20313347.800    83179763.91048
 15 03 03 01 07 30.0000000  0  6G16G18G19G21G22G27
  19415510.540   102029197.03009  19415505.840    79503250.41648
  20602304.120   108265839.50009  20602300.680    84362978.05547
  21823803.980   114684870.86908  21823799.660    89364814.78047
  21897563.360   115072475.55305  21897560.080    89666844.42045
  20416111.280   107287390.70709  20416106.400    83600540.74248
  20074312.260   105491224.69709  20074311.580    82200951.72548
 15 03 03 01 08  0.0000000  0  6G16G18G19G21G22G27
  19185466.080   100820305.85309  19185461.560    78561257.28748
  20373168.820   107061724.56209  20373165.240    83424706.69347
  21579713.780   113402166.07408  21579709.480    88365304.57947
  21680346.100   113930992.52205  21680343.200    88777377.12145
  20174209.980   106016190.10409  20174204.840    82609994.83848
  19835310.260   104235260.07909  19835309.400    81222278.00548
 15 03 03 01 08 30.0000000  0  6G16G18G19G21G22G27
  18955528.120    99611974.63509  18955523.880    77619700.49249
  20144129.340   105858113.29009  20144125.640    82486827.79747
  21335642.460   112119560.62608  21335637.980    87365871.79547
  21463144.700   112789593.94105  21463142.480    87887975.63445
  19932388.060   104745405.87409  19932382.820    81619773.38548
  19596343.160   102979478.68909  19596342.220    80243747.07249
 15 03 03 01 09  0.0000000  0  7G04G16G18G19G21G22G27
  22815183.820   119894600.14908  22815184.140    93424369.60845
  18725696.580    98404203.04908  18725692.700    76678579.77548
  19915185.480   104655004.78409  19915181.460    81549340.66947
  21091589.760   110837054.10608  21091584.960    86366516.07148
  21245959.140   111648277.41305  21245957.320    86998638.10844
  19690645.420   103475039.22709  19690639.960    80629877.31148
  19357410.820   101723880.38909  19357409.820    79265358.79949
 15 03 03 01 09 30.0000000  0  7G04G16G18G19G21G22G27
  22566112.120   118585722.61808  22566113.040    92404465.28444
  18495971.560    97196991.03008  18495968.120    75737895.08148
  19686337.080   103452398.14909  19686332.680    80612244.60547
  20847555.900   109554646.75708  20847551.400    85367237.62147
  21028789.180   110507041.91506  21028786.980    86109363.62845
  19448982.360   102205091.58009  19448976.440    79640307.76548
  19118513.080   100468465.91309  19118512.280    78287113.74348
 15 03 03 01 10  0.0000000  0  7G04G16G18G19G21G22G27
  22317067.360   117276989.94007  22317069.420    91384673.82544
  18266353.860    95990342.75809  18266350.700    74797649.68449
  19457584.880   102250296.69309  19457580.380    79675542.18847
  20603541.700   108272342.90608  20603536.700    84368039.83047
  20811635.500   109365889.11206  20811632.460    85220153.64644
  19207399.940   100935568.83209  19207394.180    78651069.28848
  18879651.140    99213239.60209  18879650.600    77309015.33348
 15 03 03 01 10 30.0000000  0  7G04G16G18G19G21G22G27
  22068050.420   115968402.58507  22068053.320    90364995.60044
  18036843.360    94784257.97009  18036840.500    73857843.36248
  19228928.620   101048699.67709  19228924.180    78739232.82947
  20359546.820   106990142.02408  20359541.240    83368922.26046
  20594497.260   108224817.48906  20594493.780    84331006.88244
  18965898.600    99666471.85409  18965893.140    77662162.52648
  18640824.920    97958201.60708  18640825.000    76331063.63648
 15 03 03 01 11  0.0000000  0  7G04G16G18G19G21G22G27
  21819061.920   114659964.20207  21819065.400    89345433.41644
  17807440.700    93578739.53309  17807438.060    72918478.33448
  19000368.800    99847609.74809  19000364.420    77803318.60247
  20115572.100   105708047.24208  20115566.760    82369887.40546
  20377374.440   107083828.35505  20377370.980    83441924.41744
  18724479.500    98397805.43009  18724474.040    76673591.31148
  18402035.480    96703355.55209  18402035.740    75353261.49548
 15 03 03 01 11 30.0000000  0  6G04G16G18G19G22G27
  21570101.260   113351670.28607  21570104.280    88325983.86344
  17578144.980    92373782.44109  17578142.400    71979550.74249
  18771904.220    98647020.86809  18771900.020    76867794.80248
  19871616.780   104426054.07108  19871611.360    81370931.71847
  18483141.620    97129566.25509  18483136.340    75685353.00548
  18163282.320    95448697.14209  18163282.020    74375605.62648
 15 03 03 01 12  0.0000000  0  6G04G16G18G19G22G27
  21321168.160   112043519.04307  21321170.320    87306645.49844
  17348955.740    91169384.14909  17348952.980    71041058.56948
  18543534.300    97446930.10209  18543530.520    75932659.13447
  19627680.240   103144159.98108  19627674.800    80372053.22947
  18241884.900    95861753.63209  18241879.740    74697447.06548
  17924564.340    94194224.56009  17924563.860    73398094.51748
 15 03 03 01 12 30.0000000  0  6G04G16G18G19G22G27
  21072263.900   110735516.38207  21072265.300    86287422.88745
  17119873.980    89965550.68109  17119870.980    70103006.50849
  18315260.120    96247341.74409  18315256.500    74997914.94548
  19383763.800   101862370.52408  19383758.580    79373256.26447
  18000710.680    94594374.04209  18000705.480    73709878.59448
  17685882.860    92939943.54309  17685882.280    72420732.67149
 15 03 03 01 13  0.0000000  0  6G04G16G18G19G22G27
  20823388.860   109427665.22008  20823389.640    85268318.27644
  16890900.160    88762284.00609  16890896.820    69165396.10148
  18087081.980    95048257.71109  18087078.260    74063563.75347
  19139867.980   100580688.43608  19139863.120    78374542.96547
  17759619.360    93327431.63709  17759614.340    72722650.76748
  17447238.480    91685857.14109  17447237.380    71443522.51248
 15 03 03 01 13 30.0000000  0  6G04G16G18G19G22G27
  20574541.960   108119961.34708  20574541.460    84249328.49444
  16662033.220    87559578.68409  16662029.460    68228223.12349
  17858998.700    93849672.41909  17858995.040    73129601.16648
  18895991.700    99299108.99108  18895987.000    77375909.65447
  17518610.380    92060923.07909  17518605.560    71735760.97848
  17208630.040    90431961.11309  17208628.680    70466460.67449
 15 03 03 01 14  0.0000000  0  6G04G16G18G19G22G27
  20325723.600   106812407.98008  20325721.840    83230455.98144
  16433273.640    86357437.65109  16433269.540    67291489.83449
  17631010.920    92651587.94709  17631007.260    72196028.84948
  18652135.440    98017635.13108  18652130.820    76377358.57947
  17277684.920    90794852.57109  17277680.140    70749212.55448
  16970058.580    89178258.72209  16970057.320    69489549.72549
 15 03 03 01 14 30.0000000  0  6G04G16G18G19G22G27
  20076933.480   105505004.79508  20076930.960    82211700.51644
  16204621.180    85155860.12209  16204616.800    66355195.65048
  17403118.180    91454002.57709  17403114.420    71262845.46248
  18408299.100    96736266.33409  18408294.020    75378889.42047
  17036843.100    89529220.73509  17036838.260    69763005.97048
  16731523.820    87924749.75109  16731522.540    68512789.48948
 15 03 03 01 15  0.0000000  0  7G04G16G18G19G21G22G27
  19828171.900   104197754.77808  19828169.420    81193064.32944
  15976076.240    83954848.27209  15976071.700    65419342.25048
  17175320.620    90256917.89709  17175316.920    70330052.20648
  18164483.200    95455004.92209  18164477.860    74380503.94947
  18640896.480    97958575.31606  18640891.900    76331342.90044
  16796085.680    88264031.26009  16796080.760    68777144.07448
  16493026.140    86671437.13709  16493024.820    67536182.25648
 15 03 03 01 15 30.0000000  0  7G04G16G18G19G21G22G27
  19579439.160   102890658.22108  19579437.240    80174547.74744
  15747638.880    82754401.40209  15747634.120    64483929.08248
  16947618.120    89060332.71009  16947614.540    69397648.18348
  17920687.540    94173851.18708  17920682.640    73382202.34447
  18423897.160    96818235.17906  18423893.240    75442766.16544
  16555412.840    86999285.62009  16555408.000    67791628.00548
  16254566.020    85418321.31609  16254564.880    66559728.39848
 15 03 03 01 16  0.0000000  0  7G04G16G18G19G21G22G27
  19330734.940   101583712.04208  19330733.740    79156148.36544
  15519308.220    81554515.83709  15519303.440    63548953.30148
  16720009.840    87864242.78909  16720006.340    68465630.07148
  17676911.740    92892801.52908  17676907.100    72383981.82347
  18206909.660    95677958.07506  18206905.740    74554238.51544
  16314823.980    85734981.92909  16314819.140    66806456.30148
  16016142.700    84165399.37709  16016141.880    65583425.56448
 15 03 03 01 16 30.0000000  0  7G04G16G18G19G21G22G27
  19082059.360   100276916.77207  19082058.700    78137866.50644
  15291084.220    80355191.40809  15291079.620    62614414.78049
  16492495.560    86668647.07009  16492492.100    67533997.05248
  17433155.960    91611856.15408  17433151.060    71385842.58648
  17989933.560    94537742.10405  17989929.620    73665758.57644
  16074319.280    84471121.21309  16074314.160    65821629.78848
  15777756.440    82912671.71909  15777755.440    64607274.16549
 15 03 03 01 17  0.0000000  0  7G04G16G18G19G21G22G27
  18833412.560    98970272.26208  18833412.460    77119702.15344
  15062966.780    79156427.34709  15062962.480    61680312.90949
  16265075.000    85473543.90609  16265071.640    66602747.84548
  17189419.860    90331014.61908  17189415.240    70387784.24548
  17772968.400    93397585.30705  17772964.460    72777324.71044
  15833898.980    83207704.04809  15833893.660    64837148.91348
  15539407.180    81660138.27709  15539406.400    63631274.09049
 15 03 03 01 17 30.0000000  0  7G04G16G18G19G21G22G27
  18584795.060    97663780.99807  18584795.580    76101657.19944
  14834956.180    77958225.08909  14834952.280    60746648.81748
  16037748.400    84278934.61309  16037745.160    65671883.46948
  16945704.080    89050279.26208  16945700.060    69389808.64847
  17556014.400    92257488.12305  17556010.780    71888937.26444
  15593563.780    81944734.13709  15593558.640    63853016.52848
  15301095.440    80407801.76809  15301095.080    62655427.43048
 15 03 03 01 18  0.0000000  0  7G04G16G18G19G21G22G27
  18336206.460    96357441.36907  18336207.780    75083730.37144
  14607052.080    76760582.16909  14607048.580    59813420.56448
  15810515.060    83084815.95809  15810512.000    64741401.41148
  16702008.260    87769648.15708  16702004.500    68391914.28348
  17339071.400    91117447.21206  17339067.920    71000593.69944
  15353313.400    80682210.42909  15353308.540    62869231.83248
  15062821.040    79155660.58209  15062820.360    61679733.03148
 15 03 03 01 18 30.0000000  0  7G04G16G18G19G21G22G27
  18087647.920    95051258.47107  18087649.760    74065925.64645
  14379255.340    75563502.89609  14379252.140    58880631.51649
  15583375.880    81891191.63709  15583372.780    63811304.55448
  16458333.080    86489125.93908  16458329.220    67394104.77247
  17122139.920    89977465.49706  17122136.940    70112296.24244
  15113149.140    79420139.11109  15113144.300    61885799.66948
  14824584.700    77903720.00809  14824583.860    60704194.93849
 15 03 03 01 19  0.0000000  0  7G04G16G18G19G21G22G27
  17839118.660    93745228.60507  17839120.340    73048240.21844
  14151565.160    74366982.93209  14151562.140    57948278.30148
  15356329.760    80698056.43909  15356326.460    62881588.82947
  16214677.620    85208708.97609  16214672.860    66396377.29046
  16905218.680    88837537.40906  16905216.480    69224040.57943
  14873070.440    78158517.37909  14873065.500    60902717.84548
  14586385.900    76651976.55309  14586385.300    59728810.42548
 15 03 03 01 19 30.0000000  0  7G04G16G18G19G21G22G27
  17590620.120    92439359.92107  17590621.080    72030680.34244
  13923982.780    73171029.39209  13923979.820    57016366.44848
  15129377.960    79505417.14809  15129374.540    61952259.52647
  15971043.960    83928405.26809  15971038.140    65398738.09847
  16688308.920    87697668.96706  16688307.020    68335831.44243
  14633078.960    76897354.18609  14633074.180    59919993.27748
  14348226.140    75400438.48009  14348225.600    58753585.95948
 15 03 03 01 20  0.0000000  0  7G04G16G18G19G21G22G27
  17342151.640    91133648.95207  17342151.580    71013243.36943
  13696507.460    71975637.95009  13696504.260    56084892.59549
  14902519.420    78313268.85608  14902516.160    61023312.80347
  15727431.140    82648210.95309  15727425.380    64401184.11947
  16471409.620    86557854.45907  16471407.660    67447664.29943
  14393174.280    75636646.75909  14393169.680    58937623.85148
  14110104.700    74149102.42209  14110104.080    57778518.90449
 15 03 03 01 20 30.0000000  0  7G04G16G18G19G21G22G27
  17093713.620    89828097.45707  17093712.480    69995930.67743
  13469139.280    70780809.40109  13469135.760    55153857.35248
  14675754.240    77121611.80808  14675751.300    60094748.87146
  15483839.180    81368127.36809  15483833.980    63403716.40047
  16254520.880    85418094.06207  16254518.260    66559539.30942
  14153356.900    74376397.44909  14153352.160    57955611.42848
  13872022.300    72897970.30609  13872021.680    56803610.78948
 15 03 03 01 21  0.0000000  0  7G04G16G18G19G21G22G27
  16845305.720    88522703.28408  16845303.480    68978740.59744
  13241877.540    69586540.36809  13241873.780    54223258.10549
  14449081.860    75930442.06908  14449079.360    59166564.65747
  15240267.880    80088152.23309  15240263.120    62406333.20747
  16037641.740    84278383.61707  16037638.260    65671453.23543
  13913626.440    73116605.07409  13913621.500    56973955.05748
  13633977.940    71647039.99609  13633977.820    55828859.89049
 15 03 03 01 21 30.0000000  0  7G04G16G18G19G21G22G27
  16596927.500    87217464.81308  16596925.360    67961671.84544
  13014721.900    68392829.04509  13014717.920    53293093.43048
  14222501.780    74739756.40608  14222499.480    58238757.63447
  14996716.900    78808283.86709  14996712.520    61409033.22147
  15820771.360    83138719.85007  15820766.960    64783403.54342
  13673982.720    71857269.03809  13673977.880    55992654.26248
  13395971.780    70396310.49709  13395971.800    54854265.47148
 15 03 03 01 22  0.0000000  0  7G04G16G18G19G21G22G27
  16348579.840    85912388.14807  16348578.240    66944729.14444
  12787673.280    67199679.94409  12787669.240    52363366.84249
  13996015.040    73549559.70509  13996012.640    57311331.64447
  14753187.220    77528528.28808  14753183.280    60411821.07948
  15603910.280    81999106.15807  15603905.740    63895392.88243
  13434427.120    70598395.86909  13434422.400    55011714.15448
  13158005.320    69145787.65009  13158004.960    53879832.11149
 15 03 03 01 22 30.0000000  0  7G04G16G18G19G21G22G27
  16100263.640    84607478.25607  16100262.720    65927916.35244
  12560732.400    66007097.34009  12560728.440    51434081.69549
  13769622.160    72359855.63309  13769619.400    56384289.52047
  14509679.760    76248890.11108  14509676.340    59414700.39948
  15387059.280    80859546.27507  15387055.040    63007424.15244
  13194960.840    69339991.69009  13194956.060    54031139.49248
  12920079.060    67895476.95709  12920078.720    52905564.03849
 15 03 03 01 23  0.0000000  0  7G04G16G18G19G21G22G27
  15851980.000    83302740.28507  15851979.600    64911237.60044
  12333900.120    64815085.54709  12333896.200    50505241.32148
  13543323.460    71170647.23609  13543320.420    55457633.63747
  14266195.660    74969374.25608  14266192.800    58417675.05747
  15170219.000    79720043.20207  15170214.620    62119499.67543
  12955584.960    68082062.07009  12955579.900    53050934.62948
  12682194.120    66645383.50109  12682193.920    51931465.22949
 15 03 03 01 23 30.0000000  0  7G04G16G18G19G21G22G27
  15603728.380    81998171.80707  15603728.540    63894690.82344
  12107175.780    63623641.12809  12107171.940    49576843.06049
  13317118.300    69981930.66609  13317115.200    54531360.99547
  14022734.580    73689978.32608  14022731.540    57420743.18647
  14953388.760    78580593.11207  14953384.200    61231616.45643
  12716299.080    66824605.27209  12716293.860    52071098.17948
  12444350.200    65395505.33909  12444350.160    50957534.18949
 15 03 03 01 24  0.0000000  0  7G04G16G18G19G21G22G27
  15355509.320    80693772.62108  15355509.480    62878276.01144
  11880559.080    62432762.67809  11880555.360    48648885.83049
  13091006.400    68793704.26009  13091003.240    53605470.29747
  13779296.300    72410701.92608  13779292.780    56423904.46647
  14736568.060    77441193.19007  14736562.720    60343772.34443
  12477103.240    65567622.28109  12477098.020    51091630.92748
  12206547.320    64145842.42909  12206547.260    49983770.87249
 15 03 03 01 24 30.0000000  0  7G04G16G18G19G21G22G27
  15107322.640    79389542.22607  15107321.460    61861992.75944
  11654049.780    61242448.35709  11654046.160    47721368.16948
  12864987.360    67605965.74109  12864984.060    52679959.76747
  13535880.860    71131544.63309  13535876.960    55427158.56047
  14519756.380    76301841.49307  14519750.220    59455965.76043
  12237997.200    64311112.84509  12237992.220    50112532.64748
  11968785.540    62896394.37609  11968785.240    49010174.99949
 15 03 03 01 25  0.0000000  0  7G04G16G18G19G21G22G27
  14859168.340    78085481.19607  14859166.120    60845841.47344
  11427647.760    60052697.73509  11427644.280    46794289.76149
  12639060.860    66418713.97109  12639057.600    51754828.52247
  13292488.380    69852506.73108  13292483.940    54430505.67247
  14302953.660    75162536.83907  14302947.200    58568195.86543
  11998981.620    63055078.28009  11998976.700    49133804.43548
  11731064.660    61647161.98909  11731064.200    48036747.17249
 15 03 03 01 25 30.0000000  0  7G04G16G18G19G21G22G27
  14611045.940    76781590.00606  14611043.260    59829822.46445
  11201353.060    58863510.93209  11201349.660    45867650.67448
  12413226.840    65231948.02808  12413223.660    50830075.84746
  13049118.440    68573588.53308  13049113.680    53433946.01947
  14086159.640    74023278.00207  14086153.760    57680461.72643
  11760056.860    61799519.82409  11760051.760    48155447.21748
  11493384.980    60398146.34909  11493384.440    47063488.21749
 15 03 03 01 26  0.0000000  0  7G04G16G18G19G21G22G27
  14362955.960    75477871.95907  14362953.080    58813938.38844
  10975165.880    57674889.42009  10975162.480    44941452.09448
  12187485.420    64045669.49708  12187482.700    49905702.98547
  12805771.980    67294793.16709  12805767.000    52437482.14948
  13869374.740    72884066.06007  13869369.680    56792764.14443
  11521223.440    60544441.36809  11521218.260    47177464.01948
  11255747.160    59149350.57509  11255746.540    46090400.61749
 15 03 03 01 26 30.0000000  0  7G04G16G18G19G21G22G27
  14114898.940    74174326.16907  14114896.780    57798188.54944
  10749085.980    56486831.73709  10749082.500    44015692.83049
  11961836.360    62859875.94608  11961833.860    48981707.99646
  12562448.760    66016120.15409  12562443.780    51441113.56548
  13652598.480    71744898.50707  13652594.560    55905101.12444
  11282481.360    59289842.92809  11282476.100    46199854.85048
  11018151.040    57900774.47109  11018150.400    45117484.16749
 15 03 03 01 27  0.0000000  0  7G04G16G18G19G21G22G27
  13866875.260    72870954.76707  13866873.740    56782574.58244
  10523113.300    55299338.24009  10523109.860    43090373.22248
  11736279.860    61674567.72208  11736276.940    48058091.23446
  12319149.180    64737571.10709  12319144.200    50444841.59948
  13435830.860    70605775.68307  13435827.420    55017472.93543
  11043831.140    58035727.03209  11043825.760    45222621.70248
  10780597.160    56652420.27509  10780596.420    44144740.63949
 15 03 03 01 27 30.0000000  0  7G04G16G18G19G21G22G27
  13618884.740    71567756.18807  13618883.880    55767095.30345
  10297247.560    54112406.84009  10297244.300    42165491.60948
  11510815.240    60489741.65708  11510811.740    47134850.15746
  12075872.820    63459144.57109  12075867.700    49448665.08548
  13219071.100    69466694.30806  13219067.720    54129877.04044
  10805272.700    56782093.18309  10805267.200    44245764.17248
  10543085.300    55404286.77909  10543084.500    43172169.08449
 15 03 03 01 28  0.0000000  0  7G04G16G18G19G21G22G27
  13370927.260    70264730.08207  13370926.860    54751750.39845
  10071488.560    52926035.95009  10071485.340    41241046.75748
  11285441.760    59305395.73408  11285438.040    46211983.19645
  11832619.560    62180840.28809  11832614.420    48452583.82147
  13002318.640    68327652.38006  13002314.880    53242311.86642
  10566805.880    55528941.52309  10566800.440    43269282.36948
  10305615.480    54156374.06909  10305614.660    42199769.56949
 15 03 03 01 28 30.0000000  0  7G04G16G18G19G21G22G27
  13123003.040    68961878.72707  13123002.360    53736541.65844
   9845836.520    51740226.47809   9845833.300    40317039.36748
  11060159.740    58121530.27907  11060155.900    45289490.62545
  11589389.740    60902660.30408  11589385.020    47456599.42548
  12785573.700    67188650.39006  12785569.620    52354777.91743
  10328431.140    54276274.54009  10328425.840    42293178.22848
  10068188.140    52908684.61909  10068187.260    41227544.02248
 15 03 03 01 29  0.0000000  0  7G04G16G18G19G21G22G27
  12875111.440    67659198.98807  12875110.120    52721466.66044
   9620290.600    50554974.06709   9620287.260    39393466.05848
  10834968.200    56938140.47607  10834964.040    44367368.67446
  11346183.220    59624601.43909  11346178.440    46460709.41547
  12568835.420    66049683.13306  12568831.280    51467270.96443
  10090148.020    53024089.81909  10090142.680    41317449.89148
   9830802.740    51661215.42309   9830801.720    40255490.12749
 15 03 03 01 29 30.0000000  0  7G04G16G18G19G21G22G27
  12627252.660    66356694.66206  12627251.120    51706528.31844
   9394851.120    49370280.67909   9394847.560    38470328.34048
  10609867.580    55755228.43207  10609863.200    43445619.06045
  11103000.440    58346667.42109  11102995.320    45464916.70847
  12352104.380    64910752.94206  12352100.820    50579792.80343
   9851957.620    51772391.80709   9851952.120    40342100.82748
   9593460.000    50413970.78209   9593459.040    39283611.19549
 15 03 03 01 30  0.0000000  0  7G04G16G18G19G21G22G27
  12379427.540    65054368.33707  12379426.600    50691728.64645
   9169518.440    48186148.81509   9169514.820    37547628.19149
  10384857.540    54572795.02708  10384853.840    42524242.34246
  10859841.820    57068861.10708  10859836.700    44469223.51148
  12135380.480    63771860.69106  12135376.860    49692344.26945
   9613860.560    50521183.54609   9613855.140    39367133.38148
   9356160.340    49166953.63809   9356159.680    38311909.51449
 15 03 03 01 30 30.0000000  0  7G04G16G18G19G21G22G27
  12131636.400    63752219.02107  12131635.820    49677066.97844
   8944292.120    47002575.79009   8944288.460    36625363.48349
  10159938.380    53390837.45708  10159935.100    41603236.46045
  10616707.260    55791181.59308  10616702.820    43473629.07447
  11918663.280    62633003.69006  11918659.500    48804923.22943
   9375856.600    49270464.88809   9375851.460    38392547.41748
   9118903.980    47920163.45809   9118903.360    37340384.70649
 15 03 03 01 31  0.0000000  0  7G04G16G18G19G21G22G27
  11883879.320    62450247.69207  11883879.460    48662543.98145
   8719172.060    45819561.22009   8719168.280    35703533.93848
   9935109.960    52209354.89608   9935106.800    40682600.70845
  10373597.200    54513629.77309  10373592.900    42478134.18047
  11701952.300    61494181.48005  11701948.960    47917529.31045
   9137945.880    48020237.17709   9137941.200    37418343.99148
   8881691.060    46673601.61009   8881690.380    36369037.82249
 15 03 03 01 31 30.0000000  0  7G04G16G18G19G21G22G27
  11636156.620    61148455.35507  11636157.220    47648160.41045
   8494158.180    44637104.57209   8494154.260    34782139.14148
   9710371.880    51028346.51708   9710368.580    39762334.45346
  10130511.840    53236206.45409  10130507.840    41482739.39348
  11485247.640    60355392.85705  11485244.840    47030161.52544
   8900129.000    46770501.91009   8900124.680    36444524.33748
   8644521.800    45427269.28309   8644521.220    35397869.77949
 15 03 03 01 32  0.0000000  0  7G04G16G18G19G21G22G27
  11388467.800    59846840.82307  11388468.420    46633915.38945
   8269249.800    43455203.27009   8269246.020    33861177.07649
   9485723.400    49847809.79808   9485720.000    38842435.71346
   9887450.920    51958910.80109   9887446.840    40487444.08148
  11268549.220    59216635.18706  11268546.320    46142817.90744
   8662405.820    45521258.47709   8662401.680    35471087.91748
   8407396.160    44181165.73909   8407395.680    34426880.01349
 15 03 03 01 32 30.0000000  0  7G04G16G18G19G21G22G27
  11140813.560    58545406.79208  11140813.440    45619811.05044
   8044447.400    42273859.39208   8044443.860    32940649.37048
   9261164.500    48667745.13208   9261161.200    37922904.80346
   9644414.860    50681745.74209   9644410.280    39492250.54848
  11051857.240    58077910.06106  11051854.380    45255499.61245
   8424776.820    44272510.52309   8424772.940    34498037.56148
   8170314.700    42935294.30509   8170314.100    33456071.09749
 15 03 03 01 33  0.0000000  0  7G04G16G18G19G21G22G27
  10893194.220    57244155.22208  10893193.100    44605848.90944
   7819751.080    41093073.37709   7819747.800    32020556.36848
   9036695.420    47488153.06908   9036692.080    37003742.15846
   9401403.800    49404712.78509   9401399.040    38497159.93948
  10835171.600    56939217.19106  10835168.300    44368206.46544
   8187242.580    43024259.71209   8187238.780    33525374.58948
   7933277.840    41689657.00409   7933276.980    32485444.62949
 15 03 03 01 33 30.0000000  0  7G04G16G18G19G21G22G27
  10645609.360    55943086.26707  10645607.080    43592029.05744
   7595160.820    39912843.99409   7595157.600    31100897.10648
   8812316.060    46309031.92608   8812312.660    36084946.46445
   9158417.740    48127812.39309   9158413.040    37502172.63548
  10618491.880    55800554.88906  10618487.540    43480937.15543
   7949803.360    41776507.09609   7949799.340    32553099.84848
   7696285.700    40444254.51909   7696284.760    31515001.12849
 15 03 03 01 34  0.0000000  0  7G04G16G18G19G21G22G27
  10398058.540    54642199.54907  10398055.800    42578351.16445
   7370676.200    38733169.20209   7370672.920    30181669.98548
   8588025.780    45130379.10108   8588022.460    35166515.66945
   8915456.580    46851044.33809   8915451.740    36507288.44248
  10401817.540    54661921.66106  10401812.420    42593690.48843
   7712458.820    40529251.97209   7712454.500    31581212.76948
   7459338.180    39199086.89509   7459337.280    30544740.64349
 15 03 03 01 34 30.0000000  0  7G04G16G18G19G21G22G27
  10150542.620    53341497.44807  10150539.960    41564817.17445
   7146297.380    37554050.08409   7146293.960    29262875.86148
   8363824.700    43952195.45707   8363821.280    34248450.47945
   8672521.060    45574411.20609   8672515.780    35512509.39348
  10185148.720    53523318.02306  10185142.780    41706466.85444
   7475209.500    39282498.33809   7475204.900    30609716.44348
   7222435.740    37954157.08109   7222435.040    29574665.48549
 15 03 03 01 35  0.0000000  0  7G04G16G18G19G21G22G27
   9903061.120    52040977.08807   9903059.200    40551424.72245
   6922023.480    36375482.49909   6922019.900    28344511.49548
   8139712.040    42774476.01807   8139708.320    33330747.01944
   8429610.820    44297910.03608   8429605.060    34517833.19347
   9968484.440    52384740.10705   9968478.040    40819263.20944
   7238055.200    38036243.45509   7238050.160    29638608.75648
   6985578.020    36709462.55209   6985577.580    28604773.64248
 15 03 03 01 35 30.0000000  0  7G04G16G18G19G21G22G27
   9655615.680    50740644.17108   9655614.500    39538178.34545
   6697855.220    35197470.63109   6697851.540    27426580.16948
   7915688.420    41597225.05507   7915684.700    32413408.63144
   8186726.800    43021546.87309   8186721.320    33523264.52048
   9751825.540    51246191.65505   9751818.980    39932082.57044
   7000997.080    36790493.37309   7000991.580    28667894.43148
   6748766.500    35465009.45009   6748765.980    27635069.91749
 15 03 03 01 36  0.0000000  0  7G04G16G18G19G21G22G27
   9408206.260    49440499.25408   9408205.800    38525078.49745
   6473792.300    34020012.94309   6473788.700    26509080.65948
   7691753.780    40420440.92408   7691749.920    31496433.99345
   7943869.180    41745322.46508   7943864.080    32528803.93347
   9535171.880    50107671.43104   9535166.080    39044923.84444
   6764035.260    35545248.82309   6764029.360    27697574.02548
   6512001.280    34220798.80709   6512000.660    26665555.15149
 15 03 03 01 36 30.0000000  0  7G04G16G18G19G21G22G27
   9160832.300    48140540.10508   9160831.820    37512123.43344
   6249834.280    32843106.41609   6249830.760    25592010.63048
   7467907.400    39244119.24608   7467903.420    30579819.72145
   7701037.620    40469234.65109   7701032.800    31534449.80547
   9318523.440    48969175.99504   9318518.520    38157784.50044
   6527169.260    34300508.07509   6527163.060    26727646.20148
   6275281.700    32976828.90209   6275281.000    25696227.95949
 15 03 03 01 37  0.0000000  0  6G04G16G18G19G22G27
   8913494.320    46840770.43107   8913493.480    36499315.98745
   6025981.660    31666753.77809   6025978.220    24675372.21348
   7244149.300    38068261.86808   7244145.760    29663567.24045
   7458233.140    39193287.40309   7458228.280    30540205.23548
   6290399.760    33056275.31409   6290393.560    25758114.19348
   6038608.680    31733103.99009   6038607.940    24727091.66549
 15 03 03 01 37 30.0000000  0  6G04G16G18G19G22G27
   8666191.460    45541190.00406   8666191.360    35486655.89046
   5802234.140    30490952.50609   5802230.740    23759163.40948
   7020479.220    36892866.97908   7020475.860    28747675.14245
   7215455.360    37917480.24509   7215450.660    29546069.79348
   6053726.760    31812550.17609   6053720.800    24788977.73048
   5801982.420    30489623.96009   5801981.600    23758146.20649
 15 03 03 01 38  0.0000000  0  6G04G16G18G19G22G27
   8418925.000    44241797.47907   8418924.920    34474142.27744
   5578591.140    29315700.19609   5578587.840    22843382.38148
   6796896.580    35717931.49308   6796893.180    27832140.99944
   6972703.920    36641812.73309   6972699.260    28552043.16548
   5817150.120    30569332.35109   5817144.440    23820236.56148
   5565402.700    29246388.35409   5565401.660    22789391.18349
 15 03 03 01 38 30.0000000  0  6G04G16G18G19G22G27
   8171695.160    42942594.35908   8171693.880    33461776.30544
   5355052.620    28140996.26309   5355049.280    21928028.64848
   6573401.240    34543454.61308   6573397.960    26916964.20844
   6729979.320    35366286.12809   6729974.180    27558126.36848
   5580670.200    29326623.27909   5580664.580    22851891.83848
   5328869.740    28003399.06509   5328868.480    21820828.10249
 15 03 03 01 39  0.0000000  0  6G04G16G18G19G22G27
   7924501.340    41643579.56808   7924499.200    32449557.06644
   5131618.060    26966838.37709   5131614.560    21013100.42148
   6349992.700    33369433.51108   6349989.220    26002142.58645
   6487281.060    34090899.41108   6487276.180    26564318.55048
   5344286.740    28084422.13509   5344281.240    21883942.88548
   5092383.580    26760655.38709   5092382.200    20852456.42349
 15 03 03 01 39 30.0000000  0  6G04G16G18G19G22G27
   7677344.180    40344757.20108   7677341.920    31437487.79345
   4908287.960    25793229.46409   4908284.440    20098599.94949
   6126671.160    32195870.20608   6126666.960    25087677.65344
   6244610.000    32815657.00608   6244605.580    25570623.17748
   5108001.020    26842733.54109   5107995.520    20916393.36648
   4855945.120    25518162.05809   4855943.640    19884279.79749
 15 03 03 01 40  0.0000000  0  6G04G16G18G19G22G27
   7430223.100    39046124.39708   7430220.560    30425566.20945
   4685061.280    24620164.94309   4685057.940    19184523.70149
   5903435.600    31022760.14108   5903430.780    24173565.96145
   6001966.240    31540556.60508   6001961.980    24577038.47848
   4871812.480    25601555.03009   4871807.200    19949241.28848
   4619553.700    24275916.89509   4619552.340    18916296.55149
 15 03 03 01 40 30.0000000  0  6G04G16G18G19G22G27
   7183138.940    37747686.54108   7183136.200    29413796.52946
   4461938.720    23447647.97909   4461935.520    18270874.12148
   5680286.740    29850106.26208   5680281.580    23259809.68844
   5759350.600    30265603.69209   5759346.760    23583568.67348
   4635722.040    24360891.80609   4635717.000    18982490.72248
   4383210.400    23033925.45609   4383209.260    17948511.02749
 15 03 03 01 41  0.0000000  0  6G04G16G18G19G22G27
   6936091.140    36449441.51308   6936088.960    28402177.07646
   4238919.620    22275675.23209   4238916.520    17357648.60648
   5457223.900    28677904.93108   5457219.100    22346406.04544
   5516763.080    28990796.50909   5516759.120    22590212.45348
   4399729.520    23120742.42809   4399724.500    18016140.57348
   4146915.160    21792186.49509   4146914.180    16980922.23249
 15 03 03 01 41 30.0000000  0  6G04G16G18G19G22G27
   6689079.660    35151389.91308   6689078.300    27390708.35845
   4016003.820    21104245.80009   4016000.680    16444846.44948
   5234246.980    27506154.61908   5234242.500    21433353.84744
   5274203.460    27716135.80709   5274199.320    21596970.36648
   4163834.980    21881107.57609   4163829.880    17050191.37248
   3910668.240    20550700.98009   3910667.320    16013530.93449
 15 03 03 01 42  0.0000000  0  6G04G16G18G19G22G27
   6442105.900    33853536.91608   6442105.000    26379394.39246
   3793192.080    19933363.09709   3793188.760    15532470.30448
   5011356.640    26334858.37108   5011352.060    20520655.47044
   5031672.560    26441627.00009   5031668.440    20603846.60448
   3928039.220    20641992.32009   3928034.060    16084647.03048
   3674470.740    19309474.59809   3674469.740    15046341.55549
 15 03 03 01 42 30.0000000  0  6G04G16G18G19G22G27
   6195168.480    32555873.68108   6195168.140    25368228.29446
   3570482.620    18763016.72309   3570478.980    14620512.06648
   4788550.720    25164005.41908   4788546.020    19608302.51945
   4789168.940    25167261.84108   4789164.560    19610834.80648
   3692340.560    19403388.48709   3692335.540    15119501.17448
   3438321.020    18068499.32509   3438319.980    14079347.83649
 15 03 03 01 43  0.0000000  0  6G04G16G18G19G22G27
   5948268.040    31258403.39308   5948268.000    24357212.56345
   3347875.620    17593208.00709   3347871.880    13708972.78048
   4565829.540    23993597.05408   4565824.860    18696296.01945
   4546693.020    23893043.54208   4546688.780    18617937.44148
   3456739.940    18165299.40909   3456735.000    14154756.44548
   3202219.580    16827778.69309   3202218.700    13112552.53749
 15 03 03 01 43 30.0000000  0  6G04G16G18G19G22G27
   5701404.640    29961127.72008   5701403.760    23346348.44945
   3125370.840    16423936.66609   3125367.260    12797852.25148
   4343192.920    22823632.75508   4343187.980    17784635.54945
   4304245.420    22618973.91109   4304241.460    17625155.91248
   3221237.760    16927726.73009   3221232.560    13190414.11048
   2966167.120    15587314.78009   2966166.380    12145957.28449
 15 03 03 01 44  0.0000000  0  6G04G16G18G19G22G27
   5454578.440    28664047.31308   5454577.120    22335636.49546
   2902968.120    15255202.33409   2902964.740    11887150.17248
   4120640.360    21654111.32608   4120635.280    16873320.15045
   4061826.740    21345054.51109   4061822.460    16632491.44948
   2985834.120    15690671.45609   2985828.580    12226474.95248
   2730163.920    14347109.40409   2730163.240    11179563.48849
 15 03 03 01 44 30.0000000  0  6G04G16G18G19G22G27
   5207789.960    27367164.55908   5207788.780    21325078.57346
   2680667.540    14087004.94109   2680664.080    10976866.47948
   3898171.940    20485033.07408   3898167.120    15962350.08345
   3819437.180    20071287.75709   3819432.800    15639945.94048
   2750529.300    14454136.12809   2750523.720    11262940.94748
   2494210.480    13107165.38509   2494209.920    10213373.34149
 15 03 03 01 45  0.0000000  0  6G04G16G18G19G22G27
   4961039.560    26070481.96108   4961038.140    20314676.56945
   2458469.260    12919345.29809   2458465.660    10067001.80848
   3675788.000    19316398.50108   3675783.620    15051725.73045
   3577077.260    18797676.44109   3577072.600    14647521.55348
   2515323.740    13218123.14409   2515318.360    10299813.96048
   2258307.320    11867485.53309   2258306.760     9247389.01949
 15 03 03 01 45 30.0000000  0  6G04G16G18G19G22G27
   4714326.580    24773996.37708   4714325.540    19304428.16046
   2236372.580    11752219.44109   2236368.920     9157553.07348
   3453487.580    18148202.36408   3453483.400    14141443.03045
   3334746.540    17524218.11809   3334741.440    13655216.40248
   2280217.000    11982629.64309   2280211.920     9337091.77448
   2022453.980    10628067.45109   2022453.300     8281608.71249
 15 03 03 01 46  0.0000000  0  6G04G16G18G19G22G27
   4467650.620    23477706.63508   4467651.080    18294332.26546
   2014376.840    10585623.94309   2014373.280     8248517.62648
   3231270.080    16980441.11009   3231265.880    13231499.20046
   3092444.560    16250911.84109   3092439.440    12663029.67748
   2045209.020    10747654.56709   2045204.160     8374773.53849
   1786650.220     9388910.69909   1786649.500     7316032.01649
 15 03 03 01 46 30.0000000  0  6G04G16G18G19G22G27
   4221012.700    22181616.93408   4221013.720    17284392.24346
   1792482.400     9419560.74909   1792478.900     7339896.94949
   3009135.880    15813117.19009   3009131.720    12321896.15046
   2850172.000    14977761.80909   2850166.720    11670964.73648
   1810300.680     9513202.18609   1810295.700     7412862.58949
   1550896.920     8150019.85209   1550896.440     6350662.52949
 15 03 03 01 47  0.0000000  0  6G04G16G18G19G22G27
   3974413.000    20885726.20408   3974412.100    16274607.36945
   1570688.780     8254027.42709   1570685.240     6431689.16448
   2787084.280    14646227.43909   2787080.220    11412631.40246
   2607929.300    13704767.84709   2607923.800    10679021.39748
   1575491.700     8279271.40909   1575486.340     6451358.10448
   1315194.380     6911394.69709   1315194.100     5385500.07849
 15 03 03 01 47 30.0000000  0  7G04G16G18G19G21G22G27
   3727852.600    19590040.96008   3727850.160    15264982.58945
   1348996.820     7089028.26409   1348993.260     5523897.59548
   2565116.060    13479776.16809   2565112.180    10503708.33846
   2365717.700    12431936.36609   2365712.260     9687204.68948
   4553182.580    23927123.60606   4553179.180    18644510.20144
   1340783.160     7045868.58709   1340777.320     5490265.01948
   1079543.900     5673042.15209   1079543.520     4420550.04749
 15 03 03 01 48  0.0000000  0  7G04G16G18G19G21G22G27
   3481331.380    18294562.45108   3481328.640    14255518.85345
   1127406.400     5924562.75009   1127402.780     4616521.84948
   2343231.180    12313763.05909   2343227.440     9595126.68946
   2123537.080    11159269.92409   2123531.780     8695516.52748
   4336606.800    22789006.13106   4336602.460    17757665.38344
   1106175.280     5812995.71709   1106169.240     4529584.87348
    843945.700     4434964.49509    843945.020     3455814.21149
 15 03 03 01 48 30.0000000  0  7G04G16G18G19G21G22G27
   3234849.840    16999293.01308   3234847.020    13246218.03546
    905917.660     4760631.91009    905913.940     3709562.74048
   2121429.520    11148187.66609   2121426.080     8686886.10247
   1881388.520     9886770.47309   1881383.260     7703958.53548
   4120033.900    21650903.15907   4120028.620    16870831.88644
    871668.400     4580654.54409    871662.540     3569319.00948
    608400.320     3197164.38309    608399.220     2491294.63949
 15 03 03 01 49  0.0000000  0  7G04G16G18G19G21G22G27
   2988407.340    15704228.72508   2988404.880    12237077.09545
    684529.460     3597229.66609    684525.740     2803015.54148
   1899710.000     9983044.46809   1899706.820     7778982.30747
   1639271.360     8614435.20409   1639266.160     6712528.47548
   3903462.560    20512809.90906   3903457.360    15984005.93044
    637262.100     3348841.29709    637256.320     2609464.53948
    372907.160     1959638.73909    372905.780     1526988.94849
 15 03 03 01 49 30.0000000  0  7G04G16G18G19G21G22G27
   2742003.280    14409366.46608   2742001.720    11228093.55946
    463240.760     2434350.65209    463237.060     1896876.03648
   1678071.740     8818327.90809   1678068.640     6871410.94347
   1397184.440     7342261.19509   1397179.320     5721224.03448
   3686891.940    19374721.93006   3686887.280    15097184.10545
    402955.760     2117552.73909    402950.020     1650018.91348
    137465.740      722385.06909    137464.260      562895.17849
 15 03 03 01 50  0.0000000  0  7G04G16G18G19G21G22G27
   2495638.560    13114710.92208   2495637.400    10219271.10546
    242052.100     1271997.89109    242048.580      991146.60948
   1456515.160     7654040.44009   1456511.940     5964173.97247
   1155129.340     6070253.21709   1155123.660     4730049.03848
   3470322.940    18236642.77107   3470318.440    14210369.18745
    168750.180      886793.78809    168744.420      690985.97148
    -97923.040     -514591.28409    -97924.560     -400982.49649
 15 03 03 01 50 30.0000000  0  7G04G16G18G19G21G22G27
   2249313.360    11820263.00708   2249312.180     9210610.43046
     20963.620      110170.61509     20960.260       85826.63448
   1235040.160     6490181.03409   1235036.800     5057270.54447
    913106.100     4798413.09509    913100.620     3739004.79748
   3253755.520    17098572.21307   3253750.900    13323560.92944
    -65354.520     -343434.88209    -65360.400     -267633.76148
   -333258.820    -1751288.65609   -333260.360    -1364642.78249
 15 03 03 01 51  0.0000000  0  7G04G16G18G19G21G22G27
   2003027.420    10526022.07708   2003026.260     8202111.05046
   -200025.240    -1051134.20009   -200028.360     -819086.22248
   1013646.200     5326746.94909   1013642.760     4150698.54747
    671114.540     3526740.18909    671109.760     2748090.82848
   3037189.120    15960508.17106   3037184.820    12436757.75444
   -299358.560    -1573134.18009   -299364.400    -1225840.99348
   -568541.500    -2987707.27409   -568543.020    -2328085.85349
 15 03 03 01 51 30.0000000  0  7G04G16G18G19G21G22G27
   1756780.680     9231987.85708   1756779.580     7193772.74546
   -420914.840    -2211918.32509   -420917.820    -1723593.34948
    792332.640     4163736.00308    792329.240     3244456.26746
    429155.200     2255235.43309    429150.420     1757307.91148
   2820623.300    14822448.92906   2820619.360    11549958.32544
   -533261.800    -2802303.80109   -533267.620    -2183635.47548
   -803771.000    -4223846.39309   -803772.420    -3291311.12849
 15 03 03 01 52  0.0000000  0  7G04G16G18G19G21G22G27
   1510572.580     7938156.26308   1510571.180     6185592.36046
   -641706.620    -3372188.33709   -641709.600    -2627699.85748
    571098.140     3001141.55508    571094.880     2338538.50946
    187227.340      983894.98309    187222.220      766653.05648
   2604057.260    13684389.56306   2604053.360    10663158.80344
   -767065.000    -4030948.51409   -767070.880    -3141020.94448
  -1038947.960    -5459709.63609  -1038949.400    -4254321.45149
 15 03 03 01 52 30.0000000  0  7G04G16G18G19G21G22G27
   1264404.180     6644533.28908   1264402.320     5177574.52046
   -862399.800    -4531940.04509   -862402.860    -3531402.49148
    349943.660     1838967.87708    349940.500     1432948.65146
    -54668.120     -287274.32309    -54672.880     -223868.46748
   2387492.460    12546335.64506   2387489.000     9776363.51344
  -1000767.180    -5259061.94809  -1000773.020    -4097992.43448
  -1274071.140    -6695290.11009  -1274072.580    -5217111.40449
 15 03 03 01 53  0.0000000  0  7G04G16G18G19G21G22G27
   1018275.540     5351119.16208   1018273.340     4169719.38146
  -1082994.660    -5691174.73609  -1082997.980    -4434702.25648
    128869.040      677212.76108    128865.680      527684.93146
   -296530.800    -1558272.02109   -296535.440    -1214256.26948
   2170928.620    11408285.50706   2170925.820     8889571.13443
  -1234368.440    -6486644.59409  -1234374.160    -5054550.34748
  -1509140.380    -7930586.97009  -1509141.820    -6179680.38249
 15 03 03 01 53 30.0000000  0  7G04G16G18G19G21G22G27
    772187.040     4057916.14208    772184.940     3162028.73446
  -1303491.320    -6849892.56309  -1303494.900    -5337599.27248
    -92126.000     -484123.97908    -92129.280     -377252.79146
   -538360.460    -2829095.47409   -538365.580    -2204508.27848
   1954365.840    10270239.97305   1954362.940     8002782.39644
  -1467868.300    -7713693.98109  -1467873.920    -6010692.72448
  -1744155.060    -9165597.28109  -1744156.460    -7142026.07949
 15 03 03 01 54  0.0000000  0  8G04G11G16G18G19G21G22G27
    526138.980     2764925.13008    526136.960     2154503.33046
   2183958.980    11476786.17907                                
  -1523889.940    -8008094.83909  -1523893.620    -6240094.56148
   -313041.620    -1645043.42608   -313044.940    -1281865.35546
   -780156.700    -4099742.97109   -780161.500    -3194623.20848
   1737803.980     9132198.95304   1737801.640     7115997.26244
  -1701266.500    -8940209.34609  -1701272.060    -6966418.97048
  -1979114.820   -10400319.43509  -1979116.240    -8104147.22749
 15 03 03 01 54 30.0000000  0  8G04G11G16G18G19G21G22G27
    280134.260     1472161.62708    280132.320     1147155.20146
   1936230.160    10174963.46807   1936226.360     7928520.82844
  -1744187.820    -9165767.91209  -1744191.380    -7142177.48748
   -533875.220    -2805532.23408   -533878.940    -2186142.31646
  -1021916.260    -5370198.34109  -1021920.800    -4184588.43048
   1521245.760     7994177.94704   1521242.820     6229227.61043
  -1934560.180   -10166175.26209  -1934565.740    -7921717.06748
  -2214016.600   -11634737.00409  -2214018.120    -9066031.04749
 15 03 03 01 55  0.0000000  0  8G04G11G16G18G19G21G22G27
     34170.280      179611.61008     34168.080      139973.37846
   1688514.760     8873211.16207   1688511.260     6914168.46544
  -1964387.920   -10322927.42909  -1964391.360    -8043860.24448
   -754630.220    -3965606.56208   -754634.100    -3090096.34146
  -1263642.180    -6640475.31608  -1263646.860    -5174414.66048
   1304688.320     6856160.33805   1304684.340     5342460.62744
  -2167752.140   -11391606.56109  -2167757.540    -8876598.60848
  -2448862.980   -12868863.52309  -2448864.720   -10027688.06749
 15 03 03 01 55 30.0000000  0  8G04G11G16G18G19G21G22G27
   -211752.320    -1112721.10608   -211754.900     -867039.04846
   1440813.440     7571533.35307   1440811.140     5899874.12644
  -2184489.940   -11479571.95309  -2184493.560    -8945141.71648
   -975306.020    -5125264.65108   -975309.860    -3993726.02745
  -1505333.360    -7910569.43109  -1505337.800    -6164098.37648
   1088132.340     5718149.61105   1088127.640     4455699.01144
  -2400841.420   -12616499.30209  -2400846.820    -9831060.47848
  -2683653.060   -14102694.27009  -2683654.940   -10989114.61749
 15 03 03 01 56  0.0000000  0  8G04G11G16G18G19G21G22G27
   -457634.380    -2404838.42808   -457636.240    -1873883.66846
   1193125.880     6269928.40307   1193124.320     4885636.57844
  -2404494.660   -12635705.39009  -2404498.660    -9846024.93048
  -1195903.180    -6284510.58308  -1195907.120    -4897034.53945
  -1746989.580    -9180481.87209  -1746993.760    -7153640.54648
    871577.060     4580143.07705    871572.040     3568940.61044
  -2633828.500   -13840855.14709  -2633834.120   -10785103.98748
  -2918387.140   -15336230.36509  -2918388.900   -11950311.58249
 15 03 03 01 56 30.0000000  0  8G04G11G16G18G19G21G22G27
   -703475.720    -3696740.20808   -703476.200    -2880560.38146
    945451.960     4968396.03806    945450.120     3871455.61745
  -2624402.660   -13791329.93209  -2624406.660   -10746511.60748
  -1416422.040    -7443346.36109  -1416426.120    -5800023.44646
  -1988611.080   -10450211.75009  -1988615.200    -8143040.44348
    655022.420     3442139.76905    655017.540     2682184.74343
  -2866713.520   -15064674.44709  -2866719.380   -11738729.40848
  -3153065.160   -16569471.00309  -3153066.660   -12911278.33249
 15 03 03 01 57  0.0000000  0  8G04G11G16G18G19G21G22G27
   -949276.200    -4988428.60908   -949276.180    -3887070.77946
    697791.420     3666933.95107    697788.820     2857329.37744
  -2844214.780   -14946449.76209  -2844218.360   -11646604.97249
  -1636863.680    -8601776.58309  -1636867.940    -6702696.34146
  -2230198.080   -11719760.83409  -2230202.740    -9132299.44748
    438467.420     2304136.07804    438461.460     1795421.62244
  -3099496.940   -16287960.07709  -3099503.000   -12691938.96748
  -3387687.240   -17802417.68309  -3387688.500   -13872016.01049
 15 03 03 01 57 30.0000000  0  7G04G11G16G18G19G22G27
  -1195036.360    -6279906.16508  -1195036.340    -4893416.86346
    450144.180     2365539.85907    450140.900     1843256.14744
  -3063931.880   -16101069.97209  -3063935.040   -12546309.02248
  -1857229.260    -9759806.23408  -1857233.440    -7605057.11646
  -2471750.980   -12989131.04509  -2471756.360   -10121419.08748
  -3332179.360   -17510714.57909  -3332185.440   -13644734.65248
  -3622253.620   -19035072.04509  -3622254.760   -14832525.89749
 15 03 03 01 58  0.0000000  0  7G04G11G16G18G19G22G27
  -1440755.540    -7571167.28208  -1440755.620    -5899594.32446
    202511.420     1064218.99407    202508.180      829239.99843
  -3283552.980   -17255186.30309  -3283556.260   -13445620.45748
  -2077518.020   -10917431.56208  -2077521.920    -8507102.83946
  -2713268.600   -14258315.81109  -2713274.480   -11110394.20148
  -3564759.780   -18732932.29409  -3564765.600   -14597112.08448
  -3856763.040   -20267427.73609  -3856764.100   -15792803.05049
 15 03 03 01 58 30.0000000  0  8G04G11G16G18G19G22G27G32
  -1686433.360    -8862211.49008  -1686433.900    -6905602.78946
    -45107.100     -237028.43307    -45110.340     -184718.93944
  -3503078.540   -18408800.88109  -3503082.260   -14344540.93048
  -2297730.180   -12074654.25808  -2297733.660    -9408834.83046
  -2954751.140   -15527314.30608  -2954757.020   -12099224.18348
  -3797238.100   -19954613.43909  -3797243.540   -15549071.41248
  -4091215.500   -21499483.70809  -4091216.380   -16752846.67149
    -62217.680     -326954.81207    -62210.840     -254766.81245
 15 03 03 01 59  0.0000000  0  8G04G11G16G18G19G22G27G32
  -1932069.220   -10153037.79208  -1932070.240    -7911441.41147
   -292711.480    -1538201.12207   -292714.760    -1198619.67444
  -3722508.700   -19561914.57309  -3722512.900   -15243071.08949
  -2517865.980   -13231475.67408  -2517869.520   -10310254.11346
  -3196197.940   -16796124.69509  -3196203.760   -13087907.59748
  -4029614.240   -21175757.46309  -4029619.340   -16500612.20249
  -4325610.640   -22731237.99609  -4325611.400   -17712655.20949
   -315230.260    -1656543.42508   -315223.280    -1290809.24045
 15 03 03 01 59 30.0000000  0  8G04G11G16G18G19G22G27G32
  -2177662.940   -11443643.76608  -2177663.940    -8917108.33046
   -540301.440    -2839296.70907   -540304.660    -2212460.30845
  -3941843.400   -20714527.52509  -3941848.140   -16141211.08748
  -2737925.620   -14387895.48108  -2737929.100   -11211360.47346
  -3437608.240   -18064743.72509  -3437613.800   -14076441.90348
  -4261887.540   -22396361.70209  -4261892.420   -17451732.38349
  -4559947.660   -23962687.27909  -4559948.580   -18672226.09249
   -568236.020    -2986094.53807   -568228.720    -2326822.49045
 15 03 03 02 00  0.0000000  0  8G04G11G16G18G19G22G27G32
  -2423214.940   -12734028.99808  -2423215.820    -9922603.26546
   -787877.040    -4140314.94006   -787880.300    -3226240.73544
  -4161083.240   -21866641.51909  -4161088.520   -17038962.28048
  -2957909.360   -15543915.68808  -2957912.580   -12112155.46645
  -3678981.960   -19333170.58309  -3678987.100   -15064826.45648
  -4494058.200   -23616426.66809  -4494062.960   -18402432.35548
  -4794226.360   -25193830.67009  -4794227.640   -19631558.58548
   -821234.060    -4315605.91008   -821227.300    -3362804.77444
 15 03 03 02 00 30.0000000  0  8G04G11G16G18G19G22G27G32
  -2668725.680   -14024194.58408  -2668726.340   -10927927.08447
  -1035438.260    -5441256.77107  -1035441.400    -4239961.58344
  -4380228.880   -23018259.02909  -4380234.140   -17936326.58348
  -3177817.560   -16699539.67108  -3177820.460   -13012641.71346
  -3920319.060   -20601405.64009  -3920323.840   -16053061.55748
  -4726126.480   -24835953.42109  -4726131.280   -19352712.95349
  -5028446.840   -26424668.19109  -5028448.400   -20590652.74949
  -1074224.120    -5645076.27207  -1074218.500    -4398755.12545
 15 03 03 02 01  0.0000000  0  8G04G11G16G18G19G22G27G32
  -2914194.400   -15314139.18408  -2914194.700   -11933078.71647
  -1282984.680    -6742121.05207  -1282987.700    -5253621.95343
  -4599280.460   -24169382.00809  -4599285.260   -18833305.53648
  -3397650.440   -17854768.70108  -3397653.100   -13912820.18446
  -4161619.300   -21869446.72009  -4161623.760   -17041145.52648
  -4958092.200   -26054941.46809  -4958097.140   -20302573.74849
  -5262608.860   -27655198.01609  -5262610.460   -21549507.14749
  -1327205.680    -6974502.27308  -1327200.840    -5434670.91545
 15 03 03 02 01 30.0000000  0  8G04G11G16G18G19G22G27G32
  -3159620.220   -16603860.82508  -3159620.700   -12938056.59846
  -1530516.160    -8042905.78905  -1530518.640    -6267220.34344
  -4818237.780   -25320010.45409  -4818242.200   -19729899.13048
  -3617407.960   -19009602.38908  -3617410.560   -14812690.58846
  -4402881.840   -23137291.00009  -4402886.440   -18029076.12048
  -5189955.140   -27273389.20209  -5189960.220   -21252013.52648
  -5496711.780   -28885417.07209  -5496713.360   -22508119.40049
  -1580177.960    -8303879.61008  -1580173.940    -6470548.79445
 15 03 03 02 02  0.0000000  0  8G04G11G16G18G19G22G27G32
  -3405003.860   -17893362.89208  -3405004.580   -13942863.35446
  -1778034.100    -9343614.28506  -1778035.920    -7280759.39243
  -5037101.980   -26470149.41109  -5037106.080   -20626111.31448
  -3837091.260   -20164046.59208  -3837094.040   -15712257.48446
  -4644107.600   -24404941.10109  -4644112.320   -19016855.41548
  -5421715.840   -28491299.78609  -5421721.100   -22201034.74648
  -5730756.060   -30115328.08309  -5730757.680   -23466491.61049
  -1833141.240    -9633209.38708  -1833138.000    -7506389.60345
 15 03 03 02 02 30.0000000  0  8G04G11G16G18G19G22G27G32
  -3650345.840   -19182645.98508  -3650346.520   -14947499.50046
  -2025537.340   -10644247.18006  -2025539.060    -8294239.52744
  -5255873.600   -27619802.09209  -5255877.500   -21521944.58148
  -4056700.860   -21318104.22208  -4056703.940   -16611523.13746
  -4885296.600   -25672397.14909  -4885301.640   -20004483.50848
  -5653374.600   -29708674.65709  -5653379.900   -23149638.53648
  -5964741.640   -31344930.80809  -5964743.320   -24424623.59549
  -2086095.280   -10962490.19908  -2086092.600    -8542192.28145
 15 03 03 02 03  0.0000000  0  8G04G11G16G18G19G22G27G32
  -3895646.080   -20471709.22008  -3895646.920   -15951964.31346
  -2273025.320   -11944804.05006  -2273026.700    -9307660.40944
  -5474552.900   -28768970.00309  -5474556.780   -22417400.11148
  -4276237.000   -22471776.57408  -4276240.420   -17510488.57946
  -5126448.340   -26939657.50509  -5126453.500   -20991959.08848
  -5884931.300   -30925513.58109  -5884936.560   -24097824.70448
  -6198668.260   -32574223.67109  -6198669.940   -25382514.12649
  -2339039.460   -12291718.85508  -2339037.100    -9577954.31945
 15 03 03 02 03 30.0000000  0  8G04G11G16G18G19G22G27G32
  -4140904.520   -21760551.78908  -4140905.880   -16956257.15846
  -2520497.940   -13245283.87307  -2520499.580   -10321021.19044
  -5693140.360   -29917654.59609  -5693144.280   -23312479.02448
  -4495700.160   -23625065.06908  -4495703.940   -18409154.92046
  -5367562.480   -28206720.27408  -5367567.460   -21979280.73648
  -6116385.960   -32141816.06809  -6116391.080   -25045592.88248
  -6432535.660   -33803204.95409  -6432537.200   -26340161.86649
  -2591973.140   -13620892.26008  -2591970.940   -10613673.31345
 15 03 03 02 04  0.0000000  0  8G04G11G16G18G19G22G27G32
  -4386121.480   -23049174.47108  -4386123.380   -17960378.70446
  -2767955.740   -14545686.98906  -2767957.720   -11334322.23545
  -5911636.540   -31065858.93609  -5911640.360   -24207183.71548
  -4715091.140   -24777972.79908  -4715094.940   -19307524.57246
  -5608639.000   -29473585.42209  -5608643.960   -22966448.38648
  -6347738.900   -33357583.51109  -6347743.860   -25992944.13448
  -6666343.740   -35031874.45209  -6666345.160   -27297566.67649
  -2844896.020   -14950008.80308  -2844893.920   -11649348.01745
 15 03 03 02 04 30.0000000  0  8G04G11G16G18G19G22G27G32
  -4631296.220   -24337576.70909  -4631299.120   -18964328.42446
  -3015398.940   -15846013.02407  -3015400.900   -12347563.26645
  -6130041.620   -32213584.62609  -6130045.100   -25101515.42448
  -4934409.920   -25930501.77908  -4934413.660   -20205599.08746
  -5849677.580   -30740252.05909  -5849682.640   -23953461.31548
  -6578989.960   -34572815.79209  -6578994.940   -26939878.35848
  -6900092.280   -36260231.14209  -6900093.540   -28254727.73949
  -3097807.580   -16279066.02708  -3097805.480   -12684976.52945
 15 03 03 02 05  0.0000000  0  8G04G11G16G18G19G22G27G32
  -4876429.080   -25625759.57408  -4876432.160   -19968107.23546
  -3262827.680   -17146263.15007  -3262829.180   -13360745.13544
  -6348356.420   -33360834.69909  -6348359.420   -25995476.51848
  -5153657.000   -27082654.66108  -5153660.820   -21103380.53546
  -6090678.260   -32006719.88409  -6090683.120   -24940319.35548
  -6810139.320   -35787513.92209  -6810144.520   -27886396.37348
  -7133781.180   -37488274.91309  -7133782.420   -29211644.97049
  -3350707.500   -17608062.46608  -3350705.660   -13720557.65245
 15 03 03 02 05 30.0000000  0  8G04G11G16G18G19G22G27G32
  -5121520.700   -26913723.88908  -5121522.760   -20971715.78647
  -3510242.460   -18446438.51707  -3510244.360   -14373868.71445
  -6566581.400   -34507613.14809  -6566584.380   -26889070.11748
  -5372833.400   -28234435.15208  -5372837.320   -22000871.81746
  -6331641.200   -33272989.71609  -6331646.200   -25927023.10148
  -7041187.320   -37001680.26809  -7041192.900   -28832500.00649
  -7367410.680   -38716006.24009  -7367411.860   -30168318.72149
  -3603595.640   -18936997.07408  -3603594.100   -14756090.59945
 15 03 03 02 06  0.0000000  0  8G04G11G16G18G19G22G27G32
  -5366570.280   -28201465.56708  -5366571.260   -21975150.88846
  -3757642.520   -19746534.65507  -3757645.540   -15386930.56244
  -6784715.860   -35653917.81909  -6784718.980   -27782294.57348
  -5591938.940   -29385841.48008  -5591942.660   -22898071.58646
  -6572565.520   -34539056.09909  -6572570.860   -26913568.31848
  -7272133.360   -38215310.96209  -7272139.360   -29778186.24448
  -7600979.920   -39943419.88209  -7600981.020   -31124744.94649
  -3856470.780   -20265863.15908  -3856469.420   -15791570.19445
 15 03 03 02 06 30.0000000  0  8G04G11G16G18G19G22G27G32
  -5611577.360   -29488986.00809  -5611578.280   -22978413.54147
  -4005027.780   -21046552.66807  -4005031.320   -16399931.57744
  -7002760.740   -36799752.38009  -7002763.760   -28675152.67648
  -5810974.060   -30536877.24108  -5810977.480   -23794982.58145
  -6813451.240   -35804919.56909  -6813456.560   -27899955.41148
  -7502977.920   -39428407.69609  -7502983.920   -30723456.41648
  -7834488.940   -41170516.33309  -7834489.860   -32080924.00049
  -4109332.600   -21594659.82508  -4109331.200   -16826995.67545
 15 03 03 02 07  0.0000000  0  8G04G11G16G18G19G22G27G32
  -5856542.360   -30776287.73409  -5856543.800   -23981505.73646
  -4252398.400   -22346495.25908  -4252401.960   -17412873.77544
  -7220717.160   -37945121.81509  -7220720.080   -29567648.34448
  -6029939.320   -31687546.61308  -6029942.520   -24691608.08445
  -7054298.780   -37070581.71609  -7054303.980   -28886185.64148
  -7733721.520   -40640973.50009  -7733727.340   -31668312.88348
  -8067937.820   -42397297.30809  -8067938.600   -33036857.23449
  -4362181.340   -22923387.31208  -4362179.560   -17862367.28545
 15 03 03 02 07 30.0000000  0  8G04G11G16G18G19G22G27G32
  -6101464.800   -32063365.25908  -6101466.440   -24984423.25547
  -4499753.580   -23646357.05907  -4499757.340   -18425753.05944
  -7438584.340   -39090022.80109  -7438587.620   -30459779.00448
  -6248834.220   -32837846.97708  -6248837.540   -25587946.00145
  -7295106.980   -38336036.26309  -7295111.820   -29872254.12048
  -7964363.300   -41853003.99609  -7964368.880   -32612752.21048
  -8301325.200   -43623756.55209  -8301326.060   -33992539.76849
  -4615015.720   -24252037.87208  -4615013.360   -18897679.00545
 15 03 03 02 08  0.0000000  0  8G04G11G16G18G19G22G27G32
  -6346345.660   -33350222.37308  -6346346.920   -25987169.02746
  -4747093.960   -24946141.64107  -4747098.580   -19438572.10543
  -7656363.760   -40234462.19909  -7656367.340   -31351549.98348
  -6467660.020   -33987784.39308  -6467663.480   -26484001.13345
  -7535876.280   -39601286.38109  -7535880.580   -30858163.30748
  -8194903.960   -43064503.21809  -8194909.280   -33556777.56149
  -8534651.880   -44849897.05909  -8534652.720   -34947973.91549
  -4867835.660   -25580613.12508  -4867833.100   -19932932.00945
 15 03 03 02 08 30.0000000  0  8G04G11G16G18G19G22G27G32
  -6591183.760   -34636853.74308  -6591184.580   -26989738.92046
  -4994419.100   -26245843.59006  -4994424.000   -20451326.81044
  -7874054.920   -41378436.56709  -7874058.200   -32242958.57948
  -6686416.140   -35137355.97008  -6686419.880   -27379771.17844
  -7776605.480   -40866325.80409  -7776609.320   -31843908.32248
  -8425342.560   -44275466.54909  -8425347.760   -34500385.36049
  -8767916.900   -46075712.62909  -8767917.600   -35903154.89549
  -5120639.680   -26909105.45408  -5120636.960   -20968120.38245
 15 03 03 02 09  0.0000000  0  8G04G11G16G18G19G22G27G32
  -6835978.920   -35923260.11709  -6835979.700   -27992133.47046
  -5241729.920   -27545463.77906  -5241732.720   -21464017.81545
  -8091658.140   -42521948.51509  -8091661.200   -33134006.85248
  -6905103.260   -36286564.31907  -6905107.160   -28275258.19144
  -8017294.640   -42131154.24009  -8017298.200   -32829488.94348
  -8655679.380   -45485895.23309  -8655684.680   -35443576.53949
  -9001120.260   -47301203.07509  -9001120.700   -36858082.51749
  -5373427.460   -28237513.04708  -5373424.940   -22003242.76645
 15 03 03 02 09 30.0000000  0  8G04G11G16G18G19G22G27G32
  -7080731.960   -37209444.96108  -7080733.320   -28994355.38646
  -5489026.200   -28845005.35606  -5489026.660   -22476647.60044
  -8309174.420   -43665004.51809  -8309177.900   -34024699.87448
  -7123722.540   -37435415.47507  -7123726.280   -29170466.88645
  -8257943.780   -43395774.32609  -8257947.540   -33814907.18548
  -8885915.380   -46695793.89009  -8885920.900   -36386354.72049
  -9234262.220   -48526371.15209  -9234262.540   -37812758.94249
  -5626199.240   -29565837.25408  -5626198.040   -23038300.15045
 15 03 03 02 10  0.0000000  0  8G04G11G16G18G19G22G27G32
  -7325442.480   -38495404.76208  -7325443.940   -29996401.99046
  -5736306.280   -30144464.80606  -5736305.320   -23489213.35544
  -8526603.580   -44807603.53809  -8526607.420   -34915036.80148
  -7342273.520   -38583908.43807  -7342277.100   -30065396.46544
  -8498552.580   -44660181.61609  -8498556.320   -34800159.62448
  -9116049.920   -47905159.19109  -9116055.580   -37328717.29548
  -9467341.760   -49751212.40909  -9467342.140   -38767180.70449
  -5878954.020   -30894072.11308  -5878954.460   -24073287.91144
 15 03 03 02 10 30.0000000  0  8G04G11G16G18G19G22G27G32
  -7570109.960   -39781139.81508  -7570110.820   -30998273.44847
  -5983570.340   -31443842.59606  -5983568.200   -24501715.54145
  -8743946.440   -45949748.53609  -8743950.000   -35805019.92748
  -7560756.540   -39732045.38407  -7560760.380   -30960048.60345
  -8739120.460   -45924375.72109  -8739124.760   -35785245.93448
  -9346083.260   -49113992.20009  -9346088.880   -38270665.10849
  -9700358.780   -50975726.26509  -9700359.380   -39721347.35149
  -6131691.720   -32222215.65408  -6131693.140   -25108204.54245
 15 03 03 02 11  0.0000000  0  8G04G11G16G18G19G22G27G32
  -7814734.640   -41066652.43309  -7814734.960   -31999971.53947
  -6230818.260   -32743140.58807  -6230815.960   -25514155.49244
  -8961203.920   -47091443.48709  -8961206.920   -36694652.33848
  -7779172.880   -40879831.01906  -7779176.920   -31854427.03644
  -8979647.860   -47188357.78609  -8979652.720   -36770167.00348
  -9576016.020   -50322296.13709  -9576021.480   -39212200.64648
  -9933313.680   -52199914.24009  -9933314.580   -40675260.05749
  -6384412.340   -33550267.72608  -6384413.780   -26143049.91645
 15 03 03 02 11 30.0000000  0  8G04G11G16G18G19G22G27G32
  -8059316.520   -42351940.58508  -8059317.180   -33001494.77047
  -6478050.320   -34042356.93807  -6478049.840   -26526531.73143
  -9178375.900   -48232689.54009  -9178378.760   -37583935.00348
  -7997522.680   -42027265.89605  -7997526.700   -32748532.17045
  -9220134.480   -48452125.01809  -9220139.900   -37754920.68248
  -9805847.860   -51530069.62209  -9805853.160   -40153322.84448
 -10166206.240   -53423773.49209 -10166207.180   -41628916.62449
  -6637114.860   -34878224.24607  -6637115.540   -27177820.86445
 15 03 03 02 12  0.0000000  0  8G04G11G16G18G19G22G27G32
  -8303855.800   -43637005.11109  -8303857.900   -34002843.71046
  -6725267.240   -35341492.39007  -6725268.540   -27538845.03344
  -9395462.960   -49373490.01309  -9395466.060   -38472870.44548
  -8215806.860   -43174353.01805  -8215809.380   -33642366.30944
  -9460580.160   -49715677.20009  -9460586.120   -38739506.76548
 -10035579.000   -52737314.37309 -10035584.120   -41094033.02148
 -10399036.400   -54647304.02009 -10399037.260   -42582317.03449
  -6889798.680   -36206083.58708  -6889798.320   -28212516.08845
 15 03 03 02 12 30.0000000  0  8G04G11G16G18G19G22G27G32
  -8548351.520   -44921839.81608  -8548355.040   -35004013.57646
  -6972467.740   -36640540.77606  -6972469.100   -28551090.42444
  -9612464.480   -50513841.27609  -9612467.680   -39361455.85348
  -8434023.860   -44321088.67005  -8434025.680   -34535926.56044
  -9700983.740   -50979007.20709  -9700989.860   -39723919.75348
 -10265208.440   -53944025.05409 -10265213.540   -42034327.03348
 -10631802.740   -55870498.66509 -10631803.440   -43535455.72649
  -7142462.020   -37533837.09008  -7142461.140   -29247128.82745
 15 03 03 02 13  0.0000000  0  7G04G11G16G19G22G27G32
  -8792804.640   -46206448.87008  -8792808.220   -36005007.59446
  -7219652.700   -37939506.10306  -7219654.100   -29563271.15844
  -9829381.480   -51653749.15809  -9829384.820   -40249695.78148
  -9941345.680   -52242118.29709  -9941352.000   -40708162.14948
 -10494737.040   -55150206.23209 -10494742.200   -42974208.45148
 -10864505.700   -57093360.84709 -10864506.340   -44488335.35949
  -7395105.360   -38861486.65208  -7395104.080   -30281660.58045
 15 03 03 02 13 30.0000000  0  7G04G11G16G19G22G27G32
  -9037215.000   -47490831.02808  -9037217.360   -37005824.85647
  -7466821.820   -39238386.51207  -7466822.700   -30575385.79544
 -10046214.540   -52793215.58209 -10046218.060   -41137591.71348
 -10181665.720   -53505007.92409 -10181672.160   -41692231.95648
 -10724164.700   -56355857.60609 -10724170.040   -43913677.02948
 -11097144.840   -58315888.20509 -11097145.560   -45440954.08649
  -7647728.200   -40189028.44508  -7647726.440   -31316108.38446
 15 03 03 02 14  0.0000000  0  7G04G11G16G19G22G27G32
  -9281582.220   -48774985.72908  -9281583.160   -38006464.88147
  -7713974.380   -40537181.83907  -7713974.400   -31587434.03644
 -10262964.260   -53932242.24209 -10262967.800   -42025144.95448
 -10421943.540   -54767675.09009 -10421949.580   -42676128.45048
 -10953491.660   -57560979.66309 -10953497.180   -44852733.15748
 -11329719.960   -59538079.63709 -11329720.860   -46393311.04049
  -7900330.140   -41516459.76608  -7900328.200   -32350470.11046
 15 03 03 02 14 30.0000000  0  7G04G11G16G19G22G27G32
  -9525906.280   -50058915.63208  -9525906.540   -39006929.70846
  -7961110.840   -41835894.13407  -7961110.280   -32599417.63845
 -10479631.280   -55070834.08709 -10479634.740   -42912359.39948
 -10662179.180   -56030121.06109 -10662184.820   -43659852.59048
 -11182718.600   -58765575.37409 -11182724.300   -45791379.15948
 -11562231.400   -60759936.55009 -11562232.580   -47345407.34349
  -8152911.100   -42843780.63208  -8152909.440   -33384745.76146
 15 03 03 02 15  0.0000000  0  7G04G11G16G19G22G27G32
  -9770186.420   -51342616.99508  -9770186.960   -40007216.45746
  -8208230.440   -43134520.07008  -8208230.620   -33611333.90544
 -10696215.360   -56208990.68909 -10696218.620   -43799234.69248
 -10902371.820   -57292341.48809 -10902377.180   -44643400.97548
 -11411845.060   -59969642.33909 -11411850.680   -46729613.15048
 -11794678.480   -61981454.84309 -11794679.900   -48297239.76849
  -8405469.940   -44170985.29508  -8405468.940   -34418930.86846
 15 03 03 02 15 30.0000000  0  7G04G11G16G19G22G27G32
 -10014423.000   -52626089.47108 -10014424.320   -41007324.82746
  -8455333.380   -44433058.88808  -8455334.520   -34623182.27044
 -10912717.140   -57346714.12609 -10912720.080   -44685772.44448
 -11142521.260   -58554334.85609 -11142526.400   -45626772.44048
 -11640871.100   -61173180.93009 -11640876.560   -47667435.43548
 -12027060.980   -63202632.97109 -12027062.480   -49248807.14249
  -8658006.140   -45498070.77208  -8658005.740   -35453023.10945
 15 03 03 02 16  0.0000000  0  7G04G11G16G19G22G27G32
 -10258616.540   -53909334.03408 -10258617.980   -42007255.67446
  -8702420.320   -45731511.57607  -8702422.140   -35634963.51144
 -11129136.900   -58484007.45509 -11129140.000   -45571975.04748
 -11382627.500   -59816101.07709 -11382632.580   -46609966.88448
 -11869796.920   -62376193.39609 -11869802.280   -48604847.76648
 -12259378.920   -64423471.18109 -12259380.300   -50200109.65049
  -8910519.240   -46825035.70108  -8910519.260   -36487021.42545
 15 03 03 02 16 30.0000000  0  7G04G11G16G19G22G27G32
 -10502766.260   -55192349.37008 -10502767.880   -43007007.84146
  -8949491.440   -47029876.33707  -8949492.800   -36646676.27545
 -11345474.800   -59620871.85909 -11345478.260   -46457843.43948
 -11622689.960   -61077637.80109 -11622694.980   -47592982.50749
 -12098622.320   -63578678.79209 -12098627.640   -49541849.35949
 -12491631.700   -65643967.23709 -12491632.960   -51151145.54749
  -9163008.800   -48151876.36208  -9163009.300   -37520922.90746
 15 03 03 02 17  0.0000000  0  7G04G11G16G19G22G27G32
 -10746872.780   -56475138.08808 -10746874.800   -44006583.41847
  -9196546.540   -48328156.35007  -9196547.520   -37658323.01644
 -11561732.240   -60757313.15709 -11561735.680   -47343382.12548
 -11862709.040   -62338946.76109 -11862713.880   -48575820.64349
 -12327347.880   -64780640.47109 -12327353.180   -50478442.87649
 -12723819.560   -66864123.00209 -12723820.820   -52101916.27449
  -9415474.920   -49478593.03008  -9415475.660   -38554727.81245
 15 03 03 02 17 30.0000000  0  7G04G11G16G19G22G27G32
 -10990935.340   -57757695.74108 -10990937.200   -45005978.97147
  -9443584.200   -49626346.29007  -9443585.040   -38669899.54545
 -11777908.820   -61893329.04109 -11777912.040   -48228589.30848
 -12102683.580   -63600022.17609 -12102688.520   -49558476.81148
 -12555973.060   -65982075.06809 -12555978.460   -51414625.66648
 -12955941.600   -68083932.99909 -12955942.840   -53052417.57049
  -9667916.240   -50805178.72108  -9667916.300   -39588430.66445
 15 03 03 02 18  0.0000000  0  7G04G11G16G19G22G27G32
 -11234955.040   -59040028.54008 -11234956.240   -46005199.32647
  -9690605.800   -50924452.36907  -9690606.440   -39681410.77645
 -11994006.080   -63028927.94709 -11994009.260   -49113471.58848
 -12342614.860   -64860869.39509 -12342620.000   -50540955.14448
 -12784499.420   -67182989.99609 -12784504.980   -52350403.51848
 -13187998.880   -69303402.53109 -13188000.100   -54002653.56049
  -9920333.480   -52131637.25608  -9920332.420   -40622034.45746
 15 03 03 02 18 30.0000000  0  7G04G11G16G19G22G27G32
 -11478931.420   -60322135.28309 -11478932.660   -47004243.51847
  -9937610.760   -52222473.17208  -9937611.080   -40692855.53344
 -12210024.460   -64164111.92709 -12210027.800   -49998030.53648
 -12582502.240   -66121486.28209 -12582507.560   -51523254.01648
 -13012926.920   -68383385.03109 -13012932.600   -53285776.26448
 -13419991.040   -70522529.59709 -13419992.260   -54952622.71149
 -10172725.540   -53457964.95708 -10172724.380   -41655536.33045
 15 03 03 02 19  0.0000000  0  7G04G11G16G19G22G27G32
 -11722863.680   -61604009.99208 -11722865.280   -48003106.88747
 -10184598.220   -53520402.62707 -10184598.900   -41704229.10345
 -12425963.100   -65298877.26309 -12425966.700   -50882263.29448
 -12822344.420   -67381865.78908 -12822349.820   -52505367.91748
 -13241254.580   -69583255.15409 -13241260.360   -54220739.99449
 -13651916.740   -71741307.42109 -13651917.900   -55902319.72749
 -10425090.720   -54784153.56708 -10425089.940   -42688929.79346
 15 03 03 02 19 30.0000000  0  7G04G11G16G19G22G27G32
 -11966752.840   -62885655.50608 -11966754.380   -49001791.69747
 -10431568.840   -54818243.44208 -10431570.240   -42715533.59045
 -12641823.100   -66433229.44809 -12641826.660   -51766174.10448
 -13062141.980   -68642009.64408 -13062147.100   -53487298.21148
 -13469483.120   -70782603.84609 -13469488.920   -55155297.41249
 -13883776.360   -72959737.85609 -13883777.440   -56851746.04049
 -10677429.440   -56110203.25308 -10677429.120   -43722215.02646
 15 03 03 02 20  0.0000000  0  7G04G11G16G19G22G27G32
 -12210598.780   -64167074.47209 -12210600.760   -50000299.95246
 -10678522.920   -56115998.18308 -10678525.120   -43726770.99944
 -12857605.700   -67567174.38109 -12857609.200   -52649767.56648
 -13301895.000   -69901919.59809 -13301899.760   -54469046.22048
 -13697613.380   -71981435.30009 -13697618.940   -56089451.80848
 -14115570.280   -74177822.90909 -14115571.320   -57800903.22849
 -10929741.960   -57436114.63208 -10929742.540   -44755392.47445
 15 03 03 02 20 30.0000000  0  7G04G11G16G19G22G27G32
 -12454400.820   -65448262.97909 -12454403.360   -50998628.62647
 -10925459.820   -57413662.72108 -10925463.080   -44737938.10645
 -13073310.380   -68700709.97509 -13073314.240   -53533042.07548
 -13541602.320   -71161590.12209 -13541606.980   -55450607.68248
 -13925644.500   -73179746.09309 -13925649.820   -57023200.47449
 -14347297.480   -75395557.60109 -14347298.520   -58749787.40249
 -11182027.040   -58761880.96308 -11182028.000   -45788456.92546
 15 03 03 02 21  0.0000000  0  7G04G11G16G19G22G27G32
 -12698158.800   -66729219.76508 -12698161.260   -51996776.74647
 -11172379.180   -58711235.38308 -11172382.960   -45749033.62345
 -13288937.460   -69833837.62409 -13288941.440   -54415998.70748
 -13781263.440   -72421018.43309 -13781268.440   -56431980.39048
 -14153576.480   -74377535.95209 -14153581.480   -57956543.22449
 -14578957.600   -76612939.79509 -14578958.620   -59698396.90449
 -11434284.160   -60087498.62408 -11434285.100   -46821405.57246
 15 03 03 02 21 30.0000000  0  7G04G11G16G19G22G27G32
 -12941873.320   -68009947.61808 -12941875.740   -52994746.50347
 -11419281.700   -60008719.06608 -11419284.980   -46760059.84145
 -13504488.080   -70966563.25409 -13504491.520   -55298642.06448
 -14020878.940   -73680207.59309 -14020884.480   -57413166.72448
 -14381409.940   -75574809.19909 -14381414.900   -58889483.42249
 -14810551.140   -77829971.67309 -14810552.060   -60646733.42449
 -11686513.080   -61412968.07308 -11686514.680   -47854238.70145
 15 03 03 02 22  0.0000000  0  7G04G11G16G19G22G27G32
 -13185544.140   -69290445.94108 -13185546.580   -53992537.35846
 -11666167.820   -61306112.60407 -11666170.500   -47771015.81245
 -13719962.340   -72098888.45609 -13719965.280   -56180973.38448
 -14260448.580   -74939155.49709 -14260454.160   -58394165.08248
 -14609145.080   -76771566.03109 -14609150.200   -59822021.20148
 -15042077.760   -79046651.54809 -15042078.500   -61594795.66049
 -11938713.140   -62738286.19408 -11938714.560   -48886953.92845
 15 03 03 02 22 30.0000000  0  7G04G11G16G19G22G27G32
 -13429171.020   -70570712.77508 -13429172.980   -54990147.85747
 -11913037.520   -62603414.05906 -11913039.400   -48781900.05445
 -13935360.500   -73230814.26209 -13935363.460   -57062993.51148
 -14499971.800   -76197859.25009 -14499977.360   -59374973.20349
 -14836781.920   -77967805.57309 -14836787.160   -60754155.90748
 -15273536.900   -80262976.58509 -15273537.500   -62542581.40749
 -12190883.180   -64063448.54108 -12190883.780   -49919547.78746
 15 03 03 02 23  0.0000000  0  8G04G11G16G18G19G22G27G32
 -13672753.600   -71850746.47008 -13672754.980   -55987576.73547
 -12159889.380   -63900621.29906 -12159890.220   -49792710.89445
 -14150683.100   -74362341.62108 -14150686.280   -57944703.16048
 -13001982.600   -68325878.81607 -13001985.620   -53240956.42744
 -14739448.000   -77456315.53209 -14739453.720   -60355588.46748
 -15064320.320   -79163527.54909 -15064325.680   -61685887.32348
 -15504928.020   -81478944.36309 -15504928.560   -63490088.78749
 -12443022.660   -65388451.00808 -12443022.900   -50952017.07646
 15 03 03 02 23 30.0000000  0  8G04G11G16G18G19G22G27G32
 -13916290.500   -73130542.96509 -13916292.100   -56984820.73046
 -12406721.400   -65197730.16107 -12406722.220   -50803445.05344
 -14365929.920   -75493468.90608 -14365932.940   -58826101.04448
 -13218843.040   -69465484.05506 -13218845.800   -54128960.49344
 -14978876.200   -78714518.70309 -14978882.000   -61336006.52548
 -15291759.600   -80358728.91709 -15291765.140   -62617213.05248
 -15736250.140   -82694549.79009 -15736250.700   -64437313.81249
 -12695130.500   -66713286.94408 -12695130.780   -51984356.59645
 15 03 03 02 24  0.0000000  0  8G04G11G16G18G19G22G27G32
 -14159782.320   -74410104.25209 -14159785.060   -57981881.41547
 -12653534.020   -66494742.55708 -12653535.900   -51814103.99945
 -14581101.580   -76624202.11109 -14581104.400   -59707191.87448
 -13435646.100   -70604786.00506 -13435648.140   -55016728.25944
 -15218256.460   -79972470.46709 -15218262.180   -62316228.68349
 -15519100.300   -81553412.42709 -15519105.860   -63548135.26249
 -15967503.420   -83909794.18109 -15967504.100   -65384257.49749
 -12947206.600   -68037956.01608 -12947207.060   -53016566.08846
 15 03 03 02 24 30.0000000  0  8G04G11G16G18G19G22G27G32
 -14403229.920   -75689431.46508 -14403233.800   -58978759.72546
 -12900328.220   -67791660.00008 -12900331.440   -52824688.96245
 -14796198.520   -77754543.25109 -14796201.120   -60587977.19048
 -13652392.320   -71743787.92105 -13652393.940   -55904262.16643
 -15457589.180   -81230171.14909 -15457594.600   -63296255.19048
 -15746342.940   -82747580.66009 -15746348.420   -64478655.95048
 -16198687.960   -85124677.93009 -16198688.740   -66330920.16949
 -13199250.800   -69362456.99808 -13199251.660   -54048644.61845
 15 03 03 02 25  0.0000000  0  9G04G11G14G16G18G19G22G27G32
 -14646632.960   -76968522.13509 -14646636.660   -59975453.73846
 -13147103.940   -69088478.49808 -13147107.260   -53835196.85245
 -12060521.580                                                  
 -15011220.800   -78884493.10309 -15011223.420   -61468457.60748
 -13869080.680   -72882489.29405 -13869082.060   -56791562.01744
 -15696873.560   -82487616.33609 -15696878.860   -64276082.61348
 -15973487.220   -83941232.16609 -15973492.520   -65408773.99248
 -16429803.240   -86339197.49309 -16429804.120   -67277299.04749
 -13451262.260   -70686784.71608 -13451263.840   -55080588.10645
 15 03 03 02 25 30.0000000  0 10G01G04G11G14G16G18G19G22G27G32
 -12404146.100   -65184226.66207 -12404144.080   -50792908.30245
 -14889990.260   -78247372.88409 -14889993.360   -60971960.81347
 -13393861.000   -70385194.75507 -13393863.220   -54845625.14345
 -12305274.640   -64664661.23908 -12305277.260   -50388054.13644
 -15226168.320   -80014051.15109 -15226171.180   -62348632.75248
 -14085711.160   -74020889.61405 -14085712.640   -57678627.18144
 -15936108.180   -83744801.67009 -15936113.240   -65255707.53848
 -16200532.800   -85134365.01209 -16200538.080   -66338487.88848
 -16660848.520   -87553348.75309 -16660849.440   -68223390.94249
 -13703239.780   -72010933.44308 -13703241.960   -56112392.17646
 15 03 03 02 26  0.0000000  0 10G01G04G11G14G16G18G19G22G27G32
 -12650204.140   -66477268.56607 -12650201.900   -51800473.31644
 -15133301.700   -79525982.53809 -15133304.300   -61968280.00347
 -13640598.580   -71681807.46108 -13640599.900   -55855972.72845
 -12550020.540   -65950809.11807 -12550022.980   -51390247.24644
 -15441041.820   -81143218.96008 -15441044.460   -63228503.79048
 -14302284.040   -75158989.70604 -14302285.220   -58565458.43644
 -16175293.020   -85001724.61708 -16175297.560   -66235128.03748
 -16427479.720   -86326978.89509 -16427484.980   -67267797.40148
 -16891823.200   -88767129.61709 -16891824.200   -69169194.22149
 -13955182.380   -73334899.57508 -13955184.700   -57144053.95045
 15 03 03 02 26 30.0000000  0  9G01G04G11G14G16G19G22G27G32
 -12896238.640   -67770185.43706 -12896236.000   -52807940.86245
 -15376567.800   -80804354.21709 -15376570.180   -62964413.76247
 -13887316.540   -72978319.63808 -13887317.520   -56866241.94345
 -12794759.280   -67236916.61107 -12794760.960   -52392408.88045
 -15655842.540   -82272002.44108 -15655844.480   -64108075.30748
 -16414428.260   -86258387.66509 -16414432.920   -67214345.97448
 -16654328.820   -87519078.33909 -16654334.080   -68196706.04548
 -17122727.840   -89980542.43309 -17122728.840   -70114710.69949
 -14207090.160   -74658683.52908 -14207091.980   -58175573.79146
 15 03 03 02 27  0.0000000  0  9G01G04G11G14G16G19G22G27G32
 -13142249.460   -69062977.45906 -13142246.800   -53815311.17145
 -15619788.560   -82082488.10509 -15619790.960   -63960362.24147
 -14134014.820   -74274731.32308 -14134016.060   -57876432.83146
 -13039490.340   -68522981.31006 -13039490.580   -53394537.27045
 -15870570.520   -83400405.17208 -15870572.320   -64987350.18548
 -16653513.640   -87514789.66709 -16653518.260   -68193360.50949
 -16881080.260   -88710664.62809 -16881085.620   -69125214.84248
 -17353562.360   -91193586.54309 -17353563.340   -71059939.86849
 -14458962.820   -75982283.25408 -14458963.900   -59206950.06347
 15 03 03 02 27 30.0000000  0  9G01G04G11G14G16G19G22G27G32
 -13388235.720   -70355641.15806 -13388233.500   -54822581.51045
 -15862963.120   -83360380.82709 -15862965.920   -64956122.76446
 -14380693.020   -75571038.41408 -14380696.020   -58886542.18445
 -13284211.460   -69808997.11807 -13284210.740   -54396627.51344
 -16085225.460   -84528425.52009 -16085227.480   -65866327.10447
 -16892548.400   -88770925.97509 -16892552.660   -69172168.05648
 -17107733.540   -89901735.55709 -17107738.980   -70053322.04648
 -17584325.920   -92406257.63809 -17584326.940   -72004878.38149
 -14710799.480   -77305692.66808 -14710799.920   -60238178.06946
 15 03 03 02 28  0.0000000  0  9G01G04G11G14G16G19G22G27G32
 -13634198.040   -71648179.60106 -13634195.660   -55829754.23244
 -16106092.420   -84638035.33109 -16106095.820   -65951697.66946
 -14627352.160   -76867243.96808 -14627356.720   -59896572.43645
 -13528922.600   -71094964.35208 -13528922.680   -55398679.83544
 -16299808.580   -85656069.06109 -16299811.020   -66745010.39747
 -17131532.740   -90026798.36909 -17131537.340   -70150769.89548
 -17334289.560   -91092295.53209 -17334294.980   -70981031.12448
 -17815018.900   -93618557.91909 -17815020.020   -72949527.96549
 -14962600.240   -78628912.45908 -14962600.320   -61269258.32746
 15 03 03 02 28 30.0000000  0  9G01G04G11G14G16G19G22G27G32
 -13880136.380   -72940594.47106 -13880133.380   -56836830.67545
 -16349177.020   -85915453.31309 -16349180.620   -66947088.25347
 -14873992.640   -78163349.35808 -14873997.360   -60906524.62545
 -13773624.220   -72380882.11507 -13773625.300   -56400693.64244
 -16514320.920   -86783340.91309 -16514324.040   -67623404.07048
 -17370467.080   -91282407.29509 -17370471.980   -71129166.44048
 -17560748.840   -92282347.59109 -17560754.180   -71908344.41748
 -18045641.540   -94830488.18809 -18045642.600   -73893889.21949
 -15214364.640   -79951941.70308 -15214364.460   -62300190.09146
 15 03 03 02 29  0.0000000  0  9G01G04G11G14G16G19G22G27G32
 -14126049.900   -74232881.79107 -14126047.220   -57843807.74244
 -16592216.260   -87192630.73508 -16592219.400   -67942291.44247
 -15120614.060   -79459350.12507 -15120618.320   -61916395.35745
 -14018315.260   -73666743.76707 -14018317.460   -57402663.68844
 -16728762.240   -87910240.16209 -16728765.900   -68501507.42448
 -17609350.460   -92537747.92709 -17609355.100   -72107353.96248
 -17787110.980   -93471888.62809 -17787116.300   -72835259.52548
 -18276192.920   -96042043.67809 -18276193.860   -74837958.44249
 -15466091.260   -81274773.87008 -15466091.200   -63330968.31746
 15 03 03 02 29 30.0000000  0  9G01G04G11G14G16G19G22G27G32
 -14371939.520   -75525043.60807 -14371938.820   -58850686.92043
 -16835210.160   -88469569.70508 -16835212.420   -68937308.80847
 -15367216.260   -80755247.87008 -15367220.160   -62926185.81145
 -14262995.600   -74952548.67807 -14262998.440   -58404589.52645
 -16943133.600   -89036770.38909 -16943137.200   -69379323.19248
 -17848182.880   -93792820.86509 -17848187.300   -73085332.86248
 -18013376.680   -94660922.22909 -18013381.720   -73761779.21449
 -18506673.220   -97253225.58509 -18506674.060   -75781736.56049
 -15717780.120   -82597408.53908 -15717780.880   -64361592.63446
 15 03 03 02 30  0.0000000  0  9G01G04G11G14G16G19G22G27G32
 -14617805.560   -76817078.75007 -14617805.640   -59857467.43644
 -17078158.400   -89746269.09708 -17078159.740   -69932139.52947
 -15613798.100   -82051041.70508 -15613801.320   -63935895.25646
 -14507664.660   -76238292.79607 -14507666.980   -59406468.03944
 -17157435.660   -90162933.91809 -17157439.080   -70256853.20048
 -18086964.100   -95047623.50809 -18086968.440   -74063101.15548
 -18239545.680   -95849448.46409 -18239550.640   -74687903.55749
 -18737082.100   -98464031.98009 -18737082.880   -76725222.07749
 -15969430.620   -83919842.25008 -15969432.360   -65392060.34946
 15 03 03 02 30 30.0000000  0  9G01G04G11G14G16G19G22G27G32
 -14863648.020   -78108987.31606 -14863647.040   -60864149.34745
 -17321060.840   -91022728.97409 -17321061.940   -70926783.58647
 -15860359.680   -83346731.20408 -15860362.320   -64945523.41446
 -14752321.960   -77523973.59607 -14752323.580   -60408297.19345
 -17371668.520   -91288733.71409 -17371672.220   -71134099.82147
 -18325693.500   -96302154.93209 -18325697.920   -75040658.08749
 -18465618.400   -97037468.99409 -18465623.380   -75613633.84549
 -18967419.400   -99674462.16709 -18967420.180   -77668414.43149
 -16221042.480   -85242072.47908 -16221044.940   -66422369.53646
 15 03 03 02 31  0.0000000  0  9G01G04G11G14G16G19G22G27G32
 -15109466.420   -79400769.88307 -15109464.280   -61870733.11645
 -17563917.520   -92298950.10009 -17563919.080   -71921241.56647
 -16106901.340   -84642316.44208 -16106903.660   -65955070.32345
 -14996966.580   -78809589.07307 -14996967.860   -61410075.43345
 -17585832.560   -92414173.32209 -17585836.100   -72011065.76948
 -18564371.000   -97556414.54909 -18564375.480   -76018003.24149
 -18691595.200   -98224985.18309 -18691600.260   -76538971.13249
 -19197684.960  -100884515.81309 -19197685.820   -78611313.37349
 -16472615.320   -86564097.20408 -16472618.180   -67452518.56846
 15 03 03 02 31 30.0000000  0  9G01G04G11G14G16G19G22G27G32
 -15355260.840   -80692427.89406 -15355258.240   -62877219.80445
 -17806728.840   -93574933.64409 -17806730.880   -72915514.43446
 -16353423.560   -85937798.67508 -16353425.780   -66964536.99345
 -15241598.340   -80095137.80407 -15241599.100   -62411801.74445
 -17799928.700   -93539256.67009 -17799931.540   -72887754.10148
 -18802996.960   -98810402.55009 -18803001.380   -76995136.76148
 -18917476.660   -99412000.17509 -18917481.760   -77463917.88148
 -19427878.880  -102094193.58409 -19427879.900   -79553919.43149
 -16724148.960   -87885915.42008 -16724151.880   -68482506.70446
 15 03 03 02 32  0.0000000  0  9G01G04G11G14G16G19G22G27G32
 -15601032.140   -81983966.58707 -15601029.960   -63883613.50545
 -18049495.880   -94850684.83709 -18049498.380   -73909606.24447
 -16599927.160   -87233182.62408 -16599929.720   -67973927.03144
 -15486217.660   -81380622.24407 -15486218.480   -63413477.88445
 -18013958.620   -94663991.88209 -18013961.080   -73764171.14748
 -19041571.900  -100064123.08109 -19041576.500   -77972061.83348
 -19143264.020  -100598520.60809 -19143269.020   -78388479.25149
 -19658002.180  -103303499.87409 -19658003.280   -80496236.01949
 -16975643.980   -89207529.88208 -16975646.740   -69512336.08346
 15 03 03 02 32 30.0000000  0  9G01G04G11G14G16G19G22G27G32
 -15846779.160   -83275379.98208 -15846777.860   -64889909.55544
 -18292217.520   -96126197.84509 -18292220.420   -74903512.46247
 -16846410.940   -88528462.09408 -16846413.680   -68983235.69044
 -15730823.180   -82666034.29108 -15730824.360   -64415097.63645
 -18227921.540   -95788375.30909 -18227924.540   -74640314.10847
 -19280094.560  -101317568.67409 -19280099.340   -78948772.68348
 -19368956.440  -101784541.96209 -19368961.380   -79312651.73748
 -19888053.560  -104512427.92009 -19888054.600   -81438257.87749
 -17227098.720   -90528932.09808 -17227101.180   -70542000.06645
 15 03 03 02 33  0.0000000  0  9G01G04G11G14G16G19G22G27G32
 -16092502.880   -84566671.32907 -16092503.060   -65896110.49645
 -18534894.400   -97401475.90309 -18534897.680   -75897235.59747
 -17092875.580   -89823640.02507 -17092878.380   -69992465.20644
 -15975415.120   -83951374.14807 -15975416.360   -65416661.11345
 -18441818.640   -96912413.47009 -18441822.340   -75516188.03547
 -19518565.340  -102570741.38109 -19518570.260   -79925270.88448
 -19594554.600  -102970068.47309 -19594559.640   -80236438.61948
 -20118033.500  -105720980.15509 -20118034.420   -82379986.88949
 -17478513.380   -91850122.66308 -17478515.380   -71571499.12746
 15 03 03 02 33 30.0000000  0  9G01G04G11G14G16G19G22G27G32
 -16338203.820   -85857839.50806 -16338204.560   -66902215.46646
 -18777526.520   -98676517.88109 -18777529.920   -76890774.77647
 -17339320.740   -91118714.81907 -17339323.460   -71001614.39145
 -16219992.860   -85236637.75007 -16219994.420   -66418165.22444
 -18655650.580   -98036108.55909 -18655654.000   -76391794.59948
 -19756983.800  -103823639.12809 -19756988.840   -80901554.83048
 -19820058.680  -104155100.57409 -19820063.940   -81159840.25248
 -20347941.600  -106929154.72309 -20347942.340   -83321421.61949
 -17729887.120   -93171098.17608 -17729888.500   -72600830.65346
 15 03 03 02 34  0.0000000  0  9G01G04G11G14G16G19G22G27G32
 -16583882.620   -87148884.07506 -16583882.140   -67908224.24245
 -19020113.800   -99951323.52409 -19020116.820   -77884129.81747
 -17585745.720   -92413686.05408 -17585748.100   -72010682.83345
 -16464555.780   -86521822.00207 -16464558.160   -67419607.41644
 -18869417.700   -99159462.07809 -18869420.560   -77267135.00448
 -19995349.760  -105076260.11909 -19995354.680   -81877623.16248
 -20045468.840  -105339639.50709 -20045474.420   -82082857.59048
 -20577777.520  -108136950.42709 -20577778.180   -84262561.13149
 -17981219.160   -94491855.70408 -17981220.240   -73629992.28346
 15 03 03 02 34 30.0000000  0  9G01G04G11G14G16G19G22G27G32
 -16829537.020   -88439801.60807 -16829535.100   -68914133.93845
 -19262655.520  -101225889.09709 -19262658.000   -78877297.78547
 -17832149.800   -93708549.58208 -17832151.620   -73019667.34346
 -16709102.340   -87806920.69707 -16709104.500   -68420982.96744
 -19083119.840  -100282473.37109 -19083122.680   -78142208.75348
 -20233662.100  -106328599.30609 -20233666.820   -82853471.88749
 -20270784.780  -106523683.31809 -20270790.560   -83005489.12448
 -20807540.420  -109344362.85809 -20807541.140   -85203401.99049
 -18232508.480   -95812389.11608 -18232509.180   -74658979.28047
 15 03 03 02 35  0.0000000  0  9G01G04G11G14G16G19G22G27G32
 -17075167.020   -89730594.19907 -17075164.280   -69919946.25545
 -19505152.540  -102500216.60008 -19505154.780   -79870280.23947
 -18078533.700   -95003307.00508 -18078535.180   -74028569.18846
 -16953632.140   -89091933.30308 -16953633.560   -69422291.46544
 -19296758.020  -101405148.27009 -19296760.860   -79017020.37747
 -20471920.960  -107580657.80409 -20471925.580   -83829101.88149
 -20496007.180  -107707235.10509 -20496013.080   -83927737.25848
 -21037230.680  -110551393.41309 -21037231.460   -86143945.28249
 -18483754.960   -97132698.03608 -18483754.920   -75687791.38047
 15 03 03 02 35 30.0000000  0  9G01G04G11G14G16G19G22G27G32
 -17320772.820   -91021262.13306 -17320770.120   -70925661.46245
 -19747604.460  -103774306.52909 -19747607.140   -80863077.55347
 -18324897.720   -96297958.45807 -18324899.100   -75037388.45945
 -17198144.820   -90376857.33608 -17198146.440   -70423530.90544
 -19510332.360  -102527488.91809 -19510335.160   -79891571.54248
 -20710126.100  -108832434.72809 -20710130.780   -84804512.48048
 -20721136.340  -108890297.01509 -20721142.100   -84849603.67148
 -21266848.200  -111758041.61409 -21266849.020   -87084190.65049
 -18734958.220   -98452780.28708 -18734957.640   -76716426.84747
 15 03 03 02 36  0.0000000  0  9G01G04G11G14G16G19G22G27G32
 -17566354.720   -92311805.54107 -17566352.700   -71931279.62044
 -19990010.780  -105048159.01409 -19990013.520   -81855689.82647
 -18571241.900   -97592503.53608 -18571243.360   -76046124.91746
 -17442640.060   -91661690.18408 -17442641.920   -71424699.30545
 -19723843.800  -103649499.07909 -19723846.720   -80765865.20048
 -20948277.480  -110083928.98209 -20948282.240   -85779702.81349
 -20946172.480  -110072870.22709 -20946177.920   -85771089.28748
 -21496392.820  -112964306.82109 -21496393.700   -88024137.57249
 -18986117.900   -99772633.53408 -18986117.320   -77744883.87247
 15 03 03 02 36 30.0000000  0  9G01G04G11G14G16G19G22G27G32
 -17811913.020   -93602224.88007 -17811912.160   -72936801.10144
 -20232371.940  -106321774.59209 -20232374.140   -82848117.55147
 -18817565.720   -98886942.79908 -18817567.340   -77054778.81445
 -17687117.560   -92946429.55508 -17687119.260   -72425794.90045
 -19937293.100  -104771181.89409 -19937295.920   -81639903.76347
 -21186374.860  -111335139.63709 -21186379.700   -86754672.14748
 -21171115.980  -111254956.66909 -21171121.340   -86692195.59948
 -21725864.380  -114170188.70409 -21725865.420   -88963785.78749
 -19237233.740  -101092255.63908 -19237233.060   -78773160.77946
 15 03 03 02 37  0.0000000  0 10G01G04G11G14G16G18G19G22G27G32
 -18057446.360   -94892512.40207 -18057446.000   -73942219.85845
 -20474686.360  -107595145.28209 -20474688.660   -83840354.44947
 -19063867.560  -100181267.74608 -19063869.420   -78063343.68145
 -17931575.180   -94231064.83208 -17931577.220   -73426809.37545
 -20150679.120  -105892531.69409 -20150681.700   -82513682.84348
 -19053482.640  -100126727.25206 -19053482.520   -78020827.81245
 -21424416.500  -112586057.50009 -21424421.500   -87729413.33249
 -21395965.680  -112436550.40308 -21395971.120   -87612917.98448
 -21955261.320  -115375678.64809 -21955262.580   -89903128.60649
 -19488303.700  -102411636.33808 -19488303.060   -79801249.58647
 15 03 03 02 37 30.0000000  0 10G01G04G11G14G16G18G19G22G27G32
 -18302955.380   -96182671.45907 -18302955.080   -74947538.56545
 -20716954.700  -108868274.68509 -20716957.100   -84832403.30347
 -19310147.920  -101475481.28408 -19310150.260   -79071821.73245
 -18176013.260   -95515596.64707 -18176016.140   -74427743.21044
 -20364002.920  -107013555.33009 -20364005.640   -83387207.77547
 -19268875.740  -101258628.81107 -19268876.180   -78902829.08645
 -21662403.020  -113836684.81709 -21662408.280   -88703928.12948
 -21620722.680  -113617656.10808 -21620728.140   -88533260.10148
 -22184584.280  -116580779.42509 -22184585.740   -90842168.18549
 -19739327.860  -103730776.54808 -19739327.680   -80829150.98747
 15 03 03 02 38  0.0000000  0 10G01G04G11G14G16G18G19G22G27G32
 -18548440.520   -97472704.21207 -18548440.200   -75952758.84244
 -20959177.900  -110141164.70808 -20959179.420   -85824265.67947
 -19556407.140  -102769585.27008 -19556409.600   -80080214.45645
 -18420432.060   -96800024.45507 -18420435.220   -75428596.03944
 -20577265.220  -108134257.70009 -20577268.380   -84260482.38147
 -19484222.420  -102390287.73007 -19484224.200   -79784641.23944
 -21900334.320  -115087022.24009 -21900339.780   -89678217.00848
 -21845387.760  -114798277.45108 -21845393.000   -89453224.79647
 -22413833.500  -117785492.29909 -22413835.040   -91780905.49449
 -19990306.080  -105049675.81408 -19990306.880   -81856864.62445
 15 03 03 02 38 30.0000000  0 10G01G04G11G14G16G18G19G22G27G32
 -18793901.940   -98762610.99807 -18793901.860   -76957880.94644
 -21201355.680  -111413815.67909 -21201356.460   -86815941.76547
 -19802645.240  -104063579.46008 -19802647.800   -81088521.56845
 -18664830.860   -98084345.75407 -18664833.560   -76429365.87644
 -20790466.860  -109254641.99809 -20790470.220   -85133509.13547
 -19699523.280  -103521706.00708 -19699526.100   -80666265.87544
 -22138210.200  -116337069.05509 -22138215.660   -90652279.45048
 -22069961.080  -115978416.31008 -22069966.340   -90372813.52447
 -22643008.780  -118989816.91809 -22643010.340   -92719340.27049
 -20241237.960  -106368332.06708 -20241239.500   -82884388.90946
 15 03 03 02 39  0.0000000  0 10G01G04G11G14G16G18G19G22G27G32
 -19039339.080  -100052389.17007 -19039339.100   -77962902.83345
 -21443487.140  -112686225.08109 -21443488.260   -87807429.57447
 -20048861.980  -105357460.93208 -20048865.880   -82096740.84045
 -18909208.400   -99368555.04907 -18909210.440   -77430048.41145
 -21003608.180  -110374708.68409 -21003611.600   -86006288.38448
 -19914778.580  -104652883.47008 -19914781.860   -81547702.87144
 -22376030.180  -117586821.22509 -22376035.540   -91626112.31248
 -22294442.240  -117158071.67008 -22294447.540   -91292025.49347
 -22872109.520  -120193749.80909 -22872111.120   -93657469.79549
 -20492122.720  -107686740.05908 -20492124.380   -83911719.76246
 15 03 03 02 39 30.0000000  0 10G01G04G11G14G16G18G19G22G27G32
 -19284751.540  -101342038.75507 -19284751.740   -78967824.50544
 -21685572.480  -113958392.98109 -21685573.820   -88798729.20547
 -20295057.720  -106651229.41808 -20295062.380   -83104872.09945
 -19153563.860  -100652649.55707 -19153565.400   -78430641.50344
 -21216689.720  -111494460.37509 -21216692.960   -86878822.18847
 -20129988.780  -105783822.55408 -20129992.560   -82428954.15144
 -22613793.880  -118836277.48309 -22613799.260   -92599714.58448
 -22518831.440  -118337245.04308 -22518836.780   -92210861.87947
 -23101135.680  -121397290.37109 -23101137.280   -94595293.62049
 -20742959.960  -109004897.40908 -20742961.300   -84938855.33546
 15 03 03 02 40  0.0000000  0 10G01G04G11G14G16G18G19G22G27G32
 -19530138.980  -102631558.47907 -19530139.000   -79972644.97945
 -21927611.860  -115230317.96109 -21927613.000   -89789839.57947
 -20541232.380  -107944883.04308 -20541236.080   -84112913.86845
 -19397896.720  -101936625.21607 -19397897.560   -79431142.03345
 -21429711.720  -112613898.57509 -21429714.700   -87751111.70047
 -20345153.920  -106914524.23108 -20345157.780   -83310020.42144
 -22851500.680  -120085435.25609 -22851506.060   -93573084.25648
 -22743128.820  -119515936.49508 -22743134.040   -93129322.75347
 -23330086.840  -122600436.42209 -23330088.320   -95532810.03249
 -20993748.580  -110322800.24208 -20993749.540   -85965792.56146
 15 03 03 02 40 30.0000000  0 10G01G04G11G14G16G18G19G22G27G32
 -19775502.340  -103920952.72107 -19775502.120   -80977367.74146
 -22169605.900  -116502004.38109 -22169607.080   -90780764.06047
 -20787386.000  -109238425.69108 -20787389.580   -85120869.15045
 -19642206.640  -103220483.64108 -19642207.420   -80431551.17345
 -21642675.600  -113733030.64309 -21642678.800   -88623162.67647
 -20560275.340  -108044995.11508 -20560279.040   -84190906.83745
 -23089151.340  -121334297.71409 -23089156.460   -94546223.85249
 -22967335.580  -120694152.28408 -22967340.780   -94047412.97447
 -23558963.680  -123803191.78509 -23558964.980   -96470022.01649
 -21244488.940  -111640450.46608 -21244489.940   -86992532.96246
 15 03 03 02 41  0.0000000  0 10G01G04G11G14G16G18G19G22G27G32
 -20020842.220  -105210223.33607 -20020841.380   -81981994.11846
 -22411554.700  -117773454.32709 -22411555.900   -91771504.25747
 -21033518.420  -110531859.19508 -21033522.500   -86128739.37045
 -19886493.680  -104504224.12108 -19886495.380   -81431868.36345
 -21855582.080  -114851861.62109 -21855585.740   -89494979.05747
 -20775353.920  -109175239.70708 -20775357.280   -85071616.91244
 -23326745.760  -122582865.34409 -23326750.780   -95519133.70249
 -23191452.560  -121871895.84108 -23191457.920   -94965135.21247
 -23787766.400  -125005557.49309 -23787767.500   -97406930.35749
 -21495181.020  -112957847.39708 -21495182.240   -88019075.99647
 15 03 03 02 41 30.0000000  0 10G01G04G11G14G16G18G19G22G27G32
 -20266157.440  -106499364.26908 -20266156.040   -82986519.45745
 -22653457.240  -119044661.50609 -22653458.680   -92762055.29247
 -21279628.460  -111825176.36608 -21279632.360   -87136518.95946
 -20130756.620  -105787837.57708 -20130759.000   -82432086.58344
 -22068430.280  -115970387.60709 -22068434.080   -90366557.76047
 -20990388.580  -110305253.66308 -20990391.960   -85952147.24745
 -23564282.640  -123831130.64409 -23564287.840   -96491807.93749
 -23415479.080  -123049162.72108 -23415484.400   -95882486.01747
 -24016493.580  -126207526.73109 -24016494.580   -98343529.76649
 -21745823.260  -114274982.42209 -21745824.400   -89045414.92846
 15 03 03 02 42  0.0000000  0 10G01G04G11G14G16G18G19G22G27G32
 -20511448.460  -107788377.73707 -20511446.640   -83990945.50546
 -22895313.920  -120315628.17509 -22895316.100   -93752418.90447
 -21525716.680  -113118379.60708 -21525720.020   -88144209.79846
 -20374995.600  -107071323.32607 -20374998.100   -83432205.33645
 -22281221.500  -117088614.11909 -22281225.220   -91237903.09647
 -21205380.140  -111435041.67408 -21205384.220   -86832501.54544
 -23801762.240  -125079094.74109 -23801767.600   -97464247.48549
 -23639415.620  -124225956.32008 -23639420.980   -96799468.02846
 -24245145.620  -127409101.14609 -24245146.460   -99279821.51949
 -21996415.700  -115591855.44909 -21996417.300   -90071549.69946
 15 03 03 02 42 30.0000000  0 10G01G04G11G14G16G18G19G22G27G32
 -20756716.060  -109077266.80707 -20756713.780   -84995274.63446
 -23137125.640  -121586357.52709 -23137128.180   -94742597.59947
 -21771783.580  -114411471.09308 -21771786.440   -89151813.54546
 -20619210.840  -108354681.83107 -20619212.820   -84432224.94444
 -22493956.840  -118206547.11609 -22493960.740   -92109019.74847
 -21420329.640  -112564608.86508 -21420334.440   -87712683.77644
 -24039185.020  -126326759.67909 -24039190.420   -98436453.92649
 -23863263.120  -125402281.58208 -23863268.280   -97716085.13646
 -24473723.000  -128610282.94109 -24473723.720  -100215807.32649
 -22246958.600  -116908466.80208 -22246960.780   -91097480.55846
 15 03 03 02 43  0.0000000  0 10G01G04G11G14G16G18G19G22G27G32
 -21001960.680  -110366034.16307 -21001958.340   -85999508.90144
 -23378892.920  -122856851.92409 -23378895.440   -95732593.22847
 -22017829.640  -115704453.15008 -22017832.640   -90159331.99845
 -20863402.060  -109637912.80707 -20863403.520   -85432145.15745
 -22706637.480  -119324192.34209 -22706641.800   -92979912.15747
 -21635238.200  -113693960.30508 -21635243.160   -88592697.89244
 -24276551.160  -127574125.76309 -24276556.320   -99408427.50848
 -24087021.960  -126578142.65308 -24087027.140   -98632340.50046
 -24702226.040  -129811074.15309 -24702226.700  -101151488.79249
 -22497452.100  -118224816.71408 -22497453.800   -92123207.74246
 15 03 03 02 43 30.0000000  0 10G01G04G11G14G16G18G19G22G27G32
 -21247182.200  -111654679.95907 -21247180.560   -87003648.44545
 -23620615.760  -124127111.69308 -23620618.260   -96722406.01847
 -22263855.000  -116997325.45308 -22263858.240   -91166764.94546
 -21107568.440  -110921013.45007 -21107569.140   -86431963.86645
 -22919264.060  -120441552.60109 -22919268.620   -93850582.51547
 -21850106.180  -114823098.62308 -21850110.760   -89472545.97644
 -24513860.300  -128821192.78109 -24513865.320  -100380168.02749
 -24310692.820  -127753541.70708 -24310698.000   -99548235.86046
 -24930654.640  -131011474.27809 -24930655.260  -102086865.52649
 -22747895.200  -119540903.00808 -22747896.460   -93148729.49847
 15 03 03 02 44  0.0000000  0 10G01G04G11G14G16G18G19G22G27G32
 -21492380.160  -112943203.06107 -21492379.480   -88007692.32644
 -23862293.540  -125397135.71709 -23862295.920   -97712035.10947
 -22509859.560  -118290086.53308 -22509862.800   -92174111.23546
 -21351709.040  -112203980.17207 -21351709.720   -87431678.20345
 -23131837.000  -121558629.63209 -23131841.080   -94721032.16647
 -22064933.660  -115952024.26608 -22064937.900   -90352228.31244
 -24751111.780  -130067958.02509 -24751116.780  -101351673.40049
 -24534275.740  -128928479.09308 -24534281.140  -100463771.48246
 -25159008.500  -132211481.44909 -25159008.960  -103021936.04949
 -22998286.960  -120856721.94909 -22998288.060   -94174042.91447
 15 03 03 02 44 30.0000000  0 10G01G04G11G14G16G18G19G22G27G32
 -21737554.140  -114231602.98208 -21737554.400   -89011640.22045
 -24103926.120  -126666923.33509 -24103927.880   -98701480.02048
 -22755842.680  -119582735.28208 -22755846.440   -93181369.96446
 -21595823.160  -113486809.25608 -21595824.460   -88431285.25145
 -23344356.620  -122675425.95509 -23344360.020   -95591263.07748
 -22279721.260  -117080739.48507 -22279724.880   -91231746.68145
 -24988305.420  -131314419.50209 -24988310.360  -102322942.09249
 -24757770.920  -130102955.85708 -24757776.420  -101378948.18346
 -25387287.380  -133411094.47109 -25387287.680  -103956699.44849
 -23248626.940  -122172270.45209 -23248628.140   -95199145.61147
 15 03 03 02 45  0.0000000  0 10G01G04G11G14G16G18G19G22G27G32
 -21982704.180  -115519878.03808 -21982705.060   -90015490.81545
 -24345512.960  -127936473.12609 -24345514.420   -99690739.57548
 -23001803.900  -120875269.52008 -23001808.100   -94188539.46746
 -21839909.980  -114769496.26808 -21839912.200   -89430781.58945
 -23556822.820  -123791942.66209 -23556826.020   -96461276.11048
 -22494468.980  -118209244.63107 -22494472.040   -92111101.36245
 -25225440.740  -132560574.24809 -25225445.580  -103293971.77449
 -24981178.340  -131276971.96207 -24981184.000  -102293765.88646
 -25615490.760  -134610310.96209 -25615490.980  -104891153.86449
 -23498914.720  -123487544.44309 -23498916.440   -96224034.39447
 15 03 03 02 45 30.0000000  0 10G01G04G11G14G16G18G19G22G27G32
 -22227830.500  -116808027.31707 -22227831.320   -91019243.43345
 -24587054.260  -129205783.77609 -24587056.280  -100679812.80447
 -23247743.080  -122167688.00608 -23247747.060   -95195618.79945
 -22083969.160  -116052037.72808 -22083972.000   -90430164.47744
 -23769236.040  -124908181.49109 -23769238.840   -97331072.60847
 -22709176.740  -119337541.26707 -22709179.920   -92990293.55745
 -25462517.380  -133806420.21909 -25462522.160  -104264760.83649
 -25204498.740  -132450528.51406 -25204504.260  -103208225.55145
 -25843618.340  -135809129.45709 -25843618.540  -105825298.15649
 -23749150.000  -124802540.50408 -23749151.840   -97248706.59447
 15 03 03 02 46  0.0000000  0 10G01G04G11G14G16G18G19G22G27G32
 -22472932.940  -118096049.75607 -22472932.940   -92022897.26346
 -24828550.020  -130474854.50709 -24828553.060  -101668699.07647
 -23493659.940  -123459988.90608 -23493664.380   -96202606.47045
 -22328000.020  -117334429.61708 -22328003.340   -91429430.81744
 -23981596.820  -126024144.98009 -23981599.100   -98200654.55047
 -22923844.780  -120465630.50607 -22923848.080   -93869324.14145
 -25699534.780  -135051954.85009 -25699539.480  -105235307.30449
 -25427732.040  -133623625.80206 -25427737.200  -104122327.30344
 -26071669.780  -137007548.15809 -26071670.000  -106759130.90249
 -23999332.060  -126117255.10908 -23999333.820   -98273159.51147
 15 03 03 02 46 30.0000000  0 10G01G04G11G14G16G18G19G22G27G32
 -22718011.160  -119383943.37207 -22718010.260   -93026450.67346
 -25069999.600  -131743683.23609 -25070003.040  -102657396.75647
 -23739553.900  -124752169.79308 -23739558.640   -97209500.63745
 -22572001.560  -118616667.12908 -22572004.700   -92428576.89744
 -24193905.380  -127139833.49409 -24193907.440   -99070022.24747
 -23138473.400  -121593512.48607 -23138476.580   -94748193.22545
 -25936492.280  -136297174.48909 -25936496.800  -106205608.31749
 -25650878.280  -134796263.50606 -25650882.760  -105036071.00744
 -26299644.500  -138205564.38809 -26299644.900  -107692650.04649
 -24249459.780  -127431683.84608 -24249461.780   -99297389.63246
 15 03 03 02 47  0.0000000  0 10G01G04G11G14G16G18G19G22G27G32
 -22963065.780  -120671711.31007 -22963064.500   -94029906.20946
 -25311404.060  -133012273.22609 -25311407.420  -103645908.42747
 -23985425.460  -126044233.73508 -23985429.840   -98216303.67445
 -22815974.040  -119898750.61508 -22815976.700   -93427603.00545
 -24406162.780  -128255253.12609 -24406164.760   -99939180.40047
 -23353063.660  -122721192.41607 -23353066.780   -95626904.84245
 -26173390.340  -137542081.47709 -26173394.700  -107175665.70449
 -25873937.700  -135968446.93306 -25873941.820  -105949460.69144
 -26527543.120  -139403180.75709 -26527543.740  -108625857.60649
 -24499533.340  -128745827.24008 -24499535.140  -100321397.44547
 15 03 03 02 47 30.0000000  0 10G01G04G11G14G16G18G19G22G27G32
 -23208096.040  -121959352.53207 -23208094.940   -95033262.95245
 -25552763.020  -134280623.09009 -25552766.740  -104634232.97047
 -24231274.400  -127336178.49808 -24231278.800   -99223013.85845
 -23059916.560  -121180676.23808 -23059918.800   -94426506.06545
 -24618369.120  -129370405.82809 -24618371.420  -100808130.57847
 -23567615.760  -123848671.35307 -23567618.900   -96505459.85445
 -26410228.440  -138786673.32809 -26410232.780  -108145477.54648
 -26096910.300  -137140176.12506 -26096914.580  -106862496.45844
 -26755365.420  -140600395.50209 -26755366.000  -109558752.20949
 -24749551.680  -130059681.80709 -24749553.240  -101345180.17747
 15 03 03 02 48  0.0000000  0 10G01G04G11G14G16G18G19G22G27G32
 -23453101.880  -123246865.81607 -23453100.720   -96036519.97446
 -25794076.380  -135548732.04509 -25794080.060  -105622369.79947
 -24477100.600  -128628002.71108 -24477104.500  -100229630.13445
 -23303828.240  -122462439.44308 -23303829.960   -95425282.58645
 -24830524.720  -130485293.26209 -24830527.820  -101676874.05647
 -23782130.120  -124975950.47306 -23782132.800   -97383859.16245
 -26647005.920  -140030947.31209 -26647010.360  -109115041.68848
 -26319796.220  -138311451.97806 -26319800.680  -107775178.89443
 -26983110.880  -141797206.72609 -26983111.520  -110491332.38849
 -24999514.260  -131373243.86009 -24999515.580  -102368734.98647
 15 03 03 02 48 30.0000000  0 10G01G04G11G14G16G18G19G22G27G32
 -23698083.060  -124534249.61807 -23698081.520   -97039676.11045
 -26035343.860  -136816598.15409 -26035346.880  -106610317.41247
 -24722903.460  -129919704.36508 -24722906.760  -101236150.86145
 -23547708.000  -123744036.10908 -23547709.360   -96423929.31045
 -25042630.120  -131599916.84609 -25042633.740  -102545411.94047
 -23996606.660  -126103030.46107 -23996609.060   -98262103.26345
 -26883722.180  -141274900.67109 -26883726.960  -110084355.99048
 -26542596.160  -139482274.65806 -26542600.380  -108687508.27943
 -27210779.160  -142993612.32009 -27210779.920  -111423596.49149
 -25249420.520  -132686509.40009 -25249421.680  -103392058.75947
 15 03 03 02 49  0.0000000  0 10G01G04G11G14G16G18G19G22G27G32
 -23943039.600  -125821503.89107 -23943037.900   -98042731.32945
 -26276565.180  -138084221.61209 -26276567.460  -107598075.95747
 -24968682.880  -131211282.56008 -24968685.680  -102242575.39846
 -23791555.260  -125025463.43608 -23791557.060   -97422444.07144
 -25254686.080  -132714279.80309 -25254690.140  -103413746.73847
 -24211045.220  -127229913.26007 -24211047.780   -99140193.77245
 -27120377.200  -142518531.91009 -27120382.180  -111053419.29148
 -26765310.840  -140652645.73106 -26765314.420  -109599485.77444
 -27438370.240  -144189611.59409 -27438370.980  -112355543.97949
 -25499269.940  -133999475.86008 -25499271.000  -104415149.48347
 15 03 03 02 49 30.0000000  0 10G01G04G11G14G16G18G19G22G27G32
 -24187972.160  -127108630.25507 -24187970.160   -99045686.92445
 -26517740.080  -139351603.72909 -26517742.380  -108585646.42047
 -25214438.900  -132502738.45008 -25214441.220  -103248904.64846
 -24035370.440  -126306720.24507 -24035372.220   -98420825.98445
 -25466693.460  -133828386.21009 -25466697.720  -104281881.61947
 -24425446.760  -128356603.05108 -24425449.900  -100018133.90645
 -27356971.060  -143761841.41209 -27356976.000  -112022231.89849
 -26987939.840  -141822568.79107 -26987943.280  -110511114.12444
 -27665884.280  -145385205.61509 -27665884.900  -113287175.68049
 -25749062.360  -135312142.47408 -25749063.180  -105438006.56047
 15 03 03 02 50  0.0000000  0 10G01G04G11G14G16G18G19G22G27G32
 -24432880.040  -128395629.80807 -24432878.140  -100048543.66445
 -26758869.160  -140618745.89909 -26758871.880  -109573029.88447
 -25460171.560  -133794072.69908 -25460173.960  -104255139.12046
 -24279153.020  -127587804.76808 -24279154.560   -99419073.64645
 -25678652.920  -134942240.02809 -25678656.720  -105149819.67147
 -24639812.180  -129483102.80707 -24639815.680  -100895925.92644
 -27593503.580  -145004828.83809 -27593508.520  -112990793.52849
 -27210484.020  -142992046.61107 -27210487.480  -111422395.54444
 -27893321.240  -146580394.81709 -27893321.780  -114218491.94749
 -25998797.440  -136624507.85808 -25998798.340  -106460628.89847
 15 03 03 02 50 30.0000000  0 10G01G04G11G14G16G18G19G22G27G32
 -24677762.740  -129682499.29807 -24677761.340  -101051299.05146
 -26999951.880  -141885644.72209 -26999954.420  -110560223.75548
 -25705880.140  -135085281.48608 -25705882.840  -105261275.80646
 -24522901.560  -128868710.87908 -24522903.440  -100417182.24144
 -25890564.300  -136055841.15509 -25890567.760  -106017560.83447
 -24854141.420  -130609411.45307 -24854145.280  -101773569.03944
 -27829973.880  -146247489.66609 -27829979.020  -113959100.65749
 -27432942.960  -144161077.62107 -27432946.320  -112333328.81545
 -28120680.460  -147775175.40409 -28120680.940  -115149489.81549
 -26248473.960  -137936566.30008 -26248475.380  -107483012.06147
 15 03 03 02 51  0.0000000  0 10G01G04G11G14G16G18G19G22G27G32
 -24922620.260  -130969238.17308 -24922619.880  -102053952.67144
 -27240988.260  -143152299.42209 -27240990.600  -111547227.38947
 -25951564.860  -136376363.43308 -25951567.440  -106267313.68545
 -24766615.440  -130149434.94607 -24766617.660  -101415148.98944
 -26102428.040  -137169191.43509 -26102431.420  -106885106.51547
 -25068434.560  -131735530.63707 -25068438.520  -102651064.53444
 -28066381.760  -147489821.89109 -28066387.040  -114927151.73348
 -27655317.200  -145329662.84107 -27655320.780  -113243914.71345
 -28347961.720  -148969546.16309 -28347962.160  -116080168.34149
 -26498091.400  -139248314.69609 -26498093.140  -108505153.63846
 15 03 03 02 51 30.0000000  0 10G01G04G11G14G16G18G19G22G27G32
 -25167453.620  -132255849.91807 -25167454.040  -103056507.18146
 -27481979.300  -144418713.56408 -27481981.620  -112534043.58748
 -26197226.380  -137667321.67808 -26197228.840  -107273255.17546
 -25010294.700  -131429977.88708 -25010296.300  -102412974.62746
 -26314245.300  -138282297.78809 -26314248.320  -107752462.12147
 -25282692.800  -132861466.07607 -25282696.900  -103528416.86045
 -28302727.620  -148731827.55009 -28302732.920  -115894948.34849
 -27877607.820  -146497807.96707 -27877611.560  -114154157.68546
 -28575165.540  -150163509.99909 -28575165.980  -117010529.77449
 -26747650.020  -140559754.19609 -26747651.800  -109527054.51147
 15 03 03 02 52  0.0000000  0 10G01G04G11G14G16G18G19G22G27G32
 -25412263.100  -133542332.77107 -25412263.500  -104058961.32745
 -27722924.460  -145684885.68709 -27722925.920  -113520671.22348
 -26442863.660  -138958154.10808 -26442866.040  -108279098.61445
 -25253938.360  -132710335.01108 -25253939.500  -103410655.50845
 -26526016.260  -139395161.33609 -26526019.060  -108619628.53947
 -25496916.260  -133987218.01707 -25496920.440  -104405626.16544
 -28539010.820  -149973504.02009 -28539015.980  -116862488.44949
 -28099814.520  -147665512.80908 -28099818.560  -115064057.59045
 -28802291.440  -151357064.68609 -28802291.980  -117940572.38949
 -26997149.120  -141870880.66008 -26997150.660  -110548711.47247
 15 03 03 02 52 30.0000000  0 10G01G04G11G14G16G18G19G22G27G32
 -25657048.640  -134828688.89808 -25657049.280  -105061316.71445
 -27963823.420  -146950817.52209 -27963824.100  -114507111.62348
 -26688476.840  -140248862.02208 -26688479.240  -109284845.00246
 -25497546.280  -133990505.63308 -25497547.720  -104408191.02545
 -26737741.920  -140507787.32609 -26737745.080  -109486609.86447
 -25711105.800  -135112791.51807 -25711109.840  -105282696.43044
 -28775231.340  -151214851.56509 -28775236.380  -117829772.25449
 -28321938.140  -148832781.57407 -28321942.540  -115973617.63646
 -29029339.860  -152550211.80009 -29029340.440  -118870297.41349
 -27246588.540  -143181693.70409 -27246589.640  -111570124.20747
 15 03 03 02 53  0.0000000  0 10G01G04G11G14G16G18G19G22G27G32
 -25901809.860  -136114915.22307 -25901810.220  -106063570.94946
 -28204675.700  -148216506.08409 -28204676.540  -115493362.42748
 -26934065.400  -141539441.84509 -26934068.500  -110290491.57646
 -25741117.660  -135270483.93408 -25741119.700  -105405576.68546
 -26949422.280  -141620175.14409 -26949425.520  -110353405.58147
 -25925261.000  -136238184.96307 -25925264.940  -106159626.37545
 -29011388.420  -152455866.01409 -29011393.440  -118796796.49449
 -28543978.720  -149999612.95007 -28543983.460  -116882836.91846
 -29256309.980  -153742947.65209 -29256310.720  -119799701.99149
 -27495967.260  -144492187.84909 -27495967.880  -112591288.47647
 15 03 03 02 53 30.0000000  0 10G01G04G11G14G16G18G19G22G27G32
 -26146546.960  -137401012.72207 -26146546.180  -107065724.83146
 -28445481.880  -149481952.37209 -28445483.040  -116479424.43847
 -27179629.840  -142829893.87008 -27179633.200  -111296038.58845
 -25984652.560  -136550267.72807 -25984654.640  -106402810.80445
 -27161058.120  -142732328.66909 -27161061.080  -111220018.73647
 -26139382.720  -137363401.56007 -26139386.400  -107036418.53445
 -29247482.120  -153696546.91009 -29247487.180  -119763560.83548
 -28765936.520  -151166009.63907 -28765941.640  -117791717.43745
 -29483201.940  -154935272.71009 -29483202.760  -120728786.46549
 -27745284.840  -145802361.66309 -27745285.580  -113612203.07947
 15 03 03 02 54  0.0000000  0 10G01G04G11G14G16G18G19G22G27G32
 -26391258.820  -138686980.84908 -26391257.580  -108067777.89745
 -28686241.980  -150747155.76309 -28686243.220  -117465297.21847
 -27425170.040  -144120217.10008 -27425173.500  -112301485.23945
 -26228150.180  -137829853.76907 -26228152.200  -107399890.86345
 -27372649.860  -143844250.99409 -27372652.980  -112086451.74447
 -26353471.300  -138488442.87106 -26353474.220  -107913074.09344
 -29483512.180  -154936892.38509 -29483517.180  -120730063.80548
 -28987812.000  -152331972.83807 -28987817.120  -118700260.21644
 -29710015.540  -156127185.88909 -29710016.320  -121657549.98349
 -27994540.840  -147112212.13709 -27994542.100  -114632865.73947
 15 03 03 02 54 30.0000000  0 10G01G04G11G14G16G18G19G22G27G32
 -26635946.260  -139972823.04708 -26635945.400  -109069732.79145
 -28926956.380  -152012119.65009 -28926957.860  -118450983.34347
 -27670686.420  -145410414.17208 -27670689.740  -113306833.58645
 -26471610.000  -139109242.61508 -26471612.120  -108396817.21745
 -27584198.780  -144955947.71409 -27584202.080  -112952708.95447
 -26567527.460  -139613314.28806 -26567530.160  -108789597.28045
 -29719478.900  -156176904.32909 -29719483.680  -121696306.86348
 -29209606.100  -153497507.87507 -29209611.580  -119608469.31444
 -29936751.260  -157318690.01909 -29936752.060  -122585994.77149
 -28243735.700  -148421740.17209 -28243737.380  -115653277.18747
 15 03 03 02 55  0.0000000  0 10G01G04G11G14G16G18G19G22G27G32
 -26880608.940  -141258536.63808 -26880609.000  -110071587.46645
 -29167624.980  -153276841.47908 -29167626.940  -119436480.85447
 -27916178.600  -146700481.85508 -27916181.220  -114312081.14746
 -26715030.880  -140388428.75408 -26715033.380  -109393585.57745
 -27795704.760  -146067418.99409 -27795707.960  -113818790.49147
 -26781550.800  -140738015.42706 -26781553.960  -109665987.80244
 -29955381.440  -157416578.88309 -29955385.920  -122662287.02949
 -29431318.820  -154662614.15207 -29431324.500  -120516344.33844
 -30163408.620  -158509782.06409 -30163409.400  -123514118.45649
 -28492868.420  -149730940.87409 -28492870.460  -116673433.54147
 15 03 03 02 55 30.0000000  0 10G01G04G11G14G16G18G19G22G27G32
 -27125247.180  -142544120.77208 -27125247.580  -111073341.25845
 -29408247.420  -154541320.27409 -29408249.760  -120421788.99747
 -28161645.740  -147990418.48808 -28161648.380  -115317226.56346
 -26958412.280  -141667408.71408 -26958415.340  -110390193.25245
 -28007168.160  -147178667.42809 -28007171.220  -114684698.39347
 -26995541.780  -141862547.48806 -26995545.660  -110542246.58544
 -30191219.340  -158655914.17509 -30191223.560  -123628002.84949
 -29652949.940  -155827292.46608 -29652956.060  -121423885.83345
 -30389987.300  -159700460.60209 -30389988.000  -124441919.92649
 -28741938.440  -151039810.91608 -28741940.320  -117693332.27347
 15 03 03 02 56  0.0000000  0 10G01G04G11G14G16G18G19G22G27G32
 -27369860.800  -143829574.08207 -27369860.680  -112074993.14145
 -29648823.080  -155805554.74309 -29648825.300  -121406906.71548
 -28407087.220  -149280222.50709 -28407090.520  -116322268.59245
 -27201753.700  -142946178.05708 -27201756.780  -111386636.85546
 -28218589.600  -148289694.96008 -28218592.600  -115550434.14647
 -27209501.200  -142986911.83406 -27209505.080  -111418374.60044
 -30426991.880  -159894907.15609 -30426996.100  -124593451.93249
 -29874499.520  -156991543.42708 -29874505.820  -122331094.33945
 -30616486.880  -160890723.78609 -30616487.520  -125369397.74449
 -28990944.860  -152348346.56208 -28990946.400  -118712970.43247
 15 03 03 02 56 30.0000000  0 10G01G04G11G14G16G18G19G22G27G32
 -27614450.300  -145114898.70306 -27614449.660  -113076544.76646
 -29889352.860  -157069546.94509 -29889354.520  -122391835.70747
 -28652503.600  -150569895.28908 -28652507.440  -117327208.37646
 -27445054.980  -144224736.09008 -27445057.520  -112382915.84046
 -28429969.940  -149400505.76509 -28429973.080  -116416001.03047
 -27423429.400  -144111112.22606 -27423433.060  -112294374.91644
 -30662699.320  -161133558.45009 -30662703.740  -125558634.75648
 -30095968.400  -158155371.06108 -30095974.220  -123237973.00746
 -30842907.700  -162080573.29209 -30842908.320  -126296553.21149
 -29239887.220  -153656547.70309 -29239888.700  -119732347.90647
 15 03 03 02 57  0.0000000  0 10G01G04G11G14G16G18G19G22G27G32
 -27859014.900  -146400092.38807 -27859014.220  -114077994.37145
 -30129835.960  -158333294.62509 -30129837.860  -123376574.12447
 -28897895.200  -151859433.75608 -28897898.040  -118332043.60246
 -27688315.280  -145503077.87308 -27688317.620  -113379026.29345
 -28641309.440  -150511100.89408 -28641312.380  -117281399.83747
 -27637326.120  -145235148.62906 -27637329.980  -113170247.42544
 -30898341.300  -162371864.83208 -30898345.660  -126523548.80948
 -30317356.700  -159318774.93408 -30317361.940  -124144521.47345
 -31069249.260  -163270006.38309 -31069249.980  -127223384.20449
 -29488764.720  -154964409.44909 -29488766.100  -120751460.93847
 15 03 03 02 57 30.0000000  0 10G01G04G11G14G16G18G19G22G27G32
 -28103554.580  -147685157.99108 -28103554.340  -115079344.10045
 -30370273.020  -159596800.24209 -30370275.140  -124361123.92947
 -29143261.580  -153148840.04508 -29143263.540  -119336775.78646
 -27931534.900  -146781203.06008 -27931536.980  -114374968.02245
 -28852609.240  -151621486.37508 -28852611.440  -118146635.27547
 -27851192.520  -146359025.67006 -27851196.560  -114045995.80245
 -31133917.840  -163609827.53009 -31133922.120  -127488195.07349
 -30538665.300  -160481759.67708 -30538670.400  -125050743.35246
 -31295512.060  -164459025.31709 -31295512.840  -128149892.48549
 -29737577.580  -156271932.35409 -29737579.220  -121770309.93147
 15 03 03 02 58  0.0000000  0 10G01G04G11G14G16G18G19G22G27G32
 -28348069.660  -148970094.42107 -28348069.500  -116080593.21145
 -30610663.820  -160860063.14309 -30610665.660  -125345484.62747
 -29388602.060  -154438112.66208 -29388604.000  -120341403.74846
 -28174712.580  -148059107.91808 -28174714.740  -115370737.99845
 -29063869.220  -152731663.30508 -29063871.000  -119011708.22047
 -28065029.080  -147482744.64806 -28065033.180  -114921620.99844
 -31369428.360  -164847444.25109 -31369432.660  -128452571.72149
 -30759894.520  -161644326.57508 -30759899.620  -125956639.62146
 -31521695.780  -165647628.72509 -31521696.560  -129076076.95449
 -29986325.520  -157579113.00509 -29986327.600  -122788892.21147
 15 03 03 02 58 30.0000000  0 10G01G04G11G14G16G18G19G22G27G32
 -28592561.060  -150254904.46407 -28592561.000  -117081743.83746
 -30851008.820  -162123086.12409 -30851011.020  -126329658.35648
 -29633917.480  -155727253.53508 -29633919.600  -121345929.10746
 -28417848.140  -149336792.40408 -28417850.080  -116366336.28545
 -29275090.540  -153841638.05308 -29275092.540  -119876623.62547
 -28278836.620  -148606310.40007 -28278840.840  -115797126.77644
 -31604873.240  -166084716.31609 -31604877.600  -129416679.82649
 -30981045.100  -162806479.99708 -30981050.400  -126862213.69546
 -31747800.840  -166835818.83509 -31747801.620  -130001939.38449
 -30235008.800  -158885951.74709 -30235010.840  -123807208.08347
 15 03 03 02 59  0.0000000  0 10G01G04G11G14G16G18G19G22G27G32
 -28837028.120  -151539584.59006 -28837027.520  -118082793.26945
 -31091307.780  -163385865.45609 -31091310.480  -127313642.24947
 -29879206.840  -157016258.75209 -29879209.160  -122350348.75946
 -28660940.280  -150614250.25108 -28660942.540  -117361757.94245
 -29486272.980  -154951410.03608 -29486275.360  -120741381.06146
 -28492614.700  -149729721.68507 -28492619.300  -116672512.22245
 -31840251.620  -167321638.84809 -31840256.060  -130380515.57549
 -31202116.420  -163968218.07907 -31202121.820  -127767464.14746
 -31973826.580  -168023591.73009 -31973827.300  -130927476.70849
 -30483626.180  -160192442.79208 -30483628.040  -124825253.03947
 15 03 03 02 59 30.0000000  0 10G01G04G11G14G16G18G19G22G27G32
 -29081470.760  -152824132.87507 -29081469.000  -119083739.99745
 -31331559.800  -164648399.26809 -31331562.520  -128297434.78647
 -30124469.500  -158305125.76709 -30124472.660  -123354660.64746
 -28903988.200  -151891476.58408 -28903990.840  -118356999.20245
 -29697416.800  -156060979.89408 -29697419.540  -121605980.97747
 -28706363.340  -150852978.25607 -28706368.140  -117547777.07344
 -32075562.920  -168558208.69009 -32075567.320  -131344076.48549
 -31423108.860  -165129541.18407 -31423114.280  -128672391.23446
 -32199772.420  -169210945.13809 -32199773.120  -131852687.16049
 -30732176.340  -161498581.81909 -30732178.360  -125843023.67647
 15 03 03 03 00  0.0000000  0 10G01G04G11G14G16G18G19G22G27G32
 -29325888.200  -154108551.17407 -29325886.260  -120084585.34945
 -31571765.600  -165910688.99609 -31571767.960  -129281037.17447
 -30369706.060  -159593855.62808 -30369710.360  -124358865.68245
 -29146991.920  -153168470.00708 -29146994.940  -119352058.95544
 -29908523.040  -157170352.11509 -29908525.920  -122470426.89046
 -28920083.360  -151976084.11907 -28920088.200  -118422924.50844
 -32310807.220  -169794426.35109 -32310811.560  -132307362.96649
 -31644023.160  -166290452.87307 -31644028.600  -129576997.74846
 -32425638.560  -170397880.29809 -32425639.220  -132777571.70549
 -30980659.180  -162804368.37109 -30980661.540  -126860519.63247
 15 03 03 03 00 30.0000000  0 10G01G04G11G14G16G18G19G22G27G32
 -29570280.280  -155392838.46206 -29570278.320  -121085328.64146
 -31811925.040  -167172734.11209 -31811927.300  -130264448.94547
 -30614916.700  -160882446.54608 -30614921.420  -125362962.48746
 -29389950.780  -154445227.13408 -29389953.880  -120346934.62445
 -30119592.380  -158279529.33008 -30119595.060  -123334720.83647
 -29133774.980  -153099040.85907 -29133779.640  -119297955.71845
 -32545984.020  -171030289.37309 -32545988.440  -133270373.11149
 -31864858.700  -167450954.36107 -31864864.640  -130481284.58146
 -32651424.800  -171584395.92509 -32651425.480  -133702129.35049
 -31229074.400  -164109798.97709 -31229076.480  -127877738.27847
 15 03 03 03 01  0.0000000  0 10G01G04G11G14G16G18G19G22G27G32
 -29814647.020  -156676995.19407 -29814644.380  -122085970.25545
 -32052037.720  -168434534.57609 -32052039.580  -131247670.07548
 -30860100.880  -162170898.17608 -30860105.180  -126366950.75046
 -29632864.280  -155721745.66908 -29632867.360  -121341624.38445
 -30330625.340  -159388515.14909 -30330627.980  -124198865.63846
 -29347438.640  -154221850.58206 -29347442.940  -120172872.36544
 -32781093.220  -172265797.10409 -32781097.760  -134233106.41049
 -32085616.400  -168611047.89107 -32085623.060  -131385253.53946
 -32877131.240  -172770492.09309 -32877132.020  -134626360.13649
 -31477421.480  -165414871.94809 -31477422.900  -128894678.25147
 15 03 03 03 01 30.0000000  0 10G01G04G11G14G16G18G19G22G27G32
 -30058988.120  -157961017.96707 -30058985.660  -123086507.41145
 -32292103.260  -169696087.26709 -32292104.300  -132230698.14648
 -31105257.780  -163459206.62808 -31105261.440  -127370827.45846
 -29875731.120  -156998019.15708 -29875733.840  -122336123.19346
 -30541621.360  -160497307.89709 -30541624.340  -125062860.00647
 -29561074.180  -155344511.84506 -29561077.820  -121047673.29945
 -33016133.900  -173500944.51609 -33016138.560  -135195558.93549
 -32306296.440  -169770731.95606 -32306303.520  -132288903.43946
 -33102757.160  -173956164.91509 -33102758.060  -135550261.03949
 -31725699.520  -166719581.38209 -31725700.780  -129911334.95247
 15 03 03 03 02  0.0000000  0 10G01G04G11G14G16G18G19G22G27G32
 -30303305.120  -159244911.74306 -30303303.780  -124086944.08645
 -32532122.660  -170957396.93109 -32532123.780  -133213536.84947
 -31350388.260  -164747375.99208 -31350391.700  -128374595.77946
 -30118551.640  -158274049.90508 -30118554.020  -123330432.87846
 -30752582.180  -161605915.86609 -30752585.360  -125926710.38146
 -29774682.960  -156467031.87607 -29774686.160  -121922364.24743
 -33251106.900  -174735735.69209 -33251111.560  -136157733.86949
 -32526900.900  -170930013.71605 -32526907.560  -133192239.91445
 -33328303.420  -175141419.09109 -33328304.500  -136473835.72049
 -31973909.020  -168023930.13309 -31973910.240  -130927710.57447
 15 03 03 03 02 30.0000000  0 10G01G04G11G14G16G18G19G22G27G32
 -30547596.960  -160528675.98707 -30547596.240  -125087279.78945
 -32772095.640  -172218463.06109 -32772097.660  -134196185.72847
 -31595492.100  -166035405.10808 -31595495.520  -129378254.82046
 -30361325.080  -159549834.36408 -30361327.400  -124324550.64946
 -30963508.340  -162714341.86509 -30963511.940  -126790418.98546
 -29988264.920  -157589412.14407 -29988268.420  -122796946.27243
 -33486011.740  -175970168.22809 -33486016.320  -137119629.35549
 -32747429.700  -172088894.27606 -32747434.920  -134095263.79945
 -33553769.920  -176326253.62509 -33553771.080  -137397083.41449
 -32222049.200  -169327915.08609 -32222050.080  -131943802.73147
 15 03 03 03 03  0.0000000  0 10G01G04G11G14G16G18G19G22G27G32
 -30791863.720  -161812309.63507 -30791862.920  -126087513.78546
 -33012022.160  -173479284.62909 -33012023.640  -135178644.07948
 -31840568.800  -167323292.37609 -31840572.480  -130381803.33946
 -30604050.860  -160825368.79408 -30604053.480  -125318473.55746
 -31174400.440  -163822587.72208 -31174404.420  -127653987.21447
 -30201820.520  -158711653.50807 -30201824.180  -123671420.05443
 -33720847.880  -177204239.95809 -33720852.420  -138081243.69449
 -32967882.000  -173247374.66906 -32967886.280  -134997975.79046
 -33779156.340  -177510667.22709 -33779157.460  -138320003.11749
 -32470119.420  -170631533.17509 -32470120.720  -132959609.01348
 15 03 03 03 03 30.0000000  0 10G01G04G11G14G16G18G19G22G27G32
 -31036106.140  -163095814.97207 -31036105.560  -127087647.79446
 -33251902.640  -174739863.82209 -33251903.660  -136160913.59748
 -32085619.040  -168611039.23008 -32085622.600  -131385242.43746
 -30846729.120  -162100652.67008 -30846732.060  -126312201.22644
 -31385259.500  -164930658.53909 -31385263.200  -128517419.03246
 -30415350.440  -159833760.32007 -30415354.240  -124545789.02342
 -33955615.500  -178437951.89109 -33955620.000  -139042577.65649
 -33188258.480  -174405459.08306 -33188262.460  -135900379.26646
 -34004463.060  -178694661.70309 -34004464.020  -139242596.21949
 -32718119.640  -171934784.20909 -32718121.600  -133975129.25747
 15 03 03 03 04  0.0000000  0 10G01G04G11G14G16G18G19G22G27G32
 -31280325.320  -164379198.02607 -31280324.880  -128087686.47046
 -33491737.940  -176000206.72509 -33491739.740  -137142998.94347
 -32330643.700  -169898650.91408 -32330647.040  -132388576.21946
 -31089360.660  -163375689.01208 -31089364.540  -127305735.95044
 -31596086.740  -166038563.00808 -31596090.200  -129380721.24446
 -30628856.240  -160955740.79307 -30628860.060  -125420059.49942
 -34190315.560  -179671308.81309 -34190320.020  -140003634.98749
 -33408560.840  -175563155.33607 -33408564.900  -136802480.30246
 -34229691.080  -179878242.81609 -34229691.960  -140164867.22449
 -32966050.760  -173237671.91409 -32966053.060  -134990366.41147
 15 03 03 03 04 30.0000000  0 10G01G04G11G14G16G18G19G22G27G32
 -31524520.040  -165662450.60607 -31524519.100  -129087623.50745
 -33731526.840  -177260305.02709 -33731528.520  -138124893.73647
 -32575640.800  -171186118.72908 -32575644.140  -133391797.86845
 -31331943.280  -164650467.03208 -31331946.880  -128299069.45444
 -31806881.300  -167146296.11608 -31806884.900  -130243889.92646
 -30842336.740  -162077588.63907 -30842340.720  -126294226.66642
 -34424946.160  -180904300.97209 -34424950.560  -140964408.09648
 -33628788.020  -176720458.03207 -33628792.500  -137704274.61645
 -34454838.760  -181061402.01809 -34454839.520  -141086809.46849
 -33213910.840  -174540185.91409 -33213913.700  -136005312.35146
 15 03 03 03 05  0.0000000  0 10G01G04G11G14G16G18G19G22G27G32
 -31768690.700  -166945575.25907 -31768689.120  -130087460.89146
 -33971269.180  -178520161.27709 -33971270.840  -139106599.88448
 -32820610.620  -172473444.52809 -32820613.940  -134394908.84046
 -31574476.440  -165924986.48108 -31574479.360  -129292201.47445
 -32017644.480  -168253863.83908 -32017647.900  -131106929.74146
 -31055792.980  -163199308.85107 -31055797.540  -127168294.39343
 -34659507.560  -182136929.79009 -34659512.040  -141924898.08549
 -33848941.000  -177877371.35008 -33848945.840  -138605765.52246
 -34679906.600  -182244141.69709 -34679907.280  -142008424.80249
 -33461700.120  -175842326.59708 -33461702.840  -137019967.38947
 15 03 03 03 05 30.0000000  0 10G01G04G11G14G16G18G19G22G27G32
 -32012837.680  -168228574.30707 -32012835.780  -131087200.40945
 -34210965.880  -179779777.78209 -34210968.120  -140088119.19647
 -33065553.720  -173760629.53808 -33065556.660  -135397910.16046
 -31816960.040  -167199246.68108 -31816963.280  -130285131.44444
 -32228377.020  -169361270.32808 -32228379.900  -131969843.89046
 -31269225.740  -164320905.21507 -31269230.620  -128042265.61043
 -34894000.060  -183369196.36809 -34894004.640  -142885105.82049
 -34069020.600  -179033899.46208 -34069025.600  -139506956.26246
 -34904894.920  -183426463.79809 -34904895.700  -142929714.77349
 -33709418.520  -177144093.97709 -33709420.580  -138034331.57847
 15 03 03 03 06  0.0000000  0 10G01G04G11G14G16G18G19G22G27G32
 -32256960.060  -169511444.11507 -32256958.620  -132086839.18946
 -34450616.460  -181039150.82109 -34450618.700  -141069448.82447
 -33310469.220  -175047669.58409 -33310472.200  -136400798.49446
 -32059393.000  -168473241.32208 -32059396.520  -131277854.48845
 -32439078.700  -170468515.60309 -32439081.800  -132832632.44246
 -31482634.740  -165442376.16307 -31482639.260  -128916139.03744
 -35128422.720  -184601095.60609 -35128427.400  -143845027.30049
 -34289026.360  -180190040.77608 -34289031.940  -140407845.58646
 -35129803.120  -184608364.38409 -35129803.900  -143850676.27349
 -33957064.700  -178445482.14209 -33957066.200  -139048400.24647
 15 03 03 03 06 30.0000000  0 10G01G04G11G14G16G18G19G22G27G32
 -32501057.180  -170794182.98308 -32501056.080  -133086375.92545
 -34690220.240  -182298278.56809 -34690222.300  -142050587.30647
 -33555356.620  -176334562.29309 -33555360.280  -137403572.00646
 -32301774.620  -169746965.79808 -32301778.040  -132270367.05045
 -32649749.800  -171575600.37008 -32649753.840  -133695295.92446
 -31696020.160  -166563722.24807 -31696023.500  -129789915.17442
 -35362775.000  -185832624.54809 -35362779.680  -144804660.23149
 -34508958.740  -181345795.45408 -34508964.700  -141308433.63246
 -35354630.840  -185789841.46509 -35354631.480  -144771307.76349
 -34204637.960  -179746487.10109 -34204638.860  -140062170.34648
 15 03 03 03 07  0.0000000  0 10G01G04G11G14G16G18G19G22G27G32
 -32745129.040  -172076790.39208 -32745128.320  -134085810.22245
 -34929777.620  -183557160.52408 -34929779.740  -143031534.28047
 -33800215.560  -177621306.13709 -33800219.500  -138406229.52746
 -32544104.380  -171020416.85608 -32544107.660  -133262666.56645
 -32860391.000  -172682527.69108 -32860395.520  -134557836.73746
 -31909381.940  -167684944.61607 -31909384.940  -130663595.03442
 -35597056.400  -187063781.21809 -35597061.000  -145764003.09349
 -34728817.980  -182501165.14808 -34728824.160  -142208721.67946
 -35579377.860  -186970894.27509 -35579378.360  -145691608.65449
 -34452137.540  -181047106.20609 -34452138.300  -141075639.77347
 15 03 03 03 07 30.0000000  0 10G01G04G11G14G16G18G19G22G27G32
 -32989177.280  -173359272.39407 -32989176.840  -135085146.77545
 -35169289.900  -184815802.87409 -35169291.720  -144012294.57347
 -34045047.220  -178907906.62109 -34045051.120  -139408775.32347
 -32786382.760  -172293597.97108 -32786385.760  -134254755.69346
 -33071003.820  -173789305.98508 -33071008.200  -135420261.40646
 -32122721.380  -168806051.70007 -32122724.760  -131537185.00641
 -35831267.860  -188294570.40809 -35831272.280  -146723059.61149
 -34948605.620  -183656157.90108 -34948611.740  -143108716.02146
 -35804045.160  -188151528.68409 -35804045.600  -146611583.52449
 -34699564.180  -182347343.36009 -34699565.420  -142088811.54447
 15 03 03 03 08  0.0000000  0 10G01G04G11G14G16G18G19G22G27G32
 -33233201.800  -174641625.54007 -33233200.880  -136084382.98146
 -35408755.600  -186074202.05709 -35408757.000  -144992865.36448
 -34289851.080  -180194359.64009 -34289855.080  -140411206.23247
 -33028608.740  -173566502.85008 -33028611.480  -135246629.59646
 -33281588.440  -174895935.24108 -33281592.380  -136282569.94246
 -32336038.400  -169927041.89007 -32336041.440  -132410683.89243
 -36065408.520  -189524987.72109 -36065412.780  -147681826.34449
 -35168321.520  -184810772.54108 -35168327.300  -144008415.74147
 -36028632.120  -189331741.00209 -36028632.540  -147531229.49049
 -34946917.280  -183647192.86609 -34946918.960  -143101681.26947
 15 03 03 03 08 30.0000000  0 10G01G04G11G14G16G18G19G22G27G32
 -33477201.320  -175923847.73107 -33477200.060  -137083517.13346
 -35648174.420  -187332355.81809 -35648175.620  -145973244.90947
 -34534626.380  -181480662.09009 -34534630.420  -141413519.80047
 -33270781.520  -174839126.32908 -33270784.140  -136238284.27345
 -33492144.720  -176002415.58208 -33492148.040  -137144762.42146
 -32549333.420  -171047915.07406 -32549336.080  -133284091.54444
 -36299477.660  -190755029.61709 -36299482.020  -148640300.55949
 -35387965.540  -185965008.76008 -35387971.040  -144907820.58547
 -36253138.300  -190511528.85109 -36253138.760  -148450544.70949
 -35194195.880  -184946650.37409 -35194197.920  -144114245.55147
 15 03 03 03 09  0.0000000  0 10G01G04G11G14G16G18G19G22G27G32
 -33721175.660  -177205939.76707 -33721174.280  -138082549.88946
 -35887546.660  -188590264.98209 -35887548.320  -146953433.84447
 -34779373.120  -182766814.27709 -34779377.080  -142415716.29146
 -33512900.220  -176111466.89308 -33512902.700  -137229718.43845
 -33702673.160  -177108750.72409 -33702675.880  -138006841.77546
 -32762606.640  -172168674.01707 -32762609.800  -134157410.15141
 -36533475.240  -191984695.66409 -36533479.760  -149598481.89948
 -35607538.020  -187118869.58707 -35607543.660  -145806932.90146
 -36477563.900  -191690892.90009 -36477564.300  -149369529.69549
 -35441399.600  -186245714.65709 -35441401.820  -145126503.39647
 15 03 03 03 09 30.0000000  0 10G01G04G11G14G16G18G19G22G27G32
 -33965125.040  -178487902.65108 -33965123.420  -139081481.96745
 -36126872.340  -189847930.42609 -36126874.380  -147933432.84848
 -35024091.520  -184052816.10008 -35024095.180  -143417795.61747
 -33754964.260  -177383522.72108 -33754966.780  -138220930.73545
 -33913174.620  -178214945.30909 -33913177.140  -138868811.61346
 -32975858.380  -173289321.92807 -32975862.660  -135030642.34943
 -36767401.200  -193213985.27209 -36767405.840  -150556369.90149
 -35827040.040  -188272357.94906 -35827045.400  -146705754.99746
 -36701909.000  -192869833.85909 -36701909.320  -150288184.98849
 -35688528.260  -187544384.35709 -35688530.180  -146138453.79048
 15 03 03 03 10  0.0000000  0 10G01G04G11G14G16G18G19G22G27G32
 -34209049.760  -179769736.15007 -34209047.880  -140080313.25146
 -36366151.700  -191105352.07109 -36366153.340  -148913241.94248
 -35268781.080  -185338666.54809 -35268784.560  -144419757.01647
 -33996973.240  -178655290.54408 -33996975.700  -139211918.62646
 -34123649.780  -179321001.77708 -34123652.580  -139730673.83646
 -33189089.420  -174409860.16706 -33189094.000  -135903789.06641
 -37001255.340  -194442897.34109 -37001260.000  -151513963.71949
 -36046471.440  -189425475.72106 -36046476.820  -147604288.31846
 -36926173.400  -194048351.37209 -36926173.820  -151206510.34349
 -35935581.220  -188842657.21309 -35935582.800  -147150094.95347
 15 03 03 03 10 30.0000000  0 10G01G04G11G14G16G18G19G22G27G32
 -34452950.060  -181051440.98807 -34452947.960  -141079044.31546
 -36605384.460  -192362530.46309 -36605386.140  -149892861.45848
 -35513441.580  -186624365.83809 -35513445.320  -145421600.59846
 -34238927.160  -179926768.67508 -34238929.560  -140202680.79246
 -34334099.620  -180426923.57308 -34334102.700  -140592431.09946
 -33402300.680  -175530291.67406 -33402304.480  -136776852.53943
 -37235037.500  -195671431.30609 -37235042.160  -152471262.90449
 -36265832.700  -190578225.75305 -36265837.920  -148502535.03945
 -37150357.260  -195226446.03009 -37150357.820  -152124506.18949
 -36182558.400  -190140531.82109 -36182560.000  -148161425.80447
 15 03 03 03 11  0.0000000  0 10G01G04G11G14G16G18G19G22G27G32
 -34696825.140  -182333013.79807 -34696823.100  -142077672.42445
 -36844570.300  -193619462.16409 -36844572.360  -150872288.73647
 -35758072.420  -187909909.70509 -35758076.920  -146423323.05346
 -34480824.860  -181197950.78808 -34480827.200  -141193212.30746
 -34544524.100  -181532710.03208 -34544527.280  -141454082.90146
 -33615491.440  -176650614.86906 -33615495.160  -137649831.64341
 -37468746.780  -196899582.31409 -37468751.480  -153428263.69449
 -36485123.680  -191730606.48005 -36485128.760  -149400494.02946
 -37374459.940  -196404114.19609 -37374460.760  -153042169.71549
 -36429458.840  -191438002.67409 -36429460.740  -149172442.02947
 15 03 03 03 11 30.0000000  0 10G01G04G11G14G16G18G19G22G27G32
 -34940675.440  -183614456.81407 -34940673.860  -143076199.42545
 -37083709.800  -194876149.44109 -37083711.860  -151851525.57348
 -36002674.020  -189195299.78908 -36002678.680  -147424925.68446
 -34722666.160  -182468836.18308 -34722668.560  -142183512.60445
 -34754923.860  -182638366.60208 -34754927.140  -142315633.51245
 -33828662.320  -177770834.01707 -33828665.920  -138522729.75443
 -37702383.400  -198127351.49109 -37702388.160  -154384966.95449
 -36704345.400  -192882622.33206 -36704350.080  -150298168.73145
 -37598481.820  -197581358.10109 -37598482.920  -153959502.64049
 -36676282.720  -192735069.89809 -36676284.580  -150183143.75447
 15 03 03 03 12  0.0000000  0 10G01G04G11G14G16G18G19G22G27G32
 -35184501.340  -184895771.67508 -35184500.440  -144074626.53045
 -37322803.020  -196132593.77009 -37322805.160  -152830573.08148
 -36247246.600  -190480536.65909 -36247250.660  -148426408.97047
 -34964451.060  -183739424.08508 -34964453.740  -143173581.06245
 -34965299.780  -183743897.83908 -34965303.200  -143177086.45446
 -34041813.820  -178890952.82507 -34041817.040  -139395549.58343
 -37935947.420  -199354739.06009 -37935952.240  -155341372.84649
 -36923498.500  -194034277.22506 -36923502.540  -151195562.14646
 -37822423.220  -198758179.17309 -37822424.360  -154876506.07549
 -36923029.540  -194031732.95009 -36923031.780  -151193530.51947
 15 03 03 03 12 30.0000000  0 10G01G04G11G14G16G18G19G22G27G32
 -35428303.180  -186176960.35008 -35428302.440  -145072955.34146
 -37561850.780  -197388797.25809 -37561853.040  -153809432.94448
 -36491790.100  -191765621.46009 -36491794.220  -149427773.71346
 -35206179.420  -185009713.59608 -35206182.740  -144163416.99145
 -35175652.700  -184849308.70708 -35175656.400  -144038445.59146
 -34254946.820  -180010975.09807 -34254950.340  -140268294.18743
 -38169439.080  -200581745.99409 -38169443.980  -156297482.14649
 -37142583.480  -195185575.13706 -37142586.940  -152092677.42246
 -38046284.580  -199934579.27409 -38046285.700  -155793181.49749
 -37169699.280  -195327991.87609 -37169701.840  -152203602.37147
 15 03 03 03 13  0.0000000  0 10G01G04G11G14G16G18G19G22G27G32
 -35672081.160  -187458022.77307 -35672079.960  -146071185.77445
 -37800852.500  -198644759.89209 -37800854.740  -154788105.10047
 -36736304.560  -193050553.41209 -36736309.100  -150429019.35946
 -35447850.520  -186279702.12208 -35447853.360  -145153018.46944
 -35385982.960  -185954602.02708 -35385986.960  -144899713.16645
 -34468061.820  -181130902.49707 -34468066.460  -141140964.82843
 -38402858.080  -201808370.77909 -38402863.020  -157253293.65248
 -37361600.320  -196336518.03607 -37361604.080  -152989516.06745
 -38270065.940  -201110558.25809 -38270067.000  -156709528.77449
 -37416291.620  -196623844.46809 -37416294.200  -153213357.62147
 15 03 03 03 13 30.0000000  0 10G01G04G11G14G16G18G19G22G27G32
 -35915835.460  -188738958.98308 -35915833.540  -147069317.87946
 -38039808.320  -199900481.25909 -38039810.180  -155766589.26248
 -36980789.580  -194335331.71709 -36980793.940  -151430145.28147
 -35689463.580  -187549386.80908 -35689466.060  -146142383.12845
 -35596291.220  -187059780.10208 -35596294.960  -145760890.92046
 -34681159.480  -182250737.47107 -34681164.880  -142013563.54343
 -38636204.140  -203034612.37709 -38636209.080  -158208806.59049
 -37580549.240  -197487108.09407 -37580554.080  -153886079.71645
 -38493767.260  -202286116.04109 -38493768.200  -157625547.82349
 -37662806.280  -197919288.59309 -37662809.260  -154222794.56047
 15 03 03 03 14  0.0000000  0 10G01G04G11G14G16G18G19G22G27G32
 -36159565.400  -190019768.14708 -36159563.020  -148067350.99446
 -38278718.340  -201155960.76909 -38278720.260  -156744884.98348
 -37225244.960  -195619954.71809 -37225249.140  -152431150.21347
 -35931017.880  -188818764.45609 -35931020.840  -147131508.50945
 -35806578.040  -188164845.64108 -35806580.980  -146621980.98946
 -34894239.580  -183370480.63307 -34894244.320  -142886090.69943
 -38869476.900  -204260468.76309 -38869481.900  -159164019.36649
 -37799431.100  -198637346.46107 -37799437.080  -154782369.32045
 -38717388.280  -203461251.78109 -38717389.180  -158541238.01249
 -37909242.980  -199214321.47509 -37909245.660  -155231911.06948
 15 03 03 03 14 30.0000000  0 10G01G04G11G14G16G18G19G22G27G32
 -36403270.700  -191300449.96308 -36403268.760  -149065284.86346
 -38517582.240  -202411197.98709 -38517584.500  -157722991.87247
 -37469670.380  -196904421.23509 -37469674.820  -153432033.16746
 -36172513.040  -190087831.79208 -36172516.680  -148120392.07045
 -36016843.900  -189269801.11208 -36016846.140  -147482985.29146
 -35107302.380  -184490133.84807 -35107306.620  -143758547.77044
 -39102676.100  -205485938.29709 -39102681.080  -160118930.69049
 -38018246.980  -199787234.98707 -38018253.860  -155678386.35244
 -38940928.780  -204635964.99209 -38940929.680  -159456598.97049
 -38155601.080  -200508940.68809 -38155602.780  -156240705.28248
 15 03 03 03 15  0.0000000  0 10G01G04G11G14G16G18G19G22G27G32
 -36646951.020  -192581002.54208 -36646950.540  -150063118.00246
 -38756399.960  -203666190.90909 -38756401.440  -158700908.44548
 -37714065.920  -198188728.56308 -37714070.180  -154432792.11847
 -36413948.520  -191356584.26008 -36413951.800  -149109030.34346
 -36227088.920  -190374647.11708 -36227091.020  -148343904.31546
 -35320348.060  -185609696.85708 -35320351.660  -144630934.50244
 -39335801.140  -206711018.14709 -39335806.100  -161073538.35449
 -38236997.040  -200936773.97007 -38237004.180  -156574131.01743
 -39164388.580  -205810253.84109 -39164389.340  -160371629.23449
 -38401879.620  -201803142.32609 -38401881.000  -157249174.07248
 15 03 03 03 15 30.0000000  0 10G01G04G11G14G16G18G19G22G27G32
 -36890606.420  -193861424.03708 -36890607.340  -151060848.97847
 -38995170.860  -204920937.92709 -38995171.620  -159678633.38848
 -37958430.920  -199472874.04409 -37958434.800  -155433424.96547
 -36655323.300  -192625017.25308 -36655326.320  -150097419.64746
 -36437313.640  -191479385.45808 -36437315.720  -149204739.40747
 -35533376.580  -186729170.14008 -35533380.040  -145503251.35144
 -39568851.280  -207935705.05909 -39568856.280  -162027839.84449
 -38455680.840  -202085963.57408 -38455687.980  -157469603.41144
 -39387767.380  -206984116.38109 -39387767.980  -161286327.31749
 -38648078.120  -203096922.58409 -38648079.380  -158257314.49048
 15 03 03 03 16  0.0000000  0 10G01G04G11G14G16G18G19G22G27G32
 -37134237.600  -195141716.11708 -37134238.980  -152058479.12946
 -39233895.060  -206175440.56809 -39233895.700  -160656167.90948
 -38202765.300  -200756858.68209 -38202768.540  -156433932.47947
 -36896637.320  -193893129.89208 -36896640.020  -151085559.33345
 -36647518.780  -192584020.03108 -36647520.460  -150065493.64646
 -35746388.520  -187848557.01608 -35746392.240  -146375500.87043
 -39801826.740  -209159999.49809 -39801831.760  -162981835.50949
 -38674298.880  -203234807.70707 -38674305.900  -158364806.61743
 -39611065.340  -208157554.31909 -39611065.900  -162200694.55349
 -38894196.300  -204390281.16709 -38894197.100  -159265126.37748
 15 03 03 03 16 30.0000000  0 10G01G04G11G14G16G18G19G22G27G32
 -37377844.460  -196421879.42408 -37377846.420  -153056008.91746
 -39472572.660  -207429699.24309 -39472573.080  -161633512.32948
 -38447069.020  -202040681.97708 -38447071.900  -157434314.26146
 -37137890.120  -195160920.00008 -37137892.640  -152073447.70646
 -36857704.820  -193688554.80108 -36857706.300  -150926170.14346
 -35959384.600  -188967859.77007 -35959388.540  -147247684.82843
 -40034727.480  -210383900.90309 -40034732.360  -163935524.91649
 -38892851.840  -204383308.87508 -38892858.140  -159259742.62343
 -39834282.560  -209330568.17009 -39834283.200  -163114731.33349
 -39140233.640  -205683216.61709 -39140234.460  -160272608.51548
 15 03 03 03 17  0.0000000  0 10G01G04G11G14G16G18G19G22G27G32
 -37621427.220  -197701913.24408 -37621428.900  -154053437.85446
 -39711203.480  -208683713.37609 -39711203.840  -162610666.19747
 -38691341.900  -203324342.60208 -38691344.880  -158434569.26946
 -37379080.780  -196428384.65108 -37379082.960  -153061082.46646
 -37067872.140  -194792991.53208 -37067874.280  -151786770.21445
 -36172365.040  -190087080.13007 -36172369.560  -148119804.59141
 -40267553.120  -211607407.53109 -40267557.860  -164888906.70249
 -39111339.720  -205531468.67107 -39111344.540  -160154412.58241
 -40057418.940  -210503157.38809 -40057419.560  -164028437.23448
 -39386189.920  -206975726.39309 -39386191.300  -161279758.96547
 15 03 03 03 17 30.0000000  0 10G01G04G11G14G16G18G19G22G27G32
 -37864984.360  -198981812.60108 -37864984.740  -155050762.03246
 -39949786.500  -209937477.94909 -39949787.640  -163587625.59048
 -38935582.660  -204607834.62409 -38935585.620  -159434692.91146
 -37620207.940  -197695516.11908 -37620209.720  -154048457.61546
 -37278020.340  -195897328.37608 -37278023.400  -152647292.48346
 -36385329.120  -191206215.04106 -36385333.460  -148991857.76842
 -40500302.440  -212830513.35609 -40500307.100  -165841976.18149
 -39329762.260  -206679284.24307 -39329766.260  -161048814.32341
 -40280473.540  -211675317.10109 -40280473.960  -164941808.44749
 -39632063.820  -208267803.55709 -39632065.600  -162286572.31148
 15 03 03 03 18  0.0000000  0 10G01G04G11G14G16G18G19G22G27G32
 -38108515.140  -200261575.42008 -38108514.620  -156047979.78646
 -40188321.560  -211190990.58309 -40188323.420  -164564388.65748
 -39179790.700  -205891155.28308 -39179793.460  -160434683.03247
 -37861270.860  -198962309.58608 -37861272.360  -155035569.42846
 -37488149.560  -197001566.08108 -37488152.920  -153507737.50145
 -36598276.940  -192325263.75305 -36598281.320  -149863843.70043
 -40732974.800  -214053214.81309 -40732979.440  -166794730.56849
 -39548119.300  -207826755.72107 -39548122.040  -161942947.92641
 -40503445.840  -212847044.90409 -40503446.140  -165854843.10049
 -39877854.840  -209559443.89309 -39877856.460  -163293045.28048
 15 03 03 03 18 30.0000000  0 10G01G04G11G14G16G18G19G22G27G32
 -38352019.780  -201541202.07708 -38352019.080  -157045091.44346
 -40426808.860  -212444251.77209 -40426811.000  -165540955.81348
 -39423965.840  -207174303.81809 -39423968.700  -161434539.01946
 -38102268.860  -200228762.84908 -38102270.320  -156022416.12546
 -37698260.520  -198105707.95508 -37698264.120  -154368107.84446
 -36811209.280  -193444229.01005 -36811213.300  -150735764.62643
 -40965570.000  -215275511.09309 -40965574.640  -167747169.23249
 -39766411.100  -208973885.48607 -39766412.760  -162836815.58143
 -40726336.080  -214018341.37509 -40726336.340  -166767541.65849
 -40123562.640  -210850645.80709 -40123563.840  -164299176.65748
 15 03 03 03 19  0.0000000  0 10G01G04G11G14G16G18G19G22G27G32
 -38595498.380  -202820691.67808 -38595497.880  -158042096.30646
 -40665248.240  -213697260.83109 -40665250.880  -166517326.49648
 -39668107.660  -208457278.37709 -39668110.840  -162434259.42646
 -38343201.260  -201494872.35808 -38343202.940  -157008994.92846
 -37908353.880  -199209756.17608 -37908357.380  -155228405.20446
 -37024125.660  -194563111.51105 -37024130.880  -151607624.01543
 -41198087.680  -216497400.25609 -41198092.380  -168699290.65149
 -39984637.780  -210120674.74207 -39984639.100  -163730417.62844
 -40949144.180  -215189205.76709 -40949144.340  -167679903.53249
 -40369186.380  -212141406.77909 -40369187.740  -165304964.41348
 15 03 03 03 19 30.0000000  0 10G01G04G11G14G16G18G19G22G27G32
 -38838951.360  -204100044.82508 -38838951.200  -159038994.86646
 -40903639.920  -214950018.00409 -40903642.780  -167493500.91848
 -39912216.320  -209740078.88209 -39912219.460  -163433844.22347
 -38584068.040  -202760636.30808 -38584070.000  -157995304.48445
 -38118430.280  -200313713.82408 -38118433.200  -156088631.98646
 -37237026.220  -195681913.37805 -37237030.680  -152479418.63843
 -41430527.780  -217718882.05309 -41430532.660  -169651094.65349
 -40202800.060  -211267126.44107 -40202801.660  -164623756.63144
 -41171870.140  -216359638.72609 -41171870.380  -168591929.23049
 -40614725.660  -213431725.38109 -40614727.680  -166310407.44348
 15 03 03 03 20  0.0000000  0 10G01G04G11G14G16G18G19G22G27G32
 -39082378.320  -205379261.81308 -39082379.040  -160035787.27546
 -41141983.620  -216202523.66009 -41141986.660  -168469479.33348
 -40156291.680  -211022704.81709 -40156294.680  -164433292.98947
 -38824868.600  -204026052.11508 -38824871.300  -158981342.70145
 -38328490.000  -201417583.77408 -38328492.280  -156948790.42546
 -37449912.080  -196800637.03004 -37449912.520  -153351131.41053
 -41662890.120  -218939955.29309 -41662895.160  -170602580.28249
 -40420898.400  -212413242.51907 -40420900.560  -165516834.03344
 -41394513.980  -217529640.59609 -41394514.460  -169503619.00749
 -40860180.420  -214721599.96009 -40860182.660  -167315504.48948
 15 03 03 03 20 30.0000000  0  9G01G04G11G14G16G19G22G27G32
 -39325779.860  -206658345.44208 -39325780.660  -161032475.79046
 -41380279.880  -217454780.33209 -41380283.600  -169445263.74348
 -40400334.220  -212305158.10809 -40400337.400  -165432607.22047
 -39065603.140  -205291120.12007 -39065606.060  -159967109.99046
 -38538534.180  -202521372.53808 -38538535.980  -157808885.62246
 -41895175.000  -220160621.75909 -41895180.260  -171553748.96749
 -40638933.780  -213559028.50807 -40638936.500  -166409654.23644
 -41617076.380  -218699214.32209 -41617076.960  -170414975.18249
 -41105551.060  -216011031.51309 -41105553.180  -168320256.34048
 15 03 03 03 21  0.0000000  0  9G01G04G11G14G16G19G22G27G32
 -39569155.760  -207937293.90308 -39569156.180  -162029058.97646
 -41618528.480  -218706786.34009 -41618532.800  -170420852.80748
 -40644343.780  -213587436.00208 -40644347.060  -166431784.79947
 -39306270.880  -206555835.96108 -39306273.620  -160952602.85345
 -38748562.780  -203625080.77008 -38748564.480  -158668918.06745
 -42127382.040  -221380878.93009 -42127387.520  -172504598.70549
 -40856906.420  -214704484.60107 -40856910.080  -167302217.35443
 -41839557.000  -219868358.16809 -41839557.600  -171325996.37149
 -41350836.760  -217300016.35809 -41350838.820  -169324660.09848
 15 03 03 03 21 30.0000000  0  9G01G04G11G14G16G19G22G27G32
 -39812506.400  -209216110.20208 -39812506.860  -163025539.17947
 -41856730.280  -219958544.83709 -41856734.500  -171396249.03548
 -40888320.480  -214869540.61708 -40888323.460  -167430827.35447
 -39546871.620  -207820200.11708 -39546873.980  -161937821.71346
 -38958576.900  -204728714.20808 -38958578.860  -159528892.24746
 -42359511.480  -222600728.27209 -42359517.240  -173455130.67449
 -41074817.780  -215849615.87806 -41074822.200  -168194527.48745
 -42061956.420  -221037075.38209 -42061956.980  -172236685.12949
 -41596037.520  -218588555.73509 -41596039.760  -170328716.73448
 15 03 03 03 22  0.0000000  0  9G01G04G11G14G16G19G22G27G32
 -40055831.540  -210494794.39008 -40055831.880  -164021916.40946
 -42094884.960  -221210055.45809 -42094888.960  -172371452.08548
 -41132263.900  -216151470.95908 -41132266.860  -168429734.11646
 -39787404.600  -209084210.14208 -39787407.040  -162922764.54246
 -39168577.220  -205832276.19508 -39168579.620  -160388810.72946
 -42591563.160  -223820168.69909 -42591569.100  -174405343.98749
 -41292668.320  -216994424.39005 -41292673.340  -169086586.04844
 -42284274.640  -222205365.97609 -42284275.220  -173147041.44249
 -41841153.180  -219876647.80809 -41841155.460  -171332424.81548
 15 03 03 03 22 30.0000000  0  9G01G04G11G14G16G19G22G27G32
 -40299131.500  -211773346.08308 -40299131.380  -165018190.41846
 -42332992.260  -222461317.88009 -42332995.840  -173346461.75548
 -41376173.820  -217433225.95309 -41376177.060  -169428504.21546
 -40027869.440  -210347863.11009 -40027872.560  -163907429.13945
 -39378564.240  -206935768.89808 -39378567.120  -161248675.24345
 -42823536.920  -225039198.95909 -42823542.840  -175355237.70149
 -41510457.640  -218138912.24605 -41510462.580  -169978394.68743
 -42506511.740  -223373229.86809 -42506512.400  -174057065.26949
 -42086183.500  -221164290.32109 -42086185.520  -172335782.62747
 15 03 03 03 23  0.0000000  0  8G01G04G11G14G16G22G27G32
 -40542408.000  -213051770.13408 -40542407.040  -166014365.01647
 -42571053.520  -223712337.15009 -42571056.540  -174321281.96548
 -41620051.120  -218714809.68609 -41620054.480  -170427140.86747
 -40268266.820  -211611161.33208 -40268270.260  -164891817.32346
 -39588539.700  -208039199.61608 -39588542.880  -162108491.45246
 -41728187.240  -219283086.45505 -41728191.820  -170869958.95644
 -42728668.660  -224540672.13409 -42728669.320  -174966760.52749
 -42331128.800  -222451486.48909 -42331131.080  -173338792.59548
 15 03 03 03 23 30.0000000  0  7G01G04G11G14G16G22G32
 -40785659.560  -214330064.19108 -40785658.060  -167010438.30147
 -42809067.980  -224963110.71409 -42809070.940  -175295910.70648
 -41863894.840  -219996218.68309 -41863898.540  -171425641.36847
 -40508596.020  -212874100.10408 -40508599.420  -165875925.43346
 -39798504.060  -209142569.36008 -39798507.120  -162968260.14345
 -41945856.860  -220426946.43606 -41945861.000  -171761278.44245
 -42575988.420  -223738232.09609 -42575991.140  -174341451.48548
 15 03 03 03 24  0.0000000  0  6G01G11G14G16G22G32
 -41028885.980  -215608228.24108 -41028884.980  -168006410.24247
 -42107705.200  -221277452.02109 -42107709.220  -172424004.98147
 -40748856.600  -214136676.66508 -40748859.380  -166859751.33746
 -40008457.880  -210245881.11408 -40008460.180  -163827983.63745
 -42163466.400  -221570494.50207 -42163470.780  -172652354.88244
 -42820761.880  -225024525.34409 -42820764.440  -175343757.89248
 15 03 03 03 24 30.0000000  0  5G01G11G14G16G22
 -41272088.800  -216886268.48508 -41272088.820  -169002285.72047
 -42351483.260  -222558515.02409 -42351487.260  -173422235.86847
 -40989048.980  -215398894.78808 -40989051.480  -167843297.89446
 -40218402.360  -211349143.40908 -40218403.700  -164687668.58946
 -42381018.000  -222713739.12407 -42381022.880  -173543194.83345
 15 03 03 03 25  0.0000000  0  5G01G11G14G16G22
 -41515267.360  -218164179.30808 -41515267.140  -169998060.37547
 -42595227.620  -223839401.23009 -42595231.640  -174420328.99547
 -41229171.540  -216660746.44908 -41229173.820  -168826558.90346
 -40428336.700  -212452353.95608 -40428338.000  -165547313.24145
 -42598511.080  -223856677.00907 -42598516.580  -174433795.76845
 15 03 03 03 25 30.0000000  0  5G01G11G14G16G22
 -41758421.700  -219441962.94308 -41758421.460  -170993735.90246
 -42838938.840  -225120112.06209 -42838942.740  -175418285.48147
 -41469224.120  -217922231.56308 -41469226.380  -169809534.26146
 -40638261.820  -213555517.59508 -40638263.760  -166406921.34745
 -42815946.920  -224999312.45706 -42815952.840  -175324161.09145
 15 03 03 03 26  0.0000000  0  3G01G14G16
 -42001551.760  -220719619.43008 -42001551.900  -171989312.33747
 -41709206.480  -219183347.56808 -41709208.640  -170792222.02746
 -40848178.300  -214658637.34608 -40848180.900  -167266495.25546
 15 03 03 03 26 30.0000000  0  5G01G03G14G16G27
 -42244656.880  -221997144.87508 -42244656.360  -172984786.69747
 -40446562.140  -212548120.62707 -40446557.140  -165621901.90546
 -41949117.440  -220444088.15108 -41949119.580  -171774617.28146
 -41058086.060  -215761712.27208 -41058089.320  -168126034.24045
 -42949672.960  -225702054.76809 -42949829.180  -175872370.68349
 15 03 03 03 27  0.0000000  0  7G01G03G04G14G16G27G32
 -42487736.060  -223274533.51508 -42487734.860  -173980154.46547
 -40697192.000  -213865191.41508 -40697187.340  -166648190.59546
 -42949672.960  -225702054.76809 -42949831.020  -175872378.21848
 -42188955.400  -221704445.10608 -42188957.560  -172756713.60546
 -41267984.620  -216864738.99608 -41267988.620  -168985535.67145
 -42949672.960  -225702054.76809 -42949831.020  -175872378.21849
 -42949672.960  -225702054.76809 -42949671.660  -175871725.66548
 15 03 03 03 27 30.0000000  0  7G01G03G04G14G16G27G32
 -42730790.220  -224551790.50908 -42730789.280  -174975419.63047
 -40947800.320  -215182149.59208 -40947796.640  -167674391.49246
 -42949672.960  -225702054.76809 -42949575.860  -175871333.38048
 -42428720.780  -222964421.23408 -42428723.000  -173738513.18146
 -41477875.800  -217967725.91808 -41477880.220  -169845006.09745
 -42949672.960  -225702054.76809 -42949752.460  -175872056.52849
 -42949672.960  -225702054.76809 -42949712.100  -175871891.26048
 15 03 03 03 28  0.0000000  0  6G03G04G14G16G27G32
 -41198386.820  -216498992.64508 -41198384.520  -168700502.70546
 -42949672.960  -225702054.76809 -42949600.680  -175871435.01448
 -42668413.080  -224224013.52608 -42668415.420  -174720013.64846
 -41687759.900  -219070674.81508 -41687763.980  -170704446.89046
 -42949672.960  -225702054.76809 -42949593.340  -175871404.95849
 -42949672.960  -225702054.76809 -42949664.040  -175871694.46248
 15 03 03 03 28 30.0000000  0  7G03G04G11G14G16G27G32
 -41448951.040  -217815717.88508 -41448949.900  -169726522.08845
 -42949672.960  -225702054.76809 -42949577.680  -175871340.83348
 -42949672.960  -225702054.76809 -42949785.300  -175872191.00247
 -42908031.900  -225483218.50908 -42908034.200  -175701212.34446
 -41897637.140  -220173587.51808 -41897640.220  -171563859.47845
 -42949672.960  -225702054.76809 -42949681.120  -175871764.40249
 -42949672.960  -225702054.76809 -42949526.960  -175871133.14347
 15 03 03 03 29  0.0000000  0  7G03G04G11G16G22G27G32
 -41699492.860  -219132323.69907 -41699492.060  -170752448.42946
 -42949672.960  -225702054.76809 -42949835.560  -175872396.80848
 -42949672.960  -225702054.76809 -42949784.120  -175872186.17047
 -42107508.100  -221276467.41408 -42107510.100  -172423246.49345
 -42949672.960  -225702054.76807 -42949667.420  -175871708.30343
 -42949672.960  -225702054.76809 -42949688.340  -175871793.96749
 -42949672.960  -225702054.76809 -42949626.320  -175871540.00548
 15 03 03 03 29 30.0000000  0  7G03G04G11G16G22G27G32
 -41950012.880  -220448812.62807 -41950011.600  -171778283.74146
 -42949672.960  -225702054.76809 -42949719.360  -175871920.98948
 -42949672.960  -225702054.76809 -42949747.360  -175872035.64447
 -42317373.940  -222379321.21008 -42317375.340  -173282613.18245
 -42949672.960  -225702054.76807 -42949726.080  -175871948.50644
 -42949672.960  -225702054.76809 -42949615.780  -175871496.84649
 -42949672.960  -225702054.76809 -42949635.960  -175871579.47948
 15 03 03 03 30  0.0000000  0  7G03G04G11G16G22G27G32
 -42200510.660  -221765182.87508 -42200508.220  -172804026.56145
 -42949672.960  -225702054.76809 -42949556.700  -175871254.92348
 -42949672.960  -225702054.76809 -42949676.400  -175871745.07547
 -42527235.380  -223482151.94008 -42527236.900  -174141961.91145
 -42949672.960  -225702054.76807 -42949730.600  -175871967.01444
 -42949672.960  -225702054.76809 -42949790.900  -175872213.93349
 -42949672.960  -225702054.76809 -42949557.000  -175871256.15148
 15 03 03 03 30 30.0000000  0  7G03G04G11G16G22G27G32
 -42450984.600  -223081428.05407 -42450981.220  -173829671.92046
 -42949672.960  -225702054.76809 -42949674.540  -175871737.45847
 -42949672.960  -225702054.76809 -42949568.360  -175871302.66947
 -42737092.260  -224584957.85208 -42737094.120  -175001291.30245
 -42949672.960  -225702054.76807 -42949680.220  -175871760.71744
 -42949672.960  -225702054.76809 -42949557.860  -175871259.67348
 -42949672.960  -225702054.76809 -42949715.420  -175871904.85548
 15 03 03 03 31  0.0000000  0  8G01G03G04G11G16G22G27G32
 -42949672.960  -225702054.76808 -42949696.520  -175871827.46346
 -42701434.960  -224397549.69807 -42701431.040  -174855221.05046
 -42949672.960  -225702054.76809 -42949745.140  -175872026.55347
 -42949672.960  -225702054.76809 -42949752.320  -175872055.95447
 -42946945.520  -225687744.67408 -42946947.720  -175860605.83145
 -42949672.960  -225702054.76807 -42949576.480  -175871335.91944
 -42949672.960  -225702054.76809 -42949572.520  -175871319.70349
 -42949672.960  -225702054.76809 -42949782.920  -175872181.25648
 15 03 03 03 31 30.0000000  0  7G01G04G11G14G22G27G32
 -42949672.960  -225702054.76808 -42949738.660  -175872000.01946
 -42949672.960  -225702054.76809 -42949766.980  -175872115.98448
 -42949672.960  -225702054.76809 -42949573.560  -175871323.96247
 -42949672.960  -225702054.76808 -42949577.280  -175871339.19546
 -42949672.960  -225702054.76806 -42949747.960  -175872038.10143
 -42949672.960  -225702054.76809 -42949834.740  -175872393.45049
 -42949672.960  -225702054.76809 -42949759.000  -175872083.30848
 15 03 03 03 32  0.0000000  0  7G01G04G11G14G22G27G32
 -42949672.960  -225702054.76808 -42949756.440  -175872072.82547
 -42949672.960  -225702054.76809 -42949742.600  -175872016.15248
 -42949672.960  -225702054.76809 -42949684.320  -175871777.50647
 -42949672.960  -225702054.76808 -42949791.900  -175872218.02846
 -42949672.960  -225702054.76805 -42949538.400  -175871179.98844
 -42949672.960  -225702054.76809 -42949689.520  -175871798.79949
 -42949672.960  -225702054.76809 -42949643.960  -175871612.23848
 15 03 03 03 32 30.0000000  0  7G01G04G11G14G22G27G32
 -42949672.960  -225702054.76808 -42949748.700  -175872041.13147
 -42949672.960  -225702054.76809 -42949670.680  -175871721.65248
 -42949672.960  -225702054.76809 -42949757.780  -175872078.31248
 -42949672.960  -225702054.76808 -42949601.040  -175871436.48846
 -42949672.960  -225702054.76805 -42949603.320  -175871445.82443
 -42949672.960  -225702054.76809 -42949791.820  -175872217.70049
 -42949672.960  -225702054.76809 -42949764.420  -175872105.50248
 15 03 03 03 33  0.0000000  0  7G01G04G11G14G22G27G32
 -42949672.960  -225702054.76808 -42949715.600  -175871905.59247
 -42949672.960  -225702054.76809 -42949550.120  -175871227.97948
 -42949672.960  -225702054.76809 -42949794.640  -175872229.24847
 -42949672.960  -225702054.76808 -42949660.660  -175871680.62246
 -42949672.960  -225702054.76805 -42949617.240  -175871502.82444
 -42949672.960  -225702054.76809 -42949814.500  -175872310.57149
 -42949672.960  -225702054.76809 -42949793.240  -175872223.51548
 15 03 03 03 33 30.0000000  0  7G01G04G11G14G22G27G32
 -42949672.960  -225702054.76808 -42949657.020  -175871665.71746
 -42949672.960  -225702054.76809 -42949710.600  -175871885.11848
 -42949672.960  -225702054.76809 -42949794.780  -175872229.82147
 -42949672.960  -225702054.76808 -42949643.380  -175871609.86346
 -42949672.960  -225702054.76806 -42949577.940  -175871341.89744
 -42949672.960  -225702054.76809 -42949757.580  -175872077.49349
 -42949672.960  -225702054.76809 -42949730.400  -175871966.19548
 15 03 03 03 34  0.0000000  0  3G01G19G32
 -42949672.960  -225702054.76808 -42949574.540  -175871327.97546
 -42949672.960  -225702054.76809 -42949573.740  -175871324.69949
 -42949672.960  -225702054.76809 -42949574.820  -175871329.12148
 15 03 03 03 34 30.0000000  0  9G01G03G04G11G14G16G22G27G32
 -42949672.960  -225702054.76808 -42949794.820  -175872229.98546
 -42949672.960  -225702054.76808 -42949836.120  -175872399.10145
 -42949672.960  -225702054.76809 -42949563.340  -175871282.11348
 -42949672.960  -225702054.76809 -42949681.900  -175871767.59647
 -42949672.960  -225702054.76808 -42949700.240  -175871842.69546
 -42949672.960  -225702054.76808 -42949815.660  -175872315.32144
 -42949672.960  -225702054.76807 -42949674.600  -175871737.70444
 -42949672.960  -225702054.76809 -42949732.080  -175871973.07549
 -42949672.960  -225702054.76809 -42949653.760  -175871652.36848
 15 03 03 03 35  0.0000000  0  9G01G03G04G11G14G16G22G27G32
 -42949672.960  -225702054.76808 -42949660.220  -175871678.82046
 -42949672.960  -225702054.76808 -42949735.220  -175871985.93345
 -42949672.960  -225702054.76809 -42949581.140  -175871355.00148
 -42949672.960  -225702054.76809 -42949568.080  -175871301.52247
 -42949672.960  -225702054.76808 -42949773.680  -175872143.42046
 -42949672.960  -225702054.76808 -42949613.080  -175871485.79044
 -42949672.960  -225702054.76807 -42949809.600  -175872290.50644
 -42949672.960  -225702054.76809 -42949763.720  -175872102.63549
 -42949672.960  -225702054.76809 -42949639.760  -175871595.04048
 15 03 03 03 35 30.0000000  0  9G01G03G04G11G14G16G22G27G32
 -42949672.960  -225702054.76808 -42949828.460  -175872367.73547
 -42949672.960  -225702054.76808 -42949607.880  -175871464.49745
 -42949672.960  -225702054.76809 -42949553.440  -175871241.57448
 -42949672.960  -225702054.76809 -42949745.680  -175872028.76547
 -42949672.960  -225702054.76808 -42949767.220  -175872116.96746
 -42949672.960  -225702054.76808 -42949739.420  -175872003.13145
 -42949672.960  -225702054.76808 -42949567.660  -175871299.80244
 -42949672.960  -225702054.76809 -42949716.580  -175871909.60549
 -42949672.960  -225702054.76809 -42949533.040  -175871158.03948
 15 03 03 03 36  0.0000000  0  9G01G03G04G11G14G16G22G27G32
 -42949672.960  -225702054.76808 -42949644.740  -175871615.43246
 -42949672.960  -225702054.76808 -42949780.500  -175872171.34745
 -42949672.960  -225702054.76809 -42949805.440  -175872273.47247
 -42949672.960  -225702054.76809 -42949555.160  -175871248.61747
 -42949672.960  -225702054.76808 -42949681.400  -175871765.54946
 -42949672.960  -225702054.76808 -42949539.440  -175871184.24644
 -42949672.960  -225702054.76808 -42949603.440  -175871446.31644
 -42949672.960  -225702054.76809 -42949590.020  -175871391.36349
 -42949672.960  -225702054.76809 -42949660.220  -175871678.82047
 15 03 03 03 36 30.0000000  0  9G01G03G04G11G14G16G22G27G32
 -42949672.960  -225702054.76808 -42949764.260  -175872104.84747
 -42949672.960  -225702054.76808 -42949599.020  -175871428.21645
 -42949672.960  -225702054.76809 -42949681.120  -175871764.40248
 -42949672.960  -225702054.76809 -42949654.180  -175871654.08747
 -42949672.960  -225702054.76808 -42949515.520  -175871086.29846
 -42949672.960  -225702054.76808 -42949669.120  -175871715.26445
 -42949672.960  -225702054.76808 -42949591.040  -175871395.54043
 -42949672.960  -225702054.76809 -42949711.860  -175871890.27749
 -42949672.960  -225702054.76809 -42949693.480  -175871815.01448
 15 03 03 03 37  0.0000000  0  9G01G03G04G11G14G16G22G27G32
 -42949672.960  -225702054.76809 -42949530.040  -175871145.75547
 -42949672.960  -225702054.76808 -42949717.400  -175871912.96345
 -42949672.960  -225702054.76809 -42949510.240  -175871064.67748
 -42949672.960  -225702054.76809 -42949715.660  -175871905.83847
 -42949672.960  -225702054.76808 -42949596.340  -175871417.24246
 -42949672.960  -225702054.76808 -42949800.600  -175872253.65345
 -42949672.960  -225702054.76808 -42949527.860  -175871136.82843
 -42949672.960  -225702054.76809 -42949754.500  -175872064.88149
 -42949672.960  -225702054.76809 -42949632.480  -175871565.22948
 15 03 03 03 37 30.0000000  0  5G01G04G14G16G19
 -42949672.960  -225702054.76808 -42949597.380  -175871421.50147
 -42949672.960  -225702054.76809 -42949619.540  -175871512.24248
 -42949672.960  -225702054.76808 -42949595.500  -175871413.80346
 -42949672.960  -225702054.76808 -42949606.600  -175871459.25545
 -42949672.960  -225702054.76809 -42949610.020  -175871473.26049
 15 03 03 03 38  0.0000000  0  9G01G03G04G11G14G16G22G27G32
 -42949672.960  -225702054.76808 -42949639.400  -175871593.56647
 -42949672.960  -225702054.76808 -42949541.080  -175871190.96245
 -42949672.960  -225702054.76809 -42949680.000  -175871759.81648
 -42949672.960  -225702054.76809 -42949719.920  -175871923.28247
 -42949672.960  -225702054.76808 -42949513.100  -175871076.38846
 -42949672.960  -225702054.76808 -42949744.300  -175872023.11445
 -42949672.960  -225702054.76807 -42949586.800  -175871378.17743
 -42949672.960  -225702054.76809 -42949602.280  -175871441.56649
 -42949672.960  -225702054.76809 -42949554.160  -175871244.52248
 15 03 03 03 38 30.0000000  0  9G01G03G04G11G14G16G22G27G32
 -42949672.960  -225702054.76809 -42949657.260  -175871666.69947
 -42949672.960  -225702054.76808 -42949574.520  -175871327.89345
 -42949672.960  -225702054.76809 -42949693.700  -175871815.91548
 -42949672.960  -225702054.76808 -42949663.240  -175871691.18748
 -42949672.960  -225702054.76808 -42949676.060  -175871743.68246
 -42949672.960  -225702054.76808 -42949558.760  -175871263.35845
 -42949672.960  -225702054.76807 -42949708.180  -175871875.20842
 -42949672.960  -225702054.76809 -42949735.980  -175871989.04549
 -42949672.960  -225702054.76809 -42949536.780  -175871173.35448
 15 03 03 03 39  0.0000000  0  9G01G03G04G11G14G16G22G27G32
 -42949672.960  -225702054.76808 -42949648.940  -175871632.63047
 -42949672.960  -225702054.76808 -42949577.900  -175871341.73345
 -42949672.960  -225702054.76809 -42949660.240  -175871678.90248
 -42949672.960  -225702054.76809 -42949567.840  -175871300.53947
 -42949672.960  -225702054.76808 -42949755.960  -175872070.85946
 -42949672.960  -225702054.76808 -42949703.760  -175871857.10945
 -42949672.960  -225702054.76807 -42949780.080  -175872169.62742
 -42949672.960  -225702054.76809 -42949790.660  -175872212.95049
 -42949672.960  -225702054.76809 -42949751.500  -175872052.59648
 15 03 03 03 39 30.0000000  0  9G01G03G04G11G14G16G22G27G32
 -42949672.960  -225702054.76808 -42949614.340  -175871490.94947
 -42949672.960  -225702054.76807 -42949551.280  -175871232.72946
 -42949672.960  -225702054.76809 -42949578.160  -175871342.79848
 -42949672.960  -225702054.76809 -42949760.600  -175872089.85947
 -42949672.960  -225702054.76808 -42949753.540  -175872060.95045
 -42949672.960  -225702054.76808 -42949525.320  -175871126.42745
 -42949672.960  -225702054.76806 -42949802.800  -175872262.66143
 -42949672.960  -225702054.76809 -42949766.500  -175872114.01949
 -42949672.960  -225702054.76809 -42949543.240  -175871199.80748
 15 03 03 03 40  0.0000000  0  3G01G19G32
 -42949672.960  -225702054.76809 -42949554.580  -175871246.24247
 -42949672.960  -225702054.76809 -42949566.960  -175871296.93649
 -42949672.960  -225702054.76809 -42949566.860  -175871296.52748
 15 03 03 03 40 30.0000000  0  9G01G03G04G11G14G16G22G27G32
 -42949672.960  -225702054.76808 -42949797.520  -175872241.04147
 -42949672.960  -225702054.76808 -42949736.780  -175871992.32145
 -42949672.960  -225702054.76809 -42949597.560  -175871422.23848
 -42949672.960  -225702054.76809 -42949694.100  -175871817.55347
 -42949672.960  -225702054.76808 -42949825.720  -175872356.51546
 -42949672.960  -225702054.76808 -42949514.820  -175871083.43145
 -42949672.960  -225702054.76807 -42949712.200  -175871891.67044
 -42949672.960  -225702054.76809 -42949810.320  -175872293.45549
 -42949672.960  -225702054.76809 -42949821.760  -175872340.29948
 15 03 03 03 41  0.0000000  0  9G01G03G04G11G14G16G22G27G32
 -42949672.960  -225702054.76808 -42949686.800  -175871787.66147
 -42949672.960  -225702054.76808 -42949619.800  -175871513.30746
 -42949672.960  -225702054.76809 -42949699.920  -175871841.38548
 -42949672.960  -225702054.76809 -42949765.500  -175872109.92447
 -42949672.960  -225702054.76808 -42949571.760  -175871316.59146
 -42949672.960  -225702054.76807 -42949682.520  -175871770.13545
 -42949672.960  -225702054.76808 -42949598.300  -175871425.26844
 -42949672.960  -225702054.76809 -42949550.960  -175871231.41949
 -42949672.960  -225702054.76809 -42949653.100  -175871649.66548
 15 03 03 03 41 30.0000000  0  9G01G03G04G11G14G16G22G27G32
 -42949672.960  -225702054.76808 -42949550.300  -175871228.71647
 -42949672.960  -225702054.76808 -42949798.320  -175872244.31746
 -42949672.960  -225702054.76809 -42949753.580  -175872061.11448
 -42949672.960  -225702054.76809 -42949794.860  -175872230.14848
 -42949672.960  -225702054.76808 -42949560.120  -175871268.92746
 -42949672.960  -225702054.76807 -42949528.460  -175871139.28545
 -42949672.960  -225702054.76807 -42949765.700  -175872110.74345
 -42949672.960  -225702054.76809 -42949540.620  -175871189.07849
 -42949672.960  -225702054.76809 -42949716.100  -175871907.63948
 15 03 03 03 42  0.0000000  0  3G01G16G19
 -42949672.960  -225702054.76809 -42949715.860  -175871906.65747
 -42949672.960  -225702054.76807 -42949709.320  -175871879.87645
 -42949672.960  -225702054.76809 -42949717.640  -175871913.94549
 15 03 03 03 42 30.0000000  0  9G01G03G04G11G14G16G22G27G32
 -42949672.960  -225702054.76808 -42949527.120  -175871133.79847
 -42949672.960  -225702054.76808 -42949733.680  -175871979.62746
 -42949672.960  -225702054.76809 -42949716.260  -175871908.29548
 -42949672.960  -225702054.76809 -42949730.000  -175871964.55848
 -42949672.960  -225702054.76808 -42949608.440  -175871466.79047
 -42949672.960  -225702054.76807 -42949569.700  -175871308.15645
 -42949672.960  -225702054.76808 -42949637.960  -175871587.66945
 -42949672.960  -225702054.76809 -42949612.520  -175871483.49749
 -42949672.960  -225702054.76809 -42949549.540  -175871225.60448
 15 03 03 03 43  0.0000000  0  9G01G03G04G11G14G16G22G27G32
 -42949672.960  -225702054.76809 -42949640.020  -175871596.10547
 -42949672.960  -225702054.76808 -42949816.480  -175872318.67946
 -42949672.960  -225702054.76809 -42949624.540  -175871532.71648
 -42949672.960  -225702054.76809 -42949634.960  -175871575.38547
 -42949672.960  -225702054.76808 -42949667.100  -175871706.99346
 -42949672.960  -225702054.76808 -42949765.760  -175872110.98944
 -42949672.960  -225702054.76808 -42949670.100  -175871719.27745
 -42949672.960  -225702054.76809 -42949694.340  -175871818.53649
 -42949672.960  -225702054.76809 -42949647.500  -175871626.73448
 15 03 03 03 43 30.0000000  0  9G01G03G04G11G14G16G22G27G32
 -42949672.960  -225702054.76809 -42949725.580  -175871946.45847
 -42949672.960  -225702054.76808 -42949539.060  -175871182.69046
 -42949672.960  -225702054.76809 -42949811.960  -175872300.17048
 -42949672.960  -225702054.76809 -42949824.620  -175872352.01147
 -42949672.960  -225702054.76808 -42949639.000  -175871591.92846
 -42949672.960  -225702054.76808 -42949641.780  -175871603.31144
 -42949672.960  -225702054.76808 -42949657.360  -175871667.10945
 -42949672.960  -225702054.76809 -42949697.500  -175871831.47549
 -42949672.960  -225702054.76809 -42949647.420  -175871626.40648
 15 03 03 03 44  0.0000000  0  9G01G03G04G11G14G16G22G27G32
 -42949672.960  -225702054.76808 -42949784.780  -175872188.87347
 -42949672.960  -225702054.76808 -42949556.380  -175871253.61346
 -42949672.960  -225702054.76809 -42949622.280  -175871523.46248
 -42949672.960  -225702054.76809 -42949645.340  -175871617.88947
 -42949672.960  -225702054.76809 -42949523.300  -175871118.15646
 -42949672.960  -225702054.76808 -42949525.800  -175871128.39345
 -42949672.960  -225702054.76807 -42949601.080  -175871436.65245
 -42949672.960  -225702054.76809 -42949622.120  -175871522.80749
 -42949672.960  -225702054.76809 -42949548.740  -175871222.32848
 15 03 03 03 44 30.0000000  0  9G01G03G04G11G14G16G22G27G32
 -42949672.960  -225702054.76809 -42949819.100  -175872329.40747
 -42949672.960  -225702054.76808 -42949540.680  -175871189.32446
 -42949672.960  -225702054.76809 -42949711.640  -175871889.37648
 -42949672.960  -225702054.76809 -42949750.180  -175872047.19147
 -42949672.960  -225702054.76809 -42949647.260  -175871625.75147
 -42949672.960  -225702054.76807 -42949746.200  -175872030.89444
 -42949672.960  -225702054.76807 -42949828.120  -175872366.34345
 -42949672.960  -225702054.76809 -42949796.840  -175872238.25649
 -42949672.960  -225702054.76809 -42949679.540  -175871757.93248
 15 03 03 03 45  0.0000000  0  3G14G19G22
 -42949672.960  -225702054.76809 -42949684.740  -175871779.22547
 -42949672.960  -225702054.76809 -42949670.420  -175871720.58749
 -42949672.960  -225702054.76807 -42949684.460  -175871778.07944
 15 03 03 03 45 30.0000000  0  9G01G03G04G11G14G16G22G27G32
 -42949672.960  -225702054.76808 -42949807.460  -175872281.74347
 -42949672.960  -225702054.76808 -42949735.240  -175871986.01446
 -42949672.960  -225702054.76809 -42949746.000  -175872030.07548
 -42949672.960  -225702054.76809 -42949831.060  -175872378.38147
 -42949672.960  -225702054.76809 -42949633.760  -175871570.47147
 -42949672.960  -225702054.76807 -42949562.300  -175871277.85444
 -42949672.960  -225702054.76807 -42949825.400  -175872355.20544
 -42949672.960  -225702054.76809 -42949586.100  -175871375.31149
 -42949672.960  -225702054.76809 -42949646.420  -175871622.31148
 15 03 03 03 46  0.0000000  0  9G01G03G04G11G14G16G22G27G32
 -42949672.960  -225702054.76808 -42949761.900  -175872095.18347
 -42949672.960  -225702054.76808 -42949616.220  -175871498.64746
 -42949672.960  -225702054.76809 -42949689.800  -175871799.94548
 -42949672.960  -225702054.76809 -42949806.840  -175872279.20547
 -42949672.960  -225702054.76809 -42949821.560  -175872339.48047
 -42949672.960  -225702054.76807 -42949812.760  -175872303.44645
 -42949672.960  -225702054.76806 -42949595.440  -175871413.55745
 -42949672.960  -225702054.76809 -42949527.580  -175871135.68149
 -42949672.960  -225702054.76809 -42949809.020  -175872288.13148
 15 03 03 03 46 30.0000000  0  9G01G03G04G11G14G16G22G27G32
 -42949672.960  -225702054.76808 -42949689.380  -175871798.22547
 -42949672.960  -225702054.76808 -42949790.860  -175872213.76946
 -42949672.960  -225702054.76809 -42949584.680  -175871369.49648
 -42949672.960  -225702054.76809 -42949739.180  -175872002.14847
 -42949672.960  -225702054.76808 -42949592.760  -175871402.58346
 -42949672.960  -225702054.76807 -42949746.280  -175872031.22145
 -42949672.960  -225702054.76806 -42949650.560  -175871639.26445
 -42949672.960  -225702054.76809 -42949719.380  -175871921.07048
 -42949672.960  -225702054.76809 -42949544.900  -175871206.60448
 15 03 03 03 47  0.0000000  0  9G01G03G04G11G14G16G22G27G32
 -42949672.960  -225702054.76808 -42949591.520  -175871397.50547
 -42949672.960  -225702054.76808 -42949603.880  -175871448.11746
 -42949672.960  -225702054.76809 -42949758.620  -175872081.75248
 -42949672.960  -225702054.76809 -42949628.140  -175871547.45847
 -42949672.960  -225702054.76808 -42949602.960  -175871444.35047
 -42949672.960  -225702054.76807 -42949693.560  -175871815.34244
 -42949672.960  -225702054.76806 -42949664.720  -175871697.24745
 -42949672.960  -225702054.76809 -42949834.700  -175872393.28748
 -42949672.960  -225702054.76809 -42949509.320  -175871060.91048
 15 03 03 03 47 30.0000000  0  9G01G03G04G11G14G16G22G27G32
 -42949672.960  -225702054.76808 -42949794.900  -175872230.31248
 -42949672.960  -225702054.76808 -42949709.340  -175871879.95846
 -42949672.960  -225702054.76809 -42949555.300  -175871249.19048
 -42949672.960  -225702054.76808 -42949800.420  -175872252.91647
 -42949672.960  -225702054.76808 -42949523.020  -175871117.00947
 -42949672.960  -225702054.76807 -42949652.420  -175871646.88045
 -42949672.960  -225702054.76806 -42949637.280  -175871584.88546
 -42949672.960  -225702054.76809 -42949544.560  -175871205.21249
 -42949672.960  -225702054.76809 -42949701.940  -175871849.65748
 15 03 03 03 48  0.0000000  0  9G01G03G04G11G14G16G22G27G32
 -42949672.960  -225702054.76808 -42949643.620  -175871610.84648
 -42949672.960  -225702054.76808 -42949779.180  -175872165.94146
 -42949672.960  -225702054.76809 -42949631.780  -175871562.36348
 -42949672.960  -225702054.76808 -42949602.080  -175871440.74747
 -42949672.960  -225702054.76808 -42949681.380  -175871765.46747
 -42949672.960  -225702054.76807 -42949624.180  -175871531.24244
 -42949672.960  -225702054.76806 -42949570.280  -175871310.53145
 -42949672.960  -225702054.76809 -42949833.320  -175872387.63649
 -42949672.960  -225702054.76809 -42949796.180  -175872235.55448
 15 03 03 03 48 30.0000000  0 10G01G03G04G11G14G16G19G22G27G32
  22198087.140   116651734.65608  22198090.240    90897466.84148
  23664827.620   124359508.52208  23664828.840    96903515.79546
  20464745.540   107542964.28309  20464743.500    83799703.82348
  21105058.600   110907832.68408  21105056.340    86421676.22148
  22686659.760   119219200.85108  22686657.760    92898070.56546
  24820759.460   130433969.30108  24820759.780   101636859.43945
  20339763.460   106886178.26309  20339758.040    83287908.00949
  22352208.940   117461652.93505  22352207.220    91528551.43545
  21161187.240   111202789.27509  21161186.860    86651522.02249
  20411569.920   107263522.92409  20411566.800    83581953.61648
 15 03 03 03 49  0.0000000  0 10G01G03G04G11G14G16G19G22G27G32
  21956134.220   115380262.63908  21956136.960    89906709.44448
  23415463.980   123049095.01508  23415465.460    95882414.49146
  20229163.520   106304972.35209  20229161.420    82835034.79648
  20863189.560   109636801.67209  20863187.240    85431262.45047
  22450423.320   117977769.70408  22450420.840    91930721.63246
  24610717.700   129330189.98808  24610717.560   100776771.38245
  20112174.840   105690192.19509  20112169.500    82355970.80949
  22137069.980   116331091.05205  22137068.420    90647594.05945
  20943142.800   110056957.85109  20943142.220    85758666.37149
  20171484.860   106001867.31309  20171481.860    82598845.35648
 15 03 03 03 49 30.0000000  0  9G01G03G04G11G14G19G22G27G32
  21714207.640   114108927.98608  21714209.460    88916059.08947
  23166136.200   121738871.03508  23166138.100    94861460.79146
  19993630.060   105067235.72009  19993628.040    81870564.70048
  20621365.080   108366003.95509  20621362.420    84441030.49947
  22214277.600   116736814.19308  22214274.500    90963743.37745
  19884672.860   104494661.51209  19884667.720    81424388.45749
  21921970.660   115200736.22305  21921968.960    89766798.11345
  20725174.480   108911526.00709  20725173.560    84866122.02648
  19931499.580   104740735.69209  19931496.660    81616145.40848
 15 03 03 03 50  0.0000000  0  9G01G03G04G11G14G19G22G27G32
  21472307.140   112837730.23208  21472308.280    87925515.41748
  22916844.620   120428837.46708  22916847.000    93840655.50446
  19758145.180   103829753.98209  19758142.940    80906293.22148
  20379584.900   107095440.07609  20379582.520    83450980.70948
  21978222.480   115496335.68908  21978219.140    89997136.81445
  19657257.640   103299586.37109  19657252.640    80493161.06949
  21706910.760   114070585.71507  21706908.260    88886161.36546
  20507281.580   107766492.14009  20507280.780    83973887.84048
  19691614.020   103480128.19309  19691611.060    80633853.87548
 15 03 03 03 50 30.0000000  0  9G01G03G04G11G14G19G22G27G32
  21230431.960   111566665.85009  21230432.880    86935075.64448
  22667589.200   119118992.20608  22667591.880    92819996.93946
  19522708.260   102592523.37109  19522705.680    79942217.45248
  20137848.880   105825107.14809  20137846.400    82461110.93048
  21742257.520   114256332.16708  21742254.720    89030900.29546
  19429928.580   102104963.47409  19429923.480    79562286.08849
  21491888.940   112940633.60607  21491885.100    88005679.20245
  20289463.360   106621851.65809  20289463.020    83081960.21249
  19451827.460   102220042.10409  19451824.700    79651968.61848
 15 03 03 03 51  0.0000000  0  9G01G03G04G11G14G19G22G27G32
  20988582.320   110295735.89009  20988582.760    85944740.64448
  22418370.420   117809337.75308  22418372.980    91799487.06546
  19287319.260   101355545.13909  19287316.640    78978338.31048
  19896157.240   104555007.79109  19896154.420    81471423.14048
  21506383.500   113016806.27808  21506381.160    88065035.95247
  19202685.780   100910794.13009  19202680.580    78631764.50649
  21276904.600   111810879.25407  21276899.480    87125351.12545
  20071720.180   105477604.60409  20071720.040    82190339.12649
  19212140.340   100960478.99809  19212137.860    78670490.87848
 15 03 03 03 51 30.0000000  0  9G01G03G04G11G14G19G22G27G32
  20746757.920   109024940.53009  20746757.740    84954510.50647
  22169188.520   116499875.68408  22169190.480    90779127.11246
  19051978.240   100118819.56409  19051975.620    78014656.05548
  19654510.240   103285143.19509  19654507.220    80481918.25648
  21270600.820   111777759.68408  21270598.560    87099545.10446
  18975529.380    99717078.69509  18975524.160    77701596.63649
  21061957.080   110681320.16807  21061951.300    86245175.26244
  19854051.840   104333750.00909  19854051.540    81299023.83348
  18972552.920    99701439.67509  18972550.680    77689421.28248
 15 03 03 03 52  0.0000000  0  9G01G03G04G11G14G19G22G27G32
  20504959.040   107754279.26708  20504958.700    83964384.87348
  21920043.520   115190606.93208  21920044.400    89758917.79946
  18816685.020    98882345.74909  18816682.480    77051169.98648
  19412908.140   102015513.85309  19412904.540    79492596.71148
  21034909.560   110539193.62708  21034907.140    86134428.69647
  18748459.300    98523816.88909  18748454.000    76771782.24149
  20847045.940   109551953.95806  20847040.260    85365149.67245
  19636457.900   103190286.30209  19636457.620    80408013.13049
  18733065.340    98442924.36309  18733063.280    76708760.00848
 15 03 03 03 52 30.0000000  0  9G01G03G04G11G14G19G22G27G32
  20263186.260   106483756.68308  20263186.440    82974367.26748
  21670936.320   113881537.43508  21670936.120    88738863.76047
  18581440.620    97646128.62509  18581438.360    76087883.90148
  19171351.580   100746125.26309  19171347.720    78503462.74348
  20799310.780   109301113.97109  20799308.220    85169691.31647
  18521476.500    97331013.63309  18521470.900    75842325.14849
  20632171.920   108422782.68207  20632166.300    84485275.92846
  19418939.140   102047216.88809  19418938.940    79517309.67049
  18493678.520    97184938.03009  18493676.380    75728510.92648
 15 03 03 03 53  0.0000000  0  9G01G03G04G11G14G19G22G27G32
  20021439.200   105213370.18008  20021439.740    81984455.72947
  21421866.160   112572666.06408  21421865.940    87718964.06846
  18346244.720    96410165.54409  18346242.540    75124795.80748
  18929840.460    99476975.67709  18929836.400    77514515.01448
  20563804.440   108063519.50709  20563801.780    84205332.01347
  18294580.420    96138666.71709  18294574.700    74913223.66349
  20417334.160   107293801.91008  20417328.540    83605550.63345
  19201494.760   100904538.03709  19201494.600    78626910.57349
  18254392.040    95927478.77009  18254389.720    74748672.55448
 15 03 03 03 53 30.0000000  0  9G01G03G04G11G14G19G22G27G32
  19779718.000   103943119.48808  19779718.400    80994650.00547
  21172833.220   111263993.89208  21172834.020    86699219.58547
  18111097.120    95174456.10609  18111095.020    74161905.33648
  18688374.880    98208066.24409  18688370.660    76525754.41448
  20328390.680   106826411.51509  20328388.020    83241351.77046
  18067771.200    94946776.06109  18067765.380    73984477.68549
  20202532.080   106165008.89308  20202526.480    82725971.59945
  18984124.400    99762248.34709  18984124.100    77736814.69749
  18015205.880    94670546.79809  18015203.520    73769245.05148
 15 03 03 03 54  0.0000000  0  9G01G03G04G11G14G19G22G27G32
  19538023.640   102673007.54209  19538023.780    80004952.41047
  20923838.880   109955525.25107  20923840.880    85679633.65947
  17875998.420    93939003.43709  17875996.500    73199214.92848
  18446955.420    96939400.66809  18446951.500    75537183.83048
  20093070.180   105589793.68308  20093067.480    82277753.48046
  17841049.340    93755344.73209  17841043.500    73056089.62849
  19987765.960   105036404.34108  19987760.400    81846539.43945
  18766828.440    98620349.54209  18766827.840    76847023.39249
  17776120.700    93414145.57309  17776118.160    72790231.12248
 15 03 03 03 54 30.0000000  0  9G01G03G04G11G14G19G22G27G32
  19296355.800   101403032.82409  19296356.060    79015361.73947
  20674883.640   108647259.93008  20674886.300    84660206.20546
  17640948.360    92703806.26509  17640946.480    72236723.62548
  18205582.460    95670978.54709  18205578.980    74548802.99147
  19857842.980   104353666.95108  19857840.240    81314537.88346
  17614414.580    92564371.34509  17614408.860    72128058.41549
  19773035.100   103907984.70508  19773029.180    80967251.39745
  18549606.240    97478838.93709  18549605.600    75957534.59248
  17537136.260    92158274.07509  17537133.540    71811629.97548
 15 03 03 03 55  0.0000000  0  9G01G03G04G11G14G19G22G27G32
  19054713.840   100133194.23809  19054714.000    78025877.12248
  20425967.720   107339198.13308  20425970.700    83640937.34547
  17405946.520    91468863.21809  17405944.400    71274430.34048
  17964255.760    94402799.96108  17964252.980    73560611.89948
  19622709.080   103118031.19308  19622706.720    80351704.83247
  17387866.860    91373854.93609  17387861.240    71200383.29549
  19558338.660   102779746.63307  19558332.520    80088104.86844
  18332457.340    96337714.17009  18332457.000    75068346.46449
  17298252.640    90902931.63509  17298249.880    70833441.07748
 15 03 03 03 55 30.0000000  0  9G01G03G04G11G14G19G22G27G32
  18813097.900    98863492.75509  18813097.700    77036499.39648
  20177091.480   106031342.29208  20177094.160    82621828.97946
  17170993.220    90234175.28009  17170990.860    70312335.85948
  17722975.900    93134866.79509  17722973.340    72572612.03847
  19387669.160   101882888.73408  19387666.980    79389256.18147
  17161406.460    90183796.80309  17161400.700    70273065.26849
  19343676.360   101651689.02407  19343670.360    79209098.93145
  18115381.920    95196975.08609  18115381.580    74179458.86649
  17059470.060    89648119.71209  17059467.300    69855665.56948
 15 03 03 03 56  0.0000000  0  9G01G03G04G11G14G19G22G27G32
  18571508.260    97593930.86708  18571508.260    76047230.40148
  19928255.380   104723696.12908  19928257.080    81602883.98947
  16936088.820    88999744.96809  16936086.340    69350442.09948
  17481743.660    91867182.40009  17481740.900    71584806.03848
  19152723.980   100648243.46909  19152721.780    78427194.97447
  16935033.800    88994199.52009  16935027.880    69346106.33849
  19129048.380   100523811.99408  19129042.540    78330233.70445
  17898380.280    94056622.86509  17898379.580    73290872.69148
  16820788.920    88393841.13109  16820786.060    68878305.65848
 15 03 03 03 56 30.0000000  0  9G01G03G04G11G14G19G22G27G32
  18329945.000    96324508.73408  18329945.500    75058070.29348
  19679459.480   103416261.12508  19679460.360    80584103.55847
  16701233.580    87765572.42009  16701230.680    68388749.21648
  17240559.060    90599748.32009  17240556.240    70597195.06948
  18917873.600    99414096.32708  18917871.240    77465521.90747
  16708748.800    87805063.46209  16708742.860    68419506.80849
  18914454.060    99396113.19908  18914448.640    77451507.36445
  17681452.020    92916656.36109  17681451.020    72402587.09548
  16582209.240    87140096.32709  16582206.420    67901361.67148
 15 03 03 03 57  0.0000000  0  9G01G03G04G11G14G19G22G27G32
  18088407.640    95055222.08608  18088408.080    74069015.77147
  19430702.960   102109034.37408  19430703.500    79565485.37247
  16466426.800    86531653.44609  16466423.660    67427253.93948
  16999421.700    89332561.16509  16999418.580    69609776.51248
  18683117.440    98180444.45608  18683115.040    76504234.75747
  16482550.540    86616384.08509  16482544.720    67493263.13749
  18699892.400    98268586.88508  18699887.640    76572915.39845
  17464596.180    91777070.11609  17464594.880    71514597.79748
  16343730.320    85886881.55309  16343727.660    66924830.68148
 15 03 03 03 57 30.0000000  0  9G01G03G04G11G14G19G22G27G32
  17846897.600    93786077.13609  17846897.280    73080071.68247
  19181987.080   100802023.37208  19181987.300    78547035.29846
  16231669.460    85297994.19109  16231666.540    66465961.01948
  16758332.780    88065628.20309  16758329.420    68622556.03148
  18448456.900    96947295.37408  18448454.660    75543339.37947
  16256440.440    85428168.00709  16256434.780    66567380.47949
  18485364.420    97141236.80308  18485360.480    75694460.78145
  17247813.640    90637869.00709  17247812.020    70626908.61148
  16105353.380    84634203.39609  16105350.880    65948717.82248
 15 03 03 03 58  0.0000000  0  9G01G03G04G11G14G19G22G27G32
  17605414.260    92517071.60609  17605413.580    72091236.22547
  18933311.840    99495227.14908  18933311.560    77528752.59446
  15996961.180    84064592.43409  15996958.140    65504868.76748
  16517291.880    86798948.19509  16517288.140    67635532.65448
  18213892.060    95714648.28108  18213889.900    74582835.17147
  16030418.040    84240412.86709  16030412.500    65641857.00449
  18270869.280    96014058.44408  18270865.500    74816139.99445
  17031103.480    89499049.45609  17031102.000    69739516.75848
  15867078.220    83382059.70109  15867075.720    64973021.45448
 15 03 03 03 58 30.0000000  0  9G01G03G04G11G14G19G22G27G32
  17363957.420    91248205.84009  17363956.840    71102509.64348
  18684677.660    98188647.28508  18684676.720    76510638.48246
  15762301.840    82831448.48309  15762298.540    64543977.39348
  16276299.500    85532522.67009  16276295.140    66648707.59448
  17979423.040    94482504.69708  17979420.740    73622723.27847
  15804483.500    83053119.05809  15804478.000    64716692.99149
  18056406.740    94887049.77108  18056402.560    73937951.43545
  16814465.400    88360610.44609  16814464.300    68852421.43348
  15628905.140    82130451.20309  15628902.580    63997742.11748
 15 03 03 03 59  0.0000000  0  9G01G03G04G11G14G19G22G27G32
  17122527.160    89979479.88109  17122526.000    70113892.05647
  18436084.960    96882285.13808  18436083.880    75492694.00746
  15527691.320    81598562.47509  15527688.300    63583287.00448
  16035355.460    84266352.44509  16035351.100    65662081.43648
  17745050.060    93250865.89308  17745047.440    72663004.74846
  15578636.820    81866286.65309  15578631.420    63791888.52749
  17841976.320    93760208.89808  17841971.560    73059893.60944
  16597899.580    87222550.75209  16597898.700    67965621.66848
  15390833.900    80879378.22509  15390831.400    63022880.06248
 15 03 03 03 59 30.0000000  0  9G01G03G04G11G14G19G22G27G32
  16881123.440    88710893.61108  16881121.520    69125383.31147
  18187533.980    95576141.84508  18187533.320    74474920.06447
  15293129.760    80365934.08809  15293127.080    62622797.34448
  15794460.020    83000438.72109  15794456.080    64675655.14448
  17510772.980    92019732.77107  17510770.360    71703680.21946
  15352877.940    80679915.70709  15352872.620    62867443.63549
  17627577.180    92633533.44508  17627572.200    72181964.64144
  16381405.720    86084868.88009  16381405.080    67079116.31048
  15152864.640    79628840.90009  15152862.000    62048435.41848
 15 03 03 04 00  0.0000000  0  9G01G03G04G11G14G19G22G27G32
  16639745.920    87442447.91108  16639744.440    68136984.06548
  17939025.140    94270219.43908  17939025.420    73457318.22447
  15058617.320    79133564.37509  15058614.900    61662509.24948
  15553613.620    81734782.97409  15553609.500    63689429.90548
  17276592.360    90789107.21508  17276589.880    70744751.16846
  15127206.940    79494006.94809  15127201.660    61943358.88349
  17413209.340    91507022.03808  17413204.100    71304163.50245
  16164983.720    84947564.24009  16164983.100    66192904.88848
  14914997.520    78378840.20909  14914994.580    61074408.93648
 15 03 03 04 00 30.0000000  0  9G01G03G04G11G14G19G22G27G32
  16398394.260    86174139.88808  16398393.480    67148692.09248
  17690558.040    92964516.29108  17690558.800    72439887.25747
  14824153.440    77901450.40609  14824151.360    60702420.43248
  15312815.760    80469383.60509  15312811.820    62703404.40648
  17042508.380    89558987.35008  17042505.700    69786216.24446
  14901623.340    78308557.53309  14901618.060    61019632.05649
  17198871.860    90380669.63608  17198866.460    70426486.30245
  15948632.800    83810632.60509  15948632.280    65306984.12249
  14677231.780    77129373.49009  14677229.080    60100798.51448
 15 03 03 04 01  0.0000000  0  9G01G03G04G11G14G19G22G27G32
  16157069.400    84905970.42109  16157068.900    66160508.10948
  17442133.000    91659034.67508  17442134.100    71422628.91846
  14589738.480    76669593.05009  14589736.880    59742531.58748
  15072067.380    79204242.54709  15072063.440    61717580.23447
  16808520.900    88329375.34008  16808518.240    68828077.04446
  14676127.340    77123567.88709  14676121.900    60096263.49449
  16984564.420    89254475.01908  16984558.540    69548932.07344
  15732352.980    82674073.51809  15732352.620    64421353.65249
  14439567.800    75880441.79609  14439565.640    59127604.98448
 15 03 03 04 01 30.0000000  0  9G01G03G04G11G14G19G22G27G32
  15915772.240    83637944.19709  15915771.960    65172435.74648
  17193751.200    90353780.23408  17193752.320    70405547.57946
  14355373.400    75437996.99909  14355372.040    58782846.35148
  14831369.120    77939366.00409  14831365.120    60731962.16348
  16574631.180    87100276.77909  16574628.520    67870337.94046
  14450719.720    75939042.96409  14450714.160    59173257.06349
  16770287.620    88128440.59908  16770281.140    68671502.66344
  15516144.760    81537890.17409  15516144.220    63536015.96549
  14202006.680    74632050.00809  14202004.660    58154832.18148
 15 03 03 04 02  0.0000000  0  9G01G03G04G11G14G19G22G27G32
  15674501.640    82370057.77209  15674501.540    64184472.29448
  16945412.280    89048750.80308  16945413.360    69388641.58846
  14121057.420    74206658.78909  14121055.940    57823362.05148
  14590720.820    76674750.83309  14590717.020    59746547.76348
  16340838.820    85871689.40609  16340835.980    66912997.18746
  14225399.860    74754979.22709  14225394.360    58250609.96849
  16556040.040    87002560.71607  16556033.120    67794193.61644
  15300006.720    80402077.60209  15300006.260    62650967.20548
  13964547.580    73384194.63009  13964545.480    57182477.34348
 15 03 03 04 02 30.0000000  0  9G01G03G04G11G14G19G22G27G32
  15433257.760    81102311.03309  15433257.260    63196617.73048
  16697116.380    87743947.57308  16697117.060    68371911.84147
  13886790.500    72975578.25409  13886788.940    56864078.51648
  14350122.540    75410398.13609  14350119.020    58761337.88748
  16107143.820    84643613.99509  16107141.120    65956055.33946
  14000167.720    73571376.49209  14000162.340    57328322.11949
  16341821.420    85876833.35307  16341814.320    66917003.42044
  15083939.000    79266634.37209  15083938.620    61766206.24349
  13727190.640    72136875.74409  13727188.500    56210540.56148
 15 03 03 04 03  0.0000000  0  9G01G03G04G11G14G19G22G27G32
  15192040.800    79834706.86708  15192040.020    62208874.25048
  16448864.300    86439374.49208  16448864.740    67355361.44246
  13652573.340    71744758.32909  13652571.720    55904998.06948
  14109574.680    74146311.68209  14109571.380    57776335.43948
  15873547.040    83416054.44909  15873544.500    64999515.46846
  13775023.800    72388237.42509  13775018.580    56406395.56749
  16127631.960    84751258.93707  16127625.180    66039932.44745
  14867942.140    78131561.84509  14867941.520    60881734.13648
  13489936.400    70890096.34509  13489934.180    55239024.16248
 15 03 03 04 03 30.0000000  0  9G01G03G04G11G14G19G22G27G32
  14950850.060    78567243.67508  14950849.840    61221240.56948
  16200656.040    85135031.05108  16200656.600    66338989.98747
  13418405.400    70514197.30709  13418403.920    54946119.34748
  13869077.660    72882490.90809  13869074.200    56791540.07348
  15640048.260    82189009.99409  15640045.740    64043376.94246
  13549967.700    71205560.19709  13549962.740    55484828.89849
  15913470.740    83625833.73907  15913464.280    65162977.75345
  14652015.140    76996856.81909  14652014.360    59997548.39948
  13252784.500    69643854.69609  13252782.200    54267926.78648
 15 03 03 04 04  0.0000000  0  9G01G03G04G11G14G19G22G27G32
  14709686.280    77299920.34509  14709686.280    60233715.92148
  15952491.540    83830917.56208  15952492.420    65322797.69547
  13184286.620    69283894.29909  13184285.020    53987441.68448
  13628631.200    71618936.15309  13628627.780    55806951.94148
  15406647.540    80962480.69908  15406644.860    63087639.85146
  13324999.260    70023343.53609  13324994.440    54563621.11449
  15699337.340    82500554.63307  15699330.820    64286136.92245
  14436157.460    75862516.89409  14436156.680    59113647.17948
  13015734.740    68398149.93609  13015732.380    53297247.77548
 15 03 03 04 04 30.0000000  0  9G01G03G04G11G14G19G22G27G32
  14468549.500    76032737.92909  14468549.480    59246301.05248
  15704371.140    82527035.95208  15704371.980    64306786.11046
  12950217.320    68053849.94709  12950215.340    53028965.57448
  13388235.700    70355649.39509  13388232.400    54822572.64748
  15173345.040    79736468.16508  15173342.260    62132305.42346
  13100118.680    68841588.52409  13100113.860    53642773.04549
  15485231.380    81375420.32207  15485224.920    63409408.89644
  14220369.180    74728541.44009  14220368.260    58230029.92048
  12778787.220    67152982.81609  12778784.920    52326987.68948
 15 03 03 04 05  0.0000000  0  9G01G03G04G11G14G19G22G27G32
  14227439.980    74765696.76109  14227439.540    58258996.27848
  15456294.940    81223387.83608  15456295.860    63290956.43247
  12716197.360    66824064.97509  12716195.000    52070691.57648
  13147891.440    69092631.71109  13147888.000    53838403.02848
  14940141.040    78510973.65908  14940138.340    61177374.64246
  12875326.020    67660295.14409  12875321.240    52722284.69749
  15271152.460    80250428.99706  15271146.160    62532792.25945
  14004649.900    73594929.26709  14004648.800    57346695.75348
  12541942.080    65908353.78109  12541939.720    51357146.88848
 15 03 03 04 05 30.0000000  0  9G01G03G04G11G14G19G22G27G32
  13986357.940    73498799.99109  13986357.180    57271804.02648
  15208263.860    79919977.45308  15208264.880    62275312.01847
  12482227.200    65594542.28509  12482224.480    51112621.95448
  12907598.840    67829887.35909  12907595.380    52854446.37048
  14707036.460    77286001.18308  14707033.980    60222850.65146
  12650621.780    66479466.34009  12650616.960    51802158.35849
  15057100.760    79125581.71806  15057095.180    61656287.82643
  13789000.040    72461682.01609  13788998.540    56463645.91448
  12305199.940    64664265.87909  12305197.500    50387727.75948
 15 03 03 04 06  0.0000000  0  9G01G03G04G11G14G19G22G27G32
  13745302.860    72232046.38609  13745302.100    56284723.30648
  14960278.180    78616804.64208  14960279.100    61259852.73247
  12248306.680    64365280.68409  12248303.540    50154755.79948
  12667358.460    66567416.06709  12667354.960    51870702.52048
  14474031.140    76061550.49808  14474028.760    59268733.22646
  12426005.640    65299100.47609  12426000.700    50882392.75449
  14843075.380    78000875.04605  14843070.840    60779893.01744
  13573419.060    71328796.83509  13573417.480    55580878.23548
  12068560.620    63420717.76509  12068558.280    49418729.25148
 15 03 03 04 06 30.0000000  0  9G01G03G04G11G14G19G22G27G32
  13504274.740    70965436.97908  13504274.440    55297754.92948
  14712338.360    77313871.53708  14712338.740    60244580.23646
  12014435.860    63136281.05309  12014432.660    49197093.76248
  12427170.380    65305219.98109  12427166.860    50887173.10148
  14241125.600    74837623.20108  14241122.940    58315023.67746
  12201477.820    64119198.23709  12201472.680    49962988.42349
  14629076.240    76876307.88704  14629073.280    59903606.92544
  13357906.880    70196273.15509  13357905.620    54698392.25148
  11832024.220    62177710.37309  11832022.020    48450152.07448
 15 03 03 04 07  0.0000000  0  9G01G03G04G11G14G19G22G27G32
  13263273.820    69698969.29809  13263273.600    54310897.02448
  14464444.180    76011176.76609  14464443.800    59229493.46547
  11780614.220    61907540.97509  11780611.320    48239633.96248
  12187034.480    64043297.26909  12187030.860    49903856.73348
  14008319.460    73614217.86108  14008316.700    57361720.83946
  11977037.800    62939757.32009  11977032.440    49043943.54849
  14415103.340    75751875.66206  14415101.080    59027425.91745
  13142462.640    69064106.99209  13142461.720    53816184.83648
  11595590.080    60935241.17209  11595588.100    47481994.24748
 15 03 03 04 07 30.0000000  0  9G01G03G04G11G14G19G22G27G32
  13022300.080    68432645.68108  13022300.340    53324151.34248
  14216596.020    74708723.70308  14216595.200    58214595.03147
  11546842.280    60679062.65509  11546839.620    47282378.13548
  11946951.600    62781651.84509  11946947.960    48920756.42748
  13775613.200    72391337.36308  13775610.560    56408826.97346
  11752685.820    61760779.39009  11752680.380    48125259.44649
  14201156.800    74627578.38006  14201154.600    58151350.12545
  12927086.340    67932298.92509  12927085.900    52934256.48848
  11359258.860    59693312.16009  11359256.880    46514257.36148
 15 03 03 04 08  0.0000000  0  9G01G03G04G11G14G19G22G27G32
  12781354.140    67166466.18109  12781354.660    52337517.97848
  13968793.960    73406513.56408  13968793.040    57199885.85747
  11313120.220    59450846.38709  11313117.820    46325326.50448
  11706921.540    61520284.73109  11706917.860    47937872.94948
  13543007.000    71168982.57008  13543004.280    55456342.75347
  11528421.860    60582264.26309  11528416.380    47206935.96749
  13987235.880    73503414.07206  13987233.400    57275377.89245
  12711778.300    66800847.52709  12711777.900    52052606.03748
  11123030.540    58451923.24309  11123028.340    45546941.34448
 15 03 03 04 08 30.0000000  0  9G01G03G04G11G14G19G22G27G32
  12540435.440    65900428.60409  12540435.680    51350995.21748
  13721037.680    72104545.13108  13721036.960    56185365.03947
  11079447.500    58222889.66909  11079445.440    45368477.11348
  11466944.160    60259194.32809  11466940.320    46955205.14848
  13310500.520    69947151.86408  13310497.680    54504266.89946
  11304245.520    59404209.50009  11304239.940    46288971.20049
  13773339.240    72379378.38606  13773336.680    56399505.91945
  12496537.700    65669748.90309  12496536.800    51171230.44648
  10886904.620    57211072.13609  10886902.020    44580044.40048
 15 03 03 04 09  0.0000000  0  9G01G03G04G11G14G19G22G27G32
  12299544.380    64634536.79309  12299543.860    50364586.04947
  13473328.080    70802823.25408  13473327.800    55171036.34047
  10845824.980    56995196.56609  10845823.080    44411833.14548
  11227020.100    58998385.85808  11227016.660    45972756.97148
  13078094.440    68725849.57108  13078091.600    53552602.75046
  11080157.460    58226618.32409  11080151.780    45371367.67649
  13559467.620    71255473.08907  13559464.440    55523735.50844
  12281364.500    64539005.15109  12281363.500    50290131.41148
  10650881.500    55970762.18509  10650878.840    43613569.13048
 15 03 03 04 09 30.0000000  0  9G01G03G04G11G14G19G22G27G32
  12058680.800    63368790.20609  12058680.100    49378290.02748
  13225665.240    69501348.44008  13225665.800    54156900.16248
  10612252.640    55767766.29709  10612250.700    43455393.99348
  10987149.760    57737859.33809  10987146.240    44990528.49648
  12845788.760    67505076.00508  12845786.020    52601350.62547
  10856157.500    57049490.02209  10856151.780    44454124.83349
  13345620.620    70131695.50408  13345616.100    54648064.61644
  12066258.240    63408614.07009  12066257.600    49409307.19049
  10414961.180    54730992.78509  10414958.700    42647515.05048
 15 03 03 04 10  0.0000000  0  9G01G03G04G11G14G19G22G27G32
  11817844.460    62103187.80809  11817844.140    48392106.35748
  12978049.340    68200120.71908  12978050.660    53142956.49247
  10378730.280    54540597.79509  10378728.320    42499158.80948
  10747333.420    56477614.94909  10747329.500    44008519.91348
  12613583.540    66284830.55208  12613581.020    51650510.00447
  10632245.240    55872823.26709  10632239.440    43537241.63349
  13131797.120    69008042.03308  13131791.540    53772490.44344
  11851218.560    62278572.97209  11851218.040    48528755.67548
  10179143.480    53491762.52609  10179141.100    41681881.08648
 15 03 03 04 10 30.0000000  0  9G01G03G04G11G14G19G22G27G32
  11577035.500    60837729.57508  11577035.560    47406035.01948
  12730480.980    66899140.94208  12730482.540    52129206.02747
  10145257.640    53313690.98509  10145255.760    41543127.52048
  10507570.800    55217654.18409  10507567.220    43026732.28248
  12381479.380    65065114.04408  12381476.500    50700081.57747
  10408420.580    54696617.43109  10408414.920    42620717.58649
  12917996.620    67884510.73808  12917990.620    52897011.50244
  11636244.980    61148880.04609  11636244.480    47648475.44848
   9943428.440    52253071.11509   9943425.960    40716667.01248
 15 03 03 04 11  0.0000000  0  9G01G03G04G11G14G19G22G27G32
  11336253.740    59572414.28909  11336254.600    46420075.04348
  12482959.980    65598408.91408  12482961.080    51115648.66246
   9911834.600    52087044.57009   9911832.820    40587299.15148
  10267862.200    53957976.08209  10267858.520    42045164.94448
  12149475.700    63845925.53408  12149472.400    49750064.56046
  10184683.300    53520870.51209  10184677.840    41704551.15449
  12704218.640    66761098.36508  12704212.220    52021625.28944
  11421336.880    60019532.36609  11421336.840    46768464.25248
   9707815.520    51014916.76409   9707812.940    39751871.42848
 15 03 03 04 11 30.0000000  0  9G01G03G04G11G14G19G22G27G32
  11095500.140    58307244.52509  11095501.080    45434228.50148
  12235486.880    64297928.28908  12235486.840    50102287.17746
   9678461.780    50860661.38009   9678459.960    39631675.88448
  10028208.040    52698584.71409  10028204.180    41063821.03348
  11917572.900    62627268.12808  11917569.420    48800461.39147
   9961033.880    52345584.85609   9961028.480    40788744.14549
  12490462.960    65637805.27407  12490456.660    51146332.02444
  11206494.620    58890530.82609  11206495.140    45888722.80148
   9472305.140    49777301.93909   9472302.580    38787496.24248
 15 03 03 04 12  0.0000000  0  9G01G03G04G11G14G19G22G27G32
  10854774.140    57042220.27409  10854774.380    44448495.33848
  11988061.800    62997699.90908  11988060.940    49089122.25046
   9445138.940    49634541.03709   9445137.040    38676257.43448
   9788608.580    51439480.92209   9788604.760    40082701.19948
  11685771.200    61409142.37009  11685767.840    47851272.49647
   9737472.300    51170760.46409   9737467.020    39873296.56149
  12276729.300    64514629.20407  12276724.040    50271129.91444
  10991718.120    57761873.56009  10991718.960    45009249.59648
   9236897.380    48540226.11609   9236894.920    37823541.06348
 15 03 03 04 12 30.0000000  0  9G01G03G04G11G14G19G22G27G32
  10614075.880    55777342.79809  10614076.040    43462876.52848
  11740685.080    61697725.97708  11740683.900    48076155.59747
   9211866.320    48408684.61409   9211864.220    37721044.62948
   9549064.300    50180666.70409   9549060.460    39101807.01348
  11454071.080    60191549.91109  11454067.840    46902499.17447
   9513998.540    49996397.62609   9513993.380    38958208.62349
  12063017.500    63391569.36306  12063013.060    49396018.35443
  10777007.240    56633560.08909  10777008.320    44130044.29848
   9001592.480    47303690.08709   9001590.100    36860006.51648
 15 03 03 04 13  0.0000000  0  9G01G03G04G11G14G19G22G27G32
  10373405.780    54512612.65809  10373405.980    42477372.52748
  11493356.820    60398008.03108  11493355.680    47063388.40147
   8978644.220    47183093.05309   8978641.860    36766038.23648
   9309575.280    48922143.71909   9309571.260    38121139.76148
  11222472.640    58974491.69209  11222469.420    45954142.16147
   9290612.500    48822496.37009   9290607.500    38043480.37049
  11849327.400    62268624.27606  11849323.760    48520996.20244
  10562361.680    55505589.18109  10562362.580    43251105.93248
   8766390.160    46067693.94209   8766388.020    35896892.65148
 15 03 03 04 13 30.0000000  0  9G01G03G04G11G14G19G22G27G32
  10132763.280    53248028.06409  10132763.600    41491981.93248
  11246076.980    59098545.18108  11246076.320    46050819.97147
   8745472.200    45957764.18809   8745469.560    35811236.54248
   9070141.460    47663911.01009   9070137.400    37140698.69948
  10990975.560    57757966.56509  10990972.460    45006200.51447
   9067313.860    47649054.21009   9067308.940    37129109.85549
  11635658.900    61145790.12206  11635655.300    47646060.44944
  10347780.780    54377957.27209  10347780.820    42372431.68748
   8531290.080    44832235.58609   8531288.100    34934197.82048
 15 03 03 04 14  0.0000000  0  9G01G03G04G11G14G19G22G27G32
   9892148.680    51983589.47309   9892148.960    40506705.10248
  10998845.980    57799338.78608  10998846.100    45038451.36847
   8512350.160    44732698.49109   8512347.280    34856639.89548
   8830763.120    46405970.45209   8830759.340    36160485.27548
  10759580.040    56541975.32809  10759577.060    44058674.89447
   8844102.680    46476071.17209   8844097.720    36215097.08849
  11422011.320    60023064.99006  11422007.120    46771209.61043
  10133264.200    53250662.92009  10133263.480    41494020.45848
   8296292.440    43597314.71109   8296290.360    33971921.83848
 15 03 03 04 14 30.0000000  0  9G01G03G04G11G14G19G22G27G32
   9651562.340    50719298.08809   9651561.920    39521543.00747
  10751664.360    56500390.91909  10751664.860    44026284.24246
   8279278.340    43507897.11409   8279275.400    33902249.21348
   8591440.880    45148323.87309   8591437.260    35180500.94647
  10528286.320    55326519.39909  10528283.540    43111566.38946
   8620979.000    45303547.97309   8620973.900    35301442.63748
  11208384.340    58900447.95606  11208379.780    45896443.03944
   9918811.440    52123705.46609   9918810.780    40615871.80548
   8061397.380    42362932.13509   8061395.180    33010065.29448
 15 03 03 04 15  0.0000000  0  9G01G03G04G11G14G19G22G27G32
   9411004.300    49455156.07309   9411003.600    38536497.29748
  10504532.620    55201704.71508  10504533.080    43014320.99147
   8046257.260    42283362.06409   8046254.100    32948066.07548
   8352175.180    43890974.52209   8352171.680    34200748.19748
  10297094.960    54111601.44508  10297092.500    42164877.07547
   8397943.100    44131486.28909   8397937.920    34388147.81049
  10994778.100    57777939.26306  10994773.620    45021760.89344
   9704422.700    50997085.28309   9704422.160    39737985.95948
   7826605.060    41129089.55109   7826602.700    32048629.51248
 15 03 03 04 15 30.0000000  0  9G01G03G04G11G14G19G22G27G32
   9170474.660    48191163.91309   9170474.020    37551568.34748
  10257450.960    53903281.47408  10257451.620    42002562.63347
   7813286.800    41059093.93209   7813283.520    31994090.92248
   8112966.260    42633923.93309   8112963.020    33221228.25548
  10066006.140    52897221.89109  10066003.820    41218607.30547
   8174994.940    42959885.75309   8174989.620    33475212.31849
  10781192.380    56655536.91806  10781187.640    44147161.64344
   9490097.960    49870800.97809   9490097.180    38860361.79248
   7591915.460    39895786.67509   7591912.940    31087614.29248
 15 03 03 04 16  0.0000000  0 10G01G03G04G11G14G19G22G27G28G32
   8929973.700    46927322.92009   8929972.760    36566757.22448
  10010419.900    52605123.32209  10010420.580    40991010.85347
   7580367.200    39835093.92609   7580364.080    31040324.68948
   7873814.800    41377174.27609   7873811.540    32241942.82348
   9835020.140    51683382.57608   9835017.980    40272758.49447
   7952134.640    41788746.91209   7952129.180    32562636.59349
  10567626.740    55533240.32806  10567621.900    43272644.84144
   9275837.080    48744851.93909   9275836.040    37982998.87048
  11503942.860    60453627.61804  11503943.760    47106715.27742
   7357328.660    38663024.30009   7357325.900    30127020.25848
 15 03 03 04 16 30.0000000  0 10G01G03G04G11G14G19G22G27G28G32
   8689501.360    45663632.82509   8689500.780    35582063.65048
   9763439.380    51307230.83908   9763439.800    39979666.10647
   7347498.620    38611361.66009   7347495.640    30086767.10748
   7634720.780    40120726.14009   7634717.400    31262892.33748
   9604136.940    50470083.38609   9604134.740    39327330.55647
   7729362.040    40618069.09209   7729356.540    31650420.10849
  10354080.220    54411047.06306  10354076.160    42398208.59244
   9061639.540    47619236.02209   9061638.420    37105895.52948
  11264711.060    59196458.85405  11264710.520    46127103.14842
   7122844.460    37430801.54109   7122841.540    29166846.70248
 15 03 03 04 17  0.0000000  0 10G01G03G04G11G14G19G22G27G28G32
   8449057.500    44400092.58209   8449057.640    34597486.83548
   9516509.240    50009603.87208   9516509.360    38968528.23247
   7114680.720    37387895.88409   7114677.960    29133417.14248
   7395683.980    38864579.60909   7395680.640    30284076.85748
   9373356.340    49257323.33708   9373353.960    38382322.74446
   7506676.840    39447850.37009   7506671.420    30738561.35849
  10140553.000    53288954.01407  10140549.040    41523850.35543
   8847504.720    46493950.24209   8847504.020    36229049.48548
  11025565.380    57939740.83505  11025564.860    45147842.33244
   6888462.580    36199116.72209   6888459.760    28207092.30548
 15 03 03 04 17 30.0000000  0 10G01G03G04G11G14G19G22G27G28G32
   8208641.720    43136699.94309   8208641.880    33613025.04348
   9269629.180    48712240.89208   9269629.040    37957596.07947
   6881913.040    36164694.46809   6881910.600    28180273.16948
   7156704.200    37608733.27709   7156700.920    29305495.30348
   9142678.000    48045100.62809   9142675.460    37437733.63947
   7284078.460    38278087.77309   7284073.120    29827058.03149
   9927044.640    52166956.79608   9927039.640    40649566.79744
   8633432.220    45368990.42209   8633431.660    35352457.40348
  10786505.120    56683471.83506  10786504.560    44168931.45843
   6654182.540    34967966.80209   6654179.740    27247754.71848
 15 03 03 04 18  0.0000000  0 10G01G03G04G11G14G19G22G27G28G32
   7968254.420    41873455.86909   7968254.200    32628679.03748
   9022799.560    47415143.72908   9022799.720    36946871.05847
   6649195.920    34941758.24009   6649193.520    27227335.85248
   6917782.040    36353189.06709   6917778.740    28327149.19548
   8912102.240    46833416.47908   8912099.620    36493564.19847
   7061566.900    37108781.64909   7061561.560    28915910.39349
   9713554.340    51045054.32408   9713548.560    39775357.04344
   8419421.700    44244355.62209   8419420.800    34476118.58248
  10547530.820    55427653.68107  10547529.840    43190371.86144
   6420004.260    33737352.08609   6420001.620    26288834.16748
 15 03 03 04 18 30.0000000  0 10G01G03G04G11G14G19G22G27G28G32
   7727895.360    40610361.10609   7727895.240    31644449.34448
   8776020.720    46118313.89108   8776021.580    35936354.29747
   6416529.300    33719087.56409   6416526.920    26274605.46448
   6678917.760    35097948.72209   6678914.380    27349039.81648
   8681628.980    45622271.19708   8681626.340    35549814.62846
   6839142.080    35939931.71909   6839136.780    28005118.23849
   9500081.600    49923245.20208   9500075.380    38901220.03443
   8205472.620    43120044.53609   8205471.460    33600031.99148
  10308642.760    54172288.26807  10308641.340    42212165.02844
   6185927.760    32507272.52009   6185925.460    25330330.60848
 15 03 03 04 19  0.0000000  0 10G01G03G04G11G14G19G22G27G28G32
   7487564.580    39347414.61709   7487564.560    30660335.19948
   8529292.700    44821751.10008   8529294.100    34926045.67347
   6183913.100    32496681.85809   6183910.820    25322081.52748
   6440111.260    33843011.93909   6440107.640    26371167.01348
   8451258.180    44411664.46208   8451255.400    34606484.72347
   6616803.780    34771536.29809   6616798.540    27094680.25649
   9286625.900    48801526.18508   9286619.480    38027153.25444
   7991584.180    41996054.18809   7991583.220    32724195.35448
  10069840.880    52917375.39108  10069838.600    41234310.82345
   5951952.720    31277726.43209   5951950.740    24372242.76048
 15 03 03 04 19 30.0000000  0 10G01G03G04G11G14G19G22G27G28G32
   7247262.080    38084617.32609   7247261.860    29676337.32248
   8282615.960    43525457.07008   8282617.640    33915946.44047
   5951347.560    31274541.58609   5951345.300    24369764.44448
   6201363.060    32588380.67409   6201359.060    25393532.28148
   8220990.040    43201596.95908   8220987.160    33663575.00047
   6394552.080    33603595.86309   6394546.800    26184596.79448
   9073186.980    47679896.21608   9073180.100    37153155.85844
   7777756.400    40872383.48009   7777756.100    31848607.79548
   9831125.320    51662916.78008   9831122.320    40256810.60645
   5718079.340    30048713.89309   5718077.380    23414570.66848
 15 03 03 04 20  0.0000000  0 10G01G03G04G11G14G19G22G27G28G32
   7006988.620    36821971.17709   7006988.140    28692457.24548
   8035991.120    42229434.46008   8035992.680    32906058.71847
   5718833.000    30052668.61209   5718830.600    23417655.64148
   5962673.600    31334057.91109   5962669.380    24416137.91248
   7990824.760    41992070.58708   7990821.900    32721086.92946
   6172387.120    32436111.07609   6172381.760    25274868.37649
   8859764.800    46558354.93208   8859757.700    36279227.53044
   7563989.720    39749032.42809   7563989.820    30973269.29948
   9592496.680    50408915.09708   9592493.380    39279666.43845
   5484307.860    28820236.06609   5484305.660    22457315.23148
 15 03 03 04 20 30.0000000  0 10G01G03G04G11G14G19G22G27G28G32
   6766744.380    35559477.56409   6766744.140    27708696.01148
   7789418.480    40933685.39808   7789419.580    31896384.16747
   5486369.380    28831064.36109   5486366.780    22465756.21748
   5724043.380    30080046.09809   5724038.900    23438985.87148
   7760762.800    40783086.78308   7760759.800    31779021.65646
   5950309.040    31269082.63409   5950303.600    24365495.54249
   8646359.260    45436901.66007   8646352.400    35405367.80544
   7350283.960    38626000.35709   7350283.880    30098179.35148
   9353955.480    49155372.71108   9353952.140    38302880.17245
   5250638.320    27592293.48909   5250635.960    21500476.88048
 15 03 03 04 21  0.0000000  0 10G01G03G04G11G14G19G22G27G28G32
   6526528.840    34297135.29409   6526528.780    26725052.69948
   7542897.640    39638209.45608   7542898.480    30886922.42947
   5253956.600    27609727.37209   5253953.880    21514065.06648
   5485471.980    28826344.58309   5485467.360    22462075.63048
   7530804.000    39574644.40808   7530801.040    30837378.26946
   5728317.340    30102508.70809   5728312.000    23456476.89448
   8432969.920    44315533.27507   8432963.500    34531574.23244
   7136638.280    37503284.02209   7136637.880    29223335.42748
   9115501.660    47902289.02208   9115498.260    37326451.34445
   5017070.220    26364884.07009   5017067.880    20544053.96148
 15 03 03 04 21 30.0000000  0 10G01G03G04G11G14G19G22G27G28G32
   6286343.160    33034949.69409   6286342.520    25741531.48848
   7296429.740    38343012.64008   7296430.440    29877678.16447
   5021595.820    26388662.97909   5021593.140    20562586.32148
   5246960.640    27572959.87509   5246956.400    21485412.19448
   7300949.240    38366748.65608   7300946.380    29896160.79846
   5506412.740    28936393.50209   5506407.760    22547815.69048
   8219597.400    43194252.91507   8219591.140    33657849.26744
   6923053.120    36380886.65109   6923052.720    28348740.06748
   8877136.200    46649670.25208   8877132.840    36350384.77144
   4783604.220    25138012.26609   4783601.900    19588049.96148
 15 03 03 04 22  0.0000000  0 10G01G03G04G11G14G19G22G27G28G32
   6046186.720    31772919.42009   6046186.020    24758131.27648
   7050014.900    37048094.22108   7050015.600    28868650.84947
   4789286.580    25167869.67009   4789284.100    19611318.81248
   5008509.480    26319891.00809   5008505.480    20508994.91448
   7071197.940    37159398.11907   7071195.260    28955368.15545
   5284594.940    27770734.74509   5284590.360    21639510.17249
   8006240.740    42073057.06607   8006234.860    32784190.18144
   6709528.000    35258804.84309   6709527.720    27474390.59548
   8638859.060    45397515.54008   8638856.000    35374679.77845
   4550239.960    23911675.88509   4550237.520    18632463.18348
 15 03 03 04 22 30.0000000  0 10G01G03G04G11G14G19G22G27G28G32
   5806059.820    30511045.83009   5806059.820    23774853.13448
   6803653.480    35753456.24708   6803654.720    27859842.06647
   4557029.120    23947348.67909   4557026.660    18660263.48848
   4770119.020    25067140.82409   4770115.000    19532825.95848
   6841550.640    35952594.20607   6841547.980    28015001.46646
   5062864.260    26605532.87509   5062859.780    20731560.65849
   7792899.700    40951945.03507   7792893.820    31910596.37443
   6496063.020    34137037.93709   6496062.780    26600286.48848
   8400670.860    44145827.24108   8400668.340    34399338.23345
   4316977.680    22685875.29209   4316975.080    17677293.91648
 15 03 03 04 23  0.0000000  0 10G01G03G04G11G14G19G22G27G28G32
   5565961.880    29249325.43808   5565962.360    22791694.37948
   6557344.940    34459095.94708   6557346.560    26851249.64548
   4324822.840    22727096.51609   4324820.400    17709417.66748
   4531788.760    23814706.53909   4531784.880    18556903.13948
   6612006.660    34746333.11107   6612004.440    27075057.77845
   4841220.000    25440783.48609   4841215.360    19823963.71449
   7579573.720    39830911.11507   7579567.360    31037063.43943
   6282656.760    33015580.26409   6282656.560    25726423.36748
   8162571.040    42894602.32408   8162568.820    33424357.80445
   4083816.680    21460606.01509   4083814.020    16722538.64948
 15 03 03 04 23 30.0000000  0 10G01G03G04G11G14G19G22G27G28G32
   5325892.680    27987754.86409   5325892.940    21808652.38348
   6311088.820    33165010.58408   6311090.060    25842871.47147
   4092667.040    21507109.68109   4092664.820    16758778.58548
   4293518.220    22562585.83009   4293514.440    17581224.66048
   6382565.320    33540611.48607   6382563.700    26135534.43845
   4619661.160    24276482.32909   4619656.320    18916716.05349
   7366261.640    38709950.11607   7366255.420    30163587.30744
   6069308.140    31894426.40309   6069307.840    24852796.97748
   7924558.960    41643838.08208   7924556.460    32449736.36444
   3850756.020    20235863.77509   3850753.420    15768194.06148
 15 03 03 04 24  0.0000000  0 10G01G03G04G11G14G19G22G27G28G32
   5085852.740    26726336.17909   5085852.820    20825728.74548
   6064885.660    31871202.84609   6064886.440    24834709.61547
   3860562.120    20287390.12309   3860560.140    15808347.75948
   4055307.720    21310781.66409   4055303.920    16605792.84848
   6153226.900    32335430.90008   6153225.520    25196432.69745
   4398187.680    23112630.35109   4398182.760    18009818.39949
   7152963.480    37589061.99507   7152957.880    29290167.96744
   5856017.400    30773576.30409   5856016.860    23979407.26548
   7686634.940    40393537.23908   7686631.540    31475475.94844
   3617795.880    19011649.57209   3617793.320    14814260.92848
 15 03 03 04 24 30.0000000  0 10G01G03G04G11G14G19G22G27G28G32
   4845843.800    25465079.50209   4845843.640    19842931.36048
   5818737.340    30577683.48008   5818738.060    23826772.45547
   3628510.020    19067947.74409   3628508.080    14858132.91448
   3817159.540    20059304.86009   3817155.820    15630616.12848
   5923993.580    31130801.26008   5923991.820    24257760.27145
   4176801.340    21949236.62809   4176796.380    17103277.82149
   6939680.920    36468254.46707   6939675.680    28416811.46645
   5642786.140    29653037.93409   5642785.500    23106260.47748
   7448801.140    39143710.62308   7448796.700    30501585.03444
   3384938.020    17787972.47809   3384935.340    13860746.32648
 15 03 03 04 25  0.0000000  0 10G01G03G04G11G14G19G22G27G28G32
   4605864.240    24203977.32509   4605863.860    18860254.38348
   5572642.480    29284445.57608   5572642.920    22819054.64347
   3396509.280    17848774.82809   3396507.020    13908128.06748
   3579072.320    18808148.79109   3579069.020    14655689.31548
   5694863.940    29926715.30708   5694861.920    23319511.50745
   3955500.580    20786292.70109   3955495.500    16197087.73749
   6726411.880    35347518.22607   6726406.380    27543510.47944
   5429612.240    28532801.59409   5429611.580    22233349.04748
   7211056.380    37894351.33608   7211051.480    29528058.32745
   3152180.760    16564823.97009   3152178.060    12907643.60348
 15 03 03 04 25 30.0000000  0 10G01G03G04G11G14G19G22G27G28G32
   4365914.060    22943030.97609   4365914.100    17877698.78048
   5326601.220    27991490.95808   5326601.300    21811557.56547
   3164559.980    16629872.76709   3164557.500    12958334.26548
   3341046.480    17557315.55009   3341043.600    13681014.06648
   5465837.700    28723173.67008   5465835.740    22381686.86945
   3734285.420    19623798.94009   3734280.260    15291248.43048
   6513156.040    34226852.54707   6513150.780    26670264.46144
   5216495.560    27412866.37809   5216494.920    21360672.23948
   6973400.700    36645461.02808   6973395.700    28554897.05544
   2919524.020    15342204.24409   2919521.460    11954952.90948
 15 03 03 04 26  0.0000000  0 10G01G03G04G11G14G19G22G27G28G32
   4125994.380    21682245.01509   4125994.720    16895268.17348
   5080614.820    26698824.94709   5080614.780    20804285.36047
   2932663.060    15411245.94409   2932660.460    12008754.91848
   3103083.200    16306810.73809   3103080.440    12706594.73248
   5236915.740    27520180.68708   5236913.800    21444289.76645
   3513156.500    18461758.73509   3513151.340    14385762.54349
   6299914.240    33106259.83407   6299909.160    25797075.32445
   5003436.620    26293234.82709   5003436.000    20488232.05648
   6735834.800    35397044.93008   6735829.900    27582105.26344
   2686968.400    14120116.80409   2686966.000    11002676.98448
