     2.11           OBSERVATION DATA    G                   RINEX VERSION / TYPE
SPIDER V4,0,0,3554                      2015 03 16 00:52    PGM / RUN BY / DATE 
OLHC                                                        MARKER NAME         
OLHC                                                        MARKER NUMBER       
                                                            OBSERVER / AGENCY   
496563              LEICA GRX1200+GNSS  8.20/4.007          REC # / TYPE / VERS 
10401012            LEIAR25         NONE                    ANT # / TYPE        
  5213038.6056  -137570.4416  3660672.8464                  APPROX POSITION XYZ 
        0.0750        0.0000        0.0000                  ANTENNA: DELTA H/E/N
     1     1                                                WAVELENGTH FACT L1/2
     4    C1    L1    P2    L2                              # / TYPES OF OBSERV 
    30.000                                                  INTERVAL            
  2015    03    03    00    00    0.0000000     GPS         TIME OF FIRST OBS   
  2015    03    03    23    59   30.0000000     GPS         TIME OF LAST OBS    
    16                                                      LEAP SECONDS        
    30                                                      # OF SATELLITES     
   G 1   842   842   842   842                              PRN / # OF OBS      
   G 2   915   915   914   914                              PRN / # OF OBS      
   G 3   833   833   833   833                              PRN / # OF OBS      
   G 4   847   847   847   847                              PRN / # OF OBS      
   G 5   685   685   685   685                              PRN / # OF OBS      
   G 6   648   648   647   647                              PRN / # OF OBS      
   G 7   778   778   778   778                              PRN / # OF OBS      
   G 9   771   771   771   771                              PRN / # OF OBS      
   G10   796   795   795   795                              PRN / # OF OBS      
   G11   807   807   807   807                              PRN / # OF OBS      
   G12   802   802   802   802                              PRN / # OF OBS      
   G13   832   832   832   832                              PRN / # OF OBS      
   G14   920   918   916   916                              PRN / # OF OBS      
   G15   746   746   746   746                              PRN / # OF OBS      
   G16   705   705   705   705                              PRN / # OF OBS      
   G17   921   921   921   921                              PRN / # OF OBS      
   G18   947   940   940   937                              PRN / # OF OBS      
   G19   803   803   803   803                              PRN / # OF OBS      
   G20   807   807   807   807                              PRN / # OF OBS      
   G21   687   687   687   687                              PRN / # OF OBS      
   G22   839   839   838   838                              PRN / # OF OBS      
   G23   715   715   715   715                              PRN / # OF OBS      
   G24   848   848   848   848                              PRN / # OF OBS      
   G25   841   840   840   840                              PRN / # OF OBS      
   G27   842   842   842   842                              PRN / # OF OBS      
   G28   923   923   923   923                              PRN / # OF OBS      
   G29   716   716   716   716                              PRN / # OF OBS      
   G30   682   682   681   681                              PRN / # OF OBS      
   G31   722   721   721   721                              PRN / # OF OBS      
   G32   727   727   727   727                              PRN / # OF OBS      
BIT 2 OF LLI FLAGS DATA COLLECTED UNDER A/S CONDITION       COMMENT             
SNR is mapped to RINEX snr flag value [2-9]                 COMMENT             
Lx:     = 25dBHz -> 1; 26-27dBHz -> 2; 28-31dBHz -> 3       COMMENT             
       32-35dBHz -> 4; 36-38dBHz -> 5; 39-41dBHz -> 6       COMMENT             
       42-44dBHz -> 7; 45-48dBHz -> 8; >=49dBHz -> 9        COMMENT             
                                                            END OF HEADER       
 15 03 03 00 00  0.0000000  0  7G16G18G19G21G22G27G31
  21177615.020   111289146.21309  21177611.160    86718813.84748
  22674697.560   119156580.20109  22674694.160    92849323.72246
  24312037.480   127760627.14008  24312034.720    99553728.11446
  21736400.140   114225570.77608  21736396.480    89006929.65447
  23600827.760   124023257.33908  23600830.600    96641519.11846
  22160522.620   116454408.31609  22160521.880    90743730.50148
  23192944.520   121879701.78908  23192943.800    94971172.10946
 15 03 03 00 00 30.0000000  0  7G16G18G19G21G22G27G31
  21166674.600   111231654.22509  21166670.820    86674014.90648
  22665124.060   119106271.36009  22665120.760    92810122.06346
  24297164.980   127682470.95808  24297162.160    99492827.28746
  21746229.040   114277222.06308  21746225.380    89047177.42447
  23583959.780   123934617.81608  23583962.380    96572450.09746
  22150152.480   116399912.68909  22150151.800    90701266.39848
  23211377.180   121976566.66208  23211376.900    95046651.05347
 15 03 03 00 01  0.0000000  0  7G16G18G19G21G22G27G31
  21155791.860   111174465.55109  21155788.240    86629452.30848
  22655612.960   119056290.32109  22655609.720    92771175.83846
  24282312.340   127604419.03508  24282309.320    99432007.66046
  21756113.400   114329164.70408  21756109.720    89087652.19947
  23567102.340   123846033.66208  23567104.660    96503424.18346
  22139808.360   116345554.04809  22139807.680    90658909.03648
  23229834.000   122073557.49308  23229833.860    95122228.13247
 15 03 03 00 01 30.0000000  0  7G16G18G19G21G22G27G31
  21144968.520   111117589.04009  21144965.020    86585132.96248
  22646165.960   119006646.16209  22646162.800    92732492.11247
  24267480.700   127526478.02808  24267477.640    99371274.48446
  21766054.080   114381403.00409  21766050.340    89128357.36648
  23550257.220   123757514.33408  23550259.440    96434448.77246
  22129491.540   116291339.01909  22129490.840    90616663.57748
  23248315.720   122170678.12909  23248315.460    95197906.36347
 15 03 03 00 02  0.0000000  0  7G16G18G19G21G22G27G31
  21134204.640   111061024.80009  21134201.180    86541056.94348
  22636783.080   118957339.26709  22636780.020    92694071.19846
  24252669.760   127448646.14408  24252666.660    99310626.32246
  21776050.420   114433933.97008  21776046.700    89169290.58648
  23533424.600   123669060.58908  23533426.680    96365524.44946
  22119201.700   116237265.55009  22119200.980    90574528.42348
  23266821.220   122267923.56408  23266820.700    95273681.84247
 15 03 03 00 02 30.0000000  0  7G16G18G19G21G22G27G31
  21123500.340   111004773.30809  21123496.880    86497224.62048
  22627464.300   118908369.45209  22627461.360    92655912.93346
  24237879.260   127370921.58708  24237876.060    99250061.79646
  21786101.680   114486753.74308  21786098.000    89210448.84948
  23516604.620   123580673.36808  23516606.460    96296651.92446
  22108938.400   116183331.78609  22108937.800    90532502.13448
  23285349.520   122365288.87208  23285348.780    95349550.71746
 15 03 03 00 03  0.0000000  0  7G16G18G19G21G22G27G31
  21112855.880   110948836.37209  21112852.400    86453637.40548
  22618210.220   118859739.55609  22618207.380    92618019.54546
  24223109.200   127293304.60307  24223105.900    99189581.09245
  21796207.600   114539860.75009  21796203.940    89251830.93247
  23499797.880   123492355.66208  23499799.340    96227833.54946
  22098701.720   116129537.96409  22098701.160    90490584.88848
  23303900.120   122462771.75908  23303899.240    95425511.20347
 15 03 03 00 03 30.0000000  0  7G16G18G19G21G22G27G31
  21102272.100   110893218.17509  21102268.620    86410298.55248
  22609021.620   118811453.77609  22609018.900    92580394.30047
  24208359.860   127215797.11507  24208356.620    99129185.72345
  21806368.060   114593254.17309  21806364.340    89293436.19748
  23483005.220   123404112.13708  23483006.380    96159072.97546
  22088492.060   116075885.92209  22088491.440    90448778.11948
  23322472.900   122560371.34908  23322472.080    95501562.61547
 15 03 03 00 04  0.0000000  0  7G16G18G19G21G22G27G31
  21091749.180   110837919.73909  21091745.700    86367208.86647
  22599898.660   118763512.85209  22599896.060    92543037.76746
  24193631.080   127138397.76808  24193627.840    99068874.59945
  21816582.560   114646931.60909  21816578.820    89335262.77047
  23466226.960   123315944.27908  23466227.880    96090371.33646
  22078309.140   116022374.35909  22078308.520    90407080.81147
  23341067.060   122658083.13108  23341066.320    95577701.44546
 15 03 03 00 04 30.0000000  0  7G16G18G19G21G22G27G31
  21081286.940   110782940.45509  21081283.440    86324367.86948
  22590841.280   118715916.38009  22590838.780    92505949.64247
  24178922.540   127061104.33608  24178919.340    99008646.00845
  21826850.260   114700888.52909  21826846.500    89377307.12248
  23449463.180   123227852.27308  23449463.760    96021728.77146
  22068152.340   115969000.57909  22068151.840    90365490.87248
  23359681.520   122755901.76209  23359680.900    95653923.53347
 15 03 03 00 05  0.0000000  0  7G16G18G19G21G22G27G31
  21070885.720   110728281.97409  21070882.220    86281776.85348
  22581849.900   118668666.38009  22581847.360    92469131.50346
  24164234.040   126983916.19508  24164230.840    98948499.47045
  21837170.720   114755122.37409  21837166.860    89419567.25848
  23432714.340   123139838.39208  23432714.560    95953147.08546
  22058021.700   115915764.19309  22058021.300    90324007.99848
  23378315.660   122853823.93808  23378315.180    95730226.31946
 15 03 03 00 05 30.0000000  0  7G16G18G19G21G22G27G31
  21060546.540   110673949.36609  21060543.040    86239439.75648
  22572925.440   118621767.84209  22572922.820    92432587.21647
  24149566.300   126906836.80808  24149563.040    98888437.69046
  21847544.320   114809635.37209  21847540.340    89462044.91748
  23415981.480   123051908.54808  23415981.460    95884630.84246
  22047917.840   115862668.30509  22047917.460    90282634.59348
  23396969.520   122951850.06108  23396969.220    95806610.08647
 15 03 03 00 06  0.0000000  0  7G16G18G19G21G22G27G31
  21050270.120   110619946.24609  21050266.580    86197359.39548
  22564068.500   118575223.82709  22564065.800    92396319.18646
  24134919.500   126829867.16608  24134916.260    98828461.41745
  21857970.760   114864426.11109  21857966.720    89504738.99547
  23399265.260   122964066.61308  23399265.120    95816183.08846
  22037841.000   115809714.15109  22037840.500    90241371.62847
  23415642.740   123049978.45808  23415642.700    95883073.53046
 15 03 03 00 06 30.0000000  0  7G16G18G19G21G22G27G31
  21040055.880   110566270.01409  21040052.380    86155533.76148
  22555278.700   118529032.40709  22555275.860    92360325.92547
  24120292.680   126753002.54208  24120289.440    98768566.98346
  21868448.740   114919487.77909  21868444.600    89547644.19948
  23382565.380   122876311.00708  23382565.300    95747802.60047
  22027790.260   115756896.99309  22027789.580    90200215.41948
  23434334.020   123148201.42708  23434334.200    95959610.67947
 15 03 03 00 07  0.0000000  0  7G16G18G19G21G22G27G31
  21029905.960   110512931.95009  21029902.560    86113971.64048
  22546558.100   118483204.53609  22546555.040    92324615.93647
  24105687.540   126676252.25308  24105684.400    98708761.64046
  21878979.900   114974828.84109  21878975.620    89590767.11148
  23365884.280   122788653.47908  23365884.060    95679498.51046
  22017767.340   115704225.94309  22017766.560    90159173.06348
  23453044.620   123246525.27609  23453044.940    96036226.42847
 15 03 03 00 07 30.0000000  0  7G16G18G19G21G22G27G31
  21019819.380   110459926.57209  21019816.000    86072668.73848
  22537905.680   118437734.74209  22537902.400    92289184.95946
  24091102.720   126599609.31008  24091099.640    98649039.91846
  21889562.360   115030439.68909  21889558.000    89634100.22947
  23349221.120   122701089.60908  23349220.660    95611267.37746
  22007770.900   115651694.03409  22007770.140    90118239.12248
  23471772.720   123344940.30609  23471772.940    96112913.22146
 15 03 03 00 08  0.0000000  0  7G16G18G19G21G22G27G31
  21009796.980   110407258.67609  21009793.620    86031628.81648
  22529322.380   118392628.39009  22529319.080    92254037.19446
  24076538.800   126523076.26707  24076535.740    98589403.85846
  21900196.100   115086320.31709  21900191.800    89677643.58447
  23332576.840   122613624.82208  23332576.220    95543113.44846
  21997801.340   115599303.54809  21997800.620    90077415.38548
  23490518.140   123443445.93809  23490518.180    96189670.61046
 15 03 03 00 08 30.0000000  0  7G16G18G19G21G22G27G31
  20999838.400   110354926.23209  20999835.080    85990850.28048
  22520807.700   118347883.01609  22520804.460    92219170.70046
  24061995.020   126446648.69407  24061991.860    98529849.95845
  21910880.200   115142465.64909  21910875.960    89721393.18547
  23315951.120   122526257.81808  23315950.380    95475035.71246
  21987857.940   115547050.42009  21987857.240    90036698.67547
  23509279.420   123542035.06508  23509279.260    96266493.04246
 15 03 03 00 09  0.0000000  0  7G16G18G19G21G22G27G31
  20989944.980   110302936.14009  20989941.660    85950338.51648
  22512362.920   118303505.31909  22512359.740    92184590.70547
  24047472.300   126370331.86107  24047469.200    98470382.35746
  21921615.080   115198878.08209  21921610.940    89765350.92748
  23299345.460   122438995.88908  23299344.560    95407039.83647
  21977941.560   115494939.41809  21977940.900    89996092.72048
  23528056.840   123640709.87808  23528056.600    96343382.24547
 15 03 03 00 09 30.0000000  0  7G16G18G19G21G22G27G31
  20980116.020   110251284.67509  20980112.720    85910090.61948
  22503987.380   118259491.94209  22503984.300    92150294.60947
  24032969.660   126294120.08108  24032966.580    98410996.60446
  21932399.320   115255550.41008  21932395.320    89809511.18948
  23282759.320   122351836.15508  23282758.180    95339123.57946
  21968051.060   115442964.84209  21968050.520    89955593.07948
  23546848.660   123739461.56108  23546848.620    96420331.33646
 15 03 03 00 10  0.0000000  0  7G16G18G19G21G22G27G31
  20970352.500   110199976.85709  20970349.160    85870110.50648
  22495682.060   118215847.65109  22495679.020    92116286.10147
  24018487.620   126218016.10808  24018484.440    98351694.85646
  21943233.120   115312483.12309  21943229.200    89853874.34647
  23266193.720   122264784.55808  23266192.440    95271291.56646
  21958187.040   115391129.53209  21958186.520    89915201.94348
  23565654.920   123838289.97508  23565655.220    96497340.22646
 15 03 03 00 10 30.0000000  0  7G16G18G19G21G22G27G31
  20960655.580   110149018.76309  20960652.140    85830402.90048
  22487448.200   118172578.62409  22487445.100    92082570.00347
  24004026.800   126142023.83108  24004023.500    98292480.16745
  21954117.020   115369679.00509  21954113.200    89898442.56447
  23249649.860   122177847.64008  23249648.540    95203548.88946
  21948350.220   115339437.44509  21948349.780    89874922.40948
  23584476.060   123937196.50908  23584476.640    96574409.99246
 15 03 03 00 11  0.0000000  0  7G16G18G19G21G22G27G31
  20951025.080   110098409.75709  20951021.560    85790967.31348
  22479285.540   118129683.89609  22479282.400    92049145.56547
  23989586.740   126066140.63808  23989583.320    98233350.45946
  21965050.080   115427133.15209  21965046.360    89943212.02048
  23233127.820   122091025.43608  23233126.580    95135895.59146
  21938540.200   115287885.97809  21938539.880    89834752.44748
  23603311.240   124036175.65908  23603312.000    96651536.33046
 15 03 03 00 11 30.0000000  0  7G16G18G19G21G22G27G31
  20941460.980   110048149.59409  20941457.360    85751803.55648
  22471194.000   118087162.89409  22471190.840    92016012.36046
  23975167.100   125990364.42708  23975163.440    98174304.12446
  21976031.560   115484841.77308  21976027.920    89988179.78147
  23216627.800   122004318.53108  23216626.580    95068332.11846
  21928756.580   115236472.92109  21928756.300    89794690.34948
  23622159.460   124135222.37308  23622160.180    96728715.30346
 15 03 03 00 12  0.0000000  0  7G16G18G19G21G22G27G31
  20931964.440   109998244.90809  20931960.820    85712916.80048
  22463174.960   118045022.86509  22463171.820    91983176.00646
  23960768.680   125914699.81408  23960764.840    98115344.75246
  21987061.880   115542806.86409  21987058.260    90033347.38447
  23200151.140   121917734.26508  23200149.780    95000864.19746
  21919000.260   115185202.87209  21918999.860    89754739.68048
  23641021.040   124234338.51408  23641021.640    96805948.36146
 15 03 03 00 12 30.0000000  0  7G16G18G19G21G22G27G31
  20922535.000   109948693.19809  20922531.500    85674305.09048
  22455227.920   118003261.28709  22455224.820    91950634.54846
  23946390.580   125839142.25208  23946386.620    98056468.80345
  21998139.940   115601022.58509  21998136.280    90078710.28647
  23183697.460   121831271.00108  23183696.060    94933490.55946
  21909270.360   115134071.21609  21909269.760    89714896.84848
  23659894.320   124333516.24408  23659894.820    96883229.39846
 15 03 03 00 13  0.0000000  0  7G16G18G19G21G22G27G31
  20913173.800   109899500.10709  20913170.400    85635972.81348
  22447353.840   117961883.40109  22447350.880    91918392.06247
  23932033.400   125763695.18308  23932029.540    97997678.94446
  22009266.080   115659490.64109  22009262.300    90124269.80247
  23167268.000   121744935.07008  23167266.460    94866216.11646
  21899567.400   115083081.43409  21899566.720    89675164.56448
  23678779.360   124432756.35608  23678779.860    96960559.03246
 15 03 03 00 13 30.0000000  0  7G16G18G19G21G22G27G31
  20903880.700   109850664.56809  20903877.280    85597919.15348
  22439552.580   117920887.94709  22439549.720    91886447.58147
  23917696.660   125688355.74908  23917692.920    97938972.95746
  22020439.240   115718205.93508  22020435.480    90170021.98548
  23150862.720   121658726.26008  23150861.000    94799040.73047
  21889890.820   115032230.66309  21889890.200    89635540.60548
  23697675.060   124532053.25508  23697675.760    97037932.92146
 15 03 03 00 14  0.0000000  0  7G16G18G19G21G22G27G31
  20894656.480   109802190.67609  20894652.960    85560147.29948
  22431824.900   117880279.04309  22431822.140    91854804.30347
  23903380.720   125613125.82308  23903377.120    97880352.30146
  22031659.480   115777168.69109  22031655.720    90215966.99047
  23134482.480   121572649.18608  23134480.520    94731967.98446
  21880241.020   114981520.93209  21880240.560    89596026.54148
  23716581.320   124631406.06708  23716582.300    97115350.36746
 15 03 03 00 14 30.0000000  0  7G16G18G19G21G22G27G31
  20885501.380   109754080.07709  20885497.720    85522658.52148
  22424171.060   117840057.95209  22424168.340    91823463.21547
  23889085.620   125538005.24608  23889082.120    97821816.84046
  22042926.380   115836376.69809  22042922.600    90262103.08947
  23118127.760   121486706.18708  23118125.580    94664999.70846
  21870617.940   114930951.76709  21870617.620    89556622.00748
  23735497.620   124730811.23008  23735498.740    97192808.60846
 15 03 03 00 15  0.0000000  0  7G16G18G19G21G22G27G31
  20876415.580   109706334.00209  20876411.920    85485453.79948
  22416591.260   117800225.91609  22416588.500    91792425.29547
  23874811.160   125462993.32208  23874807.740    97763366.04346
  22054239.480   115895827.15109  22054235.600    90308428.11147
  23101799.080   121400899.62908  23101796.680    94598137.73846
  21861021.500   114880522.52909  21861021.200    89517326.50748
  23754423.460   124830265.36108  23754424.500    97270304.99446
 15 03 03 00 15 30.0000000  0  7G16G18G19G21G22G27G31
  20867400.020   109658957.07209  20867396.400    85448536.71948
  22409086.260   117760787.36609  22409083.460    91761693.98047
  23860557.880   125388092.74708  23860554.620    97705002.01246
  22065598.920   115955521.10908  22065594.980    90354942.88947
  23085497.360   121315234.43208  23085494.760    94531385.92146
  21851452.360   114830235.86209  21851451.840    89478142.10448
  23773358.760   124929768.13408  23773359.440    97347839.28246
 15 03 03 00 16  0.0000000  0  7G16G18G19G21G22G27G31
  20858454.600   109611948.79909  20858451.080    85411906.90448
  22401656.020   117721741.77209  22401653.240    91731268.86447
  23846325.240   125313300.65208  23846322.200    97646722.51146
  22077003.780   116015453.95309  22076999.840    90401643.81147
  23069222.720   121229711.45508  23069219.900    94464744.91646
  21841909.900   114780089.31609  21841909.160    89439066.89348
  23792302.400   125029314.40708  23792302.640    97425407.45946
 15 03 03 00 16 30.0000000  0  7G16G18G19G21G22G27G31
  20849579.620   109565310.49009  20849576.200    85375565.36948
  22394300.780   117683090.47109  22394298.100    91701150.99647
  23832113.140   125238616.40808  23832110.240    97588527.04546
  22088453.640   116075623.49408  22088449.760    90448529.16847
  23052975.560   121144332.48909  23052972.560    94398216.11447
  21832393.940   114730082.12709  21832392.940    89400100.27248
  23811253.580   125128900.76908  23811253.500    97503006.85546
 15 03 03 00 17  0.0000000  0  7G16G18G19G21G22G27G31
  20840775.860   109519046.30409  20840772.480    85339515.34748
  22387021.220   117644836.92409  22387018.660    91671343.06447
  23817922.000   125164042.28708  23817919.260    97530417.38946
  22099948.520   116136029.36508  22099944.620    90495598.67147
  23036756.740   121059102.16709  23036753.680    94331803.12846
  21822904.840   114680216.40009  21822903.660    89361243.85648
  23830212.000   125228526.21208  23830211.980    97580636.66946
 15 03 03 00 17 30.0000000  0  7G16G18G19G21G22G27G31
  20832043.040   109473155.16109  20832039.680    85303756.02648
  22379817.200   117606980.25009  22379814.660    91641844.39447
  23803751.260   125089575.30708  23803748.700    97472391.25146
  22111487.480   116196666.96708  22111483.580    90542848.75747
  23020566.220   120974020.50509  23020563.080    94265505.97646
  21813441.960   114630489.35209  21813440.880    89322495.53048
  23849176.600   125328185.17708  23849176.980    97658292.61246
 15 03 03 00 18  0.0000000  0  7G16G18G19G21G22G27G31
  20823381.480   109427638.53009  20823378.120    85268288.51748
  22372688.880   117569521.59809  22372686.320    91612655.85447
  23789600.960   125015214.82608  23789598.140    97414448.07746
  22123070.060   116257533.83009  22123066.180    90590277.48047
  23004404.320   120889089.56509  23004401.220    94199326.25447
  21804005.400   114580900.28609  21804004.440    89283854.70348
  23868146.840   125427874.07508  23868147.720    97735971.85946
 15 03 03 00 18 30.0000000  0  7G16G18G19G21G22G27G31
  20814791.920   109382500.47609  20814788.600    85233116.01148
  22365637.080   117532464.86409  22365634.560    91583780.50647
  23775471.420   124940962.96208  23775468.220    97356589.53446
  22134696.280   116318630.32508  22134692.480    90637885.13847
  22988271.940   120804314.26809  22988268.980    94133267.80947
  21794595.580   114531451.36409  21794594.700    89245323.08048
  23887122.680   125527592.21208  23887124.040    97813673.90246
 15 03 03 00 19  0.0000000  0  7G16G18G19G21G22G27G31
  20806275.540   109337746.58909  20806272.220    85198242.84948
  22358662.900   117495815.53709  22358660.360    91555222.61347
  23761363.260   124866823.38708  23761359.780    97298818.50946
  22146366.300   116379957.04709  22146362.540    90685672.19047
  22972170.360   120719701.19009  22972167.560    94067335.75547
  21785213.200   114482146.24109  21785212.340    89206903.51848
  23906104.260   125627340.24208  23906106.080    97891399.23746
 15 03 03 00 19 30.0000000  0  7G16G18G19G21G22G27G31
  20797831.500   109293372.99109  20797828.200    85163666.02148
  22351765.520   117459569.03009  22351762.820    91526978.60047
  23747275.360   124792790.08008  23747271.580    97241130.29146
  22158079.080   116441508.41508  22158075.340    90733634.30147
  22956098.980   120635247.04409  22956096.320    94001527.54347
  21775857.120   114432979.12809  21775856.220    89168591.49648
  23925089.960   125727109.56808  23925092.060    97969141.16146
 15 03 03 00 20  0.0000000  0  7G16G18G19G21G22G27G31
  20789460.660   109249383.87209  20789457.340    85129388.79048
  22344945.700   117423729.75409  22344942.780    91499051.92247
  23733208.160   124718865.45908  23733203.980    97183526.73846
  22169834.460   116503283.73808  22169830.860    90781770.91847
  22940058.740   120550956.85308  22940056.200    93935847.09047
  21766527.680   114383952.33209  21766526.780    89130388.81248
  23944079.560   125826899.55408  23944081.880    98046899.17246
 15 03 03 00 20 30.0000000  0  7G16G18G19G21G22G27G31
  20781163.800   109205783.46309  20781160.460    85095414.44748
  22338204.040   117388301.37409  22338200.940    91471445.41747
  23719161.980   124645052.01508  23719157.540    97126009.82146
  22181632.480   116565283.07208  22181629.040    90830082.07948
  22924050.720   120466835.81409  22924048.200    93870298.43747
  21757225.260   114335068.21909  21757224.360    89092297.30448
  23963072.920   125926709.69408  23963075.420    98124672.87546
 15 03 03 00 21  0.0000000  0  7G16G18G19G21G22G27G31
  20772941.860   109162576.41709  20772938.420    85061746.62148
  22331541.380   117353288.50209  22331538.160    91444162.68847
  23705137.280   124571352.31008  23705133.000    97068581.53346
  22193473.300   116627507.46308  22193469.980    90878568.61847
  22908076.100   120382889.71309  22908073.420    93804886.08747
  21747950.540   114286329.72209  21747949.620    89054319.25248
  23982070.140   126026540.27008  23982072.760    98202462.48445
 15 03 03 00 21 30.0000000  0  7G16G18G19G21G22G27G31
  20764794.060   109119758.91309  20764790.440    85028382.33448
  22324956.860   117318687.21009  22324953.660    91417200.66347
  23691133.060   124497760.28908  23691129.000    97011237.15046
  22205355.600   116689949.57108  22205352.380    90927224.81047
  22892134.100   120299114.89109  22892131.260    93739607.20647
  21738702.400   114237730.90709  21738701.500    89016450.05848
  24001069.660   126126382.62208  24001072.440    98280261.25746
 15 03 03 00 22  0.0000000  0  7G16G18G19G21G22G27G31
  20756720.960   109077334.13209  20756717.200    84995324.06948
  22318451.100   117284500.06909  22318448.000    91390561.35147
  23677149.640   124424277.50708  23677145.780    96953977.87646
  22217279.200   116752608.56708  22217276.000    90976050.00647
  22876225.540   120215515.45109  22876222.560    93674464.97746
  21729481.120   114189273.00109  21729480.280    88978690.66148
  24020071.240   126226234.85208  24020074.020    98358067.71245
 15 03 03 00 22 30.0000000  0  7G16G18G19G21G22G27G31
  20748723.220   109035305.59609  20748719.420    84962574.56048
  22312024.840   117250730.59109  22312021.820    91364247.49447
  23663187.240   124350905.32208  23663183.460    96896804.79245
  22229243.900   116815483.63208  22229240.700    91025043.56947
  22860351.220   120132095.83009  22860348.140    93609462.85846
  21720287.080   114140957.75309  21720286.360    88941042.43048
  24039074.740   126326095.82308  24039077.340    98435880.97346
 15 03 03 00 23  0.0000000  0  7G16G18G19G21G22G27G31
  20740800.520   108993671.60509  20740796.720    84930132.49248
  22305677.740   117217376.80009  22305674.800    91338257.54347
  23649245.300   124277640.45808  23649241.520    96839715.32546
  22241248.800   116878569.71209  22241245.540    91074201.55247
  22844510.920   120048855.34609  22844507.900    93544600.31947
  21711119.520   114092781.72909  21711119.000    88903502.68748
  24058078.880   126425959.22008  24058081.180    98513696.12545
 15 03 03 00 23 30.0000000  0  7G16G18G19G21G22G27G31
  20732953.400   108952434.94009  20732949.680    84898000.02948
  22299410.280   117184441.13809  22299407.340    91312593.41047
  23635324.000   124204483.56208  23635320.260    96782709.98847
  22253293.780   116941866.23408  22253290.480    91123523.51547
  22828705.320   119965797.44509  22828702.420    93479880.04647
  21701978.600   114044745.72009  21701978.160    88866072.03648
  24077083.100   126525823.04708  24077085.140    98591511.60146
 15 03 03 00 24  0.0000000  0  7G16G18G19G21G22G27G31
  20725182.240   108911597.61009  20725178.620    84866178.73948
  22293222.680   117151924.93109  22293219.680    91287256.13247
  23621423.300   124131434.78508  23621419.580    96725788.90046
  22265378.540   117005371.60808  22265375.200    91173008.22847
  22812935.100   119882925.18909  22812932.200    93415304.41847
  21692864.360   113996850.11909  21692863.880    88828750.80048
  24096086.840   126625684.95908  24096088.940    98669325.57945
 15 03 03 00 24 30.0000000  0  7G16G18G19G21G22G27G31
  20717488.180   108871165.53809  20717484.660    84834673.23748
  22287116.020   117119834.00809  22287112.920    91262250.25147
  23607543.880   124058497.95408  23607540.220    96668955.05946
  22277503.300   117069087.12108  22277499.840    91222656.68647
  22797201.440   119800244.69909  22797198.400    93350878.22247
  21683777.520   113949098.75709  21683776.920    88791541.96148
  24115090.080   126725545.54708  24115092.440    98747138.51646
 15 03 03 00 25  0.0000000  0  7G16G18G19G21G22G27G31
  20709871.080   108831137.62509  20709867.620    84803482.65848
  22281090.000   117088167.32809  22281086.860    91237574.93647
  23593685.300   123985670.22208  23593681.540    96612206.21046
  22289667.140   117133008.12509  22289663.560    91272465.26047
  22781504.420   119717756.49209  22781501.200    93286601.84447
  21674717.640   113901488.90009  21674716.960    88754443.37748
  24134091.860   126825399.62108  24134094.640    98824946.36746
 15 03 03 00 25 30.0000000  0  7G16G18G19G21G22G27G31
  20702331.800   108791518.27809  20702328.360    84772610.44648
  22275145.320   117056928.32009  22275142.240    91213232.88147
  23579847.900   123912954.21608  23579844.120    96555544.44046
  22301870.320   117197136.00809  22301866.720    91322435.04047
  22765845.020   119635465.57409  22765841.480    93222479.21147
  21665685.140   113854023.10509  21665684.400    88717457.06848
  24153092.220   126925246.85808  24153095.640    98902748.87546
 15 03 03 00 26  0.0000000  0  7G16G18G19G21G22G27G31
  20694870.280   108752307.27709  20694866.820    84742056.42148
  22269282.040   117026117.19009  22269279.020    91189224.22947
  23566031.380   123840348.07108  23566027.600    96498968.25646
  22314112.020   117261466.32708  22314108.360    91372562.55847
  22750223.320   119553373.02609  22750219.500    93158511.14347
  21656679.760   113806699.80309  21656679.020    88680581.78648
  24172090.480   127025082.72608  24172094.340    98980542.52145
 15 03 03 00 26 30.0000000  0  7G16G18G19G21G22G27G31
  20687486.700   108713505.90009  20687483.240    84711821.57548
  22263500.080   116995734.04709  22263497.240    91165549.07947
  23552235.600   123767850.96208  23552231.700    96442477.03946
  22326391.680   117325996.13108  22326387.920    91422845.52747
  22734639.540   119471480.44209  22734635.500    93094698.89647
  21647701.280   113759517.97109  21647700.680    88643816.74548
  24191085.960   127124902.89208  24191090.060    99058323.90646
 15 03 03 00 27  0.0000000  0  7G16G18G19G21G22G27G31
  20680181.920   108675118.59609  20680178.360    84681909.39548
  22257800.340   116965783.19309  22257797.680    91142210.77646
  23538460.900   123695464.97708  23538456.980    96386072.41746
  22338709.500   117390726.48908  22338705.700    91473284.76746
  22719094.700   119389792.88409  22719090.580    93031046.39646
  21638750.260   113712480.20909  21638749.760    88607163.95348
  24210078.720   127224707.77708  24210082.660    99136093.38745
 15 03 03 00 27 30.0000000  0  7G16G18G19G21G22G27G31
  20672955.440   108637143.07209  20672951.760    84652318.07548
  22252182.420   116936262.34309  22252179.960    91119207.53647
  23524706.660   123623186.62808  23524702.800    96329751.66046
  22351064.460   117455652.19708  22351060.640    91523876.22447
  22703588.580   119308309.52808  22703584.740    92967553.01247
  21629825.980   113665582.80109  21629825.580    88570620.53348
  24229067.400   127324490.69708  24229070.980    99213845.73545
 15 03 03 00 28  0.0000000  0  7G16G18G19G21G22G27G31
  20665807.840   108599582.41209  20665804.100    84623050.02848
  22246646.940   116907173.94309  22246644.540    91096541.28146
  23510973.160   123551016.94808  23510969.320    96273515.58246
  22363456.360   117520772.05009  22363452.600    91574618.96647
  22688122.000   119227034.32709  22688118.680    92904221.82747
  21620928.700   113618827.06409  21620928.280    88534187.51148
  24248051.560   127424249.93708  24248054.740    99291579.63545
 15 03 03 00 28 30.0000000  0  7G16G18G19G21G22G27G31
  20658739.840   108562440.28609  20658736.120    84594108.11448
  22241194.500   116878521.12209  22241191.980    91074214.42847
  23497260.680   123478957.75508  23497256.720    96217365.59547
  22375885.100   117586085.36708  22375881.300    91625512.45847
  22672696.040   119145971.54809  22672693.000    92841056.15047
  21612058.760   113572214.80709  21612058.140    88497866.28548
  24267030.960   127523984.53508  24267033.940    99369294.30346
 15 03 03 00 29  0.0000000  0  7G16G18G19G21G22G27G31
  20651751.680   108525717.83609  20651748.040    84565493.22048
  22235825.240   116850304.86609  22235822.540    91052227.77047
  23483569.220   123407008.49708  23483565.040    96161301.28346
  22388350.340   117651590.38508  22388346.480    91676555.33747
  22657311.160   119065123.33209  22657308.120    92778057.66347
  21603216.060   113525745.61409  21603215.160    88461656.55048
  24286004.920   127623691.08208  24286007.840    99446987.10445
 15 03 03 00 29 30.0000000  0  7G16G18G19G21G22G27G31
  20644843.520   108489415.57009  20644839.940    84537205.73849
  22230539.140   116822525.10109  22230536.160    91030581.21847
  23469898.480   123335167.92708  23469894.220    96105321.65347
  22400851.420   117717283.90408  22400847.560    91727745.09348
  22641967.500   118984491.02109  22641964.300    92715227.40648
  21594400.300   113479418.24809  21594399.200    88425557.32348
  24304972.620   127723365.15008  24304975.720    99524654.58246
 15 03 03 00 30  0.0000000  0  7G16G18G19G21G22G27G31
  20638016.680   108453540.24709  20638013.100    84509250.95348
  22225337.320   116795188.19909  22225334.040    91009279.76946
  23456249.280   123263440.90708  23456245.000    96049430.51846
  22413388.900   117783168.89608  22413385.080    91779084.06147
  22626666.480   118904082.59609  22626663.020    92652571.61747
  21585612.500   113433237.87709  21585611.380    88389572.64648
  24323934.760   127823009.83208  24323938.100    99602299.15445
 15 03 03 00 30 30.0000000  0  7G16G18G19G21G22G27G31
  20631270.660   108418089.31509  20631267.020    84481626.84448
  22220219.200   116768291.33709  22220215.700    90988321.19847
  23442620.880   123191822.91108  23442616.460    95993624.32046
  22425961.740   117849239.75508  22425958.000    91830567.84047
  22611407.760   118823896.43909  22611403.940    92590089.01247
  21576851.840   113387200.26609  21576850.780    88353699.19448
  24342889.960   127922617.65208  24342893.620    99679914.99745
 15 03 03 00 31  0.0000000  0  7G16G18G19G21G22G27G31
  20624605.860   108383065.26309  20624602.180    84454335.37748
  22215185.100   116741836.12809  22215181.420    90967706.77247
  23429013.340   123120314.57708  23429008.760    95937903.58146
  22438569.560   117915494.38308  22438565.860    91882194.82947
  22596191.740   118743935.58509  22596187.600    92527781.97447
  21568118.440   113341305.97609  21568117.440    88317937.41848
  24361837.740   128022186.43008  24361841.780    99757500.39645
 15 03 03 00 31 30.0000000  0  7G16G18G19G21G22G27G31
  20618022.900   108348471.43809  20618019.200    84427379.15048
  22210235.640   116715825.72809  22210231.800    90947438.95047
  23415427.000   123048917.76308  23415422.520    95882269.74746
  22451212.340   117981932.87208  22451208.720    91933965.07547
  22581019.200   118664204.24009  22581014.840    92465653.76747
  21559412.640   113295556.91209  21559411.720    88282288.80848
  24380777.920   128121714.97608  24380782.300    99835054.44245
 15 03 03 00 32  0.0000000  0  7G16G18G19G21G22G27G31
  20611521.040   108314304.23809  20611517.420    84400755.36348
  22205370.080   116690256.40709  22205366.160    90927514.82747
  23401860.880   122977627.28208  23401856.400    95826718.77046
  22463888.880   118048548.54208  22463885.300    91985873.39647
  22565889.800   118584700.22809  22565885.320    92403702.70247
  21550733.500   113249948.08109  21550732.620    88246749.47248
  24399709.000   128221195.80108  24399713.620    99912571.30445
 15 03 03 00 32 30.0000000  0  7G16G18G19G21G22G27G31
  20605102.140   108280573.20009  20605098.660    84374471.44448
  22200590.080   116665136.83609  22200586.140    90907941.15947
  23388316.360   122906450.44108  23388311.900    95771256.33546
  22476600.120   118115346.62708  22476596.540    92037923.85247
  22550805.560   118505433.80609  22550801.160    92341936.75547
  21542082.420   113204487.13109  21542081.580    88211325.37048
  24418631.780   128320633.27908  24418636.740    99990054.35845
 15 03 03 00 33  0.0000000  0  7G16G18G19G21G22G27G31
  20598765.760   108247275.48309  20598762.380    84348525.18148
  22195895.040   116640464.10309  22195891.140    90888715.68247
  23374792.600   122835382.94708  23374788.300    95715879.11047
  22489344.880   118182320.91608  22489341.340    92090111.61247
  22535766.200   118426402.97509  22535761.940    92280354.39647
  21533458.700   113159169.80009  21533457.880    88176013.17748
  24437545.100   128420020.31508  24437550.180   100067498.10746
 15 03 03 00 33 30.0000000  0  7G16G18G19G21G22G27G31
  20592513.260   108214418.26309  20592509.860    84322922.14949
  22191286.120   116616244.57209  22191282.380    90869843.33647
  23361290.560   122764430.19308  23361286.600    95660591.28347
  22502123.880   118249475.32508  22502120.440    92142439.71847
  22520773.380   118347616.19709  22520769.340    92218962.21047
  21524863.420   113114001.58209  21524862.580    88140817.17048
  24456449.560   128519359.89408  24456454.580   100144904.82645
 15 03 03 00 34  0.0000000  0  7G16G18G19G21G22G27G31
  20586343.820   108181997.27409  20586340.300    84297659.04748
  22186762.460   116592473.50809  22186758.980    90851320.45647
  23347809.340   122693586.76908  23347805.500    95605388.65347
  22514935.640   118316801.97508  22514932.320    92194902.04347
  22505826.360   118269069.67809  22505822.460    92157757.24147
  21516295.440   113068976.53809  21516294.580    88105732.73448
  24475343.380   128618643.01108  24475348.180   100222267.53045
 15 03 03 00 34 30.0000000  0  7G16G18G19G21G22G27G31
  20580257.460   108150013.12109  20580253.860    84272736.33248
  22182324.160   116569151.20909  22182320.920    90833147.24847
  23334348.640   122622850.79908  23334344.840    95550269.74246
  22527779.600   118384298.01008  22527776.400    92247496.35047
  22490925.540   118190765.53209  22490921.700    92096741.12447
  21507754.620   113024093.97909  21507753.760    88070759.32048
  24494225.820   128717866.32108  24494230.380   100299583.59245
 15 03 03 00 35  0.0000000  0  7G16G18G19G21G22G27G31
  20574255.800   108118474.10109  20574252.160    84248160.47248
  22177972.740   116546285.26209  22177969.720    90815329.63547
  23320909.740   122552228.97108  23320905.960    95495239.78546
  22540656.660   118451967.96108  22540653.580    92300226.17447
  22476072.560   118112712.55109  22476068.800    92035920.70747
  21499242.160   112979360.54009  21499241.340    88035902.10148
  24513097.480   128817033.61208  24513102.080   100376855.97945
 15 03 03 00 35 30.0000000  0  7G16G18G19G21G22G27G31
  20568338.080   108087376.13009  20568334.460    84223928.28348
  22173707.360   116523871.41909  22173704.500    90797864.32647
  23307491.620   122481716.06208  23307487.680    95440294.69447
  22553565.400   118519804.55208  22553562.420    92353085.85347
  22461266.760   118034907.80209  22461263.120    91975293.72347
  21490757.040   112934770.70709  21490756.160    88001156.78548
  24531956.760   128916136.32408  24531961.460   100454078.05045
 15 03 03 00 36  0.0000000  0  7G16G18G19G21G22G27G31
  20562505.200   108056723.92109  20562501.520    84200043.44148
  22169528.880   116501913.58709  22169526.060    90780754.34347
  23294094.780   122411315.04208  23294090.560    95385436.78846
  22566506.100   118587809.04408  22566503.220    92406076.36247
  22446509.340   117957357.31709  22446505.660    91914864.86747
  21482299.880   112890327.77609  21482298.940    87966525.94248
  24550803.760   129015174.96608  24550808.680   100531250.17145
 15 03 03 00 36 30.0000000  0  7G16G18G19G21G22G27G31
  20556757.040   108026516.81609  20556753.260    84176505.43048
  22165437.020   116480410.49709  22165434.100    90763998.70147
  23280718.780   122341023.44608  23280714.360    95330664.13046
  22579478.000   118655977.11708  22579475.140    92459194.33547
  22431800.360   117880061.13209  22431796.520    91854634.15547
  21473870.240   112846029.49909  21473869.240    87932007.81248
  24569637.520   129114144.49908  24569642.780   100608368.41145
 15 03 03 00 37  0.0000000  0  7G16G18G19G21G22G27G31
  20551094.720   107996760.91809  20551090.840    84153319.01548
  22161432.880   116459367.94209  22161429.780    90747601.92147
  23267364.240   122270844.82308  23267359.880    95275979.53146
  22592481.420   118724310.69408  22592478.540    92512441.27447
  22417141.120   117803026.07709  22417137.080    91794606.92847
  21465468.960   112801880.24609  21465467.920    87897605.80448
  24588458.320   129213046.51108  24588464.100   100685434.04345
 15 03 03 00 37 30.0000000  0  7G16G18G19G21G22G27G31
  20545517.680   107967453.06009  20545513.800    84130481.72948
  22157515.720   116438782.10309  22157512.360    90731561.03247
  23254030.440   122200775.27308  23254026.020    95221379.92746
  22605515.320   118792804.12308  22605512.340    92565812.78147
  22402531.200   117726250.21409  22402526.980    91734781.68047
  21457095.200   112757875.61609  21457094.160    87863316.49748
  24607264.840   129311873.32508  24607271.220   100762441.07546
 15 03 03 00 38  0.0000000  0  7G16G18G19G21G22G27G31
  20540026.740   107938598.10709  20540022.960    84107997.35449
  22153686.300   116418657.27709  22153682.700    90715879.36647
  23240717.980   122130817.96808  23240713.620    95166867.78647
  22618579.900   118861458.60208  22618576.820    92619309.78047
  22387971.760   117649739.68309  22387967.320    91675163.17048
  21448749.560   112714019.13209  21448748.620    87829142.62248
  24626057.400   129410626.09608  24626064.160   100839390.35846
 15 03 03 00 38 30.0000000  0  7G16G18G19G21G22G27G31
  20534621.420   107910193.30609  20534617.760    84085863.74648
  22149943.920   116398990.15709  22149940.100    90700554.36247
  23227426.020   122060968.50708  23227421.840    95112439.68246
  22631673.940   118930268.13108  22631670.860    92672927.58647
  22373462.420   117573492.45209  22373457.840    91615749.82447
  21440431.260   112670306.56709  21440430.380    87795080.89548
  24644834.600   129509297.52708  24644841.540   100916276.23444
 15 03 03 00 39  0.0000000  0  7G16G18G19G21G22G27G31
  20529303.280   107882246.69609  20529299.740    84064087.16348
  22146290.000   116379788.42809  22146286.100    90685591.99447
  23214155.840   121991233.55808  23214151.820    95058100.80447
  22644798.360   118999237.10008  22644795.200    92726669.62847
  22359004.840   117497517.70909  22359000.280    91556548.80547
  21432141.640   112626744.63309  21432140.760    87761136.53748
  24663597.080   129607891.63008  24663604.140   100993101.84744
 15 03 03 00 39 30.0000000  0  7G16G18G19G21G22G27G31
  20524071.860   107854755.68509  20524068.400    84042665.60048
  22142723.940   116361048.91409  22142720.020    90670989.79847
  23200906.600   121921608.89408  23200902.640    95003847.85847
  22657952.040   119068359.74008  22657948.820    92780531.42947
  22344598.720   117421813.86009  22344594.340    91497558.87447
  21423879.940   112583329.29009  21423879.100    87727306.41848
  24682343.540   129706401.42208  24682350.560   101069861.74344
 15 03 03 00 40  0.0000000  0  6G16G18G19G21G22G27
  20518926.220   107827715.32209  20518922.800    84021595.17348
  22139244.660   116342765.62109  22139240.740    90656743.08647
  23187677.060   121852087.71808  23187673.160    94949675.54947
  22671133.320   119137627.31608  22671129.980    92834506.15847
  22330243.280   117346376.67509  22330239.140    91438776.72847
  21415644.920   112540054.08409  21415644.120    87693585.49248
 15 03 03 00 40 30.0000000  0  6G16G18G19G21G22G27
  20513869.800   107801143.55309  20513866.360    84000889.90148
  22135855.520   116324956.33209  22135851.740    90642865.74147
  23174470.440   121782686.70608  23174466.560    94895596.88247
  22684345.120   119207055.27608  22684341.560    92888605.87547
  22315942.320   117271225.63709  22315938.240    91380217.55747
  21407439.720   112496935.83409  21407439.020    87659986.87148
 15 03 03 00 41  0.0000000  0  6G16G18G19G21G22G27
  20508901.280   107775033.65909  20508897.760    83980544.53148
  22132555.180   116307613.73509  22132551.580    90629352.04547
  23161285.080   121713397.46008  23161281.280    94841605.30147
  22697585.380   119276632.85208  22697581.640    92942822.16647
  22301694.680   117196354.81909  22301690.640    91321876.74047
  21399262.800   112453966.34709  21399262.180    87626504.16448
 15 03 03 00 41 30.0000000  0  6G16G18G19G21G22G27
  20504021.040   107749387.79309  20504017.440    83960560.73648
  22129343.940   116290739.52409  22129340.560    90616203.32247
  23148121.080   121644220.56208  23148117.400    94787701.25747
  22710853.980   119346359.14108  22710849.980    92997154.33947
  22287501.100   117121767.63309  22287497.120    91263756.93547
  21391114.360   112411146.46109  21391113.780    87593138.03348
 15 03 03 00 42  0.0000000  0  6G16G18G19G21G22G27
  20499229.160   107724206.46209  20499225.600    83940938.92348
  22126221.760   116274333.24609  22126218.600    90603419.22147
  23134978.280   121575155.03408  23134974.700    94733883.99347
  22724150.340   119416231.31908  22724146.200    93051600.19247
  22273361.860   117047465.48309  22273357.880    91205859.22547
  21382994.320   112368475.41309  21382993.620    87559887.87348
 15 03 03 00 42 30.0000000  0  6G16G18G19G21G22G27
  20494525.940   107699490.88809  20494522.400    83921680.03648
  22123188.820   116258395.69009  22123185.800    90591000.36747
  23121856.620   121506200.77608  23121853.100    94680153.43947
  22737474.080   119486247.39908  22737469.820    93106158.18147
  22259277.260   116973450.72309  22259273.280    91148185.45847
  21374902.640   112325953.23709  21374901.880    87526753.72348
 15 03 03 00 43  0.0000000  0  6G16G18G19G21G22G27
  20489912.060   107675244.70609  20489908.520    83902786.90748
  22120245.640   116242929.53209  22120242.700    90578948.82647
  23108756.580   121437359.89308  23108752.960    94626511.23047
  22750825.280   119556407.70409  22750820.940    93160828.54447
  22245248.220   116899728.16409  22245244.320    91090739.38448
  21366839.720   112283582.28009  21366838.980    87493737.40748
 15 03 03 00 43 30.0000000  0  6G16G18G19G21G22G27
  20485386.980   107651465.26009  20485383.400    83884257.47948
  22117391.720   116227931.93909  22117388.720    90567262.41647
  23095677.380   121368628.37808  23095673.560    94572954.24846
  22764202.760   119626706.41508  22764198.420    93215606.75946
  22231274.440   116826296.09609  22231270.740    91033519.67047
  21358804.880   112241358.56709  21358804.100    87460835.82748
 15 03 03 00 44  0.0000000  0  6G16G18G19G21G22G27
  20480951.220   107628155.70409  20480947.680    83866094.19348
  22114627.640   116213405.78409  22114624.500    90555943.34647
  23082619.400   121300008.31108  23082615.440    94519484.10346
  22777606.540   119697143.33709  22777602.160    93270492.66746
  22217356.800   116753158.77409  22217353.180    90976529.61147
  21350798.400   112199284.24609  21350797.660    87428050.65048
 15 03 03 00 44 30.0000000  0  6G16G18G19G21G22G27
  20476605.860   107605321.13509  20476602.380    83848301.02948
  22111954.020   116199354.94909  22111950.740    90544994.67347
  23069583.200   121231502.59708  23069579.060    94466103.06347
  22791036.980   119767720.61808  22791032.540    93325487.94747
  22203496.420   116680322.26409  22203492.820    90919773.95747
  21342821.060   112157362.99109  21342820.280    87395384.75048
 15 03 03 00 45  0.0000000  0  6G16G18G19G21G22G27
  20472350.960   107582961.59009  20472347.480    83830878.00448
  22109370.640   116185778.57309  22109367.200    90534415.69447
  23056568.500   121163110.05708  23056564.320    94412810.21747
  22804493.440   119838434.83708  22804489.020    93380589.93247
  22189693.560   116607787.72509  22189689.840    90863253.59847
  21334872.620   112115593.64109  21334871.740    87362837.21648
 15 03 03 00 45 30.0000000  0  6G16G18G19G21G22G27
  20468186.760   107561078.17709  20468183.220    83813825.99848
  22106877.560   116172677.12009  22106874.060    90524206.78947
  23043575.360   121094830.63008  23043571.280    94359605.51347
  22817975.600   119909284.30808  22817971.240    93435797.30846
  22175948.620   116535557.58009  22175944.760    90806970.42947
  21326953.120   112073976.31709  21326952.180    87330408.14748
 15 03 03 00 46  0.0000000  0  6G16G18G19G21G22G27
  20464113.480   107539672.46609  20464109.880    83797146.22148
  22104475.140   116160052.71709  22104471.660    90514369.61047
  23030603.640   121026664.05508  23030599.720    94306488.74447
  22831483.100   119980267.10908  22831478.840    93491108.58246
  22162262.180   116463634.46909  22162258.080    90750926.51247
  21319062.600   112032511.35209  21319061.700    87298097.80348
 15 03 03 00 46 30.0000000  0  6G16G18G19G21G22G27
  20460131.180   107518744.73909  20460127.460    83780838.89948
  22102163.160   116147904.01109  22102159.740    90504903.10247
  23017653.320   120958609.94208  23017649.400    94253459.59847
  22845015.460   120051380.49008  22845011.260    93546521.60246
  22148634.500   116392019.85409  22148630.020    90695122.97247
  21311200.880   111991197.89509  21311200.020    87265905.50948
 15 03 03 00 47  0.0000000  0  6G16G18G19G21G22G27
  20456240.200   107498297.15709  20456236.400    83764905.71248
  22099941.980   116136232.90509  22099938.760    90495808.75747
  23004724.540   120890668.89508  23004720.620    94200518.55147
  22858572.520   120122623.76508  22858568.340    93602035.83246
  22135066.100   116320716.82409  22135061.260    90639562.21847
  21303368.220   111950037.12509  21303367.380    87233832.18848
 15 03 03 00 47 30.0000000  0  6G16G18G19G21G22G27
  20452440.840   107478331.40309  20452437.020    83749347.98348
  22097811.860   116125040.13209  22097808.800    90487087.13147
  22991817.340   120822841.14308  22991813.380    94147665.80447
  22872153.940   120193995.05108  22872149.820    93657649.82746
  22121557.380   116249728.02109  22121552.400    90584246.32547
  21295564.740   111909029.42509  21295563.900    87201878.14648
 15 03 03 00 48  0.0000000  0  6G16G18G19G21G22G27
  20448733.120   107458847.27409  20448729.360    83734165.54848
  22095772.680   116114324.60709  22095769.740    90478737.39247
  22978931.400   120755125.25008  22978927.380    94094900.22047
  22885759.120   120265491.02008  22885755.060    93713360.97146
  22108108.700   116179054.83309  22108103.640    90529176.37047
  21287790.180   111868173.53409  21287789.240    87170042.40548
 15 03 03 00 48 30.0000000  0  6G16G18G19G21G22G27
  20445117.660   107439847.99809  20445114.000    83719360.91848
  22093824.900   116104089.14609  22093821.940    90470761.72747
  22966067.040   120687522.91008  22966063.040    94042223.11047
  22899388.220   120337112.55208  22899384.240    93769169.95646
  22094720.860   116108701.43009  22094715.740    90474355.59247
  21280044.880   111827471.69209  21280043.860    87138326.69248
 15 03 03 00 49  0.0000000  0  6G16G18G19G21G22G27
  20441594.920   107421335.90409  20441591.260    83704935.90748
  22091968.900   116094335.42409  22091965.880    90463161.44747
  22953224.540   120620035.52408  22953220.760    93989635.58547
  22913041.060   120408858.63208  22913037.180    93825075.98846
  22081394.540   116038671.38009  22081389.440    90419786.77047
  21272329.160   111786925.37809  21272328.140    87106732.17048
 15 03 03 00 49 30.0000000  0  6G16G18G19G21G22G27
  20438164.860   107403310.76109  20438161.180    83690890.34248
  22090204.440   116085062.45209  22090201.320    90455935.76647
  22940403.560   120552661.52708  22940399.860    93937136.40747
  22926716.940   120480726.00308  22926713.120    93881076.53047
  22068129.940   115968965.41809  22068124.920    90365470.49448
  21264642.720   111746533.11509  21264641.680    87075257.69048
 15 03 03 00 50  0.0000000  0  6G16G18G19G21G22G27
  20434827.620   107385773.25809  20434823.940    83677224.75448
  22088531.440   116076270.18609  22088528.240    90449084.67747
  22927604.080   120485400.22608  22927600.260    93884725.03547
  22940415.440   120552712.27208  22940411.640    93937169.72746
  22054927.380   115899585.50709  22054922.480    90311408.27748
  21256985.520   111706294.77309  21256984.580    87043903.15648
 15 03 03 00 50 30.0000000  0  6G16G18G19G21G22G27
  20431583.960   107368727.37009  20431580.200    83663942.24349
  22086950.500   116067961.98809  22086947.220    90442610.76747
  22914826.640   120418254.40408  22914822.720    93832403.64447
  22954136.720   120624818.30308  22954132.880    93993356.23646
  22041787.800   115830536.80909  22041782.980    90257604.14348
  21249358.200   111666213.25409  21249357.260    87012670.81648
 15 03 03 00 51  0.0000000  0  6G16G18G19G21G22G27
  20428433.400   107352171.14509  20428429.640    83651041.27548
  22085461.160   116060135.55109  22085457.840    90436512.25247
  22902070.580   120351221.09008  22902066.660    93780169.93647
  22967879.980   120697039.77408  22967876.060    94049632.69946
  22028711.020   115761818.63309  22028706.300    90204057.55247
  21241760.180   111626285.88809  21241759.340    86981558.59348
 15 03 03 00 51 30.0000000  0  6G16G18G19G21G22G27
  20425376.460   107336107.00309  20425372.700    83638523.75848
  22084063.660   116052792.28509  22084060.440    90430790.23947
  22889336.200   120284301.78408  22889332.260    93728025.06147
  22981645.100   120769375.84408  22981641.160    94105998.46246
  22015697.780   115693434.70709  22015693.180    90150771.42347
  21234191.760   111586514.03209  21234191.040    86950567.54948
 15 03 03 00 52  0.0000000  0  6G16G18G19G21G22G27
  20422413.960   107320539.05209  20422410.200    83626392.87748
  22082758.680   116045935.20509  22082755.480    90425447.07447
  22876623.960   120217498.60108  22876619.920    93675970.65747
  22995432.260   120841827.46808  22995428.280    94162454.26246
  22002749.100   115625389.78009  22002744.580    90097749.44748
  21226653.560   111546900.67409  21226652.900    86919700.00548
 15 03 03 00 52 30.0000000  0  6G16G18G19G21G22G27
  20419545.060   107305463.00509  20419541.320    83614645.30849
  22081545.400   116039559.85709  22081542.240    90420479.28647
  22863932.940   120150806.73608  22863928.780    93624003.00947
  23009240.160   120914388.09908  23009236.180    94218995.00047
  21989864.520   115557681.32009  21989860.020    90044989.66748
  21219144.660   111507441.03309  21219143.980    86888952.24549
 15 03 03 00 53  0.0000000  0  7G04G16G18G19G21G22G27
  24604995.040   129300121.16408  24604998.200   100753350.21044
  20416770.280   107290881.69209  20416766.560    83603283.24848
  22080424.200   116033668.14709  22080421.020    90415888.35446
  22851263.520   120084228.04308  22851259.220    93572123.54146
  23023068.780   120987057.52208  23023064.740    94275620.51846
  21977044.820   115490313.50509  21977040.200    89992495.32147
  21211665.440   111468137.22509  21211664.720    86858325.91148
 15 03 03 00 53 30.0000000  0  7G04G16G18G19G21G22G27
  24585283.740   129196538.06908  24585286.800   100672636.61844
  20414093.240   107276813.92809  20414089.560    83592321.36048
  22079398.400   116028277.70509  22079395.140    90411688.03747
  22838618.940   120017779.60408  22838614.500    93520345.58247
  23036921.120   121059851.31908  23036916.940    94332342.96246
  21964293.680   115423305.83809  21964289.020    89940281.60847
  21204219.180   111429006.60209  21204218.440    86827834.52948
 15 03 03 00 54  0.0000000  0  7G04G16G18G19G21G22G27
  24565596.560   129093082.56708  24565599.680   100592022.43445
  20411508.580   107263231.65309  20411504.980    83581737.76949
  22078462.680   116023360.42909  22078459.320    90407856.41147
  22825993.620   119951432.48009  22825989.080    93468646.56047
  23050791.220   121132738.70608  23050786.920    94389138.31846
  21951606.040   115356631.68509  21951601.380    89888327.77248
  21196800.380   111390020.47109  21196799.640    86797455.73248
 15 03 03 00 54 30.0000000  0  7G04G16G18G19G21G22G27
  24545936.720   128989770.74508  24545939.840   100511520.16245
  20409019.400   107250150.78709  20409015.820    83571544.88149
  22077619.860   116018931.42509  22077616.460    90404405.25447
  22813390.420   119885201.75208  22813385.840    93417038.22147
  23064681.580   121205732.75908  23064677.200    94446016.79047
  21938984.980   115290307.69609  21938980.380    89836646.78048
  21189412.000   111351194.10109  21189411.220    86767201.41649
 15 03 03 00 55  0.0000000  0  7G04G16G18G19G21G22G27
  24526304.420   128886603.58108  24526307.360   100431130.61545
  20406625.760   107237571.77209  20406622.160    83561743.05749
  22076869.940   116014990.56109  22076866.600    90401334.47147
  22800809.260   119819087.14108  22800804.660    93365520.38447
  23078591.820   121278831.84508  23078587.480    94502977.11946
  21926431.020   115224336.55309  21926426.520    89785240.74448
  21182054.080   111312527.53409  21182053.160    86737071.63848
 15 03 03 00 55 30.0000000  0  7G04G16G18G19G21G22G27
  24506700.080   128783583.71608  24506702.880   100350855.81946
  20404328.180   107225497.43209  20404324.480    83552334.47649
  22076213.160   116011539.22209  22076209.980    90398645.13048
  22788250.280   119753089.84508  22788245.720    93314093.95048
  23092521.880   121352035.17808  23092517.560    94560018.67147
  21913944.860   115158721.69209  21913940.500    89734112.31948
  21174726.820   111274022.25809  21174725.820    86707067.53449
 15 03 03 00 56  0.0000000  0  7G04G16G18G19G21G22G27
  24487123.740   128680711.35708  24487126.500   100270695.93744
  20402126.580   107213927.79909  20402122.820    83543319.17348
  22075649.500   116008577.09509  22075646.460    90396336.99647
  22775713.420   119687209.11008  22775708.920    93262758.32747
  23106471.340   121425340.65208  23106467.060    94617139.81446
  21901526.820   115093464.41209  21901522.480    89683262.52848
  21167430.120   111235677.75109  21167429.100    86677188.70048
 15 03 03 00 56 30.0000000  0  7G04G16G18G19G21G22G27
  24467574.720   128577982.70508  24467577.540   100190648.02644
  20400020.220   107202858.95709  20400016.500    83534694.10048
  22075178.100   116006099.60609  22075175.100    90394406.50747
  22763197.840   119621440.02908  22763193.380    93211509.70647
  23120438.900   121498741.26108  23120434.800    94674335.10046
  21889176.280   115028562.13609  21889171.920    89632689.37748
  21160163.100   111197489.46409  21160162.140    86647431.59548
 15 03 03 00 57  0.0000000  0  7G04G16G18G19G21G22G27
  24448054.760   128475406.71508  24448057.480   100110719.06744
  20398010.800   107192299.68909  20398007.160    83526466.08848
  22074800.440   116004114.68209  22074797.420    90392859.82747
  22750704.960   119555790.37408  22750700.660    93160354.14347
  23134425.820   121572243.40308  23134421.800    94731609.48546
  21876895.220   114964024.63209  21876890.700    89582400.44448
  21152927.360   111159465.40909  21152926.400    86617802.46848
 15 03 03 00 57 30.0000000  0  7G04G16G18G19G21G22G27
  24428562.900   128372978.63207  24428565.680   100030905.34445
  20396097.320   107182244.82008  20396093.840    83518631.12748
  22074515.340   116002616.29509  22074512.200    90391692.27648
  22738233.680   119490253.83608  22738229.440    93109286.74048
  23148430.620   121645839.20308  23148426.560    94788956.87647
  21864682.860   114899848.12109  21864678.260    89532392.82448
  21145721.760   111121599.85409  21145720.760    86588296.85949
 15 03 03 00 58  0.0000000  0  7G04G16G18G19G21G22G27
  24409100.180   128270703.69507  24409103.080    99951210.90844
  20394280.760   107172699.37908  20394277.400    83511193.11348
  22074323.580   116001608.57609  22074320.320    90390907.05347
  22725784.880   119424834.80608  22725780.540    93058310.88847
  23162453.780   121719531.08508  23162449.600    94846379.11046
  21852540.480   114836039.42309  21852535.760    89482671.80048
  21138547.140   111083897.18509  21138546.060    86558918.15748
 15 03 03 00 58 30.0000000  0  7G04G16G18G19G21G22G27
  24389666.680   128168581.62608  24389669.580    99871635.59244
  20392561.080   107163663.02509  20392557.860    83504151.80248
  22074225.100   116001090.87609  22074221.640    90390503.66747
  22713358.380   119359532.21409  22713353.960    93007425.77347
  23176494.720   121793316.17908  23176490.420    94903873.98246
  21840468.180   114772599.13009  21840463.360    89433237.85047
  21131403.380   111046356.58509  21131402.300    86529665.75748
 15 03 03 00 59  0.0000000  0  7G04G16G18G19G21G22G27
  24370262.620   128066613.05708  24370265.240    99792179.89244
  20390938.420   107155136.02509  20390935.220    83497507.38548
  22074219.680   116001062.48409  22074216.100    90390481.56147
  22700953.900   119294345.23809  22700949.340    92956630.75347
  23190552.940   121867192.13008  23190548.600    94961439.65246
  21828466.240   114709528.73509  21828461.460    89384092.12348
  21124290.320   111008977.52609  21124289.340    86500539.22348
 15 03 03 00 59 30.0000000  0  7G04G16G18G19G21G22G27
  24350888.420   127964800.60208  24350890.520    99712845.83545
  20389413.220   107147120.49409  20389409.960    83491261.51649
  22074307.780   116001525.40709  22074304.200    90390842.29347
  22688571.640   119229275.40508  22688566.880    92905927.00247
  23204628.380   121941158.65108  23204624.060    95019075.88846
  21816535.380   114646832.00809  21816530.720    89335237.56748
  21117208.360   110971761.87709  21117207.520    86471540.02849
 15 03 03 01 00  0.0000000  0  7G04G16G18G19G21G22G27
  24331544.220   127863145.74608  24331545.920    99633634.54745
  20387985.760   107139618.33909  20387982.400    83485415.67249
  22074489.500   116002479.96409  22074485.900    90391586.11947
  22676211.680   119164323.08008  22676206.840    92855314.81748
  23218720.740   122015214.33508  23218716.520    95076781.59746
  21804676.080   114584511.43409  21804671.480    89286676.11548
  21110157.700   110934710.54509  21110156.900    86442668.87149
 15 03 03 01 00 30.0000000  0  7G04G16G18G19G21G22G27
  24312230.360   127761650.62908  24312231.720    99554547.72644
  20386656.240   107132631.11009  20386652.780    83479971.07748
  22074764.880   116003926.88509  22074761.300    90392713.61147
  22663874.260   119099489.57208  22663869.560    92804795.21847
  23232830.060   122089359.00208  23232825.860    95134556.65246
  21792888.980   114522570.13309  21792884.340    89238410.20848
  21103138.500   110897824.70509  21103137.780    86413926.67048
 15 03 03 01 01  0.0000000  0  7G04G16G18G19G21G22G27
  24292947.060   127660316.75008  24292948.200    99475586.52845
  20385424.860   107126159.75209  20385421.340    83474928.44449
  22075133.960   116005866.49809  22075130.360    90394225.00647
  22651559.380   119034775.01308  22651554.780    92754368.30647
  23246955.980   122163591.00708  23246951.840    95192399.76546
  21781174.520   114461010.33809  21781169.820    89190441.56148
  21096150.900   110861104.98209  21096150.240    86385313.90148
 15 03 03 01 01 30.0000000  0  7G04G16G18G19G21G22G27
  24273694.120   127559143.08708  24273695.320    99396750.15744
  20384291.340   107120203.25309  20384287.840    83470287.01548
  22075596.400   116008297.04909  22075592.860    90396118.95847
  22639266.720   118970177.47708  22639262.140    92704032.59847
  23261097.780   122237906.54408  23261093.640    95250307.97046
  21769532.800   114399832.62109  21769527.960    89142770.64948
  21089194.640   110824549.76809  21089194.040    86356829.32748
 15 03 03 01 02  0.0000000  0  7G04G16G18G19G21G22G27
  24254472.280   127458133.27808  24254473.580    99318041.45245
  20383256.320   107114764.58609  20383252.860    83466049.09449
  22076152.760   116011221.22909  22076149.380    90398397.55848
  22626996.840   118905699.24808  22626992.220    92653789.83848
  23275255.580   122312306.42508  23275251.580    95308281.90447
  21757964.640   114339041.35409  21757959.580    89095400.87648
  21082270.260   110788161.79209  21082269.680    86328475.08949
 15 03 03 01 02 30.0000000  0  7G04G16G18G19G21G22G27
  24235281.780   127357288.47208  24235283.240    99239461.30944
  20382320.120   107109845.07409  20382316.680    83462215.71248
  22076803.040   116014639.03809  22076799.840    90401060.78747
  22614749.760   118841340.73608  22614745.280    92603640.36947
  23289429.080   122386789.36608  23289425.240    95366320.55446
  21746470.440   114278638.69409  21746465.200    89048333.90547
  21075377.860   110751941.59909  21075377.120    86300251.57248
 15 03 03 01 03  0.0000000  0  7G04G16G18G19G21G22G27
  24216122.880   127256609.93308  24216124.600    99161010.73745
  20381482.900   107105445.28009  20381479.400    83458787.30748
  22077547.300   116018550.27709  22077544.140    90404108.51947
  22602525.520   118777102.35008  22602521.100    92553584.51047
  23303618.040   122461354.06008  23303614.540    95424422.90546
  21735050.600   114218626.96909  21735045.380    89001571.56148
  21068517.500   110715889.77509  21068516.660    86272159.25848
 15 03 03 01 03 30.0000000  0  7G04G16G18G19G21G22G27
  24196995.680   127156097.72108  24196997.560    99082689.76045
  20380744.560   107101565.04309  20380741.000    83455763.74048
  22078385.260   116022953.92109  22078382.140    90407539.94047
  22590323.900   118712982.65108  22590319.560    92503621.13747
  23317821.940   122535997.37508  23317818.800    95482586.52546
  21723705.340   114159007.20509  21723700.160    88955114.63448
  21061688.940   110680005.40309  21061688.060    86244197.41848
 15 03 03 01 04  0.0000000  0  7G04G16G18G19G21G22G27
  24177900.440   127055752.94208  24177902.280    99004499.22245
  20380105.280   107098204.97309  20380101.620    83453145.50049
  22079316.960   116027850.06909  22079313.860    90411355.12947
  22578144.920   118648981.71908  22578140.540    92453750.29747
  23332040.600   122610718.02508  23332037.800    95540810.37946
  21712434.800   114099780.90609  21712429.780    88908964.30048
  21054892.340   110644288.96909  21054891.440    86216366.43248
 15 03 03 01 04 30.0000000  0  7G04G16G18G19G21G22G27
  24158836.800   126955573.31608  24158838.520    98926437.37645
  20379564.460   107095362.57509  20379560.800    83450930.63648
  22080341.780   116033235.46909  22080338.700    90415551.55847
  22565988.020   118585096.55709  22565983.540    92403969.67947
  23346273.220   122685511.04008  23346270.540    95599090.66346
  21701239.020   114040947.65109  21701234.220    88863120.24048
  21048127.180   110608737.57909  21048126.260    86188664.06748
 15 03 03 01 05  0.0000000  0  7G04G16G18G19G21G22G27
  24139805.540   126855563.50108  24139806.980    98848507.85545
  20379122.900   107093042.01109  20379119.260    83449122.39448
  22081460.360   116039113.24709  22081457.180    90420131.65447
  22553853.840   118521330.82709  22553849.220    92354282.12347
  23360520.060   122760378.48708  23360517.420    95657428.92946
  21690119.140   113982512.96609  21690114.460    88817586.75248
  21041394.220   110573355.24409  21041393.220    86161093.42248
 15 03 03 01 05 30.0000000  0  7G04G16G18G19G21G22G27
  24120806.820   126755724.87408  24120808.160    98770711.72545
  20378780.800   107091244.41909  20378777.180    83447721.67548
  22082672.720   116045483.74509  22082669.460    90425095.69947
  22541742.480   118457684.95409  22541737.740    92304687.96947
  23374780.880   122835318.87508  23374778.120    95715824.02646
  21679075.600   113924479.03409  21679070.860    88772365.53748
  21034693.480   110538142.58609  21034692.400    86133655.00048
 15 03 03 01 06  0.0000000  0  7G04G16G18G19G21G22G27
  24101841.060   126656059.95508  24101842.520    98693050.93645
  20378538.560   107089971.72309  20378534.940    83446729.96248
  22083979.120   116052348.40009  22083975.740    90430444.79747
  22529654.200   118394160.25109  22529649.320    92255188.23547
  23389055.600   122910332.02808  23389052.560    95774275.82846
  21668109.000   113866849.01209  21668104.120    88727459.05948
  21028025.400   110503101.37609  21028024.280    86106350.15748
 15 03 03 01 06 30.0000000  0  7G04G16G18G19G21G22G27
  24082908.300   126556568.84107  24082909.940    98615525.59945
  20378396.140   107089223.54009  20378392.520    83446146.96048
  22085379.260   116059706.02309  22085375.780    90436178.02047
  22517588.760   118330755.76709  22517583.760    92205782.17547
  23403343.700   122985415.50508  23403340.380    95832782.42346
  21657219.500   113809624.13509  21657214.540    88682868.27548
  21021389.820   110468231.13409  21021388.740    86079178.55048
 15 03 03 01 07  0.0000000  0  7G04G16G18G19G21G22G27
  24064009.160   126457254.36208  24064010.920    98538137.89045
  20378353.900   107089002.17708  20378350.340    83445974.47348
  22086873.420   116067558.14409  22086869.900    90442296.57047
  22505546.540   118267473.64209  22505541.580    92156471.45947
  23417645.220   123060569.45908  23417641.600    95891343.93146
  21646407.900   113752808.34709  21646402.860    88638596.26148
  21014787.240   110433534.15509  21014786.100    86052141.95148
 15 03 03 01 07 30.0000000  0  7G04G16G18G19G21G22G27
  24045143.300   126358113.81908  24045144.820    98460885.70745
  20378411.420   107089304.99809  20378407.960    83446210.43849
  22088460.900   116075900.83909  22088457.380    90448797.38847
  22493526.860   118204310.12909  22493522.020    92107253.16348
  23431959.180   123135788.95908  23431955.320    95949956.52146
  21635673.760   113696399.61709  21635668.680    88594641.43548
  21008216.880   110399007.00109  21008215.820    86025237.68549
 15 03 03 01 08  0.0000000  0  7G04G16G18G19G21G22G27
  24026311.460   126259151.91908  24026312.640    98383772.70045
  20378569.520   107090135.96909  20378566.120    83446857.93748
  22090142.360   116084737.43109  22090138.820    90455683.05047
  22481530.400   118141268.85009  22481525.780    92058130.10947
  23446285.900   123211075.81108  23446281.920    96008621.58346
  21625018.140   113640403.65909  21625013.080    88551008.24748
  21001679.580   110364653.65209  21001678.560    85998468.84648
 15 03 03 01 08 30.0000000  0  7G04G16G18G19G21G22G27
  24007513.720   126160369.53308  24007514.600    98306799.56444
  20378828.240   107091495.31309  20378824.840    83447917.16048
  22091917.720   116094067.56209  22091914.220    90462953.28647
  22469557.180   118078349.81109  22469552.860    92009102.31247
  23460625.040   123286428.24008  23460620.960    96067337.74246
  21614441.380   113584822.27809  21614436.360    88507698.10948
  20995175.460   110330474.54909  20995174.440    85971835.78548
 15 03 03 01 09  0.0000000  0  7G04G16G18G19G21G22G27
  23988750.440   126061768.57208  23988751.160    98229967.79344
  20379187.840   107093384.68209  20379184.420    83449389.38148
  22093787.200   116103892.14509  22093783.780    90470608.81647
  22457607.560   118015554.09509  22457603.280    91960170.59747
  23474976.480   123361845.53208  23474972.340    96126104.46346
  21603943.980   113529658.45009  21603939.020    88464713.33348
  20988704.700   110296470.94109  20988703.740    85945339.47548
 15 03 03 01 09 30.0000000  0  7G04G16G18G19G21G22G27
  23970021.560   125963348.40508  23970022.100    98153276.90244
  20379648.020   107095802.46809  20379644.560    83451273.36549
  22095750.280   116114208.66509  22095747.040    90478647.67747
  22445681.180   117952880.03809  22445676.780    91911333.69848
  23489339.620   123437324.57608  23489335.480    96184919.28646
  21593525.920   113474911.95309  21593521.040    88422053.75548
  20982267.060   110262641.51809  20982266.200    85918978.89248
 15 03 03 01 10  0.0000000  0  8G04G07G16G18G19G21G22G27
  23951327.500   125865110.81708  23951327.900    98076728.28144
  24557267.080   129049309.89508  24557264.360   100557891.52645
  20380209.100   107098750.48509  20380205.580    83453570.52348
  22097807.120   116125017.92909  22097803.980    90487070.49047
  22433778.200   117890329.05409  22433773.700    91862592.70447
  23503714.300   123512864.60008  23503710.280    96243781.64246
  21583187.900   113420586.16109  21583183.120    88379722.00048
  20975862.840   110228987.75909  20975862.080    85892755.18848
 15 03 03 01 10 30.0000000  0  8G04G07G16G18G19G21G22G27
  23932668.100   125767055.17408  23932668.360    98000321.43445
  24549503.540   129008511.76008  24549500.300   100526100.80046
  20380870.740   107102227.36909  20380867.200    83456279.77949
  22099957.400   116136317.97409  22099954.280    90495875.73247
  22421898.240   117827899.03009  22421893.480    91813945.95948
  23518099.960   123588462.44408  23518096.100    96302689.04946
  21572929.920   113366680.70609  21572925.180    88337717.77448
  20969491.820   110195508.17209  20969491.100    85866667.20848
 15 03 03 01 11  0.0000000  0  8G04G07G16G18G19G21G22G27
  23914044.180   125669185.71608  23914044.300    97924059.66645
  24541835.720   128968217.50108  24541832.520   100494702.65746
  20381633.660   107106236.65109  20381630.100    83459403.89148
  22102201.720   116148111.97109  22102198.500    90505065.87047
  22410041.840   117765593.39808  22410036.800    91765396.13547
  23532497.000   123664119.84908  23532493.260    96361642.86146
  21562753.020   113313200.94609  21562748.260    88296045.25848
  20963154.740   110162206.48409  20963154.000    85840717.84748
 15 03 03 01 11 30.0000000  0  8G04G07G16G18G19G21G22G27
  23895455.540   125571501.75108  23895455.580    97847942.43044
  24534263.680   128928426.45908  24534260.760   100463696.62845
  20382497.680   107110776.99209  20382494.080    83462941.81248
  22104539.620   116160397.42609  22104536.260    90514638.96847
  22398208.640   117703410.80008  22398203.740    91716942.18247
  23546904.880   123739833.81208  23546901.240    96420640.74646
  21552657.200   113260146.99009  21552652.400    88254704.54048
  20956851.380   110129081.60709  20956850.580    85814906.25748
 15 03 03 01 12  0.0000000  0  8G04G07G16G18G19G21G22G27
  23876902.240   125474003.92708  23876902.320    97771970.24544
  24526787.740   128889139.06008  24526784.700   100433083.05445
  20383462.780   107115848.36109  20383459.160    83466893.51649
  22106970.920   116173173.79509  22106967.440    90524594.58247
  22386398.720   117641350.76508  22386394.200    91668583.73248
  23561323.160   123815602.42108  23561319.560    96479681.20446
  21542642.820   113207520.59509  21542637.900    88213696.98448
  20950581.700   110096133.62309  20950580.860    85789232.50748
 15 03 03 01 12 30.0000000  0  8G04G07G16G18G19G21G22G27
  23858385.040   125376696.48308  23858385.300    97696146.41845
  24519408.380   128850359.68308  24519405.320   100402865.35045
  20384529.780   107121455.23409  20384526.100    83471262.50248
  22109496.140   116186443.68109  22109492.540    90534934.76847
  22374612.920   117579416.78508  22374608.580    91620323.49848
  23575752.200   123891427.47008  23575748.620    96538765.64546
  21532710.700   113155326.51609  21532705.700    88173026.30848
  20944346.320   110063366.23809  20944345.480    85763699.49048
 15 03 03 01 13  0.0000000  0  8G04G07G16G18G19G21G22G27
  23839903.960   125279579.30208  23839904.480    97620470.85545
  24512125.360   128812087.30208  24512122.460   100373042.70745
  20385698.500   107127596.48409  20385694.680    83476047.88649
  22112115.020   116200205.77309  22112111.320    90545658.49047
  22362851.100   117517608.03809  22362846.900    91572160.85048
  23590191.480   123967306.23008  23590187.860    96597891.94246
  21522861.000   113103565.59909  21522855.940    88132693.14748
  20938145.120   110030778.87809  20938144.280    85738306.74448
 15 03 03 01 13 30.0000000  0  8G04G07G16G18G19G21G22G27
  23821459.480   125182655.03908  23821460.200    97544945.61045
  24504939.240   128774324.41507  24504936.720   100343617.08246
  20386969.160   107134273.58209  20386965.260    83481250.81549
  22114827.760   116214461.23709  22114823.940    90556766.66247
  22351113.580   117455926.23109  22351109.420    91524097.13048
  23604640.960   124043238.67408  23604637.340    96657060.06546
  21513094.280   113052241.26309  21513089.200    88092700.18448
  20931978.540   109998373.57309  20931977.640    85713055.86948
 15 03 03 01 14  0.0000000  0  8G04G07G16G18G19G21G22G27
  23803050.900   125085919.56008  23803051.840    97469567.49845
  24497849.360   128737066.97308  24497847.000   100314585.30146
  20388340.880   107141482.15609  20388337.020    83486867.88249
  22117633.320   116229204.74309  22117629.440    90568255.12347
  22339399.380   117394366.47009  22339395.100    91476128.52248
  23619099.520   124119218.71408  23619095.880    96716265.28346
  21503410.020   113001350.30409  21503404.940    88053044.92048
  20925845.740   109966145.82509  20925844.880    85687943.34449
 15 03 03 01 14 30.0000000  0  8G04G07G16G18G19G21G22G27
  23784678.720   124989374.53708  23784679.760    97394337.77145
  24490856.160   128700316.33908  24490853.480   100285948.45246
  20389813.880   107149223.42509  20389810.200    83492900.04548
  22120531.800   116244436.45809  22120527.840    90580124.01047
  22327708.600   117332929.81409  22327704.100    91428255.83548
  23633566.960   124195245.32008  23633563.260    96775506.79246
  21493808.680   112950895.15309  21493803.700    88013729.23848
  20919746.980   109934096.85909  20919746.180    85662970.13848
 15 03 03 01 15  0.0000000  0  8G04G07G16G18G19G21G22G27
  23766344.140   124893025.85308  23766345.140    97319261.02245
  24483960.360   128664077.99608  24483957.420   100257710.76545
  20391389.240   107157502.56809  20391385.720    83499351.33048
  22123524.020   116260160.75709  22123520.100    90592376.72447
  22316041.960   117271621.06509  22316037.300    91380482.80647
  23648043.840   124271321.89308  23648040.120    96834787.23945
  21484291.540   112900882.35209  21484286.620    87974758.25148
  20913683.320   109902232.03409  20913682.520    85638140.40948
 15 03 03 01 15 30.0000000  0  8G04G07G16G18G19G21G22G27
  23748046.420   124796870.37308  23748047.360    97244334.82545
  24477161.440   128628348.56507  24477158.300   100229869.64345
  20393066.220   107166315.42509  20393062.780    83506218.48348
  22126609.100   116276372.91409  22126605.280    90605009.57046
  22304398.760   117210436.53709  22304394.060    91332806.56547
  23662529.180   124347443.22308  23662525.460    96894102.54745
  21474858.200   112851309.74509  21474853.260    87936130.25848
  20907654.080   109870547.86709  20907653.180    85613451.44748
 15 03 03 01 16  0.0000000  0  8G04G07G16G18G19G21G22G27
  23729786.800   124700915.15208  23729787.740    97169564.66445
  24470460.420   128593134.97207  24470457.440   100202430.49645
  20394846.120   107175668.54709  20394842.600    83513506.62248
  22129788.100   116293078.70109  22129784.440    90618027.06647
  22292780.340   117149382.34009  22292775.740    91285231.88647
  23677023.840   124423613.82708  23677020.260    96953456.24645
  21465510.120   112802185.43209  21465505.160    87897851.59148
  20901660.540   109839051.00309  20901659.560    85588908.43848
 15 03 03 01 16 30.0000000  0  8G04G07G16G18G19G21G22G27
  23711564.840   124605158.05008  23711565.700    97094948.89546
  24463856.740   128558434.20707  24463854.100   100175390.93445
  20396728.360   107185559.18609  20396724.660    83521213.60748
  22133060.360   116310274.32009  22133056.860    90631426.26447
  22281186.280   117088455.61909  22281181.540    91237756.54848
  23691527.020   124499829.01208  23691523.580    97012844.70046
  21456247.020   112753507.71009  21456242.080    87859920.93348
  20895702.100   109807738.76609  20895701.100    85564509.29948
 15 03 03 01 17  0.0000000  0  8G04G07G16G18G19G21G22G27
  23693380.140   124509597.24008  23693380.940    97020486.06345
  24457350.420   128524244.26307  24457347.880   100148749.41245
  20398712.400   107195984.92409  20398708.580    83529337.54548
  22136425.140   116327956.36909  22136421.740    90645204.49047
  22269616.100   117027653.80709  22269611.160    91190378.53247
  23706037.980   124576084.75608  23706034.640    97072264.75145
  21447068.660   112705275.39409  21447063.740    87822337.33348
  20889778.280   109776608.89509  20889777.320    85540252.26148
 15 03 03 01 17 30.0000000  0  8G04G07G16G18G19G21G22G27
  23675233.600   124414237.57208  23675234.420    96946179.98846
  24450942.140   128490569.91507  24450939.820   100122509.66145
  20400798.920   107206949.62709  20400795.120    83537881.46049
  22139883.160   116346128.40709  22139879.860    90659364.53347
  22258070.580   116966981.12509  22258065.660    91143101.14848
  23720557.160   124652383.47708  23720553.900    97131718.30146
  21437976.200   112657494.36209  21437971.240    87785105.38548
  20883890.000   109745665.94309  20883889.060    85516140.87049
 15 03 03 01 18  0.0000000  0  8G04G07G16G18G19G21G22G27
  23657125.340   124319079.19508  23657126.160    96872030.74745
  24444632.000   128457410.74107  24444629.840   100096671.35045
  20402987.840   107218452.58409  20402984.100    83546844.79848
  22143434.140   116364788.84909  22143430.880    90673905.14547
  22246549.480   116906436.91609  22246544.720    91095923.87247
  23735084.180   124728723.24908  23735080.960    97191203.81846
  21428969.740   112610165.19009  21428964.780    87748225.53348
  20878037.240   109714909.56309  20878036.300    85492174.85748
 15 03 03 01 18 30.0000000  0  8G04G07G16G18G19G21G22G27
  23639055.240   124224120.56008  23639055.820    96798037.13845
  24438419.520   128424764.85707  24438417.680   100071232.97745
  20405278.720   107230491.58909  20405275.040    83556225.83748
  22147077.500   116383934.65909  22147074.220    90688823.97247
  22235052.300   116846018.81709  22235047.620    91048844.85747
  23749618.280   124805100.16308  23749615.080    97250718.28546
  21420049.200   112563287.36309  21420044.280    87711697.37848
  20872219.620   109684337.92709  20872218.640    85468352.80748
 15 03 03 01 19  0.0000000  0  8G04G07G16G18G19G21G22G27
  23621023.900   124129365.36808  23621024.220    96724202.05446
  24432305.460   128392635.73907  24432303.800   100046197.29445
  20407672.120   107243069.64008  20407668.560    83566026.90948
  22150813.580   116403567.81109  22150810.220    90704122.54447
  22223579.620   116785729.95509  22223575.040    91001866.53348
  23764159.720   124881515.60208  23764156.520    97310262.77846
  21411215.400   112516865.23109  21411210.440    87675524.30948
  20866437.800   109653954.33409  20866436.760    85444677.28649
 15 03 03 01 19 30.0000000  0  8G04G07G16G18G19G21G22G27
  23603030.940   124034811.50708  23603031.000    96650523.87545
  24426289.480   128361020.50707  24426287.620   100021562.05945
  20410167.580   107256183.84909  20410164.140    83576245.77148
  22154641.680   116423684.98209  22154638.260    90719798.28347
  22212130.980   116725567.89709  22212126.480    90954987.02347
  23778707.680   124957965.18508  23778704.360    97369833.88046
  21402468.080   112470897.53609  21402463.040    87639705.35248
  20860691.300   109623756.48509  20860690.400    85421146.50748
 15 03 03 01 20  0.0000000  0  8G04G07G16G18G19G21G22G27
  23585077.380   123940464.55808  23585077.220    96577006.91045
  24420372.280   128329924.46807  24420370.240    99997331.37745
  20412766.040   107269838.98009  20412762.660    83586886.12349
  22158562.600   116444290.07409  22158559.180    90735854.20847
  22200707.360   116665537.20609  22200702.780    90908209.87248
  23793262.680   125034451.81908  23793259.240    97429433.85946
  21393808.300   112425390.37909  21393803.280    87604245.25548
  20854981.180   109593749.46509  20854980.300    85397764.41649
 15 03 03 01 20 30.0000000  0  8G04G07G16G18G19G21G22G27
  23567163.260   123846324.63008  23567162.840    96503651.26045
  24414553.800   128299347.07508  24414551.540    99973504.84745
  20415467.400   107284034.12409  20415463.980    83597947.26948
  22162576.100   116465381.55509  22162572.680    90752289.14147
  22189308.720   116605637.08009  22189303.940    90861534.46447
  23807824.400   125110973.74108  23807820.900    97489061.33046
  21385236.260   112380344.29109  21385231.240    87569144.43148
  20849307.320   109563933.08809  20849306.480    85374530.88349
 15 03 03 01 21  0.0000000  0  8G04G07G16G18G19G21G22G27
  23549288.500   123752391.92508  23549287.820    96430457.07145
  24408833.720   128269288.06407  24408831.340    99950082.23145
  20418271.360   107298768.40209  20418267.880    83609428.51749
  22166681.860   116486957.79309  22166678.540    90769101.80047
  22177935.000   116545867.20309  22177930.060    90814960.56247
  23822392.340   125187528.77908  23822388.900    97548714.60346
  21376752.220   112335760.34909  21376747.140    87534403.72648
  20843669.660   109534306.99509  20843668.860    85351445.62449
 15 03 03 01 21 30.0000000  0  8G04G07G16G18G19G21G22G27
  23531453.680   123658670.21208  23531453.080    96357427.29445
  24403212.820   128239751.14708  24403210.540    99927066.44545
  20421178.520   107314045.51309  20421175.000    83621332.75548
  22170880.300   116509020.85709  22170877.020    90786293.80447
  22166586.780   116486230.88209  22166581.700    90768490.72648
  23836966.940   125264118.86108  23836963.460    97608395.17646
  21368357.040   112291643.22809  21368351.980    87500026.78248
  20838068.880   109504875.14909  20838068.140    85328511.73149
 15 03 03 01 22  0.0000000  0  8G04G07G16G18G19G21G22G27
  23513658.060   123565155.14808  23513657.640    96284558.53845
  24397690.460   128210731.24608  24397688.380    99904453.52145
  20424187.840   107329859.60409  20424184.260    83633655.41348
  22175170.360   116531565.13009  22175167.080    90803860.77047
  22155262.900   116426723.19709  22155257.820    90722121.12248
  23851546.760   125340736.59008  23851543.140    97668097.30046
  21360050.000   112247988.97609  21360044.920    87466010.50048
  20832504.140   109475632.54009  20832503.360    85305725.28249
 15 03 03 01 22 30.0000000  0  8G04G07G16G18G19G21G22G27
  23495902.820   123471852.77608  23495902.740    96211855.52845
  24392267.620   128182233.97408  24392265.920    99882247.82845
  20427300.360   107346216.15209  20427296.740    83646400.77748
  22179552.900   116554595.29709  22179549.580    90821806.36747
  22143964.300   116367349.41009  22143959.460    90675855.84847
  23866132.660   125417386.56608  23866128.980    97727824.54445
  21351832.420   112204804.64509  21351827.240    87432360.39848
  20826976.580   109446585.20809  20826975.800    85283091.00848
 15 03 03 01 23  0.0000000  0  8G04G07G16G18G19G21G22G27
  23478187.740   123378761.33908  23478187.880    96139316.85645
  24386943.720   128154256.70208  24386942.520    99860447.33245
  20430515.620   107363112.55209  20430512.000    83659566.79748
  22184027.160   116578107.30309  22184023.740    90840127.42347
  22132690.660   116308107.08309  22132686.040    90629692.99948
  23880723.900   125494064.41808  23880720.220    97787573.50545
  21343703.940   112162088.72609  21343698.600    87399075.29148
  20821485.740   109417730.80209  20821484.960    85260607.06349
 15 03 03 01 23 30.0000000  0  8G04G07G16G18G19G21G22G27
  23460513.040   123285881.57508  23460513.400    96066943.12745
  24381718.700   128126799.69808  24381717.560    99839052.25645
  20433833.620   107380548.77509  20433830.060    83673153.45448
  22188592.960   116602100.52509  22188589.500    90858823.44747
  22121442.160   116248996.61209  22121437.700    90583632.90348
  23895320.300   125570769.26508  23895316.620    97847343.51445
  21335664.880   112119842.64809  21335659.340    87366156.29148
  20816031.740   109389070.19809  20816031.000    85238274.13348
 15 03 03 01 24  0.0000000  0  8G04G07G16G18G19G21G22G27
  23442879.400   123193216.79108  23442879.820    95994736.91245
  24376593.220   128099865.81808  24376591.640    99818064.82345
  20437254.760   107398526.83709  20437251.220    83687162.32648
  22193250.620   116626576.51309  22193247.100    90877895.65347
  22110219.380   116190020.46609  22110214.980    90537677.49148
  23909921.880   125647501.40908  23909918.260    97907134.78445
  21327715.960   112078070.63309  21327710.260    87333606.70148
  20810615.200   109360606.19309  20810614.420    85216094.39548
 15 03 03 01 24 30.0000000  0  8G04G07G16G18G19G21G22G27
  23425286.420   123100764.90208  23425286.840    95922696.59246
  24371566.960   128073452.21308  24371564.840    99797482.78245
  20440778.440   107417043.55909  20440774.820    83701590.93049
  22197999.400   116651531.50409  22197995.960    90897341.11747
  22099021.900   116131176.41809  22099017.260    90491825.00048
  23924528.000   125724257.17908  23924524.420    97966944.45145
  21319856.860   112036770.85509  21319851.140    87301425.08248
  20805235.700   109332336.51709  20805234.820    85194066.08749
 15 03 03 01 25  0.0000000  0  8G04G07G16G18G19G21G22G27
  23407734.240   123008526.82008  23407734.440    95850822.87845
  24366639.820   128047559.17608  24366637.700    99777306.35145
  20444404.620   107436098.82009  20444400.900    83716439.18349
  22202839.080   116676964.47809  22202835.740    90917159.03147
  22087849.500   116072464.43709  22087844.620    90446075.43148
  23939138.420   125801035.29408  23939134.880    98026771.57046
  21312087.860   111995944.77609  21312082.240    87269612.57948
  20799893.280   109304261.69009  20799892.300    85172189.61049
 15 03 03 01 25 30.0000000  0  8G04G07G16G18G19G21G22G27
  23390223.460   122916506.27408  23390223.360    95779118.64946
  24361812.560   128022190.33708  24361810.520    99757538.40345
  20448133.920   107455696.24509  20448130.240    83731709.88949
  22207770.160   116702877.85909  22207766.860    90937351.27247
  22076702.780   116013887.83409  22076697.780    90400431.31948
  23953753.460   125877837.69308  23953750.080    98086617.56646
  21304409.800   111955596.92109  21304404.380    87238172.70348
  20794588.680   109276385.71609  20794587.680    85150468.06449
 15 03 03 01 26  0.0000000  0  8G04G07G16G18G19G21G22G27
  23372754.080   122824703.93908  23372753.780    95707584.48145
  24357084.780   127997345.31308  24357082.680    99738178.63944
  20451966.040   107475834.77509  20451962.540    83747402.25548
  22212792.420   116729270.44709  22212789.200    90957916.93847
  22065581.720   115955446.67409  22065576.820    90354892.77348
  23968372.740   125954662.43608  23968369.380    98146481.00545
  21296822.920   111915728.42309  21296817.680    87207106.36748
  20789321.860   109248708.61109  20789320.940    85128901.49848
 15 03 03 01 26 30.0000000  0  8G04G07G16G18G19G21G22G27
  23355326.480   122733121.57008  23355326.020    95636221.69846
  24352456.840   127973025.28208  24352454.420    99719227.95945
  20455901.320   107496515.55009  20455897.940    83763517.14648
  22217905.860   116756142.26809  22217902.700    90978856.02347
  22054486.800   115897142.47809  22054481.920    90309460.94948
  23982996.260   126031509.26308  23982992.840    98206361.65146
  21289327.660   111876341.68509  21289322.620    87176415.42748
  20784093.280   109221232.20109  20784092.340    85107491.31949
 15 03 03 01 27  0.0000000  0  8G04G07G16G18G19G21G22G27
  23337940.820   122641760.24808  23337940.380    95565031.14845
  24347928.880   127949230.62308  24347926.260    99700686.65945
  20459939.740   107517738.10809  20459936.400    83780054.19848
  22223110.360   116783492.64209  22223107.280    91000168.00647
  22043417.980   115838975.50709  22043413.200    90264136.05548
  23997623.800   126108377.24708  23997620.480    98266258.76545
  21281924.380   111837438.17909  21281919.480    87146101.01948
  20778903.060   109193957.25509  20778902.120    85086238.11749
 15 03 03 01 27 30.0000000  0  8G04G07G16G18G19G21G22G27
  23320596.400   122550615.62808  23320596.120    95494009.45846
  24343499.860   127925956.38608  24343497.540    99682550.89245
  20464080.500   107539497.70409  20464077.100    83797009.72248
  22228404.800   116811315.50309  22228401.820    91021848.17747
  22032374.380   115780941.00309  22032369.700    90218914.39448
  24012254.160   126185260.05608  24012250.920    98326167.44745
  21274612.480   111799014.50009  21274607.640    87116160.51948
  20773750.320   109166879.38209  20773749.400    85065138.48549
 15 03 03 01 28  0.0000000  0  8G04G07G16G18G19G21G22G27
  23303294.940   122459697.13208  23303294.860    95423163.98146
  24339171.620   127903211.40808  24339169.700    99664827.49746
  20468325.120   107561802.62309  20468321.540    83814390.15849
  22233790.660   116839618.53809  22233787.700    91043902.49447
  22021357.720   115723048.11909  22021352.980    90173803.06248
  24026888.780   126262165.20908  24026885.540    98386093.52246
  21267393.860   111761080.49609  21267389.040    87086601.57348
  20768636.900   109140007.96609  20768636.020    85044199.71749
 15 03 03 01 28 30.0000000  0  8G04G07G16G18G19G21G22G27
  23286035.300   122368998.14408  23286035.320    95352489.54645
  24334942.520   127880988.11208  24334941.060    99647510.59945
  20472672.060   107584645.01409  20472668.300    83832189.41848
  22239266.320   116868393.14709  22239263.260    91066324.26947
  22010366.580   115665289.53609  22010361.760    90128796.38848
  24041526.000   126339084.03208  24041522.720    98446030.26445
  21260267.360   111723629.64509  21260262.400    87057419.10848
  20763561.480   109113336.12509  20763560.520    85023416.46948
 15 03 03 01 29  0.0000000  0  8G04G07G16G18G19G21G22G27
  23268818.220   122278522.20408  23268818.280    95281988.90946
  24330813.240   127859288.90708  24330811.960    99630602.14745
  20477121.600   107608027.30809  20477117.800    83850409.38048
  22244832.100   116897641.07409  22244828.840    91089114.88047
  21999401.600   115607668.35009  21999396.760    90083896.77548
  24056166.000   126416017.65408  24056162.720    98505978.53245
  21253233.600   111686666.12509  21253228.480    87028616.38748
  20758524.600   109086867.09709  20758523.620    85002791.26148
 15 03 03 01 29 30.0000000  0  8G04G07G16G18G19G21G22G27
  23251643.920   122188270.93408  23251643.980    95211663.33746
  24326784.020   127838115.34408  24326782.700    99614103.26545
  20481673.760   107631949.40409  20481670.000    83869049.96848
  22250487.980   116927362.22009  22250484.460    91112274.22347
  21988462.960   115550185.68009  21988458.140    90039105.09648
  24070808.800   126492965.94608  24070805.420    98565938.22645
  21246292.920   111650192.11109  21246287.680    87000195.09448
  20753526.580   109060602.53209  20753525.600    84982325.36049
 15 03 03 01 30  0.0000000  0  8G04G07G16G18G19G21G22G27
  23234512.160   122098242.83308  23234512.060    95141511.66846
  24322854.400   127817465.22508  24322853.000    99598012.24346
  20486328.340   107656409.93109  20486324.740    83888110.12349
  22256233.300   116957553.27409  22256229.680    91135799.73147
  21977550.360   115492839.81109  21977545.460    89994420.01848
  24085453.720   126569925.46708  24085450.220    98625906.68245
  21239445.060   111614206.49309  21239439.860    86972154.37748
  20748567.100   109034540.83309  20748566.200    84962017.55149
 15 03 03 01 30 30.0000000  0  8G04G07G16G18G19G21G22G27
  23217423.680   122008442.06308  23217423.220    95071537.11145
  24319025.120   127797341.36108  24319023.260    99582331.29645
  20491085.880   107681411.33209  20491082.400    83907591.72748
  22262068.460   116988216.51609  22262064.880    91159693.16947
  21966664.560   115435634.46909  21966659.620    89949844.43548
  24100101.140   126646898.33108  24100097.500    98685885.51745
  21232691.040   111578714.02809  21232685.820    86944497.92648
  20743647.040   109008686.08709  20743646.200    84941870.99149
 15 03 03 01 31  0.0000000  0  8G04G07G16G18G19G21G22G27
  23200378.700   121918869.83108  23200377.800    95001740.65345
  24315296.160   127777744.38008  24315293.760    99567060.89845
  20495946.400   107706953.78909  20495942.940    83927494.93248
  22267993.300   117019351.32209  22267989.800    91183954.06947
  21955805.660   115378570.58309  21955800.680    89905379.08148
  24114751.020   126723884.20908  24114747.280    98745874.50045
  21226031.120   111543716.35109  21226025.940    86917227.03548
  20738766.620   108983039.58609  20738765.900    84921886.72148
 15 03 03 01 31 30.0000000  0  8G04G07G16G18G19G21G22G27
  23183376.460   121829522.45908  23183375.340    94932119.42946
  24311666.620   127758669.71308  24311663.780    99552197.51546
  20500908.960   107733032.07909  20500905.440    83947815.66949
  22274006.760   117050952.07009  22274003.260    91208578.03147
  21944972.840   115321643.65609  21944967.820    89861020.44548
  24129402.200   126800876.81108  24129398.460    98805868.73845
  21219464.680   111509210.13509  21219459.520    86890339.09148
  20733925.060   108957597.27109  20733924.380    84902061.54149
 15 03 03 01 32  0.0000000  0  8G04G07G16G18G19G21G22G27
  23166418.420   121740408.10908  23166417.260    94862679.78245
  24308137.660   127740124.87107  24308134.780    99537747.00145
  20505974.900   107759653.21409  20505971.260    83968559.40248
  22280110.140   117083025.55409  22280106.540    91233570.36647
  21934167.540   115264861.82109  21934162.680    89816774.88648
  24144055.880   126877882.57208  24144052.080    98865873.22245
  21212993.420   111475204.02809  21212988.260    86863840.84048
  20729123.920   108932367.38309  20729123.200    84882401.89248
 15 03 03 01 32 30.0000000  0  8G04G07G16G18G19G21G22G27
  23149504.120   121651523.77908  23149503.060    94793419.37646
  24304708.700   127722106.24608  24304706.360    99523706.51246
  20511143.400   107786813.64409  20511139.740    83989723.36748
  22286302.360   117115566.32609  22286298.740    91258926.82847
  21923389.260   115208221.86109  21923384.500    89772639.87348
  24158711.300   126954897.17408  24158707.460    98925884.60045
  21206616.980   111441695.82009  21206611.800    86837730.57348
  20724362.720   108907347.04809  20724361.980    84862905.53349
 15 03 03 01 33  0.0000000  0  8G04G07G16G18G19G21G22G27
  23132633.540   121562868.72208  23132632.600    94724337.60146
  24301379.640   127704611.57308  24301377.520    99510074.29546
  20516414.080   107814511.24409  20516410.460    84011305.90248
  22292583.100   117148572.16609  22292579.420    91284645.66847
  21912637.640   115151722.10809  21912632.960    89728614.09748
  24173367.800   127031917.26808  24173363.940    98985900.24845
  21200335.140   111408684.41009  21200329.880    86812007.41048
  20719641.260   108882535.15909  20719640.420    84843571.59349
 15 03 03 01 33 30.0000000  0  8G04G07G16G18G19G21G22G27
  23115807.240   121474446.26008  23115806.420    94655437.06946
  24298150.720   127687643.60508  24298148.680    99496852.49845
  20521787.340   107842748.13909  20521783.760    84033308.67848
  22298952.640   117182044.57709  22298948.940    91310728.08347
  21901913.360   115095365.82809  21901908.780    89684700.12948
  24188025.580   127108944.14608  24188021.640    99045921.16945
  21194148.640   111376173.99109  21194143.340    86786674.63748
  20714960.160   108857935.13709  20714959.200    84824402.74948
 15 03 03 01 34  0.0000000  0  8G04G07G16G18G19G21G22G27
  23099025.040   121386255.80008  23099024.320    94586717.32146
  24295021.820   127671200.74808  24295019.720    99484039.87845
  20527262.880   107871522.33009  20527259.300    84055730.11948
  22305410.420   117215980.72109  22305406.760    91337171.83346
  21891216.260   115039152.19609  21891211.620    89640897.30748
  24202684.300   127185975.99208  24202680.360    99105945.97845
  21188057.260   111344163.61509  21188051.960    86761731.50348
  20710319.260   108833546.49709  20710318.240    84805398.60849
 15 03 03 01 34 30.0000000  0  8G04G07G16G18G19G21G22G27
  23082287.420   121298300.25608  23082286.920    94518180.63646
  24291993.220   127655285.46108  24291991.180    99471638.33746
  20532840.960   107900835.47709  20532837.400    84078571.52548
  22311956.640   117250381.85109  22311953.120    91363977.91147
  21880546.800   114983083.81809  21880542.100    89597207.67748
  24217344.060   127263013.43008  24217340.100    99165975.13045
  21182061.840   111312657.59409  21182056.540    86737181.37548
  20705719.120   108809372.18309  20705718.100    84786561.48049
 15 03 03 01 35  0.0000000  0  8G04G07G16G18G19G21G22G27
  23065594.520   121210579.29508  23065594.220    94449826.72346
  24289064.760   127639895.83008  24289062.520    99459646.42345
  20538521.420   107930686.16209  20538517.820    84101831.79748
  22318590.880   117285245.54609  22318587.460    91391144.42247
  21869904.920   114927159.93109  21869900.200    89553630.63848
  24232004.580   127340054.85708  24232000.620    99226007.39445
  21176162.320   111281655.71709  21176157.020    86713024.08948
  20701159.640   108785411.75609  20701158.580    84767891.02249
 15 03 03 01 35 30.0000000  0  9G04G07G11G16G18G19G21G22G27
  23048945.880   121123090.39508  23048945.740    94381653.65346
  24286235.780   127625028.87708  24286233.300    99448061.78245
  24712091.540   129862918.62807  24712090.840   101191876.22244
  20544303.440   107961070.57809  20544299.800    84125507.95648
  22325312.420   117320567.73209  22325309.100    91418668.21247
  21859289.940   114871377.87409  21859285.300    89510164.11648
  24246664.960   127417095.57608  24246660.920    99286039.11445
  21170358.300   111251155.74409  21170352.980    86689257.89448
  20696640.400   108761662.77709  20696639.280    84749385.32449
 15 03 03 01 36  0.0000000  0  9G04G07G11G16G18G19G21G22G27
  23032341.560   121035834.02108  23032341.460    94313661.78646
  24283506.080   127610683.86508  24283503.340    99436883.83945
  24694638.600   129771202.04707  24694637.620   101120408.87744
  20550186.640   107991987.08909  20550182.980    84149598.74048
  22332120.880   117356346.56209  22332117.620    91446547.82447
  21848701.980   114815737.76809  21848697.380    89466808.20448
  24261324.880   127494133.92108  24261320.760    99346068.99645
  21164649.820   111221158.12209  21164644.500    86665883.14748
  20692161.460   108738125.68609  20692160.320    84731044.73949
 15 03 03 01 36 30.0000000  0  9G04G07G11G16G18G19G21G22G27
  23015783.060   120948818.22208  23015782.780    94245857.35146
  24280877.060   127596867.87808  24280874.020    99426118.12846
  24677204.560   129679584.62608  24677203.120   101049018.77844
  20556172.520   108023443.26609  20556168.920    84174110.03548
  22339017.420   117392587.99609  22339014.180    91474787.90447
  21838142.500   114760247.46809  21838137.960    89423569.03448
  24275985.580   127571176.51908  24275981.460    99406102.18046
  21159038.520   111191671.41909  21159033.280    86642906.51048
  20687724.380   108714808.66809  20687723.280    84712875.63449
 15 03 03 01 37  0.0000000  0  9G04G07G11G16G18G19G21G22G27
  22999270.060   120862041.57108  22999269.520    94178239.28245
  24278348.100   127583578.44707  24278345.140    99415762.71345
  24659789.060   129588064.67607  24659787.360   100977704.61043
  20562260.720   108055436.87609  20562257.140    84199040.11048
  22346001.380   117429288.67509  22345998.120    91503385.83846
  21827611.240   114704905.38909  21827606.620    89380445.34248
  24290646.460   127648220.10508  24290642.480    99466136.11444
  21153524.220   111162694.57109  21153519.160    86620327.16148
  20683328.920   108691710.42209  20683327.820    84694876.99549
 15 03 03 01 37 30.0000000  0  9G04G07G11G16G18G19G21G22G27
  22982802.360   120775503.20008  22982801.620    94110806.88745
  24275918.980   127570813.70608  24275916.240    99405816.18045
  24642391.760   129496640.81107  24642389.920   100906465.35244
  20568450.620   108087965.03109  20568447.060    84224386.72248
  22353072.300   117466446.21909  22353068.920    91532339.79346
  21817107.900   114649710.08309  21817103.200    89337436.03948
  24305307.000   127725262.05208  24305303.040    99526168.79044
  21148106.820   111134226.64609  21148101.920    86598144.38948
  20678974.940   108668829.95609  20678973.740    84677048.07348
 15 03 03 01 38  0.0000000  0  9G04G07G11G16G18G19G21G22G27
  22966380.360   120689205.29708  22966379.660    94043561.86246
  24273589.880   127558574.93908  24273587.520    99396279.47845
  24625012.940   129405314.76407  24625010.960   100835302.27044
  20574742.480   108121028.87009  20574738.940    84250150.73948
  22360230.220   117504060.78209  22360226.600    91561649.85547
  21806632.960   114594664.02809  21806628.260    89294543.02848
  24319967.300   127802302.73708  24319963.460    99586200.48345
  21142786.960   111106270.55609  21142782.040    86576360.44248
  20674662.780   108646169.66009  20674661.560    84659390.70349
 15 03 03 01 38 30.0000000  0  9G04G07G11G16G18G19G21G22G27
  22950004.100   120603147.53008  22950003.320    93976503.95046
  24271360.680   127546860.61608  24271358.460    99387151.42245
  24607652.500   129314085.79507  24607650.660   100764214.83345
  20581135.900   108154626.15909  20581132.320    84276330.43649
  22367474.620   117542129.76809  22367470.680    91591314.01747
  21796186.260   114539766.30409  21796181.560    89251765.59548
  24334626.960   127879340.19608  24334623.280    99646229.66145
  21137564.520   111078825.91809  21137559.460    86554975.03848
  20670392.460   108623729.27309  20670391.280    84641904.69449
 15 03 03 01 39  0.0000000  0  9G04G07G11G16G18G19G21G22G27
  22933673.820   120517331.26608  22933672.920    93909634.21046
  24269231.460   127535671.08708  24269229.140    99378432.29945
  24590310.760   129222955.47707  24590308.800   100693204.25144
  20587630.920   108188757.25509  20587627.280    84302926.08348
  22374805.340   117580652.79809  22374801.260    91621331.96146
  21785767.980   114485017.89209  21785763.280    89209104.50148
  24349286.000   127956373.97408  24349282.280    99706255.96944
  21132439.640   111051894.23109  21132434.480    86533989.32548
  20666164.220   108601510.16609  20666163.160    84624591.10449
 15 03 03 01 39 30.0000000  0  9G04G07G11G16G18G19G21G22G27
  22917389.480   120431756.47908  22917388.520    93842952.64446
  24267201.800   127525005.18608  24267199.480    99370121.19345
  24572987.660   129131923.30407  24572985.660   100622270.17044
  20594227.260   108223421.09809  20594223.620    84329936.86348
  22382221.940   117619627.65709  22382217.920    91651701.98947
  21775378.160   114430418.72209  21775373.460    89166559.71048
  24363943.980   128033402.22108  24363940.280    99766277.96545
  21127412.420   111025476.05709  21127407.240    86513403.74648
  20661978.120   108579512.49309  20661977.180    84607450.06849
 15 03 03 01 40  0.0000000  0  9G04G07G11G16G18G19G21G22G27
  22901150.960   120346423.34808  22901150.260    93776459.40746
  24265271.800   127514862.15808  24265269.540    99362217.53946
  24555683.360   129040988.97207  24555681.340   100551412.33944
  20600924.680   108258616.40109  20600921.100    84357361.77549
  22389724.240   117659052.84309  22389720.300    91682422.92447
  21765016.720   114375969.10809  21765012.020    89124131.46848
  24378600.780   128110424.02308  24378597.060    99826294.96445
  21122482.940   110999571.78209  21122477.860    86493218.61448
  20657834.340   108557736.76409  20657833.420    84590481.97449
 15 03 03 01 40 30.0000000  0  9G04G07G11G16G18G19G21G22G27
  22884958.840   120261334.13408  22884958.280    93710156.21245
  24263441.400   127505242.81108  24263439.380    99354721.93345
  24538398.200   128950154.33908  24538396.120   100480632.18144
  20607723.240   108294343.39809  20607719.720    84385200.99848
  22397312.160   117698928.10209  22397308.380    91713494.56046
  21754684.120   114321670.98109  21754679.320    89081821.24948
  24393256.360   128187439.33908  24393252.700    99886306.89345
  21117651.720   110974183.46809  21117646.660    86473435.53348
  20653733.260   108536185.00409  20653732.300    84573688.39949
 15 03 03 01 41  0.0000000  0  9G04G07G11G16G18G19G21G22G27
  22868813.240   120176488.99608  22868812.500    93644043.15446
  24261710.480   127496146.58908  24261708.580    99347633.96445
  24521132.100   128859419.48808  24521129.980   100409929.78844
  20614622.800   108330601.16709  20614619.260    84413453.79848
  22404985.440   117739252.02009  22404981.800    91744915.79747
  21744380.320   114267524.49109  21744375.560    89039629.19548
  24407910.540   128264447.04708  24407906.940    99946312.88645
  21112918.840   110949311.86609  21112913.720    86454055.07448
  20649674.960   108514857.83409  20649673.920    84557069.82749
 15 03 03 01 41 30.0000000  0  9G04G07G11G16G18G19G21G22G27
  22852714.180   120091888.63708  22852713.340    93578120.86046
  24260078.860   127487572.60708  24260076.740    99340952.92245
  24503885.000   128768784.64808  24503882.940   100339305.33445
  20621623.280   108367389.16409  20621619.680    84442119.76248
  22412743.800   117780023.17409  22412740.360    91776685.52747
  21734105.460   114213530.07409  21734100.760    88997555.64448
  24422563.040   128341445.98408  24422559.540   100006312.06245
  21108284.360   110924957.74309  21108279.200    86435077.85448
  20645659.500   108493755.95009  20645658.340    84540626.80749
 15 03 03 01 42  0.0000000  0  9G04G07G11G16G18G19G21G22G27
  22836662.160   120007535.95008  22836661.520    93512391.58846
  24258546.980   127479522.95108  24258544.640    99334680.44745
  24486657.360   128678252.79408  24486655.360   100268761.12245
  20628724.980   108404708.78109  20628721.400    84471199.96049
  22420587.460   117821242.35609  22420584.140    91808804.36647
  21723860.060   114159690.47509  21723855.360    88955602.72448
  24437214.120   128418437.56407  24437210.640   100066305.46645
  21103748.920   110901123.81109  21103743.700    86416505.96948
  20641687.440   108472882.44809  20641686.200    84524361.74049
 15 03 03 01 42 30.0000000  0  9G04G07G11G16G18G19G21G22G27
  22820657.080   119923429.39708  22820656.580    93446854.11846
  24257114.380   127471994.69008  24257111.800    99328814.28445
  24469448.800   128587821.86108  24469446.840   100198295.53544
  20635927.340   108442556.91809  20635923.780    84500692.01148
  22428515.740   117862905.88009  22428512.440    91841269.46046
  21713643.820   114106004.25709  21713639.200    88913769.32848
  24451863.140   128495418.71007  24451859.760   100126290.77345
  21099312.300   110877808.96909  21099307.000    86398338.57548
  20637758.500   108452236.02609  20637757.280    84508273.62548
 15 03 03 01 43  0.0000000  0  9G04G07G11G16G18G19G21G22G27
  22804699.060   119839569.45708  22804698.460    93381508.79446
  24255780.780   127464987.22408  24255778.120    99323353.92545
  24452259.360   128497491.88408  24452257.580   100127908.64945
  20643230.040   108480932.51609  20643226.560    84530595.07449
  22436528.380   117905012.38709  22436525.000    91874079.74247
  21703456.820   114052471.57109  21703452.240    88872055.56748
  24466509.920   128572388.09207  24466506.640   100186266.90145
  21094974.680   110855013.93309  21094969.300    86380576.23348
  20633872.800   108431817.24609  20633871.660    84492362.89649
 15 03 03 01 43 30.0000000  0  9G04G07G11G16G18G19G21G22G27
  22788788.560   119755958.86509  22788787.660    93316357.73346
  24254546.640   127458502.01908  24254543.840    99318300.51045
  24435089.560   128407265.25008  24435088.000   100057602.23744
  20650633.240   108519836.59709  20650629.820    84560909.93548
  22444625.460   117947562.42509  22444621.960    91907235.62447
  21693299.600   113999094.92009  21693294.940    88830463.37748
  24481154.520   128649346.29507  24481151.360   100246234.30246
  21090736.520   110832741.36709  21090731.060    86363221.00048
  20630030.960   108411628.89009  20630029.880    84476631.70549
 15 03 03 01 44  0.0000000  0  9G04G07G11G16G18G19G21G22G27
  22772924.980   119672594.89608  22772923.980    93251398.86546
  24253411.280   127452535.22808  24253408.340    99313651.06345
  24417939.100   128317139.62608  24417937.620    99987374.55845
  20658136.280   108559265.60909  20658132.880    84591633.83848
  22452806.000   117990551.34509  22452802.480    91940733.48647
  21683171.780   113945872.03409  21683166.940    88788991.01148
  24495796.400   128726290.03307  24495793.240   100306190.45845
  21086597.300   110810988.78109  21086591.740    86346270.94348
  20626232.640   108391668.98809  20626231.640    84461078.53949
 15 03 03 01 44 30.0000000  0  9G04G07G11G16G18G19G21G22G27
  22757109.260   119589482.62608  22757108.360    93186636.13646
  24252375.280   127447090.59108  24252372.160    99309408.47045
  24400808.840   128227119.58908  24400807.180    99917229.16045
  20665739.680   108599222.35209  20665736.340    84622768.95148
  22461070.620   118033982.09009  22461067.080    91974575.62947
  21673074.160   113892807.64209  21673069.140    88747642.13848
  24510436.160   128803222.66107  24510433.100   100366137.94645
  21082558.000   110789761.33809  21082552.340    86329730.08948
  20622478.820   108371942.63909  20622477.860    84445707.35949
 15 03 03 01 45  0.0000000  0  9G04G07G11G16G18G19G21G22G27
  22741340.720   119506618.63608  22741339.820    93122066.86446
  24251437.740   127442163.41408  24251434.520    99305569.10144
  24383697.920   128137201.17908  24383696.220    99847162.95144
  20673442.680   108639702.02709  20673439.340    84654311.54648
  22469418.300   118077849.33509  22469414.800    92008757.89946
  21663005.940   113839898.28909  21663000.920    88706414.08848
  24525072.760   128880138.91607  24525069.780   100426072.68645
  21078617.960   110769055.55009  21078612.180    86313595.71748
  20618768.820   108352446.46509  20618767.920    84430515.54449
 15 03 03 01 45 30.0000000  0  9G04G07G11G16G18G19G21G22G27
  22725620.260   119424007.13008  22725619.300    93057694.32747
  24250599.140   127437756.64408  24250595.840    99302135.23045
  24366607.060   128047388.24008  24366605.400    99777178.93745
  20681245.840   108680708.03109  20681242.500    84686264.26448
  22477849.420   118122154.92709  22477845.900    92043281.73447
  21652967.920   113787148.30709  21652962.900    88665310.21348
  24539706.720   128957041.09107  24539703.800   100485996.44545
  21074778.000   110748875.68009  21074772.140    86297871.15648
  20615103.480   108333184.89209  20615102.580    84415506.52849
 15 03 03 01 46  0.0000000  0  9G04G07G11G16G18G19G21G22G27
  22709947.760   119341647.28709  22709946.700    92993517.88246
  24249859.220   127433868.16508  24249856.020    99299105.25645
  24349536.060   127957680.28107  24349534.560    99707276.70744
  20689148.640   108722237.68809  20689145.280    84718625.01548
  22486363.380   118166895.81909  22486359.760    92078144.76246
  21642960.000   113734556.81809  21642955.020    88624329.84348
  24554337.760   129033927.86008  24554334.780   100545908.20245
  21071037.980   110729221.08609  21071032.040    86282555.89548
  20611482.700   108314157.58309  20611481.820    84400680.05549
 15 03 03 01 46 30.0000000  0  9G04G07G11G16G18G19G21G22G27
  22694323.100   119259538.79008  22694321.960    92929537.31947
  24249217.580   127430496.24208  24249214.420    99296477.76245
  24332484.760   127868076.05907  24332483.360    99637455.30245
  20697150.700   108764288.59709  20697147.260    84751391.94748
  22494959.800   118212069.88009  22494955.940    92113345.33347
  21632982.160   113682123.15909  21632977.220    88583472.45748
  24568965.420   129110796.79507  24568962.520   100605806.07645
  21067397.780   110710091.46909  21067391.860    86267649.71548
  20607906.400   108295364.23309  20607905.560    84386035.89549
 15 03 03 01 47  0.0000000  0  9G04G07G11G16G18G19G21G22G27
  22678746.840   119177685.25408  22678745.480    92865755.42446
  24248674.640   127427643.13708  24248671.660    99294254.55245
  24315453.880   127778579.21107  24315452.540    99567717.58744
  20705252.520   108806863.26009  20705248.960    84784567.00548
  22503638.920   118257678.57409  22503634.860    92148884.58246
  21623035.160   113629851.34309  21623030.200    88542741.18148
  24583590.140   129187650.09108  24583587.280   100665691.75545
  21063858.040   110691490.34409  21063852.260    86253155.34848
  20604375.440   108276808.91609  20604374.580    84371577.21449
 15 03 03 01 47 30.0000000  0  9G04G07G11G16G18G19G21G22G27
  22663218.680   119096084.70008  22663217.060    92802170.62946
  24248229.760   127425305.44208  24248226.880    99292432.96245
  24298443.080   127689187.57607  24298441.860    99498061.84344
  20713453.200   108849957.66509  20713449.620    84818147.04948
  22512399.900   118303717.73809  22512395.760    92184759.26147
  21613118.520   113577739.02109  21613113.620    88502134.18448
  24598211.300   129264484.19108  24598208.260   100725562.46545
  21060418.480   110673415.53109  21060412.740    86239071.08848
  20600889.380   108258489.74909  20600888.560    84357302.54149
 15 03 03 01 48  0.0000000  0  9G04G07G11G16G18G19G21G22G27
  22647738.780   119014737.80209  22647737.160    92738783.49546
  24247882.820   127423482.89608  24247880.100    99291012.78845
  24281452.420   127599901.88807  24281451.120    99428488.68444
  20721752.520   108893570.93609  20721749.040    84852131.40948
  22521242.540   118350186.41109  22521238.500    92220968.62046
  21603232.480   113525787.60709  21603227.660    88461652.57048
  24612828.660   129341298.66008  24612825.480   100785417.90044
  21057079.400   110655868.35309  21057073.560    86225397.98148
  20597448.500   108240407.99209  20597447.720    84343212.86449
 15 03 03 01 48 30.0000000  0  9G04G07G11G16G18G19G21G22G27
  22632307.800   118933648.41408  22632306.460    92675597.02646
  24247634.280   127422177.60008  24247631.760    99289995.66645
  24264482.540   127510725.52607  24264481.160    99359000.69344
  20730151.120   108937705.89009  20730147.680    84886522.27448
  22530167.060   118397085.64509  22530163.240    92257513.48246
  21593377.700   113474000.35909  21593372.880    88421298.87748
  24627442.600   129418095.58507  24627439.360   100845259.64844
  21053841.320   110638852.03509  21053835.360    86212138.52748
  20594053.500   108222567.52009  20594052.800    84329311.20248
 15 03 03 01 49  0.0000000  0  9G04G07G11G16G18G19G21G22G27
  22616925.260   118852813.86608  22616924.140    92612609.15146
  24247483.480   127421385.72408  24247481.240    99289378.60345
  24247532.980   127421655.58607  24247531.420    99289595.61544
  20738648.120   108982357.94209  20738644.680    84921316.07948
  22539172.680   118444411.21509  22539169.060    92294390.55046
  21583553.780   113422375.29809  21583548.880    88381071.56548
  24642052.540   129494871.21507  24642049.060   100905084.80245
  21050703.720   110622364.07309  21050697.720    86199290.77648
  20590704.040   108204966.18609  20590703.420    84315595.88349
 15 03 03 01 49 30.0000000  0  9G04G07G11G16G18G19G21G22G27
  22601591.420   118772234.75008  22601590.260    92549820.29246
  24247430.260   127421106.33208  24247428.260    99289160.89945
  24230603.820   127332692.49408  24230602.220    99220273.82444
  20747243.240   109027525.64409  20747239.760    84956511.67348
  22548259.100   118492161.20509  22548255.640    92331598.33647
  21573760.740   113370912.75409  21573755.820    88340970.89348
  24656658.280   129571624.56007  24656654.500   100964892.57444
  21047666.600   110606404.87909  21047660.760    86186855.05648
  20587400.320   108187604.87009  20587399.720    84302067.58349
 15 03 03 01 50  0.0000000  0  9G04G07G11G16G18G19G21G22G27
  22586306.700   118691913.14109  22586305.360    92487232.06646
  24247474.760   127421340.23408  24247472.820    99289343.14045
  24213695.440   127243838.12608  24213693.660    99151036.73844
  20755936.640   109073209.62509  20755933.100    84992109.57048
  22557426.280   118540335.44209  22557422.900    92369136.70346
  21563998.980   113319614.58509  21563994.120    88300998.30648
  24671259.900   129648356.41507  24671255.800   101024683.61644
  21044730.400   110590976.65209  21044724.820    86174833.07748
  20584142.720   108170485.90409  20584142.080    84288728.13049
 15 03 03 01 50 30.0000000  0  9G04G07G11G16G18G19G21G22G27
  22571070.900   118611848.24508  22571069.520    92424843.89046
  24247616.440   127422084.80108  24247614.580    99289923.31046
  24196807.620   127155091.51308  24196805.580    99081883.62144
  20764727.820   109119407.66709  20764724.240    85028108.02848
  22566673.720   118588931.19309  22566670.280    92407003.52246
  21554268.460   113268480.48409  21554263.620    88261153.55848
  24685857.020   129725064.62807  24685852.640   101084456.23144
  21041895.020   110576078.39309  21041889.660    86163224.05248
  20580931.200   108153608.95009  20580930.440    84275577.26149
 15 03 03 01 51  0.0000000  0  9G04G07G11G16G18G19G21G22G27
  22555884.260   118532041.96908  22555883.000    92362657.24446
  24247855.400   127423340.46608  24247853.380    99290901.74445
  24179940.640   127066454.22508  24179938.440    99012815.67644
  20773616.800   109166119.60409  20773613.240    85064506.92148
  22576001.320   118637948.28809  22575997.740    92445198.66146
  21544569.560   113217512.01009  21544564.700    88221437.87148
  24700449.700   129801749.61307  24700445.280   101144210.73444
  21039160.760   110561711.68009  21039155.620    86152029.21748
  20577766.160   108136976.03209  20577765.240    84262616.54449
 15 03 03 01 51 30.0000000  0 10G04G07G11G16G18G19G21G22G27G32
  22540746.980   118452495.23809  22540745.860    92300672.84647
  24248191.580   127425107.08508  24248189.540    99292278.32245
  24163094.720   126977927.68008  24163092.340    98943834.05945
  20782603.480   109213345.03909  20782600.060    85101305.96148
  22585408.900   118687385.70408  22585405.280    92483721.32946
  21534902.520   113166710.94609  21534897.580    88181852.63848
  24715037.820   129878410.66207  24715033.380   101203946.60245
  21036527.880   110547878.00709  21036523.080    86141249.74148
  20574647.860   108120588.79809  20574646.840    84249847.26949
  24500228.740   128749570.33907  24500232.540   100324343.74044
 15 03 03 01 52  0.0000000  0 10G04G07G11G16G18G19G21G22G27G32
  22525658.540   118373204.92508  22525657.500    92238888.22746
  24248624.040   127427379.82508  24248622.120    99294049.26846
  24146268.960   126889507.50708  24146266.320    98874935.30444
  20791686.720   109261078.57009  20791683.500    85138500.91048
  22594895.320   118737237.63508  22594891.720    92522566.99146
  21525266.640   113116073.94509  21525261.640    88142395.24348
  24729620.540   129955043.50407  24729616.220   101263660.49245
  21033995.780   110534573.41309  21033991.240    86130882.53248
  20571575.640   108104444.07609  20571574.600    84237266.96649
  24477815.920   128631790.84208  24477819.720   100232568.23244
 15 03 03 01 52 30.0000000  0 10G04G07G11G16G18G19G21G22G27G32
  22510620.200   118294178.15408  22510619.160    92177308.97646
  24249154.060   127430164.97008  24249152.100    99296219.48645
  24129464.820   126801201.47808  24129462.120    98806125.48845
  20800867.700   109309325.82809  20800864.600    85176096.17148
  22604461.720   118787509.61909  22604458.180    92561739.97846
  21515663.400   113065608.69109  21515658.400    88103071.67748
  24744199.160   130031654.77907  24744194.900   101323357.58045
  21031565.960   110521805.44309  21031561.580    86120933.47448
  20568551.060   108088549.73509  20568550.020    84224881.76749
  24455402.840   128514010.99108  24455406.700   100140792.43544
 15 03 03 01 53  0.0000000  0 10G04G07G11G16G18G19G21G22G27G32
  22495631.840   118215414.20808  22495630.800    92115934.52646
  24249781.020   127433459.48608  24249778.940    99298786.61745
  24112682.120   126713008.34108  24112679.500    98737403.65145
  20810146.200   109358084.87709  20810143.080    85214090.22748
  22614107.520   118838198.53309  22614104.060    92601237.83946
  21506092.680   113015314.38409  21506087.700    88063881.31748
  24758773.100   130108241.71607  24758769.160   101383035.68845
  21029238.180   110509572.67909  21029233.760    86111401.46548
  20565574.040   108072905.35509  20565572.960    84212691.33949
  24432989.780   128396232.10108  24432993.780   100049017.36744
 15 03 03 01 53 30.0000000  0 10G04G07G11G16G18G19G21G22G27G32
  22480693.020   118136910.68609  22480691.960    92054763.00447
  24250504.220   127437259.22608  24250502.060    99301747.41845
  24095920.340   126624925.62207  24095917.920    98668767.83445
  20819521.300   109407351.11109  20819518.120    85252479.47948
  22623831.760   118889299.40909  22623828.320    92641056.68947
  21496554.060   112965188.51009  21496549.100    88024822.19548
  24773341.700   130184800.26307  24773337.920   101442691.67245
  21027011.940   110497872.78909  21027007.280    86102284.67248
  20562644.180   108057508.83709  20562643.080    84200694.03649
  24410576.760   128278453.92408  24410581.040    99957242.81645
 15 03 03 01 54  0.0000000  0 10G04G07G11G16G18G19G21G22G27G32
  22465804.320   118058670.01809  22465803.160    91993796.31446
  24251323.880   127441565.69908  24251321.540    99305103.09745
  24079180.000   126536956.08207  24079177.880    98600220.23445
  20828993.000   109457124.95709  20828989.700    85291264.28048
  22633634.520   118940812.67708  22633631.080    92681196.90746
  21487047.980   112915233.94609  21487043.040    87985896.57948
  24787905.160   130261331.71907  24787901.480   101502326.56344
  21024887.620   110486708.08009  21024882.680    86093584.91948
  20559761.960   108042363.01509  20559760.980    84188892.10349
  24388164.660   128160680.94607  24388169.260    99865472.32045
 15 03 03 01 54 30.0000000  0 10G04G07G11G16G18G19G21G22G27G32
  22450965.680   117980692.44909  22450964.400    91933034.62747
  24252239.760   127446377.45608  24252237.260    99308852.49845
  24062461.140   126449099.13508  24062459.320    98531760.34945
  20838561.100   109507405.06809  20838557.660    85330443.57548
  22643515.400   118992736.49509  22643511.960    92721657.03147
  21477574.620   112865451.31409  21477569.660    87947104.92648
  24802463.460   130337836.12107  24802459.780   101561940.37445
  21022865.180   110476078.69609  21022859.980    86085302.29048
  20556927.620   108027468.75009  20556926.780    84177286.18049
  24365753.940   128042915.75308  24365759.000    99773707.87445
 15 03 03 01 55  0.0000000  0 10G04G07G11G16G18G19G21G22G27G32
  22436177.080   117902978.26808  22436175.580    91872478.18146
  24253251.520   127451692.96108  24253248.840    99312994.43845
  24045763.880   126361354.83308  24045762.160    98463388.22945
  20848225.260   109558190.44509  20848221.880    85370016.58848
  22653474.000   119045069.00809  22653470.640    92762435.61247
  21468133.940   112815840.80209  21468129.060    87908447.41348
  24817016.180   130414311.10207  24817012.520   101621531.24144
  21020944.540   110465984.10209  21020939.040    86077436.38948
  20554141.220   108012826.57309  20554140.520    84165876.69049
  24343345.140   127925160.63707  24343350.540    99681951.26145
 15 03 03 01 55 30.0000000  0 10G04G07G11G16G18G19G21G22G27G32
  22421438.440   117825526.58408  22421436.760    91812126.27147
  24254358.600   127457509.96808  24254355.900    99317527.14346
  24029088.000   126273722.29508  24029086.340    98395103.22745
  20857984.900   109609477.98609  20857981.720    85409980.89148
  22663509.800   119097807.18509  22663506.480    92803530.29747
  21458725.920   112766401.80409  21458721.080    87869923.53348
  24831562.960   130490755.06507  24831559.380   101681097.96845
  21019125.540   110456423.43709  21019119.740    86069986.53448
  20551402.740   107998436.09809  20551402.140    84154663.33449
  24320938.540   127807416.91207  24320944.260    99590203.50346
 15 03 03 01 56  0.0000000  0 10G04G07G11G16G18G19G21G22G27G32
  22406750.300   117748340.05509  22406748.700    91751980.97147
  24255561.120   127463829.34808  24255558.400    99322451.32345
  24012433.980   126186204.56908  24012432.200    98326907.67845
  20867840.400   109661268.67309  20867837.220    85450337.26248
  22673622.900   119150951.60109  22673619.540    92844941.53247
  21449351.220   112717137.34409  21449346.380    87831535.65648
  24846104.160   130567169.92007  24846100.760   101740641.98345
  21017408.620   110447399.62109  21017402.680    86062955.00848
  20548712.760   107984300.51509  20548712.220    84143648.59649
  24298535.220   127689689.69707  24298540.980    99498468.60745
 15 03 03 01 56 30.0000000  0 10G04G07G11G16G18G19G21G22G27G32
  22392112.740   117671419.13208  22392111.300    91692042.64847
  24256858.980   127470650.12408  24256856.300    99327766.20145
  23995801.840   126098801.65308  23995799.780    98258801.58545
  20877791.420   109713560.93409  20877788.120    85491084.47148
  22683812.960   119204500.61709  22683809.560    92886668.04346
  21440009.960   112668048.35009  21440005.000    87793284.49648
  24860639.660   130643554.93007  24860636.560   101800162.74045
  21015793.800   110438912.68709  21015787.840    86056341.82548
  20546071.480   107970420.71509  20546070.980    84132833.16249
  24276135.780   127571981.55608  24276141.260    99406748.51245
 15 03 03 01 57  0.0000000  0 10G04G07G11G16G18G19G21G22G27G32
  22377525.640   117594763.42209  22377524.220    91632310.97846
  24258251.600   127477969.86807  24258249.200    99333469.87145
  23979191.360   126011512.86808  23979189.120    98190784.42445
  20887837.460   109766352.56909  20887834.100    85532220.79748
  22694079.440   119258451.30209  22694075.900    92928707.53746
  21430702.020   112619134.35909  21430696.960    87755169.71048
  24875169.080   130719907.92807  24875166.060   101859658.55144
  21014280.760   110430961.37909  21014274.880    86050146.01348
  20543478.900   107956796.61309  20543478.440    84122216.97649
  24253740.420   127454294.05708  24253745.440    99315044.49745
 15 03 03 01 57 30.0000000  0 10G04G07G11G16G18G19G21G22G27G32
  22362988.580   117518370.22809  22362987.060    91572783.84046
  24259738.440   127485784.41807  24259736.380    99339559.10544
  23962602.100   125924335.77908  23962599.700    98122854.30044
  20897977.500   109819638.55209  20897974.080    85573742.33048
  22704421.400   119312798.48209  22704417.660    92971055.99446
  21421426.880   112570392.90109  21421421.740    87717189.36648
  24889691.800   130796225.08707  24889688.860   101919126.44844
  21012868.960   110423542.96909  21012863.280    86044365.44448
  20540934.660   107943426.12409  20540934.160    84111798.41149
  24231349.020   127336626.93908  24231353.500    99223356.32844
 15 03 03 01 58  0.0000000  0 10G04G07G11G16G18G19G21G22G27G32
  22348502.800   117442246.84909  22348501.280    91513466.96447
  24261320.520   127494099.59207  24261318.820    99346038.46545
  23946035.380   125837277.34508  23946032.860    98055016.63045
  20908212.640   109873425.19109  20908209.260    85615653.99748
  22714839.860   119367547.69909  22714835.920    93013717.73347
  21412185.980   112521832.04309  21412180.920    87679349.76148
  24904209.120   130872513.37207  24904206.140   101978571.81845
  21011559.920   110416664.83409  21011554.460    86039005.87948
  20538440.180   107930317.04609  20538439.560    84101583.56049
  24208963.300   127218989.78008  24208967.200    99131691.49445
 15 03 03 01 58 30.0000000  0 10G04G07G11G16G18G19G21G22G27G32
  22334067.260   117366387.98908  22334065.880    91454356.20947
  24262996.520   127502908.08807  24262995.100    99352902.19145
  23929490.100   125750332.01108  23929487.620    97987267.08244
  20918541.660   109927704.90909  20918538.360    85657949.85048
  22725333.400   119422691.56009  22725329.360    93056686.96846
  21402978.400   112473446.49309  21402973.500    87641646.73548
  24918719.540   130948765.45107  24918716.480   102037988.98544
  21010352.460   110410321.07909  21010347.320    86034062.68948
  20535994.560   107917464.44309  20535993.740    84091568.53049
  24186582.640   127101379.44908  24186586.020    99040047.51844
 15 03 03 01 59  0.0000000  0 10G04G07G11G16G18G19G21G22G27G32
  22319682.820   117290798.09309  22319681.560    91395455.04947
  24264767.180   127512212.92908  24264766.000    99360152.70345
  23912967.180   125663504.30508  23912964.680    97919609.21845
  20928965.120   109982480.42509  20928961.780    85700632.06448
  22735902.460   119478232.02509  22735898.420    93099965.26646
  21393805.100   112425241.04109  21393800.300    87604084.05348
  24933223.820   131024984.95307  24933220.460   102097380.78344
  21009247.320   110404515.51809  21009242.560    86029538.88348
  20533598.680   107904873.33109  20533597.680    84081757.27449
  24164208.180   126983802.59408  24164211.280    98948429.65145
 15 03 03 01 59 30.0000000  0 10G04G07G11G16G18G19G21G22G27G32
  22305349.560   117215476.89209  22305348.200    91336763.25147
  24266632.020   127522012.26508  24266630.680    99367788.52845
  23896466.620   125576793.95508  23896464.120    97852042.78545
  20939482.360   110037749.21209  20939479.020    85743698.63548
  22746546.560   119534166.78809  22746542.480    93143550.79646
  21384666.180   112377215.99209  21384661.480    87566661.95148
  24947721.580   131101170.35207  24947718.060   102156746.00944
  21008244.580   110399248.17009  21008240.140    86025434.45648
  20531252.580   107892544.10109  20531251.520    84072150.08449
  24141840.400   126866261.55808  24141843.400    98856839.69145
 15 03 03 02 00  0.0000000  0 10G04G07G11G16G18G19G21G22G27G32
  22291067.260   117140423.41609  22291065.820    91278280.07046
  24268590.380   127532302.79908  24268588.680    99375807.12445
  23879988.300   125490199.83608  23879985.560    97784566.91145
  20950092.900   110093508.46509  20950089.600    85787147.38748
  22757265.000   119590492.50709  22757260.840    93187440.96546
  21375561.500   112329370.45809  21375556.780    87529379.72148
  24962212.500   131177319.71507  24962208.800   102216083.16044
  21007344.060   110394517.13809  21007339.780    86021747.94248
  20528956.120   107880476.06209  20528955.100    84062746.41549
  24119479.520   126748757.42208  24119482.660    98765278.47044
 15 03 03 02 00 30.0000000  0 10G04G07G11G16G18G19G21G22G27G32
  22276836.680   117065641.24209  22276835.180    91220008.31246
  24270642.640   127543087.14308  24270640.840    99384210.48145
  23863532.820   125403725.62408  23863529.940    97717184.47345
  20960797.300   110149760.68709  20960794.080    85830980.27548
  22768058.040   119647210.56209  22768053.840    93231636.85646
  21366491.760   112281708.46809  21366486.940    87492240.51648
  24976697.020   131253435.62807  24976693.360   102275394.20344
  21006546.500   110390326.04509  21006542.120    86018482.16348
  20526710.120   107868673.58309  20526709.200    84053549.67649
  24097126.800   126631296.18607  24097129.980    98673750.66245
 15 03 03 02 01  0.0000000  0 10G04G07G11G16G18G19G21G22G27G32
  22262657.240   116991127.52709  22262655.500    91161945.72246
  24272787.860   127554360.10908  24272786.040    99392994.60145
  23847099.460   125317368.20408  23847096.700    97649893.03345
  20971594.380   110206499.93309  20971591.300    85875192.66548
  22778924.660   119704315.44609  22778920.480    93276134.16446
  21357456.480   112234227.52809  21357451.540    87455242.39148
  24991174.360   131329514.15807  24991170.460   102334676.17544
  21005851.180   110386671.16809  21005846.500    86015634.21748
  20524514.120   107857134.04509  20524513.300    84044557.82748
  24074782.240   126513877.17708  24074785.460    98582255.75244
 15 03 03 02 01 30.0000000  0 10G04G07G11G16G18G19G21G22G27G32
  22248529.760   116916886.61709  22248527.700    91104095.69746
  24275026.600   127566124.53008  24275024.840    99402161.66946
  23830689.140   125231131.89008  23830686.560    97582695.97045
  20982484.740   110263728.83509  20982481.660    85919786.61248
  22789865.420   119761809.95908  22789861.220    93320935.08946
  21348456.620   112186932.58209  21348451.640    87418389.19748
  25005645.120   131405558.26607  25005641.300   102393931.31244
  21005258.680   110383556.43209  21005253.700    86013207.16548
  20522369.140   107845862.57009  20522368.340    84035774.86549
  24052447.160   126396507.16108  24052450.380    98490798.99745
 15 03 03 02 02  0.0000000  0 10G04G07G11G16G18G19G21G22G27G32
  22234452.900   116842912.14209  22234450.860    91046453.30047
  24277357.200   127578372.07608  24277355.560    99411705.17646
  23814300.720   125145010.34808  23814298.240    97515588.33545
  20993466.780   110321439.73209  20993463.660    85964756.13848
  22800878.580   119819685.21708  22800874.560    93366032.68946
  21339491.000   112139817.66809  21339485.980    87381676.28948
  25020107.980   131481561.35007  25020104.260   102453154.46744
  21004767.840   110380975.71609  21004762.500    86011196.22548
  20520274.100   107834853.27009  20520273.260    84027196.19049
  24030120.780   126279182.27508  24030123.820    98399377.39345
 15 03 03 02 02 30.0000000  0 10G04G07G11G16G18G19G21G22G27G32
  22220428.020   116769210.78209  22220426.180    90989023.72447
  24279780.740   127591107.68908  24279779.040    99421629.01445
  23797935.460   125059010.27608  23797933.080    97448575.34745
  21004541.280   110379636.95909  21004538.180    86010104.61448
  22811965.080   119877945.67808  22811961.280    93411430.44446
  21330560.900   112092889.62909  21330555.900    87345109.00248
  25034563.900   131557528.32407  25034560.320   102512349.51044
  21004379.680   110378934.89609  21004374.080    86009606.00348
  20518230.380   107824113.42609  20518229.480    84018827.48449
  24007804.720   126161911.31008  24007807.600    98307997.79845
 15 03 03 02 03  0.0000000  0 10G04G07G11G16G18G19G21G22G27G32
  22206454.860   116695781.54109  22206453.260    90931806.17547
  24282296.660   127604328.50408  24282294.820    99431930.91945
  23781593.000   124973130.19008  23781590.820    97381655.84545
  21015707.840   110438317.40709  21015704.600    86055829.62048
  22823124.320   119936588.19009  22823120.720    93457125.90846
  21321666.220   112046147.91709  21321661.240    87308686.88748
  25049012.600   131633457.46907  25049009.280   102571515.07044
  21004093.900   110377432.27709  21004088.120    86008435.14148
  20516237.820   107813642.47609  20516236.920    84010668.29849
  23985499.120   126044695.69708  23985501.860    98216661.30645
 15 03 03 02 03 30.0000000  0 10G04G07G11G16G18G19G21G22G27G32
  22192533.460   116622625.12808  22192532.100    90874801.22147
  24284904.720   127618033.36308  24284902.580    99442610.00845
  23765273.500   124887370.85408  23765271.420    97314830.47245
  21026966.180   110497479.84909  21026962.820    86101930.22148
  22834356.060   119995611.16909  22834352.460    93503117.84246
  21312807.320   111999593.97009  21312802.280    87272411.10348
  25063454.060   131709348.55507  25063450.920   102630650.96744
  21003910.560   110376468.24609  21003904.660    86007683.96648
  20514296.740   107803441.78509  20514295.860    84002719.72049
  23963204.500   125927538.57008  23963207.300    98125370.42845
 15 03 03 02 04  0.0000000  0 10G04G07G11G16G18G19G21G22G27G32
  22178663.740   116549740.35309  22178662.520    90818007.91447
  24287604.540   127632219.70508  24287602.000    99453664.30245
  23748976.900   124801731.68808  23748974.800    97248098.70845
  21038315.660   110557121.13109  21038312.240    86148403.92448
  22845659.640   120055011.26509  22845655.940    93549403.62546
  21303984.040   111953227.16609  21303978.940    87236281.13448
  25077887.840   131785199.31407  25077884.960   102689755.42844
  21003829.280   110376041.07409  21003823.360    86007351.10948
  20512407.040   107793510.98709  20512406.140    83994981.43849
  23940921.140   125810441.43208  23940924.120    98034126.26545
 15 03 03 02 04 30.0000000  0 10G04G07G11G16G18G19G21G22G27G32
  22164845.960   116477127.79409  22164844.760    90761426.74047
  24290395.540   127646885.79908  24290392.900    99465092.41345
  23732703.120   124716212.87208  23732701.000    97181460.72945
  21049756.020   110617239.86609  21049752.560    86195249.68848
  22857034.560   120114786.41109  22857030.740    93595981.66746
  21295196.440   111907048.01609  21295191.440    87200297.39548
  25092313.960   131861009.31807  25092311.080   102748828.14144
  21003850.120   110376150.81309  21003844.260    86007436.63648
  20510568.840   107783850.79709  20510567.900    83987454.02349
  23918649.660   125693406.72108  23918652.980    97942930.76545
 15 03 03 02 05  0.0000000  0 10G04G07G11G16G18G19G21G22G27G32
  22151080.380   116404788.93909  22151079.000    90705058.84047
  24293277.680   127662031.17707  24293275.040    99476893.99245
  23716452.420   124630815.86608  23716450.260    97114917.66645
  21061287.180   110677835.96409  21061283.720    86242467.41648
  22868480.820   120174936.62908  22868476.920    93642851.96746
  21286445.040   111861059.09909  21286440.080    87164461.86948
  25106732.680   131936779.66707  25106729.700   102807869.93344
  21003973.380   110376799.02709  21003967.640    86007941.74248
  20508782.520   107774463.72209  20508781.580    83980139.41349
  23896391.020   125576438.75408  23896394.400    97851787.25946
 15 03 03 02 05 30.0000000  0 10G04G07G11G16G18G19G21G22G27G32
  22137366.900   116332723.46609  22137365.180    90648903.97747
  24296250.620   127677653.56907  24296247.660    99489067.26844
  23700224.760   124545540.05908  23700222.680    97048469.04345
  21072908.500   110738906.27409  21072905.140    86290054.66448
  22879997.820   120235458.73609  22879993.940    93690012.06246
  21277729.700   111815259.84109  21277724.820    87128774.14148
  25121143.520   132012508.26507  25121140.200   102866879.21745
  21004198.760   110377983.97109  21004193.120    86008865.08648
  20507048.140   107765349.64609  20507047.220    83973037.53849
  23874145.580   125459539.30508  23874148.740    97760697.14445
 15 03 03 02 06  0.0000000  0  9G04G07G11G16G18G19G22G27G32
  22123705.740   116260933.08709  22123703.720    90592963.46147
  24299314.200   127693753.18007  24299311.160    99501612.39344
  23684020.560   124460387.42808  23684018.520    96982116.41545
  21084619.980   110800450.79509  21084616.720    86338011.42448
  22891585.440   120296352.12208  22891581.640    93737461.45046
  21269051.020   111769652.98809  21269046.040    87093236.33448
  21004526.520   110379707.09809  21004521.020    86010207.79248
  20505366.180   107756511.15209  20505365.300    83966150.39949
  23851914.120   125342712.68608  23851916.920    97669663.75046
 15 03 03 02 06 30.0000000  0 10G01G04G07G11G16G18G19G22G27G32
  24592924.740   129236692.79607  24592927.420   100703925.11344
  22110096.540   116189415.98709  22110094.480    90537235.89847
  24302467.820   127710326.14507  24302464.720    99514526.35345
  23667839.580   124375356.30808  23667837.600    96915858.45945
  21096420.940   110862465.72109  21096417.660    86386334.72248
  22903242.880   120357612.73708  22903239.100    93785197.00046
  21260408.720   111724237.14309  21260403.600    87057847.37048
  21004956.240   110381966.15109  21004950.940    86011968.10348
  20503736.440   107747947.00509  20503735.620    83959477.03649
  23829696.700   125225959.57408  23829699.120    97578687.63745
 15 03 03 02 07  0.0000000  0 10G01G04G07G11G16G18G19G22G27G32
  24576428.580   129150005.97807  24576430.960   100636377.13344
  22096540.120   116118176.68509  22096538.140    90481724.79847
  24305712.000   127727375.05207  24305709.020    99527811.18045
  23651682.640   124290451.20208  23651680.660    96849698.69345
  21108311.940   110924953.45509  21108308.480    86435026.43748
  22914970.760   120419243.59308  22914967.000    93833221.04046
  21251803.720   111679017.59909  21251798.600    87022611.37248
  21005488.840   110384765.26409  21005483.640    86014149.23248
  20502159.920   107739662.42509  20502159.140    83953021.52449
  23807494.500   125109286.94808  23807496.520    97487774.22445
 15 03 03 02 07 30.0000000  0 10G01G04G07G11G16G18G19G22G27G32
  24559961.440   129063471.20407  24559963.980   100568947.61945
  22083035.500   116047210.20009  22083033.560    90426426.27846
  24309045.440   127744892.92008  24309042.600    99541461.43244
  23635548.720   124205666.91208  23635546.760    96783633.07045
  21120291.720   110987907.19809  21120288.100    86484081.28748
  22926767.620   120481236.89208  22926763.900    93881527.51146
  21243235.220   111633989.82009  21243230.160    86987524.79548
  21006123.180   110388098.41209  21006118.000    86016746.50348
  20500635.760   107731653.03109  20500635.040    83946780.43849
  23785307.020   124992692.25408  23785308.720    97396921.54744
 15 03 03 02 08  0.0000000  0 10G01G04G07G11G16G18G19G22G27G32
  24543524.000   128977092.59607  24543526.720   100501639.79845
  22069583.560   115976520.52209  22069581.680    90371343.43247
  24312468.660   127762881.77408  24312465.840    99555478.68845
  23619438.660   124121007.66508  23619436.780    96717664.88746
  21132360.360   111051328.12709  21132356.700    86533500.17248
  22938633.780   120543594.32508  22938630.080    93930117.71646
  21234703.960   111589158.11409  21234699.040    86952591.00848
  21006859.900   110391969.27409  21006854.700    86019762.76948
  20499164.940   107723923.37609  20499164.140    83940757.32149
  23763135.560   124876181.89608  23763136.900    97306134.55845
 15 03 03 02 08 30.0000000  0 10G01G04G07G11G16G18G19G22G27G32
  24527116.040   128890868.63608  24527118.800   100434452.48745
  22056184.020   115906106.01309  22056182.380    90316475.01647
  24315980.880   127781337.89708  24315977.920    99569860.06745
  23603352.060   124036471.79608  23603350.160    96651792.83945
  21144517.240   111115213.05509  21144513.740    86583280.63848
  22950568.460   120606311.89708  22950564.740    93978988.55946
  21226209.840   111544521.50609  21226204.960    86917809.24748
  21007698.520   110396375.54709  21007693.200    86023196.23548
  20497747.180   107716472.47909  20497746.240    83934951.42849
  23740980.360   124759756.73208  23740981.340    97215413.96745
 15 03 03 02 09  0.0000000  0 10G01G04G07G11G16G18G19G22G27G32
  24510738.020   128804801.74208  24510740.720   100367387.56045
  22042837.200   115835968.84909  22042835.920    90261822.73247
  24319582.140   127800261.74208  24319578.940    99584605.89144
  23587289.340   123952061.36708  23587287.360    96586018.52446
  21156762.540   111179562.59609  21156759.200    86633423.13148
  22962571.760   120669389.95308  22962568.040    94028140.30046
  21217753.440   111500082.86709  21217748.520    86883181.74148
  21008639.280   110401318.93009  21008633.820    86027048.23448
  20496383.020   107709303.29509  20496381.940    83929365.04449
  23718842.400   124643421.64208  23718843.160    97124763.54645
 15 03 03 02 09 30.0000000  0 10G01G04G07G11G16G18G19G22G27G32
  24494389.520   128718890.49307  24494392.380   100300443.90246
  22029542.980   115766107.58809  22029541.780    90207385.42047
  24323271.780   127819649.66208  24323268.300    99599713.32445
  23571250.180   123867775.19608  23571248.280    96520341.04546
  21169095.500   111244372.59109  21169092.300    86683924.42248
  22974642.900   120732824.48708  22974639.280    94077569.81146
  21209334.580   111455841.36909  21209329.460    86848707.85348
  21009681.740   110406796.82109  21009676.120    86031316.73748
  20495072.220   107702414.89209  20495071.140    83923997.45749
  23696721.760   124527177.47808  23696722.460    97034183.96546
 15 03 03 02 10  0.0000000  0 10G01G04G07G11G16G18G19G22G27G32
  24478071.040   128633137.06407  24478074.000   100233623.22146
  22016301.720   115696524.13909  22016300.520    90153164.58247
  24327049.660   127839501.78608  24327046.280    99615182.48145
  23555234.960   123783615.31708  23555233.220    96454761.96846
  21181516.100   111309642.86409  21181512.900    86734784.35448
  22986781.880   120796615.06908  22986778.380    94127276.75146
  21200953.720   111411799.55609  21200948.440    86814389.55348
  21010826.260   110412811.04409  21010820.500    86036003.15048
  20493815.300   107695810.00309  20493814.240    83918850.78949
  23674619.280   124411028.88908  23674620.100    96943678.85846
 15 03 03 02 10 30.0000000  0 10G01G04G07G11G16G18G19G22G27G32
  24461782.620   128547541.45907  24461785.720   100166925.50846
  22003113.300   115627218.39109  22003112.100    90099160.15247
  24330915.440   127859815.97107  24330912.280    99631011.68645
  23539243.760   123699581.36208  23539242.060    96389281.01546
  21194023.820   111375370.88009  21194020.460    86786000.96948
  22998988.280   120860759.63208  22998984.760    94177259.53646
  21192610.880   111367957.64309  21192605.560    86780227.03648
  21012072.600   110419360.63409  21012066.800    86041106.74148
  20492612.440   107689489.09409  20492611.400    83913925.41749
  23652535.280   124294978.05008  23652536.300    96853249.95146
 15 03 03 02 11  0.0000000  0 10G01G04G07G11G16G18G19G22G27G32
  24445524.820   128462106.75607  24445528.020   100100353.15646
  21989978.340   115558193.31609  21989977.040    90045374.41447
  24334869.120   127880593.13107  24334866.380    99647201.65045
  23523277.160   123615676.59108  23523275.420    96323900.71545
  21206619.020   111441558.26709  21206615.320    86837575.53848
  23011262.120   120925258.77808  23011258.620    94227518.61546
  21184306.920   111324319.51609  21184301.540    86746223.29848
  21013421.200   110426447.70309  21013415.440    86046629.13948
  20491464.340   107683455.79809  20491463.260    83909224.15049
  23630470.840   124179030.59808  23630472.220    96762901.57645
 15 03 03 02 11 30.0000000  0 10G01G04G07G11G16G18G19G22G27G32
  24429297.340   128376831.17008  24429300.680   100033904.77445
  21976896.400   115489446.93909  21976894.900    89991805.84146
  24338910.000   127901828.89207  24338907.720    99663748.96545
  23507334.780   123531899.09708  23507333.000    96258619.60245
  21219300.620   111508200.23809  21219296.640    86889504.32548
  23023602.540   120990108.07808  23023599.140    94278050.53346
  21176041.460   111280883.71309  21176036.040    86712377.21648
  21014871.600   110434069.70909  21014865.820    86052568.36648
  20490370.740   107677708.84409  20490369.640    83904746.00049
  23608426.040   124063186.91208  23608427.760    96672634.05845
 15 03 03 02 12  0.0000000  0 10G01G04G07G11G16G18G19G22G27G32
  24413100.060   128291714.40908  24413103.400    99967580.13246
  21963867.440   115420978.88009  21963865.680    89938454.13347
  24343037.740   127923520.86407  24343035.740    99680651.79845
  23491416.520   123448248.38708  23491414.620    96193437.28545
  21232068.080   111575294.22209  21232064.120    86941785.34048
  23036009.040   121055304.95208  23036005.700    94328853.29046
  21167814.540   111237650.65409  21167809.160    86678689.12348
  21016423.520   110442225.39509  21016417.700    86058923.45748
  20489331.680   107672248.48109  20489330.580    83900491.17449
  23586401.420   123947449.22008  23586403.460    96582449.10945
 15 03 03 02 12 30.0000000  0 10G01G04G07G11G16G18G19G22G27G32
  24396933.240   128206757.59108  24396936.400    99901380.11245
  21950891.540   115352789.96209  21950889.640    89885319.94147
  24347252.120   127945668.42607  24347250.360    99697909.60045
  23475522.520   123364725.27608  23475520.480    96128354.38746
  21244921.240   111642838.80109  21244917.560    86994417.47048
  23048481.420   121120848.02208  23048478.040    94379925.80646
  21159626.420   111194621.70409  21159621.100    86645160.07948
  21018076.940   110450914.71209  21018071.180    86065694.35948
  20488347.420   107667076.31309  20488346.340    83896460.90249
  23564397.740   123831821.09208  23564399.940    96492349.52646
 15 03 03 02 13  0.0000000  0 10G01G04G07G11G16G18G19G22G27G32
  24380796.580   128121959.21408  24380799.540    99835303.55745
  21937968.380   115284878.60009  21937966.500    89832402.01747
  24351552.560   127968267.22807  24351550.940    99715519.03045
  23459652.580   123281328.32308  23459650.220    96063369.79745
  21257859.660   111710831.06909  21257856.240    87047398.44048
  23061018.980   121186733.32308  23061015.580    94431264.99346
  21151476.940   111151796.01309  21151471.620    86611789.41748
  21019831.480   110460135.77509  21019825.920    86072879.60748
  20487417.840   107662191.41809  20487416.800    83892654.47949
  23542415.200   123716303.41808  23542417.380    96402335.98146
 15 03 03 02 13 30.0000000  0 10G01G04G07G11G16G18G19G22G27G32
  24364690.280   128037319.92608  24364692.840    99769350.97245
  21925098.080   115217245.05609  21925096.240    89779700.58747
  24355938.640   127991315.68007  24355936.940    99733478.86445
  23443806.820   123198058.39208  23443804.260    95998484.19445
  21270882.940   111779268.49709  21270879.640    87100726.29548
  23073621.420   121252959.31108  23073617.960    94482869.67246
  21143366.360   111109174.90909  21143361.080    86578578.18148
  21021687.140   110469887.96009  21021681.700    86080478.72548
  20486543.180   107657595.05409  20486542.160    83889072.90049
  23520454.400   123600899.28708  23520456.380    96312410.92546
 15 03 03 02 14  0.0000000  0 10G01G04G07G11G16G18G19G22G27G32
  24348614.700   127952841.87808  24348616.900    99703524.02445
  21912281.140   115149891.60309  21912279.380    89727217.40547
  24360410.420   128014814.01008  24360408.540    99751789.21245
  23427985.600   123114917.37508  23427982.980    95933699.02945
  21283991.000   111848151.37609  21283987.760    87154401.24948
  23086288.660   121319525.68408  23086285.160    94534739.57446
  21135295.100   111066760.74809  21135289.900    86545528.18748
  21023644.180   110480172.44309  21023638.840    86088492.61348
  20485723.980   107653289.82409  20485722.920    83885718.17649
  23498516.140   123485613.22608  23498517.840    96222577.87245
 15 03 03 02 14 30.0000000  0 10G01G04G07G11G16G18G19G22G27G32
  24332570.200   127868527.27008  24332572.140    99637824.45045
  21899517.800   115082819.98009  21899516.080    89674953.84247
  24364967.760   128038761.90508  24364965.680    99770449.88144
  23412189.400   123031907.60208  23412186.760    95869016.15145
  21297183.700   111917479.46609  21297180.420    87208423.12248
  23099020.540   121386431.82308  23099017.000    94586874.22846
  21127263.740   111024556.43109  21127258.700    86512641.71248
  21025702.840   110490990.69509  21025697.580    86096922.42548
  20484960.680   107649278.57209  20484959.600    83882592.52249
  23476601.300   123370449.91208  23476602.740    96132840.47946
 15 03 03 02 15  0.0000000  0 10G01G04G07G11G16G18G19G22G27G32
  24316556.140   127784373.20308  24316557.940    99572249.95845
  21886807.580   115016027.59909  21886805.840    89622907.86147
  24369609.620   128063154.46908  24369607.480    99789457.04345
  23396417.680   122949026.02908  23396414.980    95804433.16445
  21310459.960   111987247.19609  21310456.640    87262787.56648
  23111816.140   121453673.04508  23111812.700    94639269.99046
  21119271.900   110982559.70909  21119267.000    86479917.00048
  21027862.340   110502338.84209  21027857.100    86105765.13048
  20484252.840   107645558.96609  20484251.760    83879694.12249
  23454709.760   123255408.91408  23454710.940    96043198.40146
 15 03 03 02 15 30.0000000  0 10G01G04G07G11G16G18G19G22G27G32
  24300573.200   127700383.03007  24300575.020    99506803.16746
  21874150.920   114949517.27909  21874149.240    89571081.67747
  24374336.140   128087992.43308  24374333.820    99808811.27244
  23380670.940   122866275.89208  23380668.260    95739952.60746
  21323820.020   112057455.32409  21323816.700    87317495.18448
  23124675.560   121521249.83708  23124672.160    94691927.22846
  21111320.360   110940774.28909  21111315.540    86447356.94349
  21030123.080   110514219.01909  21030117.840    86115022.42548
  20483601.200   107642134.87409  20483600.160    83877025.99649
  23432842.580   123140495.99408  23432843.420    95953656.10846
 15 03 03 02 16  0.0000000  0 10G01G04G07G11G16G18G19G22G27G32
  24284621.240   127616556.12007  24284623.380    99441483.61845
  21861547.840   114883288.33009  21861546.160    89519474.72647
  24379146.900   128113273.12408  24379144.560    99828510.47344
  23364949.100   122783656.53208  23364946.340    95675573.94246
  21337263.440   112128101.46409  21337260.160    87372544.11248
  23137598.240   121589159.06008  23137594.860    94744843.51046
  21103409.060   110899200.42109  21103404.300    86414961.73548
  21032484.700   110526629.34709  21032479.460    86124692.82348
  20483005.760   107639006.25709  20483004.760    83874588.11349
  23411000.080   123025713.06608  23411000.600    95864215.09245
 15 03 03 02 16 30.0000000  0 10G01G04G07G11G16G18G19G22G27G32
  24268700.380   127532892.68407  24268702.900    99376291.42646
  21848998.420   114817340.89809  21848996.740    89468087.13147
  24384041.520   128138994.33908  24384039.240    99848552.90945
  23349252.220   122701168.40508  23349249.280    95611297.53446
  21350789.880   112199183.43309  21350786.620    87427932.63548
  23150583.900   121657398.97208  23150580.360    94798017.46246
  21095538.100   110857838.82209  21095533.440    86382731.92348
  21034947.120   110539569.54409  21034941.880    86134776.09548
  20482466.700   107636173.94009  20482465.740    83872381.10949
  23389182.680   122911062.74608  23389183.000    95774877.39445
 15 03 03 02 17  0.0000000  0 10G01G04G07G11G16G18G19G22G27G32
  24252811.060   127449394.76907  24252813.800    99311228.20745
  21836502.960   114751676.82309  21836501.360    89416920.34247
  24389019.940   128165155.63708  24389017.600    99868938.28344
  23333580.500   122618812.92908  23333577.460    95547124.46845
  21364399.220   112270700.33809  21364395.900    87483660.07548
  23163632.300   121725968.90008  23163628.800    94851448.57446
  21087708.000   110816692.15009  21087703.440    86350669.58248
  21037510.620   110553040.84809  21037505.360    86145273.22248
  20481984.540   107633640.52409  20481983.600    83870407.01949
  23367391.280   122796549.62208  23367391.460    95685646.58045
 15 03 03 02 17 30.0000000  0 10G01G04G07G11G16G18G19G22G27G32
  24236952.900   127366060.19607  24236955.800    99246292.26046
  21824060.940   114686293.61209  21824059.340    89365972.42047
  24394081.260   128191752.54908  24394078.720    99889663.12045
  23317933.600   122536588.46408  23317930.600    95483053.48745
  21378090.500   112342647.87509  21378087.200    87539723.07048
  23176742.580   121794864.21308  23176739.220    94905133.22546
  21079918.640   110775758.92009  21079914.040    86318773.55948
  21040174.540   110567039.74509  21040169.280    86156181.45148
  20481559.020   107631404.41509  20481558.060    83868664.59549
  23345626.020   122682173.95608  23345626.180    95596522.87345
 15 03 03 02 18  0.0000000  0 10G01G04G07G11G16G18G19G22G27G32
  24221126.480   127282892.08608  24221129.360    99181486.01145
  21811672.960   114621194.23509  21811671.180    89315245.66547
  24399225.600   128218785.83908  24399223.000    99910728.00545
  23302312.040   122454497.88608  23302309.200    95419086.84445
  21391863.860   112415027.06509  21391860.620    87596122.43748
  23189914.880   121864085.63108  23189911.640    94959071.99146
  21072170.660   110735042.71609  21072165.900    86287046.66448
  21042939.200   110581567.98709  21042933.880    86167502.17148
  20481190.900   107629469.34009  20481189.840    83867156.74749
  23323887.980   122567941.25908  23323888.200    95507510.57245
 15 03 03 02 18 30.0000000  0 10G01G04G07G11G16G18G19G22G27G32
  24205331.400   127199888.56708  24205334.020    99116807.99745
  21799338.620   114556376.69609  21799336.700    89264738.52147
  24404452.120   128246251.08708  24404449.620    99932129.47945
  23286715.640   122372539.47808  23286712.880    95355223.17446
  21405718.360   112487833.04409  21405715.220    87652854.35648
  23203148.420   121933628.78708  23203145.240    95013261.45346
  21064463.800   110694542.21309  21064458.820    86255487.83048
  21045803.980   110596622.66209  21045798.580    86179233.08948
  20480879.840   107627833.99409  20480878.680    83865882.44949
  23302177.420   122453852.28708  23302177.620    95418610.25946
 15 03 03 02 19  0.0000000  0 10G01G04G07G11G16G18G19G22G27G32
  24189567.760   127117049.99608  24189570.140    99052258.51445
  21787058.000   114491841.31109  21787056.020    89214451.23647
  24409760.420   128274146.46608  24409758.060    99953866.11546
  23271144.460   122290713.60208  23271141.900    95291462.79445
  21419653.740   112561064.16209  21419650.700    87709917.55748
  23216442.900   122003491.80608  23216439.680    95067700.15646
  21056798.200   110654258.61409  21056793.040    86224098.02148
  21048768.820   110612203.18309  21048763.360    86191373.75748
  20480625.980   107626499.39609  20480624.700    83864842.49949
  23280494.860   122339909.94608  23280495.000    95329824.20445
 15 03 03 02 19 30.0000000  0 10G01G04G07G11G16G18G19G22G27G32
  24173835.560   127034376.49008  24173837.480    98987837.68345
  21774831.000   114427587.75309  21774829.060    89164383.56247
  24415150.160   128302469.67508  24415147.820    99975936.12145
  23255598.560   122209020.14208  23255596.100    95227805.59245
  21433669.540   112634717.88809  21433666.560    87767310.05248
  23229797.820   122073672.12708  23229794.480    95122386.12945
  21049173.960   110614192.47109  21049168.720    86192877.65848
  21051833.580   110628308.67609  21051828.100    86203923.50648
  20480429.460   107625466.21409  20480428.040    83864037.42049
  23258840.740   122226116.85608  23258840.720    95241154.46445
 15 03 03 02 20  0.0000000  0 10G01G04G07G11G16G18G19G22G27G32
  24158135.020   126951869.81408  24158136.760    98923546.83445
  21762657.980   114363618.01209  21762656.040    89114537.03947
  24420621.160   128331219.90308  24420618.920    99998338.88446
  23240078.400   122127461.08008  23240076.000    95164253.12746
  21447765.640   112708793.21509  21447762.620    87825031.06148
  23243213.100   122144169.30308  23243209.600    95177318.99746
  21041591.580   110574346.40909  21041586.400    86161828.77648
  21054998.380   110644939.57909  21054992.860    86216882.64948
  20480290.680   107624736.86009  20480289.240    83863469.08649
  23237215.780   122112477.21108  23237215.640    95152604.28246
 15 03 03 02 20 30.0000000  0 10G01G04G07G11G16G18G19G22G27G32
  24142465.960   126869528.88108  24142467.540    98859385.13645
  21750538.580   114299930.53409  21750536.700    89064910.46047
  24426172.740   128360394.23907  24426170.620   100021072.11046
  23224583.680   122046035.10408  23224581.120    95100804.37045
  21461941.420   112783287.12309  21461938.340    87883078.24748
  23256688.020   122214980.08308  23256684.420    95232496.23346
  21034050.960   110534720.27009  21034045.900    86130951.27248
  21058262.760   110662093.94609  21058257.340    86230249.69248
  20480209.580   107624310.85809  20480208.180    83863137.13449
  23215620.280   121998992.59208  23215620.080    95064174.89446
 15 03 03 02 21  0.0000000  0 10G01G04G07G11G16G18G19G22G27G32
  24126829.260   126787358.18508  24126830.920    98795356.07345
  21738473.740   114236529.63009  21738471.920    89015507.17647
  24431805.260   128389994.19008  24431803.020   100044136.96745
  23209115.220   121964746.96808  23209112.320    95037463.02245
  21476197.180   112858201.58709  21476194.080    87941453.13748
  23270222.980   122286106.28108  23270219.360    95287919.24045
  21026553.240   110495319.64409  21026548.300    86100249.48648
  21061627.420   110679775.13809  21061622.060    86244027.25148
  20480187.140   107624193.25309  20480185.840    83863045.49249
  23194055.500   121885669.85908  23194055.400    94975871.65146
 15 03 03 02 21 30.0000000  0  9G01G04G11G16G18G19G22G27G32
  24111223.240   126705348.70108  24111225.180    98731452.64445
  21726461.700   114173406.34309  21726459.940    88966320.21647
  23193671.200   121883587.58608  23193668.000    94974221.98445
  21490530.540   112933524.94609  21490527.580    88000146.63948
  23283815.800   122357536.63108  23283812.240    95343579.23046
  21019096.640   110456135.17709  21019091.820    86069716.13248
  21065090.400   110697972.77909  21065084.960    86258207.22348
  20480221.760   107624375.68109  20480220.560    83863187.63649
  23172520.280   121772502.81208  23172520.360    94887689.70446
 15 03 03 02 22  0.0000000  0  9G01G04G11G16G18G19G22G27G32
  24095650.340   126623513.02908  24095652.620    98667684.64046
  21714504.780   114110572.96709  21714503.080    88917359.17247
  23178254.060   121802569.76308  23178250.840    94911091.28545
  21504943.640   113009267.56709  21504940.840    88059166.85448
  23297468.420   122429281.27608  23297464.900    95399484.14046
  21011683.700   110417180.33209  21011678.920    86039361.72048
  21068653.800   110716698.36209  21068648.260    86272798.59248
  20480315.980   107624871.38909  20480314.900    83863573.90549
  23151017.440   121659506.31808  23151017.780    94799640.65946
 15 03 03 02 22 30.0000000  0  9G01G04G11G16G18G19G22G27G32
  24080109.080   126541843.53508  24080111.620    98604046.12046
  21702601.640   114048021.62009  21702599.880    88868617.88547
  23162862.320   121721685.58708  23162859.120    94848064.70746
  21519434.640   113085418.94509  21519431.960    88118505.57248
  23311178.860   122501329.58008  23311175.280    95455625.66246
  21004313.100   110378448.00909  21004308.280    86009180.68548
  21072315.960   110735943.00909  21072310.380    86287794.42548
  20480468.500   107625673.33309  20480467.560    83864198.79549
  23129546.140   121546675.40908  23129546.600    94711720.63746
 15 03 03 02 23  0.0000000  0  9G01G04G11G16G18G19G22G27G32
  24064600.360   126460344.51408  24064603.000    98540540.46346
  21690752.980   113985756.46309  21690751.140    88820099.62047
  23147496.820   121640939.81508  23147493.660    94785145.97946
  21534004.000   113161981.10709  21534001.340    88178164.38648
  23324947.520   122573683.82508  23324943.820    95512005.60546
  20996985.940   110339943.86009  20996981.120    85979177.46448
  21076077.400   110755709.63109  21076071.820    86303197.00248
  20480680.320   107626786.45809  20480679.420    83865066.17149
  23108107.840   121434016.96508  23108108.360    94623935.00046
 15 03 03 02 23 30.0000000  0  9G01G04G11G16G18G19G22G27G32
  24049123.760   126379013.72608  24049126.240    98477165.87646
  21678958.320   113923775.00409  21678956.300    88771802.40947
  23132157.140   121560329.96408  23132154.080    94722333.14546
  21548650.820   113238949.32609  21548648.000    88238139.59448
  23338773.480   122646339.46208  23338769.620    95568620.38546
  20989702.060   110301666.63909  20989697.140    85949351.06448
  21079937.440   110775994.70109  21079931.960    86319003.56448
  20480951.160   107628209.14009  20480950.200    83866174.75549
  23086702.520   121321531.27608  23086702.920    94536283.97146
 15 03 03 02 24  0.0000000  0  9G01G04G11G16G18G19G22G27G32
  24033679.380   126297852.45408  24033681.640    98413923.38446
  21667217.840   113862078.45909  21667215.760    88723727.20547
  23116843.580   121479857.42508  23116840.660    94659627.30246
  21563374.460   113316321.24709  21563371.420    88298429.37448
  23352656.480   122719295.09608  23352652.280    95625468.93145
  20982461.620   110263617.76209  20982456.620    85919702.58848
  21083896.280   110796798.79009  21083890.820    86335214.54148
  20481281.260   107629943.29409  20481280.260    83867526.03349
  23065330.820   121209222.23408  23065331.100    94448770.57646
 15 03 03 02 24 30.0000000  0  9G01G04G11G16G18G19G22G27G32
  24018267.320   126216861.30908  24018269.460    98350813.47247
  21655531.700   113800667.46909  21655529.680    88675874.52647
  23101556.180   121399522.39808  23101553.400    94597028.62446
  21578174.860   113394096.92509  21578171.660    88359033.78748
  23366596.220   122792549.28408  23366591.860    95682550.12746
  20975264.860   110225798.40709  20975259.780    85890232.96548
  21087953.680   110818121.13009  21087948.280    86351829.37048
  20481670.820   107631990.20409  20481669.860    83869121.03049
  23043993.240   121097093.04908  23043993.380    94361397.34246
 15 03 03 02 25  0.0000000  0  9G01G04G11G16G18G19G22G27G32
  24002887.880   126136041.94007  24002889.940    98287837.41046
  21643900.140   113739543.14309  21643898.180    88628245.20347
  23086295.500   121319327.55008  23086292.800    94534539.15146
  21593051.660   113472274.67109  21593048.400    88419951.49748
  23380592.580   122866101.37708  23380588.200    95739863.43045
  20968112.360   110188211.46609  20968107.240    85860944.43648
  21092109.720   110839961.95609  21092104.380    86368848.18748
  20482120.240   107634352.10109  20482119.320    83870961.45749
  23022690.500   120985147.96108  23022690.640    94274167.56346
 15 03 03 02 25 30.0000000  0  9G01G04G11G16G18G19G22G27G32
  23987540.980   126055393.51808  23987542.920    98224994.56245
  21632322.980   113678704.72509  21632321.040    88580838.65447
  23071061.300   121239271.95108  23071058.720    94472158.19346
  21608004.200   113550851.12809  21608001.000    88481179.89248
  23394644.920   122939947.71308  23394640.700    95797406.02145
  20961004.100   110150857.02709  20960998.980    85831837.08448
  21096364.020   110862319.10309  21096358.740    86386269.34048
  20482629.560   107637028.86909  20482628.700    83873047.24649
  23001423.020   120873388.70908  23001423.300    94187082.58946
 15 03 03 02 26  0.0000000  0  9G01G04G11G16G18G19G22G27G32
  23972225.800   125974911.78508  23972227.620    98162281.61545
  21620799.260   113618147.66409  21620797.480    88533651.36547
  23055852.860   121159351.25908  23055850.320    94409882.36846
  21623031.300   113629819.44709  21623028.120    88542713.64148
  23408752.120   123014081.94608  23408748.080    95855172.96445
  20953939.460   110113731.60909  20953934.300    85802908.19448
  21100715.580   110885187.20109  21100710.360    86404088.65048
  20483198.100   107640016.86109  20483197.300    83875375.55249
  22980190.680   120761813.57808  22980190.900    94100141.07846
 15 03 03 02 26 30.0000000  0  9G01G04G11G16G18G19G22G27G32
  23956943.440   125894602.74108  23956945.120    98099703.19645
  21609330.160   113557877.79309  21609328.480    88486687.84447
  23040671.300   121079571.51308  23040668.840    94347716.37346
  21638133.640   113709183.06609  21638130.440    88604555.40648
  23422914.820   123088507.50008  23422910.860    95913166.89245
  20946919.540   110076841.52609  20946914.400    85774162.67848
  21105165.280   110908570.79009  21105160.080    86422309.63048
  20483827.160   107643322.68809  20483826.380    83877951.51549
  22958995.260   120650431.33808  22958995.240    94013349.83946
 15 03 03 02 27  0.0000000  0  9G01G04G11G16G18G19G22G27G32
  23941693.400   125814464.05108  23941695.100    98037257.54746
  21597915.260   113497892.65409  21597913.660    88439946.19947
  23025516.100   120999930.32808  23025513.600    94285658.34646
  21653310.180   113788936.39309  21653306.960    88666700.82748
  23437132.080   123163219.55608  23437128.160    95971384.08545
  20939944.080   110040185.49609  20939939.000    85745599.54348
  21109712.520   110932466.38809  21109707.240    86440929.57748
  20484516.380   107646944.70509  20484515.620    83880773.86649
  22937836.780   120539242.10208  22937836.480    93926708.99746
 15 03 03 02 27 30.0000000  0  9G01G04G11G16G18G19G22G27G32
  23926475.960   125734496.99208  23926477.700    97974945.62646
  21586554.720   113438193.27309  21586553.220    88393427.23347
  23010387.600   120920429.43508  23010384.960    94223709.63546
  21668560.880   113869079.04209  21668557.520    88729149.61548
  23451403.720   123238217.31808  23451399.800    96029823.88746
  20933013.580   110003765.56809  20933008.560    85717220.37148
  21114357.180   110956873.90409  21114351.860    86459948.43148
  20485266.160   107650884.82309  20485265.400    83883844.08649
  22916715.840   120428249.82608  22916715.380    93840221.64646
 15 03 03 02 28  0.0000000  0  9G01G04G11G16G18G19G22G27G32
  23911291.220   125654701.73708  23911293.080    97912767.58545
  21575248.640   113378779.73109  21575247.160    88347130.98847
  22995285.820   120841068.84808  22995283.140    94161870.26846
  21683885.260   113949608.92609  21683881.740    88791900.15848
  23465729.260   123313498.25708  23465725.380    96088484.35745
  20926128.220   109967582.86209  20926123.200    85689026.05548
  21119099.060   110981792.09009  21119093.680    86479365.19748
  20486076.620   107655143.88809  20486075.880    83887162.83949
  22895632.880   120317457.21708  22895632.320    93753889.89246
 15 03 03 02 28 30.0000000  0  9G01G04G11G16G18G19G22G27G32
  23896139.680   125575080.68508  23896141.620    97850725.28145
  21563997.500   113319654.24509  21563995.920    88301059.20747
  22980211.280   120761851.11709  22980208.480    94100142.21746
  21699283.100   114030525.14009  21699279.560    88854951.73548
  23480108.740   123389062.66708  23480104.840    96147365.71145
  20919288.620   109931640.62609  20919283.560    85661019.12448
  21123938.300   111007221.87909  21123932.820    86499180.62748
  20486948.360   107659724.98009  20486947.620    83890732.53049
  22874588.820   120206869.44908  22874588.140    93667717.74746
 15 03 03 02 29  0.0000000  0  9G01G04G11G16G18G19G22G27G32
  23881020.920   125495631.94508  23881022.900    97788817.24545
  21552800.840   113260814.78709  21552799.160    88255210.30147
  22965163.640   120682774.60208  22965160.600    94038524.19445
  21714753.520   114111822.95609  21714750.140    88918300.66848
  23494541.280   123464906.20508  23494537.420    96206464.56645
  20912494.540   109895937.52609  20912489.380    85633198.53148
  21128874.300   111033160.42909  21128868.780    86519392.49148
  20487881.140   107664626.88509  20487880.360    83894552.19249
  22853583.760   120096487.26608  22853583.020    93581705.77346
 15 03 03 02 29 30.0000000  0  9G01G04G11G16G18G19G22G27G32
  23865935.080   125416356.08608  23865937.120    97727043.91246
  21541658.660   113202261.60609  21541656.840    88209584.46848
  22950142.980   120603840.10108  22950139.720    93977016.82846
  21730296.460   114193501.50709  21730293.260    88981946.26648
  23509026.540   123541026.84208  23509022.800    96265779.34846
  20905746.240   109860475.14409  20905741.120    85605565.50249
  21133906.940   111059606.62109  21133901.360    86539999.90748
  20488875.200   107669850.70609  20488874.340    83898622.68349
  22832618.300   119986313.76008  22832617.440    93495856.38946
 15 03 03 02 30  0.0000000  0  9G01G04G11G16G18G19G22G27G32
  23850882.460   125337254.70408  23850884.640    97665406.55146
  21530571.200   113143996.23409  21530569.260    88164182.89847
  22935149.540   120525049.04508  22935146.200    93915621.22246
  21745911.560   114275559.27709  21745908.480    89045887.36148
  23523564.380   123617423.91408  23523560.760    96325309.52645
  20899044.240   109825256.24309  20899039.260    85578122.20848
  21139036.240   111086560.84909  21139030.580    86561003.20548
  20489930.960   107675398.82809  20489930.020    83902945.88749
  22811693.240   119876353.16008  22811692.360    93410172.91546
 15 03 03 02 30 30.0000000  0  9G01G04G11G16G18G19G22G27G32
  23835862.900   125258326.88708  23835865.320    97603904.45146
  21519538.260   113086017.65709  21519536.200    88119004.80447
  22920183.140   120446400.72608  22920179.960    93854336.86246
  21761598.080   114357992.61709  21761595.080    89110121.11848
  23538154.240   123694094.31108  23538150.780    96385052.69345
  20892388.580   109790280.70509  20892383.740    85550868.55748
  21144261.700   111114020.56709  21144255.960    86582400.39848
  20491048.360   107681270.96709  20491047.420    83907521.58249
  22790808.960   119766607.27008  22790808.220    93324656.75546
 15 03 03 02 31  0.0000000  0  9G01G04G11G16G18G19G22G27G32
  23820876.360   125179571.91708  23820878.860    97542537.02846
  21508559.580   113028324.66109  21508557.540    88074049.24047
  22905243.780   120367894.74008  22905240.680    93793163.39345
  21777355.460   114440797.94009  21777352.360    89174644.73247
  23552795.500   123771034.82008  23552792.080    96445006.33645
  20885779.220   109755548.45009  20885774.400    85523804.47048
  21149583.040   111141984.11309  21149577.260    86604190.17748
  20492227.400   107687467.06409  20492226.500    83912349.70749
  22769965.900   119657078.06608  22769965.340    93239309.45546
 15 03 03 02 31 30.0000000  0  9G01G04G11G16G18G19G22G27G32
  23805922.740   125100989.45208  23805925.140    97481304.02247
  21497635.140   112970917.07209  21497633.260    88029316.08248
  22890331.420   120289530.79108  22890328.420    93732100.59546
  21793183.160   114523972.68909  21793179.920    89239456.20848
  23567487.620   123848242.59008  23567484.280    96505168.22646
  20879216.260   109721060.13509  20879211.460    85496930.46149
  21154999.780   111170449.38409  21154994.040    86626370.90948
  20493468.180   107693987.45709  20493467.360    83917430.52949
  22749164.580   119547767.79508  22749164.120    93154132.74947
 15 03 03 02 32  0.0000000  0  9G01G04G11G16G18G19G22G27G32
  23791002.420   125022581.71608  23791004.580    97420207.18946
  21486765.460   112913796.87009  21486763.620    87984806.85848
  22875446.680   120211311.40208  22875443.880    93671150.46246
  21809081.000   114607516.33409  21809077.780    89304555.13048
  23582230.600   123925717.35408  23582227.160    96565538.16445
  20872700.280   109686818.72909  20872695.480    85470248.85448
  21160512.080   111199417.08409  21160506.440    86648943.14948
  20494771.240   107700834.98109  20494770.460    83922766.26249
  22728405.960   119438681.23808  22728405.460    93069130.35846
 15 03 03 02 32 30.0000000  0  9G01G04G11G16G18G19G22G27G32
  23776115.220   124944348.37108  23776117.160    97359246.23546
  21475950.360   112856963.46409  21475948.520    87940521.10847
  22860589.540   120133236.43009  22860586.780    93610312.85146
  21825048.540   114691426.50709  21825045.440    89369939.65848
  23597023.980   124003456.96508  23597020.500    96626114.48246
  20866231.500   109652825.06809  20866226.640    85443760.29948
  21166119.640   111228885.43109  21166114.140    86671905.50448
  20496136.680   107708010.07309  20496135.900    83928357.24449
  22707690.520   119329820.89008  22707689.880    92984304.22146
 15 03 03 02 33  0.0000000  0  9G01G04G11G16G18G19G22G27G32
  23761260.940   124866288.46908  23761262.720    97298420.42645
  21465189.600   112800415.72009  21465187.840    87896457.94947
  22845759.680   120055304.97408  22845756.840    93549587.07146
  21841085.040   114775699.04609  21841082.000    89435606.54947
  23611867.140   124081457.87108  23611863.600    96686894.40745
  20859809.880   109619079.07809  20859804.960    85417464.72648
  21171822.040   111258852.35309  21171816.700    86695256.35648
  20497564.380   107715512.38209  20497563.600    83934203.20049
  22687018.600   119221188.52109  22687017.820    92899655.72246
 15 03 03 02 33 30.0000000  0  9G01G04G11G16G18G19G22G27G32
  23746440.320   124788405.65608  23746441.920    97237732.59945
  21454483.980   112744157.17009  21454482.180    87852620.12447
  22830957.860   119977520.99808  22830954.900    93488976.21446
  21857190.600   114860334.62709  21857187.560    89501556.33147
  23626760.280   124159721.43808  23626756.640    96747878.99445
  20853436.280   109585585.10009  20853431.220    85391365.52548
  21177619.740   111289319.88909  21177614.500    86718997.29648
  20499055.100   107723346.20509  20499054.320    83940307.46749
  22666391.220   119112790.23209  22666390.320    92815189.60946
 15 03 03 02 34  0.0000000  0  9G01G04G11G16G18G19G22G27G32
  23731652.720   124710696.97708  23731654.380    97177180.47245
  21443832.740   112688184.47909  21443830.860    87809005.06347
  22816183.580   119899881.53309  22816180.540    93428477.95846
  21873364.320   114945328.52209  21873361.340    89567785.32647
  23641702.360   124238242.26708  23641698.560    96809064.05445
  20847110.260   109552341.16509  20847105.100    85365461.16848
  21183511.900   111320283.41509  21183506.640    86743124.72248
  20500608.480   107731509.26709  20500607.680    83946668.29349
  22645808.280   119004625.82108  22645807.300    92730905.75746
 15 03 03 02 34 30.0000000  0  9G01G04G11G16G18G19G22G27G32
  23716898.720   124633165.20108  23716900.540    97116766.19146
  21433236.380   112632500.46009  21433234.440    87765614.94147
  22801437.320   119822389.69508  22801434.320    93368094.74646
  21889606.300   115030680.82109  21889603.380    89634293.59147
  23656693.440   124317020.53808  23656689.560    96870449.71745
  20840832.580   109519351.33209  20840827.300    85339754.81148
  21189498.700   111351743.99309  21189493.380    86767639.46748
  20502225.160   107740005.06709  20502224.400    83953288.39949
  22625270.740   118896700.75108  22625269.740    92646808.41246
 15 03 03 02 35  0.0000000  0  9G01G04G11G16G18G19G22G27G32
  23702178.260   124555809.66208  23702180.180    97056489.20146
  21422694.780   112577104.38309  21422692.860    87722449.18748
  22786719.060   119745045.23408  22786716.040    93307826.36846
  21905915.820   115116387.37009  21905912.900    89701077.88448
  23671732.960   124396053.48108  23671728.880    96932033.81045
  20834603.260   109486615.63309  20834597.940    85314246.47649
  21195579.800   111383699.96409  21195574.400    86792540.22548
  20503905.160   107748833.56109  20503904.420    83960167.74049
  22604779.040   118789017.06308  22604778.000    92562899.12946
 15 03 03 02 35 30.0000000  0  9G01G04G11G16G18G19G22G27G32
  23687491.000   124478628.44708  23687493.120    96996348.08446
  21412207.600   112521994.01709  21412205.640    87679506.06147
  22772028.540   119667846.29108  22772025.460    93247671.35546
  21922292.200   115202444.64109  21922289.160    89768135.47548
  23686820.040   124475336.59508  23686815.900    96993812.86945
  20828422.080   109454133.03709  20828416.720    85288935.36648
  21201754.480   111416147.52709  21201748.920    86817824.03948
  20505648.240   107757993.56009  20505647.520    83967305.40249
  22584333.500   118681575.53208  22584332.300    92479178.54646
 15 03 03 02 36  0.0000000  0  9G01G04G11G16G18G19G22G27G32
  23672837.740   124401625.40608  23672840.000    96936345.78646
  21401775.540   112467172.95609  21401773.500    87636788.36147
  22757366.420   119590796.87908  22757363.400    93187632.88346
  21938735.360   115288852.98909  21938732.180    89835466.63148
  23701955.040   124554871.74608  23701950.860    97055788.30945
  20822289.880   109421908.25309  20822284.640    85263825.14948
  21208023.140   111449089.34509  21208017.440    86843492.99648
  20507455.300   107767489.48809  20507454.520    83974704.82349
  22563935.280   118574382.58308  22563933.980    92395651.65646
 15 03 03 02 36 30.0000000  0  9G01G04G11G16G18G19G22G27G32
  23658217.880   124324797.55708  23658220.140    96876480.01047
  21391397.940   112412638.00009  21391395.900    87594293.62148
  22742732.200   119513894.06708  22742729.240    93127708.65146
  21955244.240   115375606.98809  21955241.000    89903067.13148
  23717136.880   124634653.50308  23717132.860    97117955.90545
  20816206.400   109389939.45509  20816201.220    85238914.39949
  21214384.980   111482520.94509  21214379.220    86869543.59748
  20509325.860   107777319.14509  20509325.000    83982364.28949
  22543584.320   118467437.98708  22543582.980    92312318.30746
 15 03 03 02 37  0.0000000  0  9G01G04G11G16G18G19G22G27G32
  23643631.720   124248146.75608  23643633.980    96816752.18646
  21381075.160   112358390.98609  21381073.040    87552023.23347
  22728126.340   119437140.10208  22728123.480    93067900.38146
  21971818.780   115462706.54109  21971815.520    89970936.88447
  23732365.560   124714681.35508  23732361.760    97180315.26745
  20810172.160   109358229.56909  20810167.080    85214205.39848
  21220840.020   111516442.23909  21220834.220    86895975.77248
  20511260.380   107787485.04309  20511259.500    83990285.76248
  22523281.420   118360746.25808  22523280.120    92229181.99546
 15 03 03 02 37 30.0000000  0  9G01G04G11G16G18G19G22G27G32
  23629078.940   124171671.45108  23629081.040    96757161.10446
  21370806.820   112304430.07809  21370804.640    87509975.78447
  22713548.600   119360533.80808  22713545.760    93008207.18345
  21988458.140   115550146.90009  21988454.820    90039072.21247
  23747640.360   124794951.37808  23747636.780    97242863.32545
  20804187.060   109326777.92709  20804182.040    85189697.62148
  21227387.640   111550850.36609  21227381.860    86922787.30448
  20513258.660   107797986.22809  20513257.800    83998468.49749
  22503026.940   118254308.59409  22503025.640    92146243.63846
 15 03 03 02 38  0.0000000  0  9G01G04G11G16G18G19G22G27G32
  23614559.940   124095373.79408  23614561.820    96697708.45946
  21360593.280   112250757.28709  21360591.140    87468152.86148
  22698999.340   119284077.32208  22698996.600    92948630.73046
  22005162.220   115637927.53309  22005158.820    90107472.68348
  23762961.220   124875463.15208  23762957.700    97305599.77145
  20798251.700   109295587.82309  20798246.780    85165393.65148
  21234027.940   111585745.82809  21234022.260    86949978.57948
  20515321.280   107808825.54509  20515320.480    84006914.71849
  22482821.840   118148129.78709  22482820.520    92063506.98547
 15 03 03 02 38 30.0000000  0  9G01G04G11G16G18G19G22G27G32
  23600074.160   124019250.95008  23600075.880    96638392.02946
  21350434.040   112197369.81009  21350431.840    87426552.25647
  22684478.260   119207768.49808  22684475.520    92889169.33246
  22021930.120   115726043.10609  22021926.540    90176134.13947
  23778327.340   124956212.25508  23778323.740    97368521.15545
  20792365.680   109264657.26809  20792360.840    85141291.92648
  21240760.160   111621124.26909  21240754.560    86977546.19748
  20517447.840   107820000.89309  20517447.100    84015622.78849
  22462665.980   118042209.72609  22462664.660    91980971.96747
 15 03 03 02 39  0.0000000  0 10G01G04G11G14G16G18G19G22G27G32
  23585622.320   123943306.90108  23585623.920    96579214.93045
  21340329.740   112144271.12909  21340327.420    87385176.67547
  22669986.020   119131611.22608  22669983.340    92829826.04546
  24723038.800   129920447.07207  24723039.520   101236705.52244
  22038761.960   115814494.55209  22038758.320    90245057.32247
  23793738.920   125037200.04808  23793735.300    97431628.53045
  20786530.060   109233991.22709  20786525.200    85117396.31448
  21247584.780   111656987.91009  21247579.200    87005491.90048
  20519639.280   107831516.83309  20519638.520    84024596.24549
  22442560.480   117936555.02808  22442559.360    91898643.72346
 15 03 03 02 39 30.0000000  0 10G01G04G11G14G16G18G19G22G27G32
  23571206.940   123867553.89608  23571208.360    96520186.68045
  21330282.620   112091473.49409  21330280.400    87344035.67948
  22655525.080   119055618.00508  22655522.320    92770610.57747
  24710080.760   129852352.47007  24710081.300   101183644.85245
  22055659.560   115903291.91309  22055656.120    90314250.04248
  23809197.800   125118436.45108  23809194.080    97494929.61345
  20780747.420   109203603.16209  20780742.460    85093717.30049
  21254503.820   111693347.60809  21254498.180    87033824.13448
  20521898.020   107843386.38909  20521897.220    84033845.24649
  22422508.200   117831180.68608  22422507.240    91816533.94047
 15 03 03 02 40  0.0000000  0 10G01G04G11G14G16G18G19G22G27G32
  23556822.900   123791965.57108  23556824.120    96461286.76145
  21320287.700   112038950.21609  21320285.520    87303108.46447
  22641090.440   118979762.75109  22641087.460    92711502.59946
  24697137.040   129784333.20607  24697137.480   101130642.90144
  22072617.300   115992406.00809  22072614.240    90383689.57047
  23824698.440   125199892.63308  23824694.720    97558401.94645
  20775012.880   109173467.48809  20775007.780    85070234.95548
  21261511.940   111730175.39909  21261506.220    87062521.10448
  20524219.140   107855583.79409  20524218.320    84043349.71249
  22402504.780   117726062.96909  22402503.740    91734624.09446
 15 03 03 02 40 30.0000000  0 10G01G04G11G14G16G18G19G22G27G32
  23542472.880   123716555.99608  23542474.100    96402526.14145
  21310347.680   111986715.40709  21310345.520    87262406.03447
  22626684.840   118904060.05809  22626681.660    92652513.52646
  24684210.940   129716406.31607  24684211.360   101077712.94644
  22089637.400   116081848.33309  22089634.820    90453384.87847
  23840243.100   125281580.55608  23840239.500    97622054.87945
  20769329.260   109143599.37509  20769324.060    85046961.11548
  21268611.400   111767483.56509  21268605.700    87091592.41248
  20526605.440   107868123.79909  20526604.600    84053121.14849
  22382553.500   117621218.74209  22382552.220    91652927.36846
 15 03 03 02 41  0.0000000  0 10G01G04G11G14G16G18G19G22G27G32
  23528156.160   123641321.38208  23528157.520    96343901.83646
  21300461.720   111934764.81009  21300459.660    87221925.06747
  22612307.420   118828505.95109  22612304.280    92593640.22346
  24671302.280   129648570.46107  24671302.540   101024853.90645
  22106718.620   116171611.98009  22106716.400    90523330.55848
  23855830.600   125363493.63708  23855827.100    97685883.24845
  20763695.980   109113996.05009  20763690.800    85023893.58348
  21275801.200   111805266.58209  21275795.540    87121033.72648
  20529056.340   107881003.28609  20529055.440    84063157.10249
  22362654.060   117516646.85009  22362652.680    91571442.85246
 15 03 03 02 41 30.0000000  0 10G01G04G11G14G16G18G19G22G27G32
  23513873.820   123566267.07108  23513875.280    96285418.01946
  21290630.900   111883103.78109  21290628.940    87181669.72847
  22597959.380   118753106.71509  22597956.220    92534887.60646
  24658412.520   129580833.81807  24658412.500   100972072.19244
  22123861.680   116261700.34809  22123859.640    90593529.26647
  23871461.600   125445635.50108  23871458.360    97749889.89345
  20758114.340   109084664.04409  20758109.180    85001037.47948
  21283082.080   111843528.13709  21283076.460    87150847.92748
  20531572.980   107894228.27709  20531572.080    84073462.28349
  22342808.020   117412355.37409  22342806.700    91490176.86747
 15 03 03 02 42  0.0000000  0 10G01G04G11G14G16G18G19G22G27G32
  23499625.140   123491389.59508  23499626.720    96227071.99947
  21280854.500   111831728.71709  21280852.580    87141637.23047
  22583640.080   118677858.61109  22583636.800    92476252.74946
  24645541.600   129513195.89408  24645541.240   100919367.41144
  22141065.440   116352107.02209  22141063.320    90663976.00347
  23887135.060   125528000.27008  23887131.860    97814070.22545
  20752583.880   109055600.80509  20752578.640    84978390.79748
  21290453.180   111882263.68209  21290447.560    87181031.47348
  20534154.840   107907795.95609  20534153.920    84084034.49449
  22323015.220   117308343.48909  22323013.940    91409128.73247
 15 03 03 02 42 30.0000000  0 10G01G04G11G14G16G18G19G22G27G32
  23485410.360   123416690.34608  23485411.980    96168864.85547
  21271132.740   111780640.58409  21271130.780    87101828.32148
  22569349.940   118602763.69709  22569346.500    92417737.25246
  24632690.240   129445660.49807  24632689.500   100866742.49245
  22158329.560   116442830.48709  22158327.280    90734669.59247
  23902850.820   125610587.12808  23902847.620    97878423.62245
  20747104.920   109026808.36409  20747099.600    84955955.12248
  21297914.320   111921472.46609  21297908.760    87211583.77848
  20536802.340   107921708.36809  20536801.380    84094875.32949
  22303276.440   117204615.34009  22303275.120    91328301.66647
 15 03 03 02 43  0.0000000  0 10G01G04G11G14G16G18G19G22G27G32
  23471229.580   123342169.65508  23471231.180    96110796.82946
  21261465.660   111729839.87509  21261463.620    87062243.37047
  22555089.040   118527822.52209  22555085.560    92359341.56246
  24619859.020   129378230.91807  24619857.900   100814200.04045
  22175653.520   116533868.32309  22175651.080    90805608.12847
  23918608.440   125693394.02508  23918605.240    97942948.46345
  20741677.900   108998289.19709  20741672.580    84933732.38448
  21305465.280   111961153.45409  21305459.840    87242504.02248
  20539515.560   107935966.50109  20539514.660    84105985.55649
  22283592.200   117101173.99509  22283590.840    91247698.08247
 15 03 03 02 43 30.0000000  0 10G01G04G11G14G16G18G19G22G27G32
  23457082.920   123267828.74908  23457084.500    96052868.89347
  21251853.460   111679327.48109  21251851.360    87022883.07947
  22540857.700   118453036.69108  22540854.220    92301066.93146
  24607048.700   129310911.35207  24607047.460   100761743.32745
  22193037.060   116625219.33909  22193034.580    90876790.70347
  23934407.740   125776419.74708  23934404.560    98007643.83245
  20736303.100   108970044.71909  20736297.860    84911723.69649
  21313105.940   112001305.79809  21313100.600    87273791.56748
  20542294.880   107950572.27809  20542294.100    84117366.67949
  22263963.200   116998023.26609  22263961.900    91167320.96047
 15 03 03 02 44  0.0000000  0 10G01G04G11G14G16G18G19G22G27G32
  23442970.360   123193668.08308  23442972.060    95995081.41546
  21242296.180   111629103.60109  21242294.040    86983747.60747
  22526656.060   118378406.71608  22526652.600    92242913.72846
  24594259.660   129243704.55807  24594258.440   100709374.45745
  22210479.800   116716881.19909  22210477.260    90948215.49947
  23950248.440   125859662.93208  23950245.260    98072508.63845
  20730980.920   108942076.58209  20730975.740    84889930.33648
  21320836.060   112041928.32009  21320830.820    87305445.47548
  20545140.600   107965526.77209  20545139.880    84129019.53049
  22244390.020   116895166.31808  22244388.880    91087172.75446
 15 03 03 02 44 30.0000000  0 10G01G04G11G14G16G18G19G22G27G32
  23428892.020   123119687.44108  23428893.780    95937434.20546
  21232793.740   111579168.01009  21232791.580    86944836.78147
  22512484.160   118303932.93408  22512480.740    92184882.23446
  24581492.440   129176613.50807  24581491.300   100657095.79645
  22227981.180   116808850.97809  22227978.600    91019880.24147
  23966130.000   125943120.79608  23966126.700    98137540.72745
  20725711.540   108914385.85309  20725706.400    84868353.15149
  21328655.380   112083019.29009  21328650.220    87337464.41848
  20548052.860   107980830.47309  20548052.100    84140944.48349
  22224873.200   116792605.78808  22224872.200    91007255.55247
 15 03 03 02 45  0.0000000  0 10G01G04G11G14G16G18G19G22G27G32
  23414847.780   123045885.41608  23414849.400    95879926.17246
  21223345.780   111529518.89509  21223343.640    86906149.17748
  22498341.760   118229614.26008  22498338.520    92126971.60246
  24568747.420   129109639.56007  24568746.640   100604908.35945
  22245540.460   116901124.63509  22245537.800    91091781.75248
  23982051.680   126026789.76308  23982048.300    98202737.31745
  20720494.880   108886972.15109  20720489.760    84846991.81749
  21336563.340   112124575.62709  21336558.160    87369845.96748
  20551031.520   107996482.58309  20551030.600    84153140.92049
  22205413.060   116690342.76809  22205412.060    90927570.15047
 15 03 03 02 45 30.0000000  0 10G01G04G11G14G16G18G19G22G27G32
  23400837.560   122972261.53608  23400838.960    95822556.98646
  21213952.260   111480155.98209  21213950.120    86867684.58447
  22484228.780   118155450.45108  22484225.680    92069181.64446
  24556025.180   129042784.78307  24556024.600   100552813.78645
  22263157.100   116993699.33909  22263154.260    91163917.85347
  23998012.920   126110666.96308  23998009.540    98268096.17445
  20715331.020   108859836.00709  20715325.900    84825846.77449
  21344559.420   112166594.78509  21344554.160    87402588.17748
  20554076.460   108012483.29409  20554075.440    84165608.99049
  22186010.120   116588379.63609  22186008.860    90848118.42447
 15 03 03 02 46  0.0000000  0 10G01G04G11G14G16G18G19G22G27G32
  23386861.520   122898816.66408  23386862.720    95765327.28946
  21204613.260   111431079.63709  21204611.160    86829443.29348
  22470145.540   118081442.94108  22470142.500    92011513.47447
  24543326.560   128976052.88508  24543326.200   100500814.95745
  22280830.520   117086572.48709  22280827.420    91236286.51347
  24014013.440   126194750.99408  24014010.120    98333616.20045
  20710220.360   108832979.46009  20710215.260    84804919.60449
  21352643.480   112209076.19509  21352638.160    87435690.58848
  20557187.900   108028834.12609  20557186.900    84178349.89549
  22166664.980   116486719.83209  22166663.420    90768903.05347
 15 03 03 02 46 30.0000000  0 10G01G04G11G14G16G18G19G22G27G32
  23372919.560   122825550.44208  23372920.580    95708236.79446
  21195328.780   111382289.45709  21195326.680    86791424.98948
  22456092.040   118007591.66008  22456089.140    91953967.04046
  24530651.940   128909446.29008  24530651.360   100448913.78245
  22298560.140   117179741.56809  22298556.700    91308885.76447
  24030052.780   126279039.40308  24030049.600    98399295.47845
  20705163.120   108806403.58909  20705158.020    84784211.13449
  21360815.100   112252017.85409  21360809.800    87469151.62148
  20560365.900   108045535.37009  20560365.020    84191363.84549
  22147377.860   116385365.67908  22147376.260    90689925.85947
 15 03 03 02 47  0.0000000  0 10G01G04G11G14G16G18G19G22G27G32
  23359011.580   122752462.92508  23359012.560    95651285.54646
  21186098.760   111333785.19909  21186096.620    86753629.48148
  22442068.260   117933896.64508  22442065.520    91896542.37547
  24518001.860   128842967.86908  24518000.860   100397112.48645
  22316345.480   117273203.99509  22316341.740    91381713.61347
  24046130.680   126363530.18708  24046127.540    98465132.44245
  20700159.360   108780109.08909  20700154.360    84763721.91749
  21369073.860   112295417.66309  21369068.580    87502969.65648
  20563610.640   108062587.75009  20563609.960    84204651.41349
  22128149.320   116284320.07309  22128147.860    90611189.09547
 15 03 03 02 47 30.0000000  0 10G01G04G11G14G16G18G19G22G27G32
  23345137.940   122679556.41008  23345139.020    95594475.34247
  21176923.560   111285569.21809  21176921.400    86716058.59848
  22428074.860   117860361.16009  22428072.200    91839242.01446
  24505377.100   128776622.60508  24505375.640   100345414.91145
  22334186.500   117366959.13009  22334182.600    91454769.53647
  24062247.180   126448223.38608  24062244.120    98531127.13345
  20695209.820   108754099.34609  20695204.900    84743454.58349
  21377419.980   112339276.65709  21377414.660    87537145.49748
  20566922.760   108079994.14309  20566922.280    84218214.83549
  22108980.500   116183587.95109  22108979.120    90532696.57747
 15 03 03 02 48  0.0000000  0 10G01G04G11G14G16G18G19G22G27G32
  23331298.200   122606828.34308  23331299.380    95537804.17847
  21167802.680   111237638.35009  21167800.540    86678709.89048
  22414111.460   117786982.62209  22414108.660    91782063.95547
  24492777.760   128710411.24408  24492775.940   100293821.72245
  22352082.240   117461001.77609  22352078.380    91528049.49347
  24078401.400   126533114.10408  24078398.200    98597275.74245
  20690314.300   108728373.15509  20690309.380    84723408.20649
  21385852.640   112383590.25309  21385847.180    87571675.57748
  20570302.060   108097752.69509  20570301.600    84232052.67149
  22089871.480   116083169.43609  22089870.060    90454448.43147
 15 03 03 02 48 30.0000000  0 10G01G04G11G14G16G18G19G22G27G32
  23317492.900   122534281.67908  23317494.280    95481274.35247
  21158736.660   111189995.75409  21158734.520    86641585.80848
  22400178.620   117713764.41509  22400175.660    91725010.82147
  24480204.900   128644339.33907  24480202.560   100242337.16445
  22370032.740   117555332.16409  22370029.080    91601553.65047
  24094593.460   126618203.05808  24094590.100    98663578.82545
  20685473.540   108702934.45309  20685468.540    84703585.84549
  21394372.040   112428359.56909  21394366.420    87606560.75848
  20573749.160   108115866.97809  20573748.580    84246167.68949
  22070823.240   115983070.12809  22070821.700    90376449.02547
 15 03 03 02 49  0.0000000  0 10G01G04G11G14G16G18G19G22G27G32
  23303721.500   122461912.85508  23303722.940    95424883.09947
  21149724.620   111142637.41109  21149722.500    86604683.22548
  22386275.620   117640703.56309  22386272.580    91668080.31547
  24467658.400   128578406.02508  24467655.660   100190960.62744
  22388036.700   117649943.64609  22388033.260    91675276.85148
  24110822.200   126703484.58708  24110818.680    98730031.96745
  20680687.040   108677780.87609  20680681.980    84683985.66149
  21402977.040   112473579.34609  21402971.420    87641796.95448
  20577263.480   108134334.03209  20577262.700    84260557.59349
  22051835.620   115883289.18509  22051834.000    90298697.70347
 15 03 03 02 49 30.0000000  0 10G01G04G11G14G16G18G19G22G27G32
  23289984.680   122389725.96408  23289986.160    95368633.61047
  21140767.580   111095567.67509  21140765.360    86568005.51748
  22372403.420   117567804.58309  22372400.200    91611275.94047
  24455139.500   128512618.16508  24455136.440   100139697.42545
  22406094.400   117744838.14209  22406091.200    91749220.58947
  24127087.880   126788960.30408  24127084.200    98796636.42745
  20675955.780   108652917.61609  20675950.680    84664611.69949
  21411668.160   112519251.90009  21411662.620    87677385.95548
  20580845.820   108153158.64109  20580844.920    84275226.11549
  22032909.880   115783833.39509  22032908.200    90221199.73447
 15 03 03 02 50  0.0000000  0 10G01G04G11G14G16G18G19G22G27G32
  23276282.240   122317719.76608  23276283.680    95312524.91746
  21131865.040   111048784.70909  21131862.840    86531551.28047
  22358561.860   117495066.42409  22358558.260    91554596.87446
  24442648.460   128446977.35607  24442645.220   100088548.78945
  22424205.060   117840011.63709  22424202.200    91823381.74247
  24143389.820   126874627.07708  24143386.080    98863389.75544
  20671279.720   108628344.61109  20671274.600    84645463.90048
  21420444.840   112565374.08209  21420439.380    87713325.30748
  20584495.980   108172340.16709  20584495.120    84290172.74449
  22014046.260   115684704.18309  22014044.520    90143956.23347
 15 03 03 02 50 30.0000000  0 10G01G04G11G14G16G18G19G22G27G32
  23262614.320   122245894.21908  23262615.640    95256557.00046
  21123017.060   111002288.41009  21123014.880    86495320.41447
  22344750.980   117422489.58409  22344747.200    91498043.51446
  24430185.680   128381486.46407  24430182.560   100037516.98145
  22442368.180   117935461.16608  22442365.720    91897757.97847
  24159727.620   126960482.69108  24159723.880    98930290.21544
  20666659.080   108604062.91809  20666653.940    84626543.09948
  21429306.740   112611944.22509  21429301.280    87749613.73048
  20588214.060   108191879.14809  20588213.340    84305397.93349
  21995245.180   115585904.18709  21995243.480    90066969.26647
 15 03 03 02 51  0.0000000  0 10G01G04G11G14G16G18G19G22G27G32
  23248980.520   122174247.83008  23248981.680    95200728.70846
  21114223.360   110956077.30709  21114221.160    86459311.77048
  22330970.600   117350073.07409  22330966.820    91441615.09246
  24417751.480   128316146.96307  24417748.760    99986603.14044
  22460583.240   118031183.06709  22460580.940    91972346.44147
  24176100.580   127046523.34508  24176096.940    98997334.88045
  20662093.760   108580072.20709  20662088.620    84607849.03648
  21438253.320   112658959.13309  21438247.840    87786248.73248
  20592000.020   108211774.76209  20591999.440    84320900.99949
  21976506.960   115487434.61809  21976505.400    89990239.76447
 15 03 03 02 51 30.0000000  0 10G01G04G11G14G16G18G19G22G27G32
  23235381.440   122102784.01208  23235382.480    95145042.69246
  21105484.500   110910154.50309  21105482.340    86423527.79047
  22317221.440   117277820.59909  22317217.720    91385314.49446
  24405347.260   128250964.88607  24405344.840    99935811.96444
  22478850.420   118127177.51209  22478847.900    92047147.27246
  24192508.960   127132750.23908  24192505.340    99064524.66644
  20657584.640   108556377.15009  20657579.540    84589385.35948
  21447284.820   112706420.07509  21447279.280    87823231.28447
  20595854.700   108232031.05009  20595854.100    84336685.11148
  21957832.820   115389301.56309  21957831.440    89913772.49646
 15 03 03 02 52  0.0000000  0 10G01G04G11G14G16G18G19G22G27G32
  23221816.380   122031498.63108  23221817.260    95089495.69946
  21096799.720   110864515.50509  21096797.500    86387964.94948
  22303502.760   117205728.28309  22303498.960    91329138.68647
  24392972.940   128185939.05607  24392970.840    99885142.53344
  22497168.340   118223437.74109  22497165.480    92122155.19647
  24208951.600   127219157.35808  24208948.180    99131854.87045
  20653131.120   108532974.41209  20653126.100    84571149.45749
  21456400.140   112754321.33409  21456394.540    87860556.93848
  20599777.380   108252644.45209  20599776.660    84352747.48849
  21939222.440   115291503.51909  21939221.200    89837566.27747
 15 03 03 02 52 30.0000000  0 10G01G04G11G14G16G18G19G22G27G32
  23208285.500   121960393.65208  23208286.400    95034089.29446
  21088169.420   110819162.44709  21088167.020    86352624.92648
  22289815.060   117133798.80509  22289811.200    91273089.76747
  24380629.360   128121074.22907  24380627.420    99834598.56644
  22515536.680   118319962.80209  22515533.580    92197369.49147
  24225428.380   127305743.71108  24225425.140    99199324.76145
  20648733.880   108509867.58209  20648729.000    84553144.13949
  21465599.260   112802662.87009  21465593.640    87898225.67448
  20603768.520   108273617.58509  20603767.640    84369090.18549
  21920676.720   115194045.16509  21920675.520    89761624.75847
 15 03 03 02 53  0.0000000  0 10G01G04G11G14G16G18G19G22G27G32
  23194789.200   121889471.01308  23194790.320    94978824.96546
  21079593.820   110774096.99709  21079591.340    86317509.00848
  22276158.740   117062034.41509  22276154.980    91217169.47947
  24368317.400   128056375.09507  24368315.560    99784183.71545
  22533955.300   118416752.38409  22533952.160    92272789.90547
  24241939.360   127392509.69008  24241936.100    99266934.59145
  20644393.560   108487059.50109  20644388.800    84535371.61149
  21474882.180   112851444.65009  21474876.560    87936237.45048
  20607828.560   108294952.99009  20607827.520    84385715.16749
  21902196.560   115096931.04609  21902195.240    89685951.45547
 15 03 03 02 53 30.0000000  0 10G01G04G11G14G16G18G19G22G27G32
  23181327.000   121818727.68908  23181328.340    94923700.34246
  21071072.320   110729315.86309  21071069.740    86282614.63047
  22262533.360   116990432.57509  22262529.620    91161375.85746
  24356037.040   127991841.67207  24356035.360    99733897.98544
  22552423.000   118513800.70809  22552420.060    92348411.94546
  24258483.540   127479450.00608  24258480.420    99334680.29844
  20640109.800   108464548.30309  20640105.140    84517830.43048
  21484248.040   112900662.02409  21484242.300    87974588.65348
  20611957.060   108316648.17009  20611955.900    84402620.49849
  21883781.800   115000160.83109  21883780.340    89610546.14047
 15 03 03 02 54  0.0000000  0 10G01G04G11G14G16G18G19G22G27G32
  23167899.260   121748165.44208  23167900.780    94868716.80847
  21062605.060   110684820.62109  21062602.580    86247943.02348
  22248939.300   116918995.36009  22248935.520    91105710.50447
  24343789.120   127927478.44707  24343787.840    99683744.84345
  22570939.560   118611106.10309  22570936.880    92424234.30247
  24275060.940   127566564.32708  24275057.600    99402561.57445
  20635883.180   108442336.95009  20635878.540    84500522.88449
  21493696.800   112950314.88709  21493690.880    88013279.19548
  20616154.500   108338705.53509  20616153.260    84419808.05349
  21865433.320   114903738.90809  21865431.720    89535412.21947
 15 03 03 02 54 30.0000000  0 10G01G04G11G14G16G18G19G22G27G32
  23154506.020   121677784.16608  23154507.720    94813874.27847
  21054192.200   110640611.15609  21054189.780    86213494.10747
  22235376.660   116847723.34509  22235372.920    91050173.89446
  24331574.160   127863288.32507  24331572.920    99633726.61545
  22589504.740   118708666.60609  22589502.160    92500255.44947
  24291671.160   127653850.65208  24291667.680    99470576.88744
  20631713.940   108420426.76009  20631709.200    84483450.01548
  21503228.040   113000401.36009  21503221.960    88052307.62248
  20620420.980   108361125.67609  20620419.740    84437278.29149
  21847151.640   114807667.99109  21847149.920    89460551.81047
 15 03 03 02 55  0.0000000  0 10G01G04G11G14G16G18G19G22G27G32
  23141146.740   121607580.92308  23141148.600    94759170.48947
  21045833.100   110596684.12309  21045830.700    86179265.25648
  22221844.920   116776613.97609  22221841.320    90994764.01547
  24319392.180   127799271.15008  24319390.800    99583843.12445
  22608117.480   118806476.56309  22608114.920    92576470.96347
  24308313.140   127741303.69108  24308309.420    99538722.12045
  20627601.620   108398815.77909  20627596.720    84466610.29149
  21512840.820   113050916.32109  21512834.680    88091669.92648
  20624756.000   108383906.07109  20624754.840    84455029.24449
  21828936.700   114711947.63609  21828934.860    89385964.56147
 15 03 03 02 55 30.0000000  0 10G01G04G11G14G16G18G19G22G27G32
  23127821.980   121537559.00208  23127823.920    94704608.01947
  21037528.420   110553042.75309  21037526.020    86145259.01147
  22208344.880   116705671.29709  22208341.300    90939484.03746
  24307244.300   127735432.88107  24307242.780    99534099.06245
  22626777.780   118904536.06909  22626775.000    92652880.92947
  24324987.040   127828924.76008  24324983.160    99606998.27644
  20623546.980   108377508.13109  20623541.920    84450006.93448
  21522535.440   113101861.45209  21522529.340    88131367.44048
  20629160.300   108407050.65609  20629159.200    84473063.98749
  21810789.560   114616583.77909  21810787.680    89311655.11547
 15 03 03 02 56  0.0000000  0 10G01G04G11G14G16G18G19G22G27G32
  23114531.840   121467718.72208  23114533.700    94650187.07647
  21029278.140   110509687.20509  21029275.720    86111475.48148
  22194876.640   116634895.67009  22194873.020    90884334.21147
  24295131.100   127671776.85507  24295129.440    99484496.99545
  22645485.020   119002842.36209  22645482.000    92729483.18847
  24341692.380   127916711.45208  24341688.400    99675403.49045
  20619550.420   108356505.63809  20619545.280    84433641.35949
  21532311.540   113153235.09609  21532305.520    88171398.85848
  20633634.000   108430560.36009  20633632.920    84491383.23449
  21792710.740   114521579.36709  21792709.020    89237625.75247
 15 03 03 02 56 30.0000000  0 10G01G04G11G14G16G18G19G22G27G32
  23101276.020   121398058.40008  23101277.620    94595906.36347
  21021081.900   110466615.55709  21021079.480    86077913.17547
  22181440.020   116564286.01009  22181436.420    90829313.71747
  24283052.820   127608304.27708  24283050.840    99435037.86744
  22664238.480   119101391.93909  22664235.280    92806275.02547
  24358428.540   128004660.44608  24358424.600    99743935.16944
  20615611.820   108335808.05809  20615606.660    84417513.37348
  21542168.360   113205033.66309  21542162.540    88211761.38148
  20638176.940   108454434.02809  20638175.820    84509986.07349
  21774700.480   114426935.32509  21774698.940    89163877.18747
 15 03 03 02 57  0.0000000  0 10G01G04G11G14G16G18G19G22G27G32
  23088054.380   121328578.15008  23088055.820    94541765.95147
  21012939.620   110423827.79509  21012937.320    86044572.07748
  22168035.160   116493842.95909  22168031.560    90774423.05246
  24271009.960   127545017.95908  24271007.460    99385723.89245
  22683037.540   119200181.75609  22683034.300    92883254.06647
  24375195.080   128092769.59908  24375191.100    99812591.65144
  20611731.380   108315416.22409  20611726.240    84401623.62849
  21552105.620   113257255.40509  21552100.020    88252453.64148
  20642789.320   108478672.35909  20642788.080    84528873.07649
  21756759.320   114332654.52609  21756757.880    89090411.66247
 15 03 03 02 57 30.0000000  0 10G01G04G11G14G16G18G19G22G27G32
  23074867.600   121259281.25008  23074868.880    94487768.41047
  21004851.960   110381327.24909  21004849.720    86011454.78148
  22154662.800   116423570.46209  22154659.120    90719665.28747
  24259003.700   127481924.23708  24259000.860    99336559.98445
  22701882.300   119299212.06309  22701879.180    92960420.51547
  24391992.320   128181040.35108  24391988.500    99881374.03445
  20607910.020   108295334.82609  20607904.840    84385975.78149
  21562123.600   113309901.71909  21562118.300    88293476.74548
  20647471.860   108503279.21509  20647470.540    84548047.25049
  21738888.380   114238742.72209  21738887.000    89017233.66648
 15 03 03 02 58  0.0000000  0 10G01G04G11G14G16G18G19G22G27G32
  23061714.820   121190163.49208  23061716.040    94433910.46246
  20996818.040   110339109.22909  20996815.840    85978557.63947
  22141322.100   116353464.70009  22141318.380    90665037.43446
  24247033.800   127419021.78307  24247030.660    99287545.14045
  22720771.660   119398476.79609  22720768.740    93037769.62047
  24408819.020   128269466.16808  24408815.540    99950277.25245
  20604147.120   108275560.83709  20604141.920    84370567.48048
  21572221.240   113362966.15509  21572216.140    88334825.65948
  20652223.800   108528250.91809  20652222.500    84567505.70749
  21721087.380   114145198.41409  21721086.040    88944342.03047
 15 03 03 02 58 30.0000000  0 10G01G04G11G14G16G18G19G22G27G32
  23048596.900   121121229.46408  23048598.300    94380195.69646
  20988838.820   110297178.10809  20988836.680    85945884.04948
  22128014.120   116283530.81909  22128010.500    90610543.53047
  24235101.600   127356317.94608  24235098.380    99238685.06045
  22739705.940   119497977.15609  22739703.140    93115302.32847
  24425675.740   128358049.65508  24425672.360   100019303.34944
  20600443.840   108256100.10909  20600438.600    84355403.27449
  21582399.120   113416451.69309  21582394.120    88376502.70448
  20657046.120   108553592.64609  20657044.980    84587252.50849
  21703357.760   114052028.79809  21703356.360    88871742.36347
 15 03 03 02 59  0.0000000  0 10G01G04G11G14G16G18G19G22G27G32
  23035513.060   121052473.86708  23035514.480    94326619.95846
  20980913.220   110255528.53109  20980911.040    85913429.84548
  22114737.920   116213763.85709  22114734.340    90556179.68646
  24223206.700   127293810.21308  24223203.540    99189977.77745
  22758683.600   119597705.05909  22758680.780    93193012.33946
  24442561.040   128446783.22808  24442557.760   100088446.38344
  20596799.460   108236948.55009  20596794.160    84340479.98348
  21592655.840   113470351.36509  21592650.820    88418502.44648
  20661937.880   108579299.63009  20661936.960    84607283.91649
  21685698.940   113959231.12209  21685697.480    88799432.52547
 15 03 03 02 59 30.0000000  0 10G01G04G11G14G16G18G19G22G27G32
  23022463.660   120983898.81808  23022465.100    94273184.90146
  20973041.560   110214162.48709  20973039.340    85881196.58248
  22101493.960   116144166.49009  22101490.320    90501947.99046
  24211350.060   127231503.76408  24211347.180    99141427.34245
  22777704.540   119697660.35609  22777701.640    93270899.54247
  24459475.020   128535667.38408  24459471.820   100157706.76044
  20593214.560   108218109.45009  20593209.240    84325800.16349
  21602991.400   113524665.01809  21602986.300    88460824.76748
  20666899.640   108605374.53809  20666898.920    84627602.03549
  21668111.780   113866810.16709  21668110.280    88727416.23847
 15 03 03 03 00  0.0000000  0 10G01G04G11G14G16G18G19G22G27G32
  23009448.900   120915505.76308  23009450.340    94219891.65746
  20965224.140   110173081.43409  20965221.880    85849185.37848
  22088282.640   116074740.60809  22088278.900    90447849.92346
  24199532.500   127169403.11308  24199529.980    99093037.25545
  22796768.420   119797841.90009  22796765.460    93348963.03246
  24476417.520   128624701.26107  24476414.400   100227083.79744
  20589689.600   108199585.28209  20589684.320    84311365.74849
  21613405.700   113579392.24509  21613400.460    88503469.36148
  20671931.800   108631819.37209  20671931.240    84648208.40349
  21650597.040   113774769.88409  21650595.540    88655696.57347
 15 03 03 03 00 30.0000000  0 10G01G04G11G14G16G18G19G22G27G32
  22996468.400   120847292.48408  22996469.800    94166738.49647
  20957460.340   110132282.53609  20957458.060    85817394.05247
  22075103.640   116005484.69009  22075099.860    90393884.29746
  24187754.180   127107508.58608  24187751.960    99044807.79444
  22815874.200   119898244.16608  22815871.220    93427198.51946
  24493387.740   128713880.16608  24493384.480   100296573.82944
  20586224.360   108181375.23109  20586219.140    84297176.10048
  21623897.940   113634528.74709  21623892.580    88546432.87148
  20677034.160   108658632.39909  20677033.620    84669101.66349
  21633154.780   113683110.74309  21633153.300    88584273.90347
 15 03 03 03 01  0.0000000  0 10G01G04G11G14G16G18G19G22G27G32
  22983522.660   120779261.73808  22983523.980    94113727.56847
  20949750.820   110091768.97709  20949748.640    85785825.06147
  22061957.640   115936402.27509  22061953.960    90340053.87746
  24176016.160   127045825.72808  24176014.200    98996743.26544
  22835021.980   119998866.98409  22835019.020    93505605.85846
  24510385.820   128803205.22508  24510382.560   100366177.78544
  20582819.560   108163483.13509  20582814.440    84283234.20648
  21634468.260   113690075.47009  21634462.780    88589716.03748
  20682207.320   108685816.92909  20682206.680    84690284.39549
  21615786.040   113591838.06109  21615784.620    88513152.37547
 15 03 03 03 01 30.0000000  0 10G01G04G11G14G16G18G19G22G27G32
  22970611.000   120711410.57208  22970612.300    94060856.57347
  20942094.880   110051537.14809  20942092.800    85754475.59648
  22048844.180   115867490.63609  22048840.420    90286356.51146
  24164318.380   126984354.59608  24164316.660    98948843.72445
  22854210.920   120099705.73109  22854208.020    93584181.45846
  24527410.780   128892671.48108  24527407.500   100435891.75144
  20579474.880   108145907.36209  20579469.900    84269538.79249
  21645115.700   113746027.48809  21645110.160    88633315.00748
  20687450.760   108713370.52809  20687449.920    84711754.71949
  21598490.880   113500951.40009  21598489.480    88442331.63647
 15 03 03 03 02  0.0000000  0 10G01G04G11G14G16G18G19G22G27G32
  22957733.540   120643739.38908  22957734.900    94008125.81947
  20934492.660   110011587.61709  20934490.540    85723346.09648
  22035763.440   115798750.98309  22035759.660    90232793.15647
  24152661.460   126923098.37108  24152659.840    98901111.62145
  22873440.580   120200757.86909  22873437.660    93662923.33546
  24544462.280   128982277.15108  24544458.720   100505714.33444
  20576190.620   108128649.23409  20576185.740    84256090.90249
  21655839.860   113802383.05909  21655834.280    88677228.43548
  20692764.480   108741294.11509  20692763.580    84733513.35249
  21581269.740   113410453.73809  21581268.400    88371814.01447
 15 03 03 03 02 30.0000000  0 10G01G04G11G14G16G18G19G22G27G32
  22944890.280   120576248.05208  22944891.700    93955535.20847
  20926944.120   109971919.87909  20926942.000    85692436.18048
  22022715.460   115730183.53509  22022711.760    90179364.00047
  24141046.020   126862059.92808  24141044.580    98853549.25045
  22892710.180   120302019.94009  22892707.280    93741828.80446
  24561539.880   129072019.98308  24561536.160   100575643.82645
  20572967.160   108111710.20509  20572962.300    84242891.66749
  21666640.400   113859140.30909  21666634.840    88721454.87448
  20698148.500   108769588.03509  20698147.760    84755560.56749
  21564123.080   113320347.60209  21564121.760    88301601.49047
 15 03 03 03 03  0.0000000  0 10G01G04G11G14G16G18G19G22G27G32
  22932081.820   120508939.55808  22932083.200    93903087.05347
  20919449.720   109932536.80909  20919447.620    85661748.08448
  22009700.960   115661791.81509  22009697.280    90126071.75947
  24129473.120   126801245.05808  24129471.780    98806161.05944
  22912019.780   120403492.44208  22912016.900    93820898.22647
  24578643.840   129161901.21308  24578640.020   100645681.13044
  20569805.340   108095094.41409  20569800.340    84229944.29349
  21677517.540   113916300.30409  21677512.020    88765995.12248
  20703603.600   108798255.78309  20703603.140    84777899.06849
  21547051.960   113230638.38709  21547050.540    88231698.23247
 15 03 03 03 03 30.0000000  0 10G01G04G11G14G16G18G19G22G27G32
  22919307.860   120441811.76608  22919309.120    93850779.71846
  20912009.160   109893436.08209  20912007.020    85631279.99148
  21996719.600   115593574.33709  21996715.960    90072915.29947
  24117942.900   126740654.38308  24117941.680    98758947.58444
  22931368.440   120505170.50208  22931365.740    93900127.82646
  24595773.320   129251916.57408  24595769.420   100715822.97144
  20566704.900   108078800.78009  20566699.720    84217247.95949
  21688470.540   113973858.97809  21688465.040    88810846.04348
  20709129.660   108827295.76109  20709129.360    84800527.61849
  21530056.460   113141326.59209  21530054.960    88162104.64847
 15 03 03 03 04  0.0000000  0 10G01G04G11G14G16G18G19G22G27G32
  22906568.160   120374863.63908  22906569.200    93798612.39146
  20904622.120   109854616.42309  20904619.920    85601030.91248
  21983771.320   115525530.65909  21983767.680    90019894.26547
  24106455.820   126680289.93608  24106454.500    98711910.38045
  22950755.600   120607050.65509  22950753.080    93979514.89946
  24612927.740   129342062.90208  24612923.660   100786066.85844
  20563665.760   108062829.42609  20563660.460    84204802.74449
  21699498.860   114031813.38809  21699493.380    88856005.32148
  20714726.560   108856707.38209  20714726.260    84823445.74849
  21513136.760   113052413.72009  21513135.300    88092821.92347
 15 03 03 03 04 30.0000000  0 10G01G04G11G14G16G18G19G22G27G32
  22893862.960   120308096.61408  22893863.740    93746586.18546
  20897288.700   109816079.16409  20897286.560    85571001.89648
  21970856.460   115457662.72909  21970852.900    89967010.18147
  24095012.660   126620155.81808  24095011.240    98665052.65545
  22970181.000   120709131.37209  22970178.580    94059058.24546
  24630106.920   129432339.67708  24630102.760   100856412.39444
  20560688.420   108047183.26809  20560683.140    84192610.93448
  21710602.300   114090162.36409  21710596.820    88901472.05648
  20720394.680   108886492.63409  20720394.180    84846655.02349
  21496293.820   112963903.74109  21496292.360    88023853.13947
 15 03 03 03 05  0.0000000  0 10G01G04G11G14G16G18G19G22G27G32
  22881191.740   120241508.06508  22881192.280    93694699.04346
  20890008.480   109777821.64409  20890006.420    85541190.85848
  21957974.600   115389968.47109  21957971.180    89914261.44147
  24083613.520   126560252.32908  24083611.960    98618374.64444
  22989643.580   120811406.88509  22989641.000    94138753.38046
  24647309.960   129522742.04408  24647305.500   100926855.78344
  20557772.620   108031860.75909  20557767.420    84180671.31948
  21721780.060   114148901.61909  21721774.580    88947242.91048
  20726133.520   108916649.26709  20726132.760    84870153.69049
  21479527.660   112875796.46809  21479526.040    87955198.15247
 15 03 03 03 05 30.0000000  0 10G01G04G11G14G16G18G19G22G27G32
  22868554.860   120175100.57308  22868555.360    93642952.99047
  20882781.940   109739846.19909  20882779.900    85511599.61648
  21945126.500   115322451.35009  21945123.080    89861650.71647
  24072259.440   126500585.15908  24072257.580    98571880.77044
  23009143.420   120913878.16608  23009140.640    94218601.06646
  24664537.060   129613270.98708  24664532.460   100997397.81044
  20554919.140   108016865.61009  20554913.940    84168986.78749
  21733032.240   114208031.90609  21733026.680    88993318.46248
  20731943.500   108947180.38809  20731942.540    84893944.16349
  21462839.100   112788097.00009  21462837.360    87886860.93847
 15 03 03 03 06  0.0000000  0 10G01G04G11G14G16G18G19G22G27G32
  22855952.780   120108876.30608  22855953.360    93591349.71346
  20875609.520   109702154.79309  20875607.500    85482229.70248
  21932312.640   115255113.91709  21932309.060    89809180.00346
  24060951.200   126441159.05308  24060949.180    98525574.74844
  23028680.160   121016543.83408  23028677.220    94298600.22746
  24681788.260   129703926.65508  24681783.460   101068038.60044
  20552128.600   108002201.28909  20552123.380    84157560.04848
  21744358.820   114267553.30709  21744353.200    89039698.77948
  20737825.020   108978088.58009  20737824.060    84918028.46748
  21446229.020   112700810.03509  21446227.200    87818845.16547
 15 03 03 03 06 30.0000000  0 10G01G04G11G14G16G18G19G22G27G32
  22843384.340   120042829.04208  22843384.960    93539884.35147
  20868489.900   109664741.14809  20868487.880    85453076.21648
  21919531.880   115187950.52209  21919528.280    89756844.89947
  24049688.140   126381970.80508  24049685.960    98479454.06244
  23048252.160   121119395.50908  23048249.240    94378744.31946
  24699061.960   129794700.64807  24699057.060   101138771.57244
  20549400.020   107987862.76909  20549394.820    84146387.17149
  21755758.220   114327457.72409  21755752.580    89086377.53948
  20743777.120   109009368.12809  20743776.260    84942402.13649
  21429696.740   112613931.89709  21429694.900    87751147.94548
 15 03 03 03 07  0.0000000  0 10G01G04G11G14G16G18G19G22G27G32
  22830850.960   119976966.28208  22830851.640    93488562.76347
  20861424.500   109627612.50409  20861422.440    85424144.82648
  21906785.780   115120969.51409  21906782.360    89704651.93847
  24038472.200   126323030.71108  24038469.940    98433526.75544
  23067860.240   121222437.28208  23067857.460    94459036.55346
  24716359.200   129885598.69907  24716354.280   101209601.22844
  20546735.100   107973858.86709  20546729.960    84135475.03849
  21767231.540   114387750.53309  21767225.940    89133358.94648
  20749801.500   109041026.95809  20749800.720    84967071.35449
  21413244.060   112527472.49609  21413242.320    87683777.01648
 15 03 03 03 07 30.0000000  0 10G01G04G11G14G16G18G19G22G27G32
  22818351.880   119911283.69108  22818352.560    93437381.55546
  20854412.600   109590764.26609  20854410.460    85395431.90947
  21894073.700   115054167.06709  21894070.300    89652598.08946
  24027303.120   126264337.20708  24027300.820    98387791.58244
  23087503.340   121325662.76608  23087500.720    94539471.93646
  24733678.720   129976614.33107  24733673.880   101280522.49844
  20544133.260   107960186.56009  20544128.180    84124821.29048
  21778777.600   114448425.47409  21778772.040    89180638.11747
  20755897.480   109073061.17609  20755896.740    84992033.06648
  21396870.580   112441429.97209  21396869.060    87616730.92647
 15 03 03 03 08  0.0000000  0 10G01G04G11G14G16G18G19G22G27G32
  22805887.040   119845780.93208  22805887.660    93386340.47047
  20847453.900   109554196.07509  20847451.820    85366937.23748
  21881395.560   114987543.28609  21881392.200    89600683.45947
  24016181.320   126205892.82308  24016179.040    98342250.53045
  23107180.840   121429068.42708  23107178.320    94620047.70046
  24751020.140   130067745.29307  24751015.640   101351533.62344
  20541594.680   107946846.37109  20541589.600    84114426.33849
  21790395.920   114509479.93209  21790390.340    89228213.01548
  20762065.040   109105470.84009  20762064.280    85017287.33149
  21380576.900   112355806.46509  21380575.460    87550011.34148
 15 03 03 03 08 30.0000000  0 10G01G04G11G14G16G18G19G22G27G32
  22793456.620   119780459.32508  22793457.160    93335440.54747
  20840548.780   109517909.07209  20840546.600    85338661.65948
  21868751.840   114921100.33609  21868748.500    89548909.75047
  24005107.720   126147701.81508  24005105.440    98296906.91845
  23126892.580   121532653.41108  23126890.000    94700763.20246
  24768383.420   130158990.92607  24768379.340   101422634.13244
  20539119.800   107933840.89709  20539114.700    84104292.21049
  21802086.360   114570913.40709  21802080.680    89276083.26448
  20768304.360   109138257.70809  20768303.560    85042835.52449
  21364363.800   112270605.73209  21364362.160    87483621.19248
 15 03 03 03 09  0.0000000  0 10G01G04G11G14G16G18G19G22G27G32
  22781060.320   119715317.19108  22781060.840    93284680.47147
  20833696.860   109481901.47409  20833694.540    85310603.80148
  21856142.320   114854837.00809  21856138.940    89497276.00547
  23994082.480   126089765.22008  23994080.320    98251761.55445
  23146637.760   121636413.50808  23146635.000    94781615.14646
  24785767.860   130250347.73107  24785764.080   101493821.24344
  20536708.600   107921169.77109  20536703.460    84094418.60849
  21813848.200   114632722.13809  21813842.440    89324245.91148
  20774615.080   109171420.56809  20774614.260    85068676.70349
  21348231.360   112185828.52009  21348229.360    87417561.05648
 15 03 03 03 09 30.0000000  0 10G01G04G11G14G16G18G19G22G27G32
  22768698.280   119650354.90008  22768698.920    93234060.54447
  20826898.100   109446173.48909  20826895.720    85282763.82448
  21843567.200   114788754.49609  21843563.760    89445783.15047
  23983106.260   126032086.17108  23983104.240    98206816.87245
  23166415.640   121740345.48708  23166412.700    94862601.03046
  24803173.180   130341813.76707  24803169.700   101565093.47744
  20534361.420   107908834.74509  20534356.260    84084806.90349
  21825681.140   114694904.45509  21825675.360    89372699.66348
  20780997.220   109204960.13309  20780996.580    85094811.43149
  21332180.080   112101477.71009  21332177.740    87351833.18947
 15 03 03 03 10  0.0000000  0 10G01G04G11G14G16G18G19G22G27G32
  22756370.200   119585570.16808  22756370.880    93183578.96647
  20820151.980   109410722.56009  20820149.580    85255139.72448
  21831026.280   114722851.31409  21831022.760    89394430.02647
  23972179.360   125974665.55508  23972177.420    98162073.56545
  23186225.200   121844444.74409  23186222.280    94943717.26746
  24820598.620   130433385.28807  24820595.400   101636447.90544
  20532077.920   107896834.51409  20532072.740    84075456.06949
  21837584.420   114757456.14609  21837578.600    89421441.23648
  20787450.560   109238874.60809  20787450.180    85121238.29549
  21316209.900   112017553.46909  21316207.420    87286437.70148
 15 03 03 03 10 30.0000000  0 10G01G04G11G14G16G18G19G22G27G32
  22744076.820   119520967.76508  22744077.500    93133239.46647
  20813459.400   109375553.37709  20813457.040    85227735.17448
  21818520.500   114657132.53209  21818516.900    89343220.59747
  23961303.220   125917510.57008  23961301.400    98117537.24645
  23206066.820   121948713.50808  23206064.080    95024965.58846
  24838044.700   130525064.96307  24838041.700   101707886.59645
  20529859.200   107885174.95709  20529854.020    84066370.70649
  21849558.480   114820379.78609  21849552.620    89470472.64648
  20793976.380   109273169.04309  20793976.060    85147961.22749
  21300322.080   111934062.80509  21300319.740    87221380.06648
 15 03 03 03 11  0.0000000  0 10G01G04G11G14G16G18G19G22G27G32
  22731817.600   119456544.74908  22731818.180    93083039.76447
  20806819.880   109340662.91609  20806817.560    85200547.81048
  21806049.340   114591595.97809  21806045.700    89292153.17947
  23950477.740   125860621.33208  23950475.940    98073208.01545
  23225939.580   122053146.32608  23225937.160    95106341.74146
  24855510.520   130616847.92008  24855507.460   101779405.78344
  20527705.000   107873854.62009  20527699.800    84057549.67349
  21861602.360   114883670.59709  21861596.480    89519790.16548
  20800574.340   109307840.99209  20800573.780    85174978.32649
  21284516.580   111851005.29909  21284514.500    87156659.96348
 15 03 03 03 11 30.0000000  0 10G01G04G11G14G16G18G19G22G27G32
  22719592.740   119392302.24508  22719593.180    93032980.69947
  20800233.660   109306052.05209  20800231.340    85173578.31548
  21793613.140   114526243.25609  21793609.520    89241228.99947
  23939703.720   125804002.04308  23939701.840    98029089.13345
  23245843.260   122157741.37508  23245841.000    95187844.30446
  24872995.900   130708733.36607  24872992.760   101851004.83244
  20525615.740   107862875.68909  20525610.560    84048994.65849
  21873715.820   114947327.62409  21873709.980    89569393.04448
  20807244.600   109342891.88109  20807243.660    85202290.68549
  21268794.120   111768384.37509  21268792.360    87092280.04748
 15 03 03 03 12  0.0000000  0 10G01G04G11G14G16G18G19G22G27G32
  22707401.780   119328238.05708  22707402.180    92983060.59047
  20793700.280   109271718.52709  20793697.900    85146824.93448
  21781211.660   114461073.06809  21781208.100    89190447.04647
  23928981.120   125747652.98308  23928979.140    97985180.81445
  23265776.940   122262493.69108  23265774.820    95269469.40446
  24890499.960   130800717.12808  24890496.740   101922680.48345
  20523591.340   107852237.32409  20523586.140    84040705.01749
  21885898.060   115011346.39209  21885892.340    89619277.79248
  20813986.700   109378319.88509  20813985.440    85229896.89849
  21253154.920   111686200.29209  21253153.380    87028240.52748
 15 03 03 03 12 30.0000000  0 10G01G04G11G14G16G18G19G22G27G32
  22695245.300   119264355.33408  22695245.740    92933281.88347
  20787220.280   109237665.20109  20787217.760    85120289.88148
  21768845.620   114396089.37509  21768842.100    89139810.41547
  23918311.040   125691580.32008  23918308.900    97941487.84646
  23285740.800   122367403.78708  23285738.600    95351217.44146
  24908023.020   130892800.57108  24908019.680   101994433.81345
  20521632.540   107841943.72709  20521627.320    84032684.02549
  21898149.400   115075728.17309  21898143.800    89669445.40748
  20820801.140   109414128.56409  20820799.780    85257799.75449
  21237600.000   111604458.52809  21237598.520    86964545.67248
 15 03 03 03 13  0.0000000  0 10G01G04G11G14G16G18G19G22G27G32
  22683122.840   119200651.39008  22683123.300    92883642.48547
  20780792.920   109203889.09909  20780790.420    85093970.86948
  21756514.540   114331289.91109  21756511.140    89089317.35047
  23907693.420   125635783.86208  23907691.200    97898010.12745
  23305733.700   122472466.09808  23305731.280    95433084.10146
  24925564.200   130984979.21108  24925560.680   102066261.31244
  20519739.080   107831993.50609  20519733.880    84024930.61549
  21910468.960   115140468.12609  21910463.360    89719892.13448
  20827687.300   109450315.47409  20827686.140    85285997.34649
  21222129.240   111523158.68409  21222127.600    86901195.18348
 15 03 03 03 13 30.0000000  0  9G01G04G11G14G16G19G22G27G32
  22671034.040   119137124.44908  22671034.560    92834140.99547
  20774417.960   109170388.74409  20774415.540    85067866.70547
  21744218.400   114266673.74009  21744215.020    89038967.10446
  23897128.580   125580265.01908  23897126.220    97854748.71044
  23325754.820   122577676.93508  23325752.240    95515066.50145
  20517910.840   107822386.00609  20517905.620    84017444.24948
  21922855.980   115205562.55309  21922850.360    89770615.06447
  20834644.880   109486879.26509  20834644.180    85314488.61348
  21206742.700   111442301.45509  21206740.840    86838189.57747
 15 03 03 03 14  0.0000000  0  9G01G04G11G14G16G19G22G27G32
  22658979.740   119073779.01608  22658980.380    92784780.95347
  20768096.200   109137168.19409  20768093.880    85041980.57848
  21731958.200   114202246.05409  21731954.780    88988763.72447
  23886617.880   125525030.81008  23886615.340    97811709.09345
  23345804.340   122683037.47908  23345801.620    95597165.54746
  20516148.900   107813126.95409  20516143.640    84010229.41048
  21935310.960   115271013.96209  21935305.300    89821616.16647
  20841675.000   109523824.76009  20841674.740    85343277.32149
  21191441.540   111361893.65009  21191439.600    86775534.17547
 15 03 03 03 14 30.0000000  0  9G01G04G11G14G16G19G22G27G32
  22646960.020   119010615.87808  22646960.760    92735562.95247
  20761827.860   109104228.16109  20761825.620    85016313.02548
  21719734.200   114138008.33809  21719730.640    88938708.38547
  23876162.000   125470084.91908  23876159.200    97768894.13945
  23365881.960   122788545.90608  23365879.140    95679379.82146
  20514453.640   107804218.40309  20514448.380    84003287.67949
  21947833.540   115336820.96909  21947827.920    89872894.34948
  20848778.200   109561153.10009  20848778.060    85372364.33849
  21176226.440   111281938.33609  21176224.520    86713231.35748
 15 03 03 03 15  0.0000000  0  9G01G04G11G14G16G19G22G27G32
  22634974.000   118947629.77008  22634974.900    92686482.88547
  20755611.880   109071563.22009  20755609.600    84990859.83548
  21707545.520   114073955.99309  21707541.780    88888797.47947
  23865760.540   125415424.92208  23865757.600    97726301.98145
  23385986.280   122894194.66008  23385983.440    95761703.44846
  20512824.300   107795656.01109  20512818.960    83996615.68149
  21960422.340   115402976.12709  21960416.820    89924443.81448
  20855953.560   109598859.26209  20855953.200    85401745.75249
  21161096.840   111202432.55209  21161095.020    86651278.82448
 15 03 03 03 15 30.0000000  0 10G01G03G04G11G14G16G19G22G27G32
  22623022.300   118884823.72208  22623023.380    92637543.13247
  24624146.640   129400763.50607  24624150.420   100831762.50646
  20749448.860   109039176.11109  20749446.500    84965623.13548
  21695392.840   114010092.78409  21695388.960    88839033.95947
  23855414.640   125361056.75308  23855411.620    97683937.21545
  23406117.300   122999983.47708  23406114.420    95844136.20246
  20511261.720   107787444.23509  20511256.300    83990216.89149
  21973077.660   115469480.57909  21973072.200    89976265.46448
  20863201.600   109636946.67909  20863200.800    85431424.24149
  21146053.840   111123381.62909  21146052.140    86589680.72848
 15 03 03 03 16  0.0000000  0 10G01G03G04G11G14G16G19G22G27G32
  22611105.680   118822201.82108  22611106.860    92588746.87947
  24603247.680   129290939.88107  24603251.600   100746186.03446
  20743339.440   109007070.80809  20743337.120    84940606.03048
  21683276.920   113946423.37909  21683273.100    88789421.45847
  23845125.620   125306987.22808  23845122.340    97641805.15345
  23426275.420   123105914.35608  23426272.460    95926679.66046
  20509766.800   107779588.39809  20509761.380    83984095.46249
  21985799.900   115536336.25409  21985794.340    90028360.80348
  20870523.080   109675419.65109  20870521.800    85461403.16749
  21131098.740   111044791.88009  21131097.060    86528441.99148
 15 03 03 03 16 30.0000000  0 10G01G03G04G11G14G16G19G22G27G32
  22599221.900   118759752.32208  22599223.080    92540084.96947
  24582364.500   129181199.21707  24582368.540   100660674.19746
  20737281.400   108975235.54309  20737279.020    84915799.33648
  21671195.820   113882936.96409  21671192.060    88739951.53047
  23834891.660   125253207.37908  23834888.280    97599898.81445
  23446457.740   123211972.33808  23446454.740    96009322.15846
  20508337.560   107772077.84909  20508332.220    83978243.08049
  21998586.380   115603529.44009  21998580.660    90080719.12548
  20877915.620   109714266.75909  20877914.120    85491673.62349
  21116229.660   110966653.87209  21116227.880    86467555.25948
 15 03 03 03 17  0.0000000  0 10G01G03G04G11G14G16G19G22G27G32
  22587372.440   118697482.90508  22587373.580    92491563.38448
  24561498.900   129071551.32507  24561503.020   100575234.63146
  20731276.200   108943677.82509  20731273.780    84891208.92948
  21659150.980   113819641.82509  21659147.400    88690630.66348
  23824714.700   125199727.47208  23824711.480    97558226.18546
  23466665.260   123318163.06808  23466662.400    96092068.10446
  20506975.700   107764921.46809  20506970.480    83972666.67949
  22011438.140   115671065.76509  22011432.360    90133344.83048
  20885380.600   109753495.95109  20885379.260    85522241.82249
  21101448.360   110888977.50909  21101446.480    86407028.25348
 15 03 03 03 17 30.0000000  0 10G01G03G04G11G14G16G19G22G27G32
  22575556.960   118635392.16008  22575558.060    92443181.01648
  24540651.020   128961996.83207  24540655.180   100489867.84746
  20725323.520   108912395.94209  20725321.020    84866833.44648
  21647142.480   113756537.28609  21647139.080    88641458.30347
  23814595.040   125146548.81008  23814592.060    97516788.28146
  23486897.100   123424482.06608  23486894.600    96174913.99246
  20505681.100   107758118.75909  20505676.020    83967365.86349
  22024354.500   115738941.61709  22024348.740    90186235.09948
  20892917.760   109793105.90409  20892916.940    85553106.72149
  21086755.060   110811763.54109  21086752.980    86346861.53748
 15 03 03 03 18  0.0000000  0 10G01G03G04G11G14G16G19G22G27G32
  22563775.960   118573482.42908  22563777.040    92394939.70447
  24519821.800   128852540.55208  24519825.960   100404577.57345
  20719423.760   108881392.39609  20719421.200    84842674.84947
  21635170.920   113693626.28209  21635167.520    88592436.75046
  23804533.640   125093676.61308  23804530.900    97475589.19144
  23507153.260   123530929.08908  23507151.200    96257859.64845
  20504454.560   107751673.64509  20504449.560    83962343.69348
  22037335.520   115807157.16909  22037329.860    90239390.07147
  20900527.820   109833099.58309  20900527.680    85584270.62948
  21072150.660   110735016.73309  21072148.480    86287058.85447
 15 03 03 03 18 30.0000000  0 10G01G03G04G11G14G16G19G22G27G32
  22552028.500   118511748.92408  22552029.500    92346835.70347
  24499010.800   128743179.71708  24499014.960   100319361.64746
  20713575.960   108850662.05209  20713573.340    84818729.12748
  21623235.520   113630905.00609  21623232.020    88543563.03447
  23794530.240   125041108.81108  23794527.660    97434627.27645
  23527432.360   123637496.61308  23527430.700    96340899.17145
  20503295.420   107745582.48809  20503290.420    83957597.32849
  22050379.920   115875705.73509  22050374.300    90292804.53248
  20908210.100   109873472.25209  20908210.500    85615729.84149
  21057634.680   110658734.49109  21057632.460    86227618.16248
 15 03 03 03 19  0.0000000  0 10G01G03G04G11G14G16G19G22G27G32
  22540315.140   118450194.56808  22540316.020    92298871.29847
  24478218.960   128633919.40008  24478222.880   100234224.03945
  20707780.580   108820207.49809  20707778.020    84794998.31648
  21611337.020   113568377.29909  21611333.300    88494840.16247
  23784585.960   124988851.22008  23784583.400    97393907.10844
  23547734.460   123744184.86008  23547733.000    96424032.76446
  20502204.460   107739849.38909  20502199.400    83953129.97449
  22063487.840   115944588.23909  22063482.220    90346479.20847
  20915965.440   109914227.10209  20915966.000    85647486.86349
  21043208.060   110582921.75509  21043205.840    86168543.32348
 15 03 03 03 19 30.0000000  0 10G01G03G04G11G14G16G19G22G27G32
  22528635.880   118388819.45608  22528636.600    92251046.57047
  24457446.740   128524761.89008  24457450.440   100149166.53245
  20702037.740   108790028.97509  20702035.260    84771482.60048
  21599475.400   113506043.77409  21599471.560    88446268.60947
  23774701.300   124936906.43208  23774698.740    97353430.67245
  23568059.300   123850991.55408  23568057.760    96507258.66746
  20501181.860   107734475.28809  20501176.720    83948942.37249
  22076658.800   116013802.43409  22076653.180    90400412.35148
  20923793.900   109955364.43909  20923794.180    85679541.92949
  21028871.220   110507580.94709  21028869.080    86109836.23348
 15 03 03 03 20  0.0000000  0 10G01G03G04G11G14G16G19G22G27G32
  22516990.400   118327621.90108  22516991.020    92203360.18447
  24436694.220   128415707.64108  24436697.760   100064189.47845
  20696347.020   108760124.47109  20696344.600    84748180.39748
  21587650.420   113443903.40009  21587646.640    88397847.55647
  23764876.420   124885275.67708  23764873.740    97313198.92545
  23588405.960   123957912.60208  23588404.140    96590573.67746
  20500227.520   107729459.92709  20500222.280    83945034.29949
  22089892.180   116083344.99309  22089886.660    90454601.35247
  20931695.060   109996882.79509  20931694.740    85711893.88049
  21014624.240   110432712.44109  21014622.160    86051497.15048
 15 03 03 03 20 30.0000000  0 10G01G03G04G11G14G16G19G22G27G32
  22505379.240   118266605.00908  22505379.840    92155814.58247
  24415962.340   128306761.91708  24415966.000    99979296.95945
  20690709.100   108730497.21609  20690706.720    84725094.22948
  21575862.900   113381960.08909  21575859.260    88349580.04847
  23755112.300   124833964.74108  23755109.640    97273216.39645
  23608774.240   124064947.66908  23608772.080    96673977.52945
  20499342.220   107724807.53909  20499336.900    83941409.05548
  22103188.140   116153216.38109  22103182.780    90509046.58347
  20939669.360   110038785.49709  20939668.400    85744545.31849
  21000468.020   110358321.53609  21000466.060    85993530.22848
 15 03 03 03 21  0.0000000  0 10G01G03G04G11G14G16G19G22G27G32
  22493801.760   118205765.61108  22493802.420    92108407.28847
  24395250.860   128197923.75507  24395254.720    99894488.26045
  20685123.300   108701143.77109  20685120.980    84702221.42447
  21564112.380   113320211.44209  21564108.980    88301464.23747
  23745408.840   124782973.20308  23745406.220    97233482.75245
  23629162.980   124172091.38908  23629160.680    96757466.05245
  20498525.520   107720515.70609  20498520.180    83938064.77448
  22116545.740   116223411.53709  22116540.560    90563744.10747
  20947716.000   110081069.58809  20947714.600    85777493.95048
  20986402.420   110284407.22109  20986400.580    85935934.68247
 15 03 03 03 21 30.0000000  0 10G01G03G04G11G14G16G19G22G27G32
  22482258.240   118145104.70008  22482258.980    92061139.06647
  24374560.420   128089196.27507  24374564.420    99809765.80546
  20679589.800   108672064.71109  20679587.360    84679562.41748
  21552399.320   113258659.27409  21552396.000    88253501.51947
  23735766.740   124732304.74708  23735764.260    97194000.86646
  23649571.920   124279342.18808  23649569.740    96841037.99345
  20497777.880   107716587.02309  20497772.620    83935003.46549
  22129964.800   116293929.33309  22129959.720    90618693.03848
  20955835.160   110123736.17509  20955833.580    85810740.62849
  20972428.120   110210972.51709  20972426.280    85878712.85948
 15 03 03 03 22  0.0000000  0 10G01G03G04G11G14G16G19G22G27G32
  22470748.080   118084619.05008  22470748.960    92014007.42247
  24353890.820   127980578.48407  24353894.980    99725128.80445
  20674107.920   108643257.01409  20674105.480    84657114.87148
  21540723.240   113197301.20409  21540719.980    88205690.05147
  23726186.100   124681958.78608  23726183.600    97154770.26445
  23669999.960   124386693.77908  23669998.040    96924688.48945
  20497098.960   107713019.39009  20497093.820    83932223.49549
  22143444.300   116364764.69209  22143439.260    90673889.41747
  20964026.240   110166782.30909  20964024.760    85844283.06948
  20958544.940   110138016.34509  20958543.060    85821863.92048
 15 03 03 03 22 30.0000000  0 10G01G03G04G11G14G16G19G22G27G32
  22459271.860   118024311.82408  22459272.900    91967014.80347
  24333243.160   127872075.63807  24333247.400    99640581.38645
  20668678.260   108614723.69309  20668675.800    84634881.13448
  21529084.920   113136141.11209  21529081.620    88158032.85547
  23716668.080   124631941.22408  23716665.520    97115795.57045
  23690447.480   124494146.99708  23690445.720    97008418.16746
  20496489.600   107709816.99509  20496484.540    83929728.12749
  22156984.400   116435918.41309  22156979.340    90729333.88148
  20972290.000   110210211.27309  20972288.900    85878123.82249
  20944753.900   110065544.01909  20944751.980    85765392.01148
 15 03 03 03 23  0.0000000  0 10G01G03G04G11G14G16G19G22G27G32
  22447829.180   117964180.52908  22447830.360    91920159.26247
  24312617.360   127763687.46207  24312621.480    99556123.30945
  20663300.220   108586461.89109  20663297.740    84612858.94948
  21517483.920   113075177.15909  21517480.520    88110528.49047
  23707212.760   124582252.26808  23707209.900    97077076.92545
  23710913.640   124601697.26008  23710912.000    97092223.46445
  20495949.580   107706978.85309  20495944.560    83927516.57749
  22170584.280   116507385.97309  22170579.160    90785022.88347
  20980626.260   110254020.76209  20980625.600    85912261.08648
  20931054.860   109993555.14709  20931052.940    85709296.80648
 15 03 03 03 23 30.0000000  0 10G01G03G04G11G14G16G19G22G27G32
  22436420.620   117904228.00208  22436421.840    91873443.03447
  24292014.380   127655418.92607  24292018.320    99471758.44745
  20657974.300   108558474.36309  20657971.880    84591050.50048
  21505920.880   113014413.05009  21505917.400    88063179.84447
  23697821.020   124532897.14008  23697817.920    97038618.40345
  23731398.400   124709344.11508  23731396.880    97176104.02845
  20495479.520   107704508.37209  20495474.520    83925591.52349
  22184244.100   116579168.22309  22184238.880    90840957.10247
  20989035.740   110298213.71809  20989035.400    85946697.14148
  20917448.700   109922054.45609  20917446.800    85653581.99947
 15 03 03 03 24  0.0000000  0 10G01G03G04G11G14G16G19G22G27G32
  22425045.620   117844451.67209  22425046.780    91826864.09847
  24271434.120   127547269.61308  24271437.880    99387486.49046
  20652700.160   108530758.56309  20652697.720    84569453.77748
  21494395.500   112953847.02709  21494392.080    88015985.55247
  23688492.860   124483876.22208  23688489.440    97000420.32045
  23751900.600   124817082.20908  23751899.120    97260055.67945
  20495079.120   107702404.32409  20495074.120    83923951.99949
  22197962.940   116651260.38109  22197957.620    90897132.80347
  20997518.120   110342787.71409  20997517.760    85981430.11549
  20903935.380   109851041.49909  20903933.560    85598247.24348
 15 03 03 03 24 30.0000000  0 10G01G03G04G11G14G16G19G22G27G32
  22413704.740   117784854.62708  22413705.820    91780424.86747
  24250877.660   127439244.81808  24250881.140    99303311.53646
  20647478.300   108503317.29809  20647475.800    84548070.98548
  21482908.540   112893483.02609  21482905.200    87968948.67247
  23679229.280   124435195.29508  23679225.780    96962487.15845
  23772420.440   124924912.59908  23772418.940    97344079.25546
  20494749.180   107700670.90309  20494744.200    83922601.27549
  22211740.960   116723663.51109  22211735.540    90953550.82248
  21006073.900   110387745.98309  21006073.280    86016462.51249
  20890515.840   109780521.34809  20890514.100    85543296.49548
 15 03 03 03 25  0.0000000  0 10G01G03G04G11G14G16G19G22G27G32
  22402397.780   117725436.08008  22402398.820    91734124.73447
  24230345.200   127331345.87308  24230348.460    99219234.65146
  20642308.480   108476149.61909  20642306.020    84526901.37948
  21471460.100   112833320.98609  21471456.820    87922069.17347
  23670030.520   124386856.14108  23670027.100    96924820.30645
  23792957.020   125032831.37908  23792955.480    97428171.70246
  20494489.800   107699308.18809  20494484.760    83921539.43049
  22225577.540   116796374.52609  22225572.040    91010208.75848
  21014702.740   110433087.83709  21014701.760    86051793.81449
  20877190.380   109710495.35209  20877188.540    85488730.80448
 15 03 03 03 25 30.0000000  0 10G01G03G04G11G14G16G19G22G27G32
  22391124.540   117666194.41808  22391125.440    91687962.42448
  24209836.780   127223573.34808  24209839.800    99135256.26346
  20637190.320   108449253.76109  20637187.940    84505943.58148
  21460049.960   112773359.90709  21460046.660    87875346.26047
  23660896.800   124338859.65608  23660893.640    96887420.46545
  23813509.540   125140834.55808  23813507.980    97512329.91345
  20494300.940   107698315.79109  20494295.840    83920766.13749
  22239471.960   116869389.74109  22239466.400    91067103.72647
  21023404.220   110478811.76409  21023402.920    86087422.83649
  20863959.060   109640963.72809  20863957.020    85434550.34148
 15 03 03 03 26  0.0000000  0 10G01G03G04G11G14G16G19G22G27G32
  22379885.040   117607130.17408  22379885.800    91641938.35248
  24189352.880   127115929.87508  24189355.700    99051378.41846
  20632123.960   108422630.29109  20632121.660    84485198.02548
  21448678.380   112713601.53309  21448675.160    87828781.29847
  23651828.860   124291209.08608  23651826.080    96850290.15145
  23834077.580   125248919.83008  23834075.920    97596552.08845
  20494182.940   107697695.61009  20494177.800    83920282.87749
  22253423.960   116942707.81409  22253418.380    91124234.68748
  21032178.280   110524918.41509  21032176.840    86123350.07449
  20850822.260   109571929.06609  20850820.080    85380757.12248
 15 03 03 03 26 30.0000000  0 10G01G03G04G11G14G16G19G22G27G32
  22368679.120   117548242.69008  22368679.780    91596052.03447
  24168893.700   127008417.04308  24168896.440    98967602.37746
  20627109.260   108396278.28509  20627106.980    84464664.00148
  21437345.400   112654046.15309  21437342.240    87782374.52247
  23642827.240   124243906.41708  23642824.720    96813430.96645
  23854660.500   125357083.96508  23854658.600    97680835.72345
  20494135.920   107697448.21609  20494130.740    83920090.10249
  22267433.140   117016326.37609  22267427.580    91181599.79647
  21041024.780   110571407.22609  21041023.400    86159575.10949
  20837780.240   109503392.70909  20837777.960    85327352.18748
 15 03 03 03 27  0.0000000  0 10G01G03G04G11G14G16G19G22G27G32
  22357506.300   117489529.08308  22357506.860    91550301.19147
  24148459.100   126901034.05908  24148461.860    98883927.51845
  20622145.620   108370194.59809  20622143.380    84444339.05948
  21426050.520   112594691.33609  21426047.380    87736124.01847
  23633892.000   124196951.39908  23633889.480    96776842.64745
  23875257.460   125465321.77308  23875255.240    97765176.77045
  20494159.420   107697571.44909  20494154.180    83920186.12849
  22281498.420   117090239.74009  22281492.860    91239194.62547
  21049943.220   110618275.29209  21049942.080    86196095.67248
  20824832.800   109435353.57109  20824830.520    85274334.68948
 15 03 03 03 27 30.0000000  0 10G01G03G04G11G14G16G19G22G27G32
  22346367.340   117430993.78108  22346367.880    91504689.29747
  24128050.400   126793787.49508  24128053.380    98800358.95646
  20617233.900   108344383.70109  20617231.660    84424226.68548
  21414794.800   112535542.45409  21414791.620    87690033.99447
  23625024.320   124150350.99708  23625021.800    96740530.68745
  23895868.740   125573634.78808  23895866.400    97849576.41045
  20494254.520   107698071.03709  20494249.260    83920575.42249
  22295620.240   117164450.47909  22295614.620    91297021.17648
  21058934.520   110665527.17609  21058933.700    86232915.31449
  20811981.120   109367818.03109  20811978.980    85221709.61548
 15 03 03 03 28  0.0000000  0 10G01G03G04G11G14G16G19G22G27G32
  22335261.840   117372634.34508  22335262.360    91459214.44247
  24107667.640   126686677.10508  24107670.820    98716896.49046
  20612373.640   108318843.01509  20612371.380    84404324.86048
  21403578.000   112476597.85709  21403574.640    87644103.14547
  23616224.180   124104105.37408  23616221.620    96704495.15945
  23916493.540   125682018.27908  23916491.180    97934030.95945
  20494420.940   107698945.48309  20494415.680    83921256.80449
  22309797.740   117238953.99409  22309792.120    91355075.85747
  21067998.400   110713160.47009  21067997.860    86270032.15049
  20799225.240   109300785.67309  20799223.180    85169476.61948
 15 03 03 03 28 30.0000000  0 10G01G03G04G11G14G16G19G22G27G32
  22324190.000   117314451.54109  22324190.440    91413877.21247
  24087311.440   126579705.72908  24087314.640    98633542.35647
  20607564.940   108293573.10209  20607562.700    84384634.02548
  21392400.380   112417858.89109  21392396.840    87598332.53548
  23607492.160   124058217.80808  23607489.560    96668738.63546
  23937131.460   125790470.39508  23937129.180    98018538.98146
  20494659.000   107700196.50509  20494653.760    83922231.62249
  22324030.620   117313748.97909  22324025.160    91413357.66048
  21077135.120   110761176.01809  21077134.760    86307446.85549
  20786565.620   109234259.04509  20786563.520    85117637.70948
 15 03 03 03 29  0.0000000  0 10G01G03G04G11G14G16G19G22G27G32
  22313151.880   117256445.94209  22313152.320    91368678.06947
  24066982.320   126472876.15308  24066985.440    98550298.71646
  20602807.860   108268574.45709  20602805.660    84365154.56748
  21381262.300   112359327.41809  21381258.640    87552723.59947
  23598828.700   124012691.37308  23598826.340    96633263.51145
  23957782.020   125898988.74308  23957779.880    98103098.60745
  20494969.060   107701825.76509  20494963.840    83923501.17049
  22338318.640   117388833.95309  22338313.420    91471865.42247
  21086344.880   110809574.39809  21086344.580    86345159.86248
  20774002.740   109168240.60709  20774000.580    85066194.78848
 15 03 03 03 29 30.0000000  0 10G01G03G04G11G14G16G19G22G27G32
  22302147.040   117198614.84609  22302147.520    91323614.90648
  24046680.220   126366187.72408  24046683.040    98467165.06447
  20598101.880   108243844.18409  20598099.700    84345884.24148
  21370163.280   112301001.39009  21370159.660    87507274.76548
  23590233.820   123967525.97508  23590231.700    96598069.71946
  23978444.320   126007568.43008  23978442.400    98187706.03746
  20495350.840   107703831.92009  20495345.600    83925064.40949
  22352660.980   117464204.04709  22352655.940    91530595.36548
  21095627.160   110858352.87509  21095626.760    86383169.05849
  20761536.340   109102729.47709  20761534.240    85015147.18648
 15 03 03 03 30  0.0000000  0 10G01G03G04G11G14G16G19G22G27G32
  22291175.960   117140961.10309  22291176.420    91278689.92247
  24026405.980   126259645.50808  24026408.520    98384145.35646
  20593447.500   108219384.96509  20593445.200    84326825.10848
  21359104.000   112242884.56009  21359100.420    87461988.92747
  23581708.700   123922727.29408  23581706.860    96563161.66445
  23999118.260   126116209.35208  23999116.400    98272361.17845
  20495805.000   107706218.57309  20495799.740    83926924.13749
  22367057.780   117539859.94209  22367052.880    91589548.00447
  21104982.480   110907514.37109  21104981.920    86421476.69848
  20749167.340   109037730.34809  20749165.340    84964498.52848
 15 03 03 03 30 30.0000000  0 10G01G03G04G11G14G16G19G22G27G32
  22280238.140   117083482.34809  22280238.620    91233901.30247
  24006159.480   126153249.21708  24006161.780    98301239.34046
  20588844.220   108195194.41009  20588841.800    84307975.33348
  21348084.120   112184975.19409  21348080.620    87416864.75247
  23573253.420   123878295.24708  23573251.640    96528539.30045
  24019802.820   126224906.45508  24019801.020    98357060.09945
  20496331.280   107708984.38209  20496326.040    83929079.31549
  22381508.160   117615797.41709  22381503.300    91648720.05847
  21114410.280   110957056.44109  21114409.600    86460080.89949
  20736895.580   108973242.74109  20736893.860    84914248.46148
 15 03 03 03 31  0.0000000  0 10G01G03G04G11G14G16G19G22G27G32
  22269333.700   117026179.23109  22269334.200    91189249.54147
  23985941.180   126047001.66508  23985943.240    98218449.22946
  20584292.200   108171272.94809  20584289.620    84289335.23248
  21337104.040   112127274.97609  21337100.640    87371903.55547
  23564868.680   123834233.02208  23564866.680    96494205.12445
  24040497.640   126333658.19208  24040495.900    98441801.60645
  20496930.100   107712131.10509  20496924.860    83931531.30549
  22396011.880   117692014.91409  22396006.960    91708110.31647
  21123910.600   111006979.75309  21123909.860    86498982.16748
  20724721.660   108909268.97009  20724720.140    84864398.78148
 15 03 03 03 31 30.0000000  0 10G01G03G04G11G14G16G19G22G27G32
  22258462.680   116969052.07709  22258463.320    91144734.88848
  23965751.560   125940905.29408  23965753.480    98135776.90746
  20579791.360   108147620.75009  20579788.740    84270904.95748
  21326164.040   112069785.09509  21326160.560    87327106.24847
  23556554.980   123790543.18808  23556552.560    96460161.11445
  24061202.260   126442462.24408  24061200.680    98526583.85645
  20497601.680   107715660.10609  20497596.400    83934281.16949
  22410568.520   117768510.44209  22410563.560    91767717.21547
  21133483.460   111057284.58109  21133482.680    86538180.72249
  20712646.040   108845811.17409  20712644.520    84814951.16048
 15 03 03 03 32  0.0000000  0 10G01G03G04G11G14G16G19G22G27G32
  22247625.500   116912102.71409  22247626.300    91100358.77947
  23945591.360   125834964.06008  23945593.220    98053225.47045
  20575342.100   108124239.62909  20575339.460    84252685.90547
  21315264.680   112012508.43809  21315261.080    87282475.10547
  23548313.100   123747230.38708  23548310.300    96426410.91245
  24081916.520   126551317.89108  24081915.200    98611406.32044
  20498346.600   107719574.39609  20498341.300    83937331.26548
  22425178.080   117845283.97509  22425173.060    91827540.74947
  21143129.200   111107972.73509  21143128.380    86577677.98148
  20700669.400   108782872.93309  20700667.680    84765908.40247
 15 03 03 03 32 30.0000000  0 10G01G03G04G11G14G16G19G22G27G32
  22236821.160   116855326.24108  22236822.100    91056117.38848
  23925460.160   125729175.13308  23925462.100    97970792.69946
  20570943.440   108101124.58509  20570940.860    84234674.19748
  21304405.100   111955440.60009  21304401.320    87238006.67447
  23540142.460   123704292.13908  23540139.300    96392952.55546
  24102639.120   126660217.38708  24102638.000    98696262.94146
  20499164.100   107723870.19509  20499158.780    83940678.63949
  22439839.180   117922328.29109  22439834.100    91887575.28147
  21152846.840   111159039.21509  21152846.100    86617470.03549
  20688791.080   108720451.01809  20688789.060    84717267.97748
 15 03 03 03 33  0.0000000  0 10G01G03G04G11G14G16G19G22G27G32
  22226050.160   116798724.77408  22226051.160    91012012.35348
  23905358.860   125623542.78208  23905360.800    97888481.93246
  20566595.780   108078277.48609  20566593.200    84216871.26348
  21293585.760   111898584.49009  21293581.900    87193703.21548
  23532043.820   123661732.87808  23532040.440    96359789.52346
  24123370.160   126769160.44708  24123369.100    98781153.50246
  20500054.620   107728550.31709  20500049.400    83944325.48349
  22454551.800   117999643.50509  22454546.620    91947820.89048
  21162636.760   111210486.08309  21162636.160    86657558.49349
  20677011.720   108658549.38009  20677009.460    84669032.95348
 15 03 03 03 33 30.0000000  0 10G01G03G04G11G14G16G19G22G27G32
  22215312.600   116742298.62908  22215313.560    90968043.94748
  23885287.900   125518069.44408  23885289.900    97806295.07346
  20562299.160   108055698.59509  20562296.580    84199277.32248
  21282806.880   111841941.50809  21282803.140    87149565.83548
  23524017.600   123619555.47508  23524014.260    96326924.04346
  24144109.220   126878144.65908  24144108.000    98866076.12345
  20501018.460   107733616.00809  20501013.380    83948272.77949
  22469315.580   118077227.61909  22469310.300    92008276.03848
  21172498.980   111262313.55309  21172498.600    86697943.52649
  20665331.660   108597169.91709  20665329.300    84621204.82548
 15 03 03 03 34  0.0000000  0 10G01G03G04G11G14G16G19G22G27G32
  22204608.560   116686048.54009  22204609.480    90924212.73547
  23865247.740   125412757.95008  23865249.840    97724234.33046
  20558053.600   108033388.25309  20558051.100    84181892.65848
  21272068.800   111785513.14009  21272065.220    87105595.68847
  23516064.460   123577763.03408  23516061.340    96294358.52545
  24164856.040   126987168.68308  24164854.580    98951029.76745
  20502056.020   107739069.09509  20502051.060    83952521.94249
  22484130.380   118155079.69009  22484124.980    92068939.99147
  21182433.700   111314522.27809  21182433.500    86738625.64348
  20653751.300   108536315.08509  20653749.000    84573785.48748
 15 03 03 03 34 30.0000000  0 11G01G03G04G11G14G16G19G22G27G28G32
  22193937.360   116629970.70309  22193938.180    90880515.74248
  23845238.040   125307606.58208  23845240.180    97642298.33847
  20553858.480   108011342.88809  20553856.040    84164714.45148
  21261371.140   111729296.83509  21261367.680    87061790.78248
  23508184.160   123536354.17208  23508181.340    96262091.88945
  24185609.240   127096225.93208  24185607.600    99036009.30345
  20503166.860   107744906.84809  20503161.920    83957070.83249
  22498995.000   118233193.50409  22498989.460    92129807.89447
  21192440.260   111367108.37209  21192440.180    86779601.80849
  25086648.120   131831222.61307  25086645.880   102725619.58743
  20642270.240   108475982.65609  20642268.120    84526773.22348
 15 03 03 03 35  0.0000000  0 11G01G03G04G11G14G16G19G22G27G28G32
  22183299.500   116574068.24809  22183300.220    90836955.41847
  23825259.680   125202620.54508  23825261.940    97560491.20146
  20549714.320   107989565.44009  20549711.980    84147745.03048
  21250714.620   111673296.38709  21250711.240    87018154.08347
  23500377.880   123495334.45608  23500375.440    96230128.49446
  24206368.780   127205316.66208  24206367.080    99121014.93244
  20504351.700   107751133.12009  20504346.720    83961922.47449
  22513909.760   118311570.41109  22513904.040    92190880.80847
  21202519.280   111420074.83109  21202519.240    86820874.37448
  25070727.520   131747557.85807  25070724.220   102660426.25142
  20630889.560   108416177.43609  20630887.600    84480171.76348
 15 03 03 03 35 30.0000000  0 11G01G03G04G11G14G16G19G22G27G28G32
  22172694.520   116518338.24209  22172695.060    90793529.46047
  23805312.580   125097799.07308  23805314.940    97478812.28546
  20545620.580   107968052.70209  20545618.280    84130981.85748
  21240098.820   111617509.62909  21240095.320    86974683.89347
  23492645.760   123454703.50708  23492643.600    96198468.02545
  24227133.680   127314435.79108  24227132.000    99206042.68945
  20505610.180   107757745.96409  20505605.120    83967075.33649
  22528873.600   118390205.10909  22528867.740    92252154.59947
  21212670.260   111473418.58509  21212670.120    86862440.92848
  25054857.560   131664158.12507  25054853.380   102595439.44843
  20619609.080   108356898.18909  20619607.240    84433980.16548
 15 03 03 03 36  0.0000000  0 11G01G03G04G11G14G16G19G22G27G28G32
  22162122.580   116462782.06809  22162123.000    90750238.96148
  23785397.400   124993145.56408  23785399.840    97397264.25846
  20541577.440   107946805.86609  20541575.180    84114425.89148
  21229524.160   111561939.03809  21229520.500    86931382.14147
  23484988.560   123414464.97508  23484986.580    96167113.35446
  24247903.600   127423581.74308  24247901.940    99291091.34945
  20506942.700   107764748.12609  20506937.600    83972531.56849
  22543886.380   118469096.90709  22543880.420    92313628.73147
  21222893.460   111527140.85509  21222893.040    86904302.42648
  25039038.680   131581027.47907  25039033.900   102530662.30543
  20608429.220   108298147.77809  20608427.440    84388200.64948
 15 03 03 03 36 30.0000000  0 11G01G03G04G11G14G16G19G22G27G28G32
  22151584.700   116407404.91109  22151585.080    90707087.94848
  23765515.520   124888667.33708  23765518.060    97315852.80547
  20537585.900   107925830.04709  20537583.560    84098081.09048
  21218991.660   111506590.45509  21218987.980    86888253.38248
  23477407.700   123374626.44608  23477405.700    96136070.37546
  24268679.180   127532757.66908  24268677.660    99376163.35445
  20508350.360   107772145.30009  20508345.200    83978295.59249
  22558948.620   118548248.99709  22558942.720    92375305.66947
  21233189.740   111581246.70509  21233189.000    86946462.80549
  25023272.180   131498173.37307  25023267.140   102466100.65044
  20597351.360   108239932.95309  20597349.500    84342838.45348
 15 03 03 03 37  0.0000000  0 11G01G03G04G11G14G16G19G22G27G28G32
  22141079.720   116352200.93709  22141080.080    90664071.88947
  23745666.360   124784360.64808  23745668.940    97234575.03146
  20533644.780   107905119.38509  20533642.440    84081942.92148
  21208500.480   111451458.99309  21208496.780    86845293.81347
  23469902.440   123335184.20708  23469900.140    96105336.19146
  24289458.840   127641954.93108  24289457.420    99461251.99445
  20509832.320   107779932.92409  20509827.060    83984363.87049
  22574058.780   118627653.22709  22574052.940    92437179.08847
  21243557.840   111635730.12809  21243556.840    86988917.40748
  25007557.420   131415592.55407  25007552.940   102401751.96744
  20586374.540   108182249.51309  20586372.700    84297890.35248
 15 03 03 03 37 30.0000000  0 11G01G03G04G11G14G16G19G22G27G28G32
  22130608.080   116297172.56508  22130608.500    90621192.65548
  23725850.840   124680229.94708  23725853.300    97153434.37847
  20529754.540   107884676.25909  20529752.260    84066013.21948
  21198051.240   111396548.07609  21198047.680    86802506.09848
  23462473.520   123296143.43408  23462471.040    96074914.84146
  24310242.540   127751173.21308  24310241.300    99546357.01445
  20511389.240   107788114.24109  20511383.820    83990738.92349
  22589216.960   118707310.04509  22589211.100    92499249.33047
  21253998.160   111690593.32309  21253996.940    87031667.93048
  24991895.520   131333289.79607  24991891.740   102337619.91243
  20575499.580   108125101.33409  20575497.680    84253359.31348
 15 03 03 03 38  0.0000000  0 11G01G03G04G11G14G16G19G22G27G28G32
  22120169.260   116242317.06808  22120169.860    90578448.14248
  23706068.840   124576274.62308  23706071.060    97072430.38946
  20525914.640   107864497.70809  20525912.400    84050289.68648
  21187643.640   111341855.94009  21187640.240    86759888.86948
  23455120.700   123257503.44808  23455118.180    96044805.79546
  24331029.280   127860407.25708  24331028.040    99631474.30445
  20513020.720   107796687.24309  20513015.160    83997419.19049
  22604422.300   118787214.72209  22604416.420    92561512.71748
  21264510.060   111745833.37809  21264508.720    87074712.11749
  24976286.520   131251264.56007  24976283.140   102273704.18644
  20564726.200   108068487.15009  20564724.180    84209244.37648
 15 03 03 03 38 30.0000000  0 11G01G03G04G11G14G16G19G22G27G28G32
  22109763.400   116187634.44908  22109764.160    90535838.31948
  23686320.660   124472496.70608  23686322.660    96991564.61746
  20522125.060   107844583.45509  20522122.920    84034772.08548
  21177277.880   111287383.24909  21177274.360    86717442.61248
  23447844.360   123219266.43008  23447842.000    96015010.74546
  24351818.560   127969654.66808  24351817.300    99716602.00746
  20514726.900   107805652.98509  20514721.280    84004405.47449
  22619674.340   118867364.97309  22619668.460    92623967.44747
  21275093.560   111801450.10709  21275092.140    87118049.80949
  24960730.900   131169519.53507  24960727.560   102210006.76243
  20554054.720   108012408.48809  20554052.600    84165546.72848
 15 03 03 03 39  0.0000000  0 11G01G03G04G11G14G16G19G22G27G28G32
  22099391.140   116133127.76809  22099391.900    90493365.59748
  23666607.140   124368901.37208  23666609.120    96910841.12647
  20518386.440   107824936.52509  20518384.280    84019462.79948
  21166954.640   111233134.03309  21166950.980    86675170.51548
  23440645.620   123181438.17508  23440643.540    95985534.20346
  24372610.500   128078916.30108  24372609.360    99801740.79845
  20516508.480   107815015.28609  20516502.920    84011700.77549
  22634973.320   118947761.97609  22634967.500    92686614.45648
  21285749.220   111857446.38809  21285747.800    87161683.27149
  24945229.680   131088060.35807  24945226.520   102146532.06844
  20543486.200   107956869.99909  20543483.980    84122270.00448
 15 03 03 03 39 30.0000000  0 11G01G03G04G11G14G16G19G22G27G28G32
  22089051.920   116078794.67409  22089052.660    90451028.14848
  23646928.240   124265488.28308  23646930.260    96830259.64146
  20514698.180   107805554.52209  20514695.940    84004359.94848
  21156673.720   111179107.23709  21156669.900    86633071.73548
  23433524.520   123144018.20308  23433522.760    95956375.79246
  24393404.060   128188187.15508  24393403.180    99886886.76445
  20518365.220   107824772.84109  20518359.800    84019304.07149
  22650318.320   119028401.08409  22650312.640    92749450.12147
  21296476.600   111913819.55009  21296475.220    87205610.40448
  24929782.940   131006886.92607  24929779.680   102083280.07044
  20533020.260   107901870.56409  20533018.020    84079413.33448
 15 03 03 03 40  0.0000000  0 11G01G03G04G11G14G16G19G22G27G28G32
  22078745.620   116024634.72009  22078746.340    90408825.60348
  23627284.300   124162259.02108  23627286.360    96749821.38247
  20511060.240   107786436.88109  20511057.880    83989463.08948
  21146435.140   111125302.97309  21146431.220    86591146.33648
  23426481.660   123107008.58608  23426479.960    95927537.13946
  24414198.600   128297463.94107  24414197.980    99972037.33545
  20520297.280   107834926.21309  20520291.960    84027215.78849
  22665708.860   119109279.75009  22665703.380    92812472.44248
  21307275.660   111970568.94609  21307274.320    87249830.68849
  24914391.000   130926001.23307  24914387.500   102020252.24344
  20522657.080   107847411.19209  20522654.800    84036977.47248
 15 03 03 03 40 30.0000000  0 11G01G03G04G11G14G16G19G22G27G28G32
  22068472.000   115970646.51209  22068472.680    90366756.89247
  23607675.440   124059214.26008  23607677.620    96669526.90046
  20507472.300   107767582.12409  20507469.900    83974771.07748
  21136238.780   111071720.61309  21136234.920    86549393.85747
  23419517.260   123070410.21708  23419515.320    95899018.95445
  24434993.480   128406742.56908  24434992.940   100057189.36944
  20522304.500   107845474.74809  20522299.320    84035435.42848
  22681144.380   119190394.64909  22681139.140    92875678.84847
  21318146.060   112027692.90809  21318144.740    87294342.84748
  24899053.960   130845404.20807  24899050.220   101957449.38944
  20512396.660   107793492.01909  20512394.320    83994962.54448
 15 03 03 03 41  0.0000000  0 11G01G03G04G11G14G16G19G22G27G28G32
  22058231.640   115916832.74909  22058232.180    90324824.09647
  23588102.540   123956358.70708  23588104.800    96589379.85547
  20503934.840   107748992.61709  20503932.380    83960285.74548
  21126085.400   111018364.04709  21126081.560    86507817.31347
  23412632.120   123034227.55808  23412629.720    95870824.69745
  24455788.900   128516023.62708  24455788.320   100142343.28344
  20524387.600   107856421.76209  20524382.500    84043965.55849
  22696625.040   119271746.27409  22696619.860    92939069.71547
  21329088.260   112085193.83109  21329086.940    87339148.74448
  24883772.720   130765100.74206  24883768.880   101894875.23943
  20502239.620   107740116.89109  20502237.380    83953371.54848
 15 03 03 03 41 30.0000000  0 11G01G03G04G11G14G16G19G22G27G28G32
  22048023.540   115863188.61709  22048024.040    90283023.49648
  23568565.180   123853689.64408  23568567.440    96509378.13246
  20500446.900   107730663.51609  20500444.480    83946003.33548
  21115974.300   110965229.48209  21115970.480    86466413.76547
  23405825.640   122998458.29808  23405822.760    95842952.57145
  24476583.580   128625300.10108  24476582.820   100227493.63245
  20526545.880   107867763.72409  20526540.820    84052803.44449
  22712149.480   119353327.78809  22712144.360    93002639.73047
  21340101.220   112143066.71209  21340099.980    87384244.48948
  24868546.820   130685088.67006  24868543.160   101832528.17844
  20492185.420   107687282.51509  20492183.260    83912201.91348
 15 03 03 03 42  0.0000000  0 11G01G03G04G11G14G16G19G22G27G28G32
  22037848.420   115809718.08709  22037848.920    90241358.16448
  23549064.480   123751213.04208  23549066.540    96429526.37347
  20497009.280   107712598.64609  20497006.800    83931926.81948
  21105906.340   110912321.64309  21105902.460    86425186.88748
  23399098.960   122963108.64108  23399095.640    95815407.40446
  24497377.760   128734573.07208  24497376.780   100312641.24045
  20528780.180   107879505.13309  20528775.200    84061952.59949
  22727718.060   119435141.10509  22727712.940    93066390.36447
  21351185.560   112201315.14609  21351184.500    87429632.87549
  24853377.660   130605374.37006  24853374.500   101770413.11944
  20482235.100   107634994.17409  20482233.020    83871457.76148
 15 03 03 03 42 30.0000000  0 11G01G03G04G11G14G16G19G22G27G28G32
  22027706.580   115756422.25609  22027707.140    90199828.96548
  23529601.020   123648931.98508  23529602.820    96349826.98147
  20493622.180   107694799.14509  20493619.660    83918057.09648
  21095881.880   110859642.60809  21095877.880    86384138.28548
  23392452.660   122928181.86808  23392449.080    95788191.74546
  24518171.080   128843840.91908  24518169.820   100397784.86645
  20531090.900   107891647.96509  20531085.920    84071414.54549
  22743330.460   119517185.11708  22743325.400    93130320.76247
  21362341.420   112259939.90209  21362340.560    87475314.49249
  24838265.960   130525961.51407  24838263.120   101708532.97344
  20472389.180   107583254.17509  20472387.140    83831140.89148
 15 03 03 03 43  0.0000000  0 11G01G03G04G11G14G16G19G22G27G28G32
  22017597.320   115703297.58109  22017597.840    90158433.13148
  23510174.460   123546844.98308  23510176.000    96270278.78947
  20490284.840   107677261.11509  20490282.260    83904391.10348
  21085900.340   110807189.64509  21085896.320    86343265.85048
  23385886.500   122893676.74208  23385882.940    95761304.64846
  24538962.360   128953097.74408  24538960.880   100482919.86645
  20533477.500   107904189.31509  20533472.440    84081187.03049
  22758985.640   119599454.21608  22758980.720    93194426.54748
  21373568.160   112318937.17609  21373567.380    87521286.38449
  24823211.400   130446848.72807  24823208.760   101646886.62945
  20462647.300   107532060.28709  20462645.280    83791249.57048
 15 03 03 03 43 30.0000000  0 11G01G03G04G11G14G16G19G22G27G28G32
  22007521.180   115650347.25209  22007521.600    90117173.16648
  23490785.780   123444957.23708  23490787.040    96190885.85846
  20486997.880   107659987.81909  20486995.220    83890931.40448
  21075962.580   110754966.92609  21075958.600    86302572.83448
  23379401.500   122859598.41508  23379398.220    95734750.12045
  24559751.600   129062344.64808  24559750.060   100568047.12945
  20535940.800   107917133.46509  20535935.620    84091273.38549
  22774683.860   119681949.54208  22774679.160    93258708.62347
  21384866.360   112378309.76509  21384865.540    87567550.73149
  24808215.060   130368041.52607  24808212.240   101585478.41144
  20453010.300   107481416.98909  20453008.220    83751787.29348
 15 03 03 03 44  0.0000000  0 11G01G03G04G11G14G16G19G22G27G28G32
  21997477.860   115597569.48609  21997478.260    90076047.65248
  23471434.980   123343268.96308  23471436.120    96111648.35847
  20483760.800   107642977.24609  20483758.200    83877676.42048
  21066068.460   110702973.78609  21066064.680    86262058.71048
  23372997.740   122825947.17608  23372994.760    95708528.38746
  24580537.940   129171576.73208  24580536.640   100653162.85045
  20538480.520   107930479.20109  20538475.220    84101672.65149
  22790424.400   119764667.32408  22790419.880    93323164.03148
  21396235.620   112438055.55609  21396234.700    87614105.87449
  24793276.820   130289540.61307  24793274.040   101524308.84444
  20443478.000   107431323.69809  20443475.820    83712753.57948
 15 03 03 03 44 30.0000000  0 11G01G03G04G11G14G16G19G22G27G28G32
  21987467.520   115544965.53808  21987468.020    90035057.58148
  23452122.720   123241783.36108  23452123.860    96032568.80746
  20480573.960   107626230.45909  20480571.380    83864626.98448
  21056218.480   110651212.26509  21056214.800    86221725.06948
  23366676.040   122792726.57808  23366673.320    95682642.22845
  24601321.200   129280793.04908  24601320.260   100738266.28344
  20541097.060   107944228.87009  20541091.680    84112386.67349
  22806207.100   119847606.55508  22806202.720    93387792.00447
  21407676.100   112498175.42409  21407675.000    87660952.50648
  24778397.520   130211349.58207  24778394.840   101463380.77644
  20434050.780   107381782.92509  20434048.560    83674150.39548
 15 03 03 03 45  0.0000000  0 11G01G03G04G11G14G16G19G22G27G28G32
  21977489.180   115492529.75309  21977489.800    89994198.53848
  23432848.300   123140496.79808  23432849.580    95953644.34446
  20477436.220   107609741.64209  20477433.740    83851778.55948
  21046411.740   110599677.54109  21046408.120    86181568.14147
  23360435.760   122759933.08908  23360433.120    95657088.88246
  24622099.780   129389984.97408  24622099.200   100823350.71644
  20543789.380   107958377.46409  20543784.040    84123411.54749
  22822030.540   119930759.59309  22822026.200    93452586.57547
  21419186.580   112558663.33909  21419185.340    87708085.92448
  24763576.660   130133465.05907  24763573.880   101402691.52245
  20424727.740   107332790.11709  20424725.540    83635974.19448
 15 03 03 03 45 30.0000000  0 11G01G03G04G11G14G16G19G22G27G28G32
  21967543.720   115440266.68109  21967544.480    89953474.07448
  23413613.080   123039415.82608  23413614.360    95874880.07247
  20474348.520   107593515.54809  20474346.020    83839134.85448
  21036649.280   110548375.19909  21036645.620    86141592.29748
  23354278.000   122727573.12208  23354275.260    95631873.34046
  24642874.280   129499155.33508  24642873.940   100908418.35045
  20546558.540   107972930.30009  20546553.300    84134751.41549
  22837895.180   120014128.91309  22837890.800    93517549.68147
  21430767.920   112619523.47809  21430766.580    87755509.39348
  24748815.620   130055894.08007  24748812.420   101342246.58144
  20415510.100   107284351.09209  20415507.900    83598229.51048
 15 03 03 03 46  0.0000000  0 11G01G03G04G11G14G16G19G22G27G28G32
  21957630.680   115388173.90808  21957631.600    89912882.32248
  23394416.980   122938539.96308  23394418.220    95796275.61447
  20471310.240   107577549.45009  20471307.820    83826693.74648
  21026930.720   110497303.62209  21026926.980    86101796.27548
  23348202.600   122695646.29308  23348199.740    95606995.33446
  24663643.800   129608299.28508  24663643.520   100993465.39545
  20549404.240   107987885.45009  20549399.100    84146404.78349
  22853800.100   120097709.73709  22853795.680    93582677.59247
  21442419.540   112680752.94509  21442418.240    87803220.64948
  24734114.240   129978636.52407  24734110.660   101282045.88045
  20406397.520   107236464.44709  20406395.380    83560915.25348
 15 03 03 03 46 30.0000000  0 11G01G03G04G11G14G16G19G22G27G28G32
  21947751.120   115336256.70108  21947752.040    89872427.36648
  23375261.340   122837876.51908  23375262.520    95717836.68847
  20468322.400   107561848.46309  20468320.120    83814459.21548
  21017257.280   110446469.27809  21017253.460    86062185.10248
  23342210.880   122664160.11008  23342208.000    95582460.67546
  24684408.820   129717419.45008  24684408.520   101078493.91945
  20552327.720   108003249.20309  20552322.720    84158376.53549
  22869746.040   120181505.66509  22869741.480    93647973.11847
  21454142.360   112742356.66609  21454141.200    87851223.53549
  24719473.620   129901699.88807  24719470.160   101222095.27345
  20397391.320   107189136.61209  20397389.100    83524036.42348
 15 03 03 03 47  0.0000000  0 11G01G03G04G11G14G16G19G22G27G28G32
  21937904.180   115284510.44309  21937904.940    89832105.61947
  23356145.660   122737422.73708  23356146.800    95639561.12646
  20465384.080   107546407.83109  20465381.900    83802427.55648
  21007628.320   110395868.54709  21007624.380    86022755.96747
  23336302.360   122633111.91008  23336299.520    95558267.29545
  24705167.900   129826508.56007  24705167.700   101163498.22244
  20555328.340   108019017.55209  20555323.360    84170663.55449
  22885731.660   120265510.07708  22885726.960    93713431.10147
  21465935.380   112804329.55209  21465934.460    87899514.08548
  24704893.520   129825082.06507  24704890.360   101162393.06744
  20388490.820   107142364.04009  20388488.420    83487590.28048
 15 03 03 03 47 30.0000000  0 11G01G03G04G11G14G16G19G22G27G28G32
  21928090.220   115232937.21809  21928090.860    89791918.71247
  23337070.620   122637182.73308  23337071.740    95561452.14146
  20462495.680   107531229.63409  20462493.580    83790600.39547
  20998044.300   110345504.42309  20998040.380    85983511.21447
  23330477.940   122602506.08908  23330475.300    95534418.63845
  24725920.920   129935566.04607  24725920.880   101248477.89244
  20558406.560   108035193.26609  20558401.600    84183268.01448
  22901756.880   120349722.62509  22901752.100    93779051.26646
  21477798.880   112866673.26209  21477798.240    87948093.59748
  24690374.920   129748787.26307  24690371.840   101102942.57744
  20379696.540   107096149.99209  20379694.060    83451579.35948
 15 03 03 03 48  0.0000000  0 11G01G03G04G11G14G16G19G22G27G28G32
  21918308.480   115181533.19409  21918309.000    89751863.63748
  23318035.920   122537154.57608  23318036.940    95483508.21247
  20459656.460   107516309.73909  20459654.380    83778974.50148
  20988504.660   110295373.93109  20988500.920    85944448.49748
  23324737.360   122572340.21808  23324734.860    95510912.79145
  24746666.760   130044585.96107  24746666.880   101333428.28544
  20561561.760   108051773.23609  20561556.800    84196187.46449
  22917820.580   120434137.46809  22917815.720    93844829.05447
  21489732.060   112929383.40009  21489731.700    87996958.62548
  24675917.560   129672814.12007  24675914.460   101043742.73744
  20371007.980   107050491.56109  20371005.540    83416001.37648
 15 03 03 03 48 30.0000000  0 11G01G03G04G11G14G16G19G22G27G28G32
  21908559.660   115130302.59909  21908560.120    89711943.71348
  23299042.640   122437344.45808  23299043.660    95405734.19047
  20456867.260   107501652.40209  20456865.160    83767553.20248
  20979010.460   110245482.19309  20979006.940    85905571.83248
  23319081.940   122542620.92408  23319079.400    95487754.91846
  24767405.660   130153570.00707  24767406.060   101418350.76545
  20564794.820   108068762.44509  20564789.800    84209425.80849
  22933923.280   120518757.13309  22933918.320    93910766.44347
  21501735.660   112992463.86809  21501735.560    88046112.23248
  24661522.660   129597169.18507  24661519.720   100984798.64044
  20362426.080   107005394.02609  20362423.820    83380860.46648
 15 03 03 03 49  0.0000000  0 11G01G03G04G11G14G16G19G22G27G28G32
  21898842.860   115079240.09809  21898843.280    89672154.76348
  23280090.100   122337748.92908  23280091.120    95328127.38347
  20454126.980   107487252.02609  20454124.820    83756332.14248
  20969560.960   110195824.98009  20969557.580    85866877.91248
  23313511.060   122513344.72008  23313508.300    95464942.31846
  24788136.140   130262510.09307  24788136.940   101503238.97145
  20568104.800   108086156.17109  20568099.700    84222979.36349
  22950063.460   120603573.69709  22950058.380    93976857.25847
  21513808.600   113055908.73609  21513808.740    88095549.78248
  24647189.700   129521849.00907  24647186.920   100926107.59345
  20353950.080   106960852.99509  20353948.060    83346153.18748
 15 03 03 03 49 30.0000000  0 11G01G03G04G11G14G16G19G22G27G28G32
  21889158.760   115028349.53009  21889159.140    89632499.79448
  23261179.400   122238373.80408  23261180.500    95250692.30947
  20451436.360   107473112.50709  20451434.120    83745314.33748
  20960157.040   110146407.07109  20960153.720    85828370.46448
  23308025.580   122484517.17208  23308022.760    95442479.33446
  24808858.600   130371407.85207  24808859.980   101588094.18445
  20571492.520   108103958.83609  20571487.380    84236851.56949
  22966241.460   120688589.24909  22966236.260    94043103.13248
  21525951.580   113119721.40709  21525951.960    88145273.92749
  24632919.900   129446860.12307  24632916.980   100867674.69945
  20345581.000   106916873.40609  20345579.140    83311883.38648
 15 03 03 03 50  0.0000000  0 11G01G03G04G11G14G16G19G22G27G28G32
  21879507.600   114977632.28109  21879507.920    89592979.87948
  23242311.280   122139222.38808  23242312.360    95173431.54747
  20448795.680   107459235.15909  20448793.340    83734500.82148
  20950799.080   110097230.70609  20950795.760    85790051.22448
  23302626.040   122456141.73008  23302623.220    95420368.62546
  24829572.980   130480262.22807  24829574.640   101672915.61845
  20574958.520   108122172.73709  20574953.280    84251044.21149
  22982457.180   120773802.99909  22982451.840    94109503.44747
  21538164.880   113183902.73209  21538165.320    88195285.33248
  24618713.780   129372206.34807  24618710.780   100809502.92144
  20337319.240   106873457.43009  20337317.400    83278052.76648
 15 03 03 03 50 30.0000000  0 11G01G03G04G11G14G16G19G22G27G28G32
  21869888.740   114927084.99409  21869889.060    89553592.40448
  23223485.460   122040293.21108  23223486.640    95096343.95646
  20446204.180   107445616.26409  20446201.760    83723888.70348
  20941486.540   110048293.19109  20941483.240    85751918.11148
  23297312.100   122428216.92108  23297309.380    95398609.04846
  24850278.200   130589067.55807  24850279.940   101757698.83545
  20578502.280   108140795.09309  20578496.920    84265555.12749
  22998709.480   120859209.33609  22998704.100    94176053.82947
  21550447.660   113248448.80309  21550448.060    88245580.95648
  24604571.060   129297886.41507  24604568.120   100751591.30144
  20329164.340   106830602.78909  20329162.460    83244659.54748
 15 03 03 03 51  0.0000000  0 11G01G03G04G11G14G16G19G22G27G28G32
  21860302.300   114876707.66709  21860302.600    89514337.35548
  23204702.320   121941588.15608  23204703.660    95019431.01246
  20443661.820   107432255.80909  20443659.300    83713477.96648
  20932219.760   109999595.92009  20932216.460    85713972.19648
  23292084.180   122400744.62308  23292081.540    95377202.06446
  24870973.780   130697821.36307  24870975.240   101842441.86945
  20582123.880   108159826.42709  20582118.420    84280384.73049
  23014998.060   120944806.66108  23014992.720    94242753.03147
  21562799.800   113313359.04109  21562800.060    88296160.35448
  24590492.260   129223902.45007  24590489.340   100693941.44444
  20321116.400   106788310.18209  20321114.420    83211704.28148
 15 03 03 03 51 30.0000000  0 11G01G03G04G11G14G16G19G22G27G28G32
  21850748.320   114826501.07409  21850748.540    89475215.35548
  23185962.360   121843109.92108  23185963.840    94942694.80747
  20441168.760   107419154.62009  20441166.260    83703269.25548
  20922999.100   109951140.67509  20922995.700    85676214.86948
  23286942.840   122373727.49208  23286940.360    95356149.77546
  24891659.160   130806521.76207  24891660.200   101927143.33345
  20585823.540   108179268.08009  20585818.080    84295534.07249
  23031322.660   121030593.46308  23031317.380    94309599.88347
  21575221.300   113378633.71209  21575221.380    88347023.72248
  24576478.080   129150257.74707  24576475.220   100636555.95744
  20313175.740   106746581.36709  20313173.580    83179188.34648
 15 03 03 03 52  0.0000000  0 11G01G03G04G11G14G16G19G22G27G28G32
  21841226.620   114776464.66309  21841226.920    89436225.96248
  23167265.900   121744859.79108  23167267.420    94866136.35947
  20438724.760   107406311.53609  20438722.320    83693261.66348
  20913824.600   109902927.78809  20913821.020    85638646.39148
  23281888.460   122347166.99008  23281886.120    95335453.29346
  24912333.760   130915165.36107  24912334.220   102011800.54545
  20589601.100   108199119.94809  20589595.840    84311003.06749
  23047682.880   121116567.17808  23047677.600    94376592.37847
  21587711.860   113444271.67009  21587711.840    88398170.16848
  24562528.740   129076953.69908  24562525.920   100579435.92144
  20305342.420   106705416.65409  20305340.080    83147111.96948
 15 03 03 03 52 30.0000000  0 11G01G03G04G11G14G16G19G22G27G28G32
  21831737.380   114726598.89609  21831737.780    89397369.52447
  23148613.420   121646840.11908  23148614.820    94789757.46746
  20436330.040   107393727.29309  20436327.580    83683455.75548
  20904696.480   109854958.60509  20904692.720    85601267.81347
  23276921.460   122321065.22908  23276919.040    95315114.26645
  24932997.200   131023751.01807  24932997.140   102096412.60044
  20593456.840   108219383.26009  20593451.860    84326792.65848
  23064078.320   121202725.97009  23064073.080    94443729.08946
  21600271.420   113510272.74209  21600271.380    88449599.56148
  24548644.820   129003993.19108  24548642.060   100522583.57444
  20297616.600   106664817.20909  20297614.160    83115476.05648
 15 03 03 03 53  0.0000000  0 11G01G03G04G11G14G16G19G22G27G28G32
  21822280.440   114676902.81609  21822280.940    89358645.30848
  23130005.060   121549051.82308  23130006.340    94713558.86947
  20433984.420   107381400.70009  20433981.900    83673850.61648
  20895614.680   109807232.91909  20895610.760    85564078.96948
  23272041.940   122295422.96308  23272039.280    95295133.29646
  24953648.700   131132275.09407  24953648.120   102180976.68244
  20597390.920   108240057.71209  20597386.080    84342902.61349
  23080508.480   121289067.18808  23080503.200    94511007.94246
  21612899.760   113576635.42209  21612899.780    88501310.72148
  24534826.580   128931377.34308  24534823.760   100465999.78744
  20289998.300   106624782.96609  20289995.800    83084280.54948
 15 03 03 03 53 30.0000000  0 10G01G03G04G11G14G19G22G27G28G32
  21812857.120   114627383.46909  21812857.680    89320058.81848
  23111442.480   121451503.84508  23111443.580    94637547.53747
  20431689.100   107369338.57809  20431686.540    83664451.57248
  20886580.780   109759759.13409  20886576.680    85527086.41748
  23267251.620   122270249.10908  23267248.640    95275517.32545
  20601404.860   108261150.91209  20601399.980    84359338.86549
  23096974.240   121375595.59808  23096968.980    94578432.66946
  21625598.160   113643366.16909  21625598.300    88553308.69448
  24521075.720   128859115.45508  24521072.780   100409691.83144
  20282488.980   106585321.68609  20282486.580    83053531.51348
 15 03 03 03 54  0.0000000  0 10G01G03G04G11G14G19G22G27G28G32
  21803465.420   114578029.79109  21803465.900    89281601.41148
  23092923.820   121354186.89908  23092924.700    94561716.22547
  20429441.960   107357529.85909  20429439.400    83655249.96748
  20877592.800   109712526.87209  20877588.560    85490282.05347
  23262548.560   122245533.72408  23262545.420    95256258.60946
  20605496.560   108282652.24709  20605491.500    84376093.14149
  23113473.100   121462298.05508  23113467.940    94645993.02146
  21638364.420   113710453.20809  21638364.600    88605584.29248
  24507390.440   128787198.60808  24507387.300   100353652.71344
  20275086.720   106546423.06209  20275084.520    83023220.90548
 15 03 03 03 54 30.0000000  0 10G01G03G04G11G14G19G22G27G28G32
  21794105.740   114528844.50109  21794106.220    89243275.23447
  23074449.860   121257105.57108  23074450.700    94486068.52246
  20427243.600   107345977.39409  20427241.040    83646248.05847
  20868651.440   109665539.91809  20868647.200    85453668.86547
  23257933.740   122221282.24008  23257930.580    95237361.37845
  20609666.560   108304564.91509  20609661.300    84393167.93948
  23130005.200   121549175.39508  23130000.200    94713689.65346
  21651198.940   113777898.66909  21651199.100    88658139.18848
  24493771.780   128715631.98008  24493768.480   100297886.52444
  20267792.220   106508090.52109  20267790.120    82993351.40948
