     2.11           OBSERVATION DATA    M                   RINEX VERSION / TYPE
SPIDER V4,0,0,3554                      2015 03 24 02:09    PGM / RUN BY / DATE 
CFKZ                                                        MARKER NAME         
CFKZ                                                        MARKER NUMBER       
                                                            OBSERVER / AGENCY   
496632              LEICA GRX1200+GNSS  8.10/4.007          REC # / TYPE / VERS 
10301036            LEIAR25         NONE                    ANT # / TYPE        
  5212138.8290   540257.5452  3624418.8863                  APPROX POSITION XYZ 
        0.0720        0.0000        0.0000                  ANTENNA: DELTA H/E/N
     1     1                                                WAVELENGTH FACT L1/2
     4    C1    L1    P2    L2                              # / TYPES OF OBSERV 
    30.000                                                  INTERVAL            
  2015    03    04    00    00    0.0000000     GPS         TIME OF FIRST OBS   
  2015    03    04    23    59   30.0000000     GPS         TIME OF LAST OBS    
    16                                                      LEAP SECONDS        
    54                                                      # OF SATELLITES     
   G 1   820   820   820   820                              PRN / # OF OBS      
   G 2   940   940   940   940                              PRN / # OF OBS      
   G 3   855   854   854   854                              PRN / # OF OBS      
   G 4   844   844   844   844                              PRN / # OF OBS      
   G 5   642   641   641   641                              PRN / # OF OBS      
   G 6   805   805   805   805                              PRN / # OF OBS      
   G 7   669   669   669   669                              PRN / # OF OBS      
   G 9   808   808   808   808                              PRN / # OF OBS      
   G10   736   736   735   735                              PRN / # OF OBS      
   G11   782   782   782   782                              PRN / # OF OBS      
   G12   835   835   834   834                              PRN / # OF OBS      
   G13   785   785   785   785                              PRN / # OF OBS      
   G14   939   938   938   938                              PRN / # OF OBS      
   G15   683   683   683   683                              PRN / # OF OBS      
   G16   673   673   673   673                              PRN / # OF OBS      
   G17   936   936   936   936                              PRN / # OF OBS      
   G18   913   913   913   913                              PRN / # OF OBS      
   G19   762   761   761   761                              PRN / # OF OBS      
   G20   748   748   748   748                              PRN / # OF OBS      
   G21   719   718   717   717                              PRN / # OF OBS      
   G22   662   662   662   662                              PRN / # OF OBS      
   G23   752   752   751   751                              PRN / # OF OBS      
   G24   831   831   831   831                              PRN / # OF OBS      
   G25   859   859   859   859                              PRN / # OF OBS      
   G27   815   815   815   815                              PRN / # OF OBS      
   G28   858   858   857   857                              PRN / # OF OBS      
   G29   760   760   760   760                              PRN / # OF OBS      
   G30   716   716   716   716                              PRN / # OF OBS      
   G31   851   851   851   851                              PRN / # OF OBS      
   G32   766   766   766   766                              PRN / # OF OBS      
   R 1   678   678   675   675                              PRN / # OF OBS      
   R 2   967   967   967   967                              PRN / # OF OBS      
   R 3   982   982   982   977                              PRN / # OF OBS      
   R 4   839   839   839   836                              PRN / # OF OBS      
   R 5   685   685   684   684                              PRN / # OF OBS      
   R 6   779   779   779   779                              PRN / # OF OBS      
   R 7   753   753   753   753                              PRN / # OF OBS      
   R 8   659   659   659   658                              PRN / # OF OBS      
   R 9   856   856   846   840                              PRN / # OF OBS      
   R10   583   583   583   583                              PRN / # OF OBS      
   R11   677   677   677   675                              PRN / # OF OBS      
   R12   775   775   775   774                              PRN / # OF OBS      
   R13   768   768   768   768                              PRN / # OF OBS      
   R14   700   699   692   689                              PRN / # OF OBS      
   R15   984   984   984   981                              PRN / # OF OBS      
   R16  1008  1008  1008  1008                              PRN / # OF OBS      
   R17   945   945   944   944                              PRN / # OF OBS      
   R18  1000  1000   997   996                              PRN / # OF OBS      
   R19   790   790   790   790                              PRN / # OF OBS      
   R20   581   581   581   581                              PRN / # OF OBS      
   R21   774   774   774   774                              PRN / # OF OBS      
   R22   822   822   822   819                              PRN / # OF OBS      
   R23   768   768   765   763                              PRN / # OF OBS      
   R24   625   625   625   625                              PRN / # OF OBS      
BIT 2 OF LLI FLAGS DATA COLLECTED UNDER A/S CONDITION       COMMENT             
SNR is mapped to RINEX snr flag value [2-9]                 COMMENT             
Lx:     = 25dBHz -> 1; 26-27dBHz -> 2; 28-31dBHz -> 3       COMMENT             
       32-35dBHz -> 4; 36-38dBHz -> 5; 39-41dBHz -> 6       COMMENT             
       42-44dBHz -> 7; 45-48dBHz -> 8; >=49dBHz -> 9        COMMENT             
                                                            END OF HEADER       
 15 03 04 00 00  0.0000000  0  7G16G18G21G22G27G29G31
  21364796.820   112272781.31109  21364793.560    87485286.53248
  22117733.140   116229644.46909  22117730.260    90568617.41947
  21571935.920   113361297.20609  21571932.560    88333469.53848
  23226575.000   122056585.56308  23226573.040    95109077.11847
  22601961.980   118774169.93209  22601961.920    92551325.43047
  24361254.440   128019232.06508  24361252.940    99755235.23545
  23509535.300   123543388.99909  23509534.620    96267549.69646
 15 03 04 00 00 30.0000000  0  7G16G18G21G22G27G29G31
  21352877.360   112210144.00009  21352874.080    87436478.24248
  22108554.020   116181408.19609  22108551.160    90531030.74447
  21581203.840   113410000.77508  21581200.560    88371420.36948
  23209040.980   121964444.73008  23209038.900    95037279.29546
  22590207.900   118712401.87009  22590207.840    92503194.50747
  24375140.520   128092204.03208  24375138.720    99812096.48145
  23527358.420   123637048.54209  23527357.720    96340530.89247
 15 03 04 00 01  0.0000000  0  7G16G18G21G22G27G29G31
  21341022.340   112147845.31509  21341019.000    87387933.82248
  22099447.260   116133551.95709  22099444.440    90493740.19347
  21590520.920   113458962.18709  21590517.580    88409572.12148
  23191527.560   121872412.31908  23191525.380    94965565.92347
  22578471.120   118650724.59809  22578470.980    92455134.34147
  24389032.160   128165204.90108  24389030.160    99868980.25746
  23545197.480   123730792.02409  23545196.860    96413577.47447
 15 03 04 00 01 30.0000000  0  7G16G18G21G22G27G29G31
  21329232.520   112085889.49009  21329229.200    87339656.55848
  22090413.660   116086079.96609  22090410.860    90456749.05947
  21599887.180   113508182.05008  21599883.780    88447925.25548
  23174035.720   121780493.26508  23174033.460    94893940.88847
  22566752.080   118589140.70909  22566751.940    92407146.91948
  24402929.680   128238237.58608  24402928.060    99925888.79046
  23563052.360   123824618.81908  23563051.820    96486688.99547
 15 03 04 00 02  0.0000000  0  7G16G18G21G22G27G29G31
  21317507.620   112024274.81409  21317504.280    87291645.13048
  22081452.780   116038990.27909  22081450.060    90420055.81947
  21609301.460   113557654.56209  21609298.040    88486475.26448
  23156565.180   121688686.28409  23156562.980    94822403.19446
  22555050.000   118527646.14509  22555049.940    92359229.10947
  24416832.580   128311298.00008  24416831.160    99982818.95046
  23580921.660   123918521.59209  23580921.340    96559859.68547
 15 03 04 00 02 30.0000000  0  7G16G18G21G22G27G29G31
  21305848.780   111963007.69309  21305845.500    87243904.52948
  22072565.740   115992288.85509  22072563.060    90383665.12647
  21618764.220   113607381.54708  21618760.760    88525223.55448
  23139117.380   121596998.20908  23139115.100    94750958.12547
  22543365.740   118466245.22809  22543365.760    92311384.27048
  24430741.320   128384390.45407  24430740.360   100039774.05745
  23598805.700   124012502.11008  23598805.580    96633090.94347
 15 03 04 00 03  0.0000000  0  7G16G18G21G22G27G29G31
  21294256.140   111902088.49509  21294252.880    87196435.03048
  22063752.560   115945975.62609  22063749.900    90347576.92247
  21628274.980   113657360.08709  21628271.340    88564167.87548
  23121692.380   121505430.01008  23121690.020    94679606.47647
  22531698.980   118404936.21609  22531699.100    92263611.00848
  24444655.780   128457512.89908  24444655.280   100096752.56546
  23616703.520   124106555.21108  23616703.720    96706378.76247
 15 03 04 00 03 30.0000000  0  7G16G18G21G22G27G29G31
  21282729.100   111841513.94309  21282725.860    87149234.08248
  22055012.640   115900047.09109  22055009.960    90311788.47047
  21637832.200   113707582.67409  21637828.380    88603302.35848
  23104289.620   121413978.93408  23104287.360    94608346.07047
  22520048.720   118343713.73109  22520048.840    92215905.19648
  24458575.500   128530660.35708  24458574.740   100153750.54646
  23634613.580   124200672.74908  23634614.040    96779716.76447
 15 03 04 00 04  0.0000000  0  7G16G18G21G22G27G29G31
  21271269.540   111781293.69609  21271266.280    87102309.22348
  22046347.740   115854512.61609  22046345.000    90276307.08947
  21647436.840   113758054.90909  21647432.940    88642631.37048
  23086911.040   121322654.80008  23086908.880    94537184.59147
  22508416.320   118282585.15908  22508416.460    92168272.58748
  24472501.260   128603840.23107  24472500.260   100210773.82245
  23652536.660   124294858.83408  23652537.380    96853108.17646
 15 03 04 00 04 30.0000000  0  7G16G18G21G22G27G29G31
  21259877.260   111721426.88609  21259873.940    87055659.76748
  22037757.600   115809371.14909  22037754.920    90241131.94547
  21657088.160   113808772.44409  21657084.180    88682151.52648
  23069556.600   121231457.44008  23069554.520    94466121.87347
  22496801.300   118221547.84109  22496801.340    92120711.08548
  24486432.780   128677049.64908  24486431.660   100267820.06046
  23670471.820   124389107.87208  23670472.680    96926548.62046
 15 03 04 00 05  0.0000000  0  7G16G18G21G22G27G29G31
  21248552.200   111661913.15009  21248548.820    87009285.43148
  22029242.060   115764621.79209  22029239.420    90206262.33947
  21666785.180   113859730.44709  21666781.140    88721859.05448
  23052226.360   121140386.95809  23052224.260    94395158.03947
  22485203.120   118160599.07709  22485203.120    92073218.55148
  24500369.520   128750285.70408  24500368.060   100324887.10845
  23688417.900   124483413.78208  23688418.760    97000033.38246
 15 03 04 00 05 30.0000000  0  7G16G18G21G22G27G29G31
  21237296.540   111602764.18409  21237293.200    86963195.33648
  22020803.300   115720275.89909  22020800.640    90171707.12247
  21676529.380   113910936.57408  21676525.380    88761759.92648
  23034922.540   121049455.25609  23034920.360    94324302.33447
  22473623.640   118099748.51509  22473623.580    92025802.53248
  24514312.780   128823558.10108  24514310.740   100381982.41744
  23706376.180   124577783.20908  23706376.940    97073567.62746
 15 03 04 00 06  0.0000000  0  7G16G18G21G22G27G29G31
  21226109.420   111543975.55609  21226106.140    86917386.02748
  22012440.440   115676328.83109  22012437.680    90137462.68847
  21686319.200   113962382.65109  21686315.260    88801847.77248
  23017644.560   120958659.00909  23017642.140    94253552.15247
  22462061.600   118038989.75608  22462061.480    91978458.09848
  24528261.660   128896860.48308  24528259.520   100439101.16245
  23724344.780   124672206.93708  23724345.480    97147144.18146
 15 03 04 00 06 30.0000000  0  7G16G18G21G22G27G29G31
  21214991.540   111485550.74409  21214988.280    86871860.20648
  22004154.060   115632783.61209  22004151.260    90103531.37747
  21696154.400   114014067.36509  21696150.520    88842121.56948
  23000393.060   120868001.46209  23000390.280    94182910.05747
  22450517.260   117978324.10509  22450517.160    91931186.22148
  24542216.140   128970193.98507  24542214.560   100496244.12946
  23742323.400   124766683.12408  23742324.040    97220761.57746
 15 03 04 00 07  0.0000000  0  7G16G18G21G22G27G29G31
  21203943.180   111427491.16209  21203939.880    86826618.97448
  21995944.320   115589641.25309  21995941.520    90069913.98547
  21706034.600   114065988.37608  21706030.740    88882579.49848
  22983168.460   120777485.22309  22983165.420    94112378.06247
  22438990.540   117917750.96909  22438990.380    91883986.36947
  24556176.440   129043557.82007  24556175.360   100553410.69745
  23760311.300   124861208.04308  23760311.920    97294416.96346
 15 03 04 00 07 30.0000000  0  6G16G18G21G22G27G31
  21192969.360   111369823.29409  21192966.040    86781682.97048
  21987816.180   115546927.74409  21987813.420    90036630.74847
  21715964.260   114118169.07109  21715960.360    88923239.77448
  22965975.780   120687136.89109  22965972.480    94041976.91447
  22427486.080   117857294.69509  22427485.880    91836877.57448
  23778312.480   124955802.88308  23778313.060    97368126.79146
 15 03 04 00 08  0.0000000  0  6G16G18G21G22G27G31
  21182061.540   111312502.25509  21182058.240    86737017.23448
  21979761.000   115504597.82409  21979758.320    90003646.42547
  21725933.880   114170559.75609  21725930.040    88964063.68748
  22948806.500   120596912.23609  22948803.120    93971672.12547
  22415994.940   117796908.38809  22415994.740    91789823.40948
  23796317.380   125050417.60708  23796318.020    97441852.11546
 15 03 04 00 08 30.0000000  0  6G16G18G21G22G27G31
  21171224.440   111255552.74709  21171221.180    86692640.99448
  21971783.480   115462675.85509  21971780.800    89970979.97647
  21735947.400   114223181.32509  21735943.640    89005067.49848
  22931665.480   120506836.41609  22931662.100    93901483.32247
  22404521.440   117736614.86809  22404521.180    91742841.44347
  23814329.880   125145072.26808  23814330.660    97515608.54747
 15 03 04 00 09  0.0000000  0  6G16G18G21G22G27G31
  21160458.360   111198976.49709  21160455.140    86648555.60448
  21963883.780   115421162.99509  21963881.160    89938632.31847
  21746004.460   114276031.31609  21746000.720    89046249.30748
  22914553.120   120416911.40609  22914549.740    93831412.01947
  22393065.480   117676413.61009  22393065.120    91695931.37648
  23832349.220   125239763.06708  23832350.180    97589393.11346
 15 03 04 00 09 30.0000000  0  6G16G18G21G22G27G31
  21149764.140   111142777.84409  21149760.960    86604764.44648
  21956062.720   115380063.45209  21956060.100    89906606.71047
  21756105.220   114329110.89509  21756101.500    89087610.01848
  22897470.520   120327142.52509  22897467.060    93761462.35447
  22381627.540   117616307.12909  22381627.240    91649095.20048
  23850375.220   125334489.12608  23850376.380    97663205.14846
 15 03 04 00 10  0.0000000  0  6G16G18G21G22G27G31
  21139141.840   111086957.09709  21139138.680    86561267.75648
  21948320.240   115339376.94209  21948317.640    89874902.96147
  21766248.860   114382415.77609  21766245.060    89129146.27448
  22880417.700   120237530.11109  22880414.160    93691634.60747
  22370207.320   117556293.79609  22370207.180    91602331.58748
  23868407.200   125429246.46908  23868408.540    97737041.54246
 15 03 04 00 10 30.0000000  0  7G16G18G19G21G22G27G31
  21128591.880   111031516.48309  21128588.660    86518067.28648
  21940656.680   115299105.02209  21940654.160    89843522.29747
  24546198.740                                                  
  21776435.020   114435944.33709  21776431.180    89170856.84148
  22863395.260   120148077.29709  22863391.740    93621931.23247
  22358804.860   117496373.71609  22358804.700    91555640.64048
  23886444.500   125524031.73608  23886446.020    97810899.67846
 15 03 04 00 11  0.0000000  0  7G16G18G19G21G22G27G31
  21118112.480   110976446.67009  21118109.160    86475155.73948
  21933070.220   115259238.27909  21933067.720    89812457.30947
  24531364.520   128913209.14807  24531365.780   100451830.28646
  21786661.180   114489683.38808  21786657.400    89212731.42748
  22846401.580   120058775.67609  22846398.140    93552345.67247
  22347418.040   117436535.70009  22347417.860    91509013.64148
  23904484.440   125618830.42408  23904486.080    97884768.25946
 15 03 04 00 11 30.0000000  0  7G16G18G19G21G22G27G31
  21107713.720   110921800.77609  21107710.360    86432574.52348
  21925570.840   115219828.85009  21925568.260    89781748.69147
  24516551.660   128835365.23008  24516552.360   100391172.85145
  21796936.660   114543682.01509  21796933.040    89254808.25948
  22829446.760   119969678.16509  22829443.440    93482919.14547
  22336056.520   117376830.67708  22336056.360    91462490.28048
  23922536.180   125713690.69308  23922537.940    97958684.81346
 15 03 04 00 12  0.0000000  0  7G16G18G19G21G22G27G31
  21097380.860   110867501.19009  21097377.520    86390263.16448
  21918143.760   115180798.89209  21918141.060    89751335.76047
  24501741.440   128757533.79607  24501739.820   100330524.90144
  21807246.040   114597858.49309  21807242.560    89297023.68648
  22812516.260   119880708.03709  22812512.960    93413591.90147
  22324705.200   117317179.22509  22324705.140    91416008.66948
  23940583.960   125808530.04408  23940585.700    98032585.03946
 15 03 04 00 12 30.0000000  0  7G16G18G19G21G22G27G31
  21087125.400   110813608.19009  21087122.020    86348268.61848
  21910800.280   115142207.98709  21910797.460    89721264.93947
  24486943.980   128679772.75507  24486942.420   100269932.05446
  21817600.020   114652269.37209  21817596.620    89339421.77348
  22795621.560   119791925.86809  22795618.260    93344411.10147
  22313375.140   117257639.38909  22313375.100    91369613.99648
  23958638.220   125903403.30108  23958639.980    98106511.65946
 15 03 04 00 13  0.0000000  0  7G16G18G19G21G22G27G31
  21076943.540   110760102.03109  21076940.140    86306575.51548
  21903536.580   115104036.58409  21903533.760    89691521.01947
  24472156.320   128602060.86508  24472154.580   100209377.41045
  21827994.200   114706891.27009  21827990.880    89381984.29148
  22778759.060   119703312.73009  22778755.640    93275362.01947
  22302062.260   117198190.03709  22302062.220    91323289.86748
  23976694.220   125998285.82308  23976696.020    98180445.47546
 15 03 04 00 13 30.0000000  0  7G16G18G19G21G22G27G31
  21066838.380   110706998.96509  21066834.960    86265196.51748
  21896355.660   115066300.09609  21896352.760    89662115.99247
  24457380.040   128524411.69907  24457377.440   100148871.64044
  21838430.940   114761736.53809  21838427.620    89424720.88048
  22761931.920   119614885.54709  22761928.320    93206457.82347
  22290769.300   117138845.36009  22290769.280    91277047.26648
  23994754.260   126093189.40108  23994756.120    98254395.69146
 15 03 04 00 14  0.0000000  0  7G16G18G19G21G22G27G31
  21056806.840   110654282.75109  21056803.400    86224118.95848
  21889254.120   115028981.10609  21889251.100    89633036.28147
  24442612.640   128446807.01208  24442609.900   100088400.48446
  21848906.140   114816784.26908  21848902.880    89467615.21248
  22745137.080   119526628.27209  22745133.340    93137686.01347
  22279492.740   117079586.82409  22279492.680    91230871.82248
  24012814.180   126188092.27308  24012816.040    98328345.31946
 15 03 04 00 14 30.0000000  0  7G16G18G19G21G22G27G31
  21046852.820   110601973.92309  21046849.320    86183358.83648
  21882235.800   114992099.93809  21882232.800    89604297.73047
  24427856.800   128369264.86707  24427854.720   100027978.22046
  21859423.080   114872051.64009  21859419.900    89510680.68448
  22728378.600   119438562.07209  22728374.660    93069063.09247
  22268236.140   117020433.13609  22268236.100    91184778.03348
  24030876.900   126283009.74308  24030878.860    98402306.29446
 15 03 04 00 15  0.0000000  0 15G16G18G19G21G22G27G31R01R02R14R15R16
                                R17R18R24
  21036974.180   110550061.26709  21036970.640    86142907.43248
  21875298.560   114955644.96309  21875295.620    89575891.29647
  24413110.820   128291772.54308  24413107.840    99967594.57445
  21869979.000   114927523.77609  21869975.820    89553905.71848
  22711654.520   119350676.70709  22711650.480    93000581.08647
  22256997.060   116961371.54309  22256997.060    91138756.03948
  24048939.560   126377926.15108  24048941.520    98476266.42746
  22501437.200   120283095.71108  22501440.880    93553545.16105
  21825966.180   116467590.23009  21825969.680    90585943.85607
  22590321.560   120419046.93907  22590330.500    93659261.40905
  20239544.660   108153987.70208  20239548.360    84119787.07108
  21665592.700   115733713.77608  21665595.340    90015125.67407
  20235532.720   108284443.25609  20235533.620    84221244.13408
  21491284.520   114722072.26209  21491287.340    89228337.38808
  22944997.420   122697201.26407  22944997.940    95431156.20605
 15 03 04 00 15 30.0000000  0 15G16G18G19G21G22G27G31R01R02R14R15R16
                                R17R18R24
  21027171.820   110498549.72509  21027168.280    86102768.58348
  21868443.320   114919620.82309  21868440.420    89547820.54147
  24398374.780   128214332.31707  24398371.760    99907251.61346
  21880574.080   114983201.28209  21880570.880    89597290.78848
  22694965.860   119262977.44809  22694961.780    92932244.09947
  22245776.080   116902404.98509  22245776.080    91092808.10248
  24067002.000   126472841.27808  24067004.060    98550225.54146
  22505339.120   120303953.95908  22505342.780    93569768.26905
  21811019.820   116387833.74708  21811023.500    90523911.06508
  22615333.980   120552376.24007  22615342.920    93762961.46205
  20251288.820   108216744.63009  20251292.500    84168597.99508
  21652459.840   115663560.53208  21652462.700    89960562.11407
  20239383.720   108305050.82009  20239384.700    84237272.23608
  21482247.580   114673832.57209  21482250.920    89190817.67508
  22959068.620   122772446.08308  22959069.520    95489679.97005
 15 03 04 00 16  0.0000000  0 15G16G18G19G21G22G27G31R01R02R14R15R16
                                R17R18R24
  21017447.920   110447450.50909  21017444.400    86062951.01248
  21861671.980   114884037.73009  21861669.120    89520093.48047
  24383650.160   128136953.70108  24383647.440    99846956.73346
  21891209.740   115039091.67109  21891206.480    89640841.73248
  22678314.820   119175475.74809  22678310.720    92864061.05847
  22234574.980   116843542.87809  22234574.940    91046941.54148
  24085065.320   126567761.38108  24085067.660    98624188.42746
  22509381.120   120325560.69008  22509384.820    93586573.52805
  21796166.440   116308573.54809  21796170.240    90462264.29708
  22640373.200   120685848.21306  22640382.280    93866772.44306
  20263166.660   108280216.18208  20263170.320    84217964.73808
  21639456.200   115594097.31108  21639459.100    89906535.16907
  20243266.000   108325825.38809  20243266.980    84253430.23008
  21473244.920   114625775.78909  21473247.960    89153440.17108
  22973137.440   122847678.26808  22973138.540    95548193.85305
 15 03 04 00 16 30.0000000  0 15G16G18G19G21G22G27G31R01R02R14R15R16
                                R17R18R24
  21007800.140   110396751.51109  21007796.720    86023445.31348
  21854982.240   114848883.34209  21854979.420    89492700.47547
  24368934.720   128059622.38108  24368931.300    99786698.51845
  21901882.880   115095178.98009  21901879.480    89684546.13148
  22661699.220   119088160.57209  22661695.140    92796023.33947
  22223391.100   116784771.12109  22223391.080    91001145.40648
  24103126.360   126662669.47108  24103128.920    98698141.85546
  22513560.200   120347901.05608  22513563.940    93603949.32405
  21781404.200   116229799.25409  21781407.980    90400995.46408
  22665435.620   120819444.16206  22665444.960    93970679.84605
  20275174.860   108344384.84508  20275178.540    84267873.66808
  21626579.480   115525312.76108  21626582.380    89853036.13107
  20247176.560   108346751.23109  20247177.440    84269705.88808
  21464273.660   114577886.93209  21464277.100    89116193.35708
  22987201.220   122922883.36608  22987202.980    95606686.68605
 15 03 04 00 17  0.0000000  0 15G16G18G19G21G22G27G31R01R02R14R15R16
                                R17R18R24
  20998232.260   110346472.39009  20998228.940    85984266.78448
  21848377.640   114814176.42909  21848374.940    89465656.15247
  24354231.100   127982355.73408  24354227.940    99726490.89546
  21912596.480   115151478.95209  21912592.920    89728416.23548
  22645122.920   119001052.29209  22645118.920    92728146.84347
  22212227.820   116726107.59409  22212227.720    90955433.58548
  24121187.860   126757580.16408  24121190.800    98772097.41046
  22517879.820   120370991.93008  22517883.260    93621908.92205
  21766737.100   116151532.87309  21766740.840    90340121.62507
  22690523.980   120953177.29806  22690533.480    94074693.90805
  20287316.280   108409265.74108  20287320.140    84318336.54508
  21613833.760   115457227.81108  21613836.560    89800081.16507
  20251118.380   108367844.84508  20251119.220    84286112.04508
  21455337.060   114530182.77309  21455340.220    89079090.14308
  23001263.120   122998079.12707  23001265.560    95665172.23305
 15 03 04 00 17 30.0000000  0 15G16G18G19G21G22G27G31R01R02R14R15R16
                                R17R18R24
  20988741.220   110296597.03309  20988737.960    85945402.87748
  21841855.120   114779900.47309  21841852.420    89438947.62947
  24339536.620   127905135.77808  24339533.640    99666319.58545
  21923346.880   115207971.92609  21923343.240    89772436.74248
  22628583.000   118914135.05109  22628579.020    92660419.20947
  22201081.740   116667534.26409  22201081.560    90909792.05648
  24139245.880   126852472.58108  24139249.060    98846038.74546
  22522336.360   120394814.77608  22522339.700    93640437.83305
  21752162.480   116073760.06009  21752166.180    90279631.73008
  22715633.920   121087025.08406  22715643.500    94178797.14705
  20299586.840   108474836.48408  20299590.860    84369335.99308
  21601216.100   115389826.73308  21601218.820    89747658.11507
  20255088.120   108389087.55209  20255088.820    84302634.14608
  21446431.480   114482644.29709  21446434.520    89042115.77108
  23015319.540   123073246.60607  23015322.080    95723635.78305
 15 03 04 00 18  0.0000000  0 15G16G18G19G21G22G27G31R01R02R14R15R16
                                R17R18R24
  20979329.880   110247140.49309  20979326.680    85906865.32048
  21835417.300   114746069.64809  21835414.500    89412585.98247
  24324853.220   127827975.46708  24324849.840    99606194.72845
  21934136.040   115264668.98009  21934132.300    89816616.26048
  22612082.460   118827424.48509  22612078.460    92592852.61447
  22189955.360   116609064.41209  22189955.040    90864231.14748
  24157302.260   126947356.50608  24157305.740    98919973.45146
  22526932.120   120419382.13208  22526935.700    93659545.76906
  21737683.740   115996498.14509  21737687.260    90219539.16408
  22740767.060   121220996.03007  22740776.660    94282996.15305
  20311988.440   108541107.17608  20311992.620    84420879.83108
  21588729.600   115323125.82208  21588732.220    89695779.61408
  20259088.040   108410491.37809  20259088.600    84319281.56008
  21437559.260   114435283.87009  21437562.680    89005279.91208
  23029373.340   123148398.96507  23029375.420    95782087.60105
 15 03 04 00 18 30.0000000  0 15G16G18G19G21G22G27G31R01R02R14R15R16
                                R17R18R24
  20969996.580   110198094.02809  20969993.480    85868647.30848
  21829062.500   114712674.82809  21829059.540    89386564.06747
  24310179.320   127750863.77308  24310176.120    99546107.74946
  21944961.520   115321557.33209  21944957.760    89860944.83447
  22595619.680   118740912.32409  22595615.720    92525440.62447
  22178846.560   116550687.39709  22178846.240    90818742.59548
  24175354.540   127042218.84008  24175358.080    98993891.37746
  22531664.980   120444682.06908  22531668.800    93679223.49806
  21723299.360   115919740.04109  21723302.680    90159838.44208
  22765920.560   121355075.00006  22765930.140    94387279.18105
  20324518.360   108608063.26108  20324522.600    84472956.75308
  21576372.560   115257116.85809  21576375.100    89644439.34807
  20263115.800   108432044.28609  20263116.240    84336044.93708
  21428718.060   114388089.54409  21428721.140    88968573.23508
  23043422.540   123223525.30307  23043424.220    95840519.19705
 15 03 04 00 19  0.0000000  0 15G16G18G19G21G22G27G31R01R02R14R15R16
                                R17R18R24
  20960743.860   110149471.11109  20960740.880    85830759.32848
  21822793.200   114679728.85809  21822790.120    89360891.89147
  24295516.720   127673812.31208  24295513.400    99486067.73245
  21955825.260   115378647.01009  21955821.600    89905430.29848
  22579197.360   118654612.94109  22579193.440    92458194.43847
  22167757.640   116492415.11809  22167757.340    90773335.65748
  24193404.360   127137068.08408  24193408.000    99067799.09745
  22536537.140   120470725.87508  22536541.020    93699479.83106
  21709012.320   115843501.77009  21709015.660    90100542.03808
  22791095.660   121489269.05106  22791105.100    94491651.71005
  20337178.000   108675711.76408  20337182.100    84525572.23108
  21564147.820   115191814.41308  21564150.260    89593648.52508
  20267173.480   108453757.33109  20267173.880    84352932.85708
  21419910.120   114341072.55509  21419913.700    88932004.50908
  23057469.060   123298637.04807  23057470.140    95898939.41205
 15 03 04 00 19 30.0000000  0 15G16G18G19G21G22G27G31R01R02R14R15R16
                                R17R18R24
  20951570.200   110101263.49409  20951567.300    85793194.96648
  21816607.680   114647223.07709  21816604.560    89335562.72347
  24280863.980   127596811.13908  24280860.660    99426066.85746
  21966724.960   115435925.86408  21966721.420    89950063.16948
  22562814.140   118568518.90709  22562810.240    92391108.27347
  22156686.780   116434237.70009  22156686.520    90728002.63148
  24211449.240   127231891.32108  24211453.060    99141686.67446
  22541546.360   120497502.31108  22541550.540    93720305.95306
  21694821.440   115767776.76609  21694824.880    90041644.87908
  22816289.600   121623563.97006  22816299.020    94596102.67705
  20349965.220   108744042.14408  20349969.200    84578718.06108
  21552054.040   115127211.09308  21552056.520    89543401.52107
  20271258.960   108475619.15609  20271259.300    84369936.50908
  21411133.340   114294221.73109  21411136.900    88895564.98808
  23071510.780   123373723.85707  23071511.880    95957340.24805
 15 03 04 00 20  0.0000000  0 15G16G18G19G21G22G27G31R01R02R14R15R16
                                R17R18R24
  20942478.140   110053484.35409  20942475.220    85755964.46348
  21810508.100   114615169.30309  21810505.020    89310585.77847
  24266222.580   127519871.05108  24266219.540    99366113.64946
  21977662.260   115493402.53308  21977658.860    89994850.17448
  22546472.540   118482643.69209  22546468.640    92324192.60847
  22145636.140   116376166.35009  22145635.900    90682752.23448
  24229490.640   127326696.40408  24229494.380    99215560.06545
  22546694.420   120525021.77508  22546698.920    93741709.99206
  21680729.640   115692580.45309  21680733.060    89983158.90508
  22841503.560   121757966.17706  22841513.140    94700637.07405
  20362880.900   108813059.47308  20362884.840    84632398.19108
  21540093.680   115063320.89008  21540096.240    89493709.14108
  20275374.240   108497640.29709  20275374.500    84387064.06308
  21402389.720   114247547.59809  21402393.020    88859262.89008
  23085549.960   123448797.03407  23085551.100    96015730.47905
 15 03 04 00 20 30.0000000  0 15G16G18G19G21G22G27G31R01R02R14R15R16
                                R17R18R24
  20933466.220   110006126.31309  20933463.300    85719062.10848
  21804493.000   114583560.06509  21804490.020    89285955.22247
  24251591.240   127442982.96108  24251588.360    99306200.90745
  21988635.380   115551067.29309  21988632.120    90039783.75547
  22530171.340   118396980.87509  22530167.440    92257442.41647
  22134603.960   116318192.09209  22134603.780    90637577.53548
  24247526.320   127421471.43108  24247530.080    99289409.99445
  22551979.460   120553274.05708  22551984.000    93763684.01706
  21666735.920   115617907.47109  21666739.260    89925079.93008
  22866735.040   121892462.21806  22866744.840    94805244.42205
  20375922.880   108882751.94508  20375926.820    84686603.42908
  21528265.420   115000136.89708  21528268.340    89444566.08108
  20279517.300   108519810.20909  20279517.420    84404307.34208
  21393677.260   114201039.79609  21393680.680    88823090.19308
  23099584.800   123523846.80207  23099586.200    96074102.51505
 15 03 04 00 21  0.0000000  0 15G16G18G19G21G22G27G31R01R02R14R15R16
                                R17R18R24
  20924535.540   109959195.30209  20924532.620    85682492.50348
  21798563.460   114552400.66009  21798560.600    89261675.18947
  24236970.380   127366150.40408  24236967.560    99246331.44046
  21999644.640   115608921.79709  21999641.580    90084865.18248
  22513911.760   118311536.90209  22513907.940    92190862.75447
  22123591.060   116260319.07809  22123590.900    90592481.69748
  24265556.500   127516217.39508  24265560.260    99363237.30045
  22557402.160   120582262.67208  22557407.120    93786230.67705
  21652841.680   115543765.59209  21652844.980    89867414.06408
  22891984.080   122027051.51706  22891994.260    94909924.28105
  20389091.200   108953119.59308  20389095.200    84741333.79908
  21516570.680   114937665.93808  21516573.780    89395977.53008
  20283688.620   108542132.19108  20283688.800    84421668.88208
  21384996.620   114154701.70509  21384999.780    88787049.49208
  23113615.800   123598876.74907  23113617.540    96132459.10105
 15 03 04 00 21 30.0000000  0 15G16G18G19G21G22G27G31R01R02R14R15R16
                                R17R18R24
  20915686.500   109912693.03909  20915683.540    85646256.97848
  21792719.660   114521691.99909  21792716.980    89237746.38247
  24222360.140   127289372.82708  24222357.380    99186504.82646
  22010689.420   115666962.93908  22010686.480    90130092.03448
  22497694.060   118226313.73509  22497690.460    92124455.16747
  22112597.320   116202546.89109  22112597.240    90547464.43848
  24283580.460   127610930.63908  24283584.300    99437039.07645
  22562962.320   120611985.48808  22562967.460    93809348.45805
  21639047.520   115470158.07409  21639050.780    89810163.82208
  22917249.740   122161729.05606  22917260.260    95014672.74605
  20402385.200   109024158.44008  20402389.180    84796586.21008
  21505009.860   114875910.21408  21505012.920    89347945.30908
  20287887.960   108564604.67409  20287888.340    84439147.46908
  21376347.400   114108531.61309  21376350.500    88751139.44408
  23127642.640   123673886.61407  23127644.700    96190800.09105
 15 03 04 00 22  0.0000000  0 15G16G18G19G21G22G27G31R01R02R14R15R16
                                R17R18R24
  20906919.920   109866623.87709  20906916.900    85610358.93148
  21786962.200   114491437.04409  21786959.700    89214171.09747
  24207760.780   127212652.81708  24207757.640    99126723.05045
  22021770.020   115725192.25508  22021767.140    90175465.52347
  22481519.380   118141316.55509  22481515.960    92058223.67047
  22101623.340   116144878.34809  22101623.300    90502527.90948
  24301598.160   127705611.37508  24301602.260    99510815.63846
  22568660.240   120642444.35308  22568665.340    93833038.70305
  21625354.840   115397091.67809  21625358.240    89753334.44008
  22942531.620   122296492.87207  22942542.380    95119488.31406
  20415804.480   109095866.51209  20415808.460    84852359.12608
  21493583.900   114814874.73608  21493586.860    89300473.27207
  20292115.820   108587229.47608  20292116.340    84456744.54208
  21367730.060   114062531.61609  21367733.260    88715361.71808
  23141666.320   123748878.64107  23141668.500    96249127.20105
 15 03 04 00 22 30.0000000  0 15G16G18G19G21G22G27G31R01R02R14R15R16
                                R17R18R24
  20898234.860   109820983.10009  20898231.740    85574794.69648
  21781290.320   114461631.59709  21781287.860    89190946.10047
  24193171.220   127135984.30908  24193168.180    99066981.42946
  22032885.040   115783602.06608  22032882.080    90220979.66447
  22465387.140   118056541.63709  22465383.700    91992165.36047
  22090667.980   116087307.58709  22090667.920    90457667.59448
  24319607.800   127800250.36808  24319612.240    99584559.60145
  22574494.460   120673632.13108  22574499.360    93857295.88205
  21611763.020   115324563.70409  21611766.460    89696923.84308
  22967827.740   122431332.58506  22967838.760    95224362.91205
  20429347.260   109168234.54608  20429351.180    84908645.35008
  21482292.080   114754555.91908  21482294.980    89253558.63308
  20296370.860   108609999.36508  20296371.380    84474454.45708
  21359143.220   114016694.56909  21359146.280    88679710.67208
  23155685.620   123823846.63807  23155687.300    96307435.65005
 15 03 04 00 23  0.0000000  0 15G16G18G19G21G22G27G31R01R02R14R15R16
                                R17R18R24
  20889632.620   109775777.83509  20889629.440    85539569.82048
  21775705.240   114432281.69309  21775702.700    89168076.05747
  24178592.420   127059371.93308  24178589.080    99007283.50845
  22044034.780   115842194.28008  22044031.660    90266635.93447
  22449298.740   117971996.51909  22449295.200    91926286.11347
  22079732.240   116029839.75409  22079732.100    90412887.47748
  24337610.000   127894849.67708  24337614.440    99658272.77346
  22580466.020   120705552.44108  22580470.620    93882122.83505
  21598273.900   115252583.13809  21598277.320    89640938.98308
  22993138.200   122566249.05506  22993149.380    95329297.15505
  20443013.880   109241264.51508  20443017.760    84965446.40608
  21471135.780   114694961.29308  21471138.560    89207207.27507
  20300653.820   108632918.38108  20300654.340    84492280.37108
  21350587.740   113971024.75309  21350590.540    88644189.71608
  23169701.560   123898795.33907  23169702.600    96365729.09005
 15 03 04 00 23 30.0000000  0 15G16G18G19G21G22G27G31R01R02R14R15R16
                                R17R18R24
  20881113.200   109731008.13309  20881110.000    85504684.33648
  21770206.660   114403386.20009  21770204.020    89145560.11347
  24164023.940   126982814.00908  24164020.540    98947628.04846
  22055218.820   115900966.10208  22055215.560    90312432.15147
  22433254.240   117887681.82209  22433250.620    91860586.41247
  22068815.780   115972473.15409  22068815.580    90368186.25248
  24355603.640   127989404.60508  24355608.300    99731951.26845
  22586574.180   120738202.62708  22586578.400    93907517.44705
  21584887.740   115181151.93009  21584891.180    89585381.42008
  23018461.820   122701235.65506  23018473.140    95434285.95705
  20456803.080   109314949.84608  20456807.000    85022757.18908
  21460115.240   114636091.43908  21460117.960    89161419.60108
  20304964.120   108655983.91808  20304964.760    84510220.23608
  21342063.080   113925519.34409  21342066.120    88608796.67808
  23183713.480   123973722.53507  23183714.180    96424005.76505
 15 03 04 00 24  0.0000000  0 15G16G18G19G21G22G27G31R01R02R14R15R16
                                R17R18R24
  20872677.080   109686675.89409  20872673.800    85470139.74148
  21764794.940   114374946.86209  21764792.220    89123399.60447
  24149465.900   126906310.64808  24149462.560    98888015.09146
  22066436.720   115959915.93709  22066433.440    90358367.08147
  22417254.180   117803600.42409  22417250.420    91795068.51347
  22057918.700   115915208.36009  22057918.460    90323564.35148
  24373588.240   128083912.13208  24373593.340    99805592.81246
  22592818.640   120771581.41708  22592822.180    93933478.79705
  21571605.260   115110274.24509  21571608.560    89530254.35708
  23043797.900   122836288.40406  23043809.300    95539326.17505
  20470714.200   109389286.64308  20470718.200    85080574.64008
  21449230.980   114577949.27808  21449233.560    89116197.94108
  20309301.700   108679195.19608  20309302.380    84528273.45408
  21333569.060   113880177.70509  21333572.200    88573530.97508
  23197721.340   124048628.67907  23197722.100    96482266.08705
 15 03 04 00 24 30.0000000  0 16G16G18G19G21G22G27G31R01R02R03R14R15
                                R16R17R18R24
  20864325.840   109642789.61909  20864322.500    85435942.64748
  21759471.380   114346971.08209  21759468.580    89101600.33247
  24134919.180   126829867.76708  24134915.580    98828449.24746
  22077689.280   116019047.81908  22077685.840    90404443.87847
  22401300.220   117719761.33009  22401296.220    91729739.40347
  22047042.220   115858051.84309  22047041.920    90279026.80848
  24391564.560   128178375.77208  24391569.820    99879200.14746
  22599200.220   120805694.49908  22599203.740    93960011.15705
  21558428.300   115039959.93909  21558431.480    89475565.49007
  23591132.780   126285194.87307  23591142.720    98221839.09106
  23069146.880   122971409.13306  23069158.300    95644419.26805
  20484747.800   109464277.95208  20484751.860    85138901.17208
  21438484.540   114520543.33208  21438486.980    89071548.86507
  20313667.660   108702557.89109  20313668.260    84546444.43708
  21325106.760   113835005.49309  21325109.480    88538397.03108
  23211726.040   124123519.84707  23211727.460    96540514.75005
 15 03 04 00 25  0.0000000  0 16G16G18G19G21G22G27G31R01R02R03R14R15
                                R16R17R18R24
  20856058.480   109599344.05209  20856055.100    85402088.96548
  21754234.920   114319453.29309  21754232.060    89080157.91847
  24120382.820   126753478.85608  24120379.460    98768925.48146
  22088974.860   116078353.67108  22088971.440    90450656.21247
  22385391.500   117636159.93309  22385387.280    91664595.52247
  22036185.080   115800997.07709  22036184.780    90234568.58148
  24409530.700   128272786.06308  24409536.220    99952765.77046
  22605717.580   120840533.19708  22605720.760    93987107.95105
  21545356.480   114970206.11509  21545359.580    89421312.54608
  23568357.800   126163283.69906  23568367.180    98127020.16406
  23094506.520   123106586.70506  23094518.060    95749556.56305
  20498902.000   109539913.45608  20498906.020    85197728.74908
  21427875.120   114463869.34608  21427877.460    89027469.08607
  20318060.420   108726064.23108  20318060.980    84564727.14208
  21316674.760   113789994.97309  21316677.420    88503388.88808
  23225726.820   124198389.04707  23225728.480    96598746.28405
 15 03 04 00 25 30.0000000  0 16G16G18G19G21G22G27G31R01R02R03R14R15
                                R16R17R18R24
  20847876.460   109556346.56409  20847872.940    85368584.41848
  21749086.700   114292399.58509  21749083.860    89059077.12547
  24105857.540   126677148.62508  24105854.240    98709447.43446
  22100294.060   116137836.41608  22100290.600    90497006.40147
  22369529.480   117552804.18409  22369525.120    91599643.04647
  22025348.300   115744049.42409  22025348.000    90190193.79748
  24427487.180   128367145.14608  24427493.040   100026291.34746
  22612371.340   120876101.56108  22612375.120    94014772.22205
  21532391.380   114901021.54709  21532394.400    89367502.36107
  23545576.760   126041337.13306  23545585.680    98032173.65506
  23119876.900   123241821.93006  23119888.660    95854738.65905
  20513177.060   109616194.67809  20513181.020    85257058.57308
  21417404.120   114407934.78008  21417406.440    88983964.43407
  20322480.860   108749718.58309  20322481.400    84583124.96908
  21308273.860   113745150.68409  21308276.900    88468510.04308
  23239724.220   124273241.82006  23239726.420    96656965.14705
 15 03 04 00 26  0.0000000  0 16G16G18G19G21G22G27G31R01R02R03R14R15
                                R16R17R18R24
  20839779.020   109513793.82509  20839775.420    85335426.44248
  21744026.020   114265806.20809  21744023.320    89038355.03547
  24091342.500   126600872.74408  24091339.540    98650011.73446
  22111645.740   116197490.10708  22111642.380    90543489.78747
  22353713.820   117469692.09109  22353709.400    91534880.41547
  22014531.040   115687204.48109  22014530.760    90145899.05748
  24445432.520   128461445.40208  24445438.700   100099770.98946
  22619160.400   120912393.59708  22619164.000    94042999.39706
  21519532.800   114832405.32209  21519535.920    89314134.24308
  23522788.760   125919354.57106  23522797.420    97937299.23306
  23145256.360   123377105.74606  23145268.440    95959958.56105
  20527571.300   109693112.52309  20527575.180    85316883.53708
  21407071.040   114352737.14808  21407073.420    88941032.97007
  20326927.900   108773515.30809  20326928.440    84601633.53908
  21299903.040   113700466.88709  21299906.180    88433755.99008
  23253717.700   124348072.89606  23253720.300    96715167.05505
 15 03 04 00 26 30.0000000  0 16G16G18G19G21G22G27G31R01R02R03R14R15
                                R16R17R18R24
  20831766.580   109471688.22409  20831762.980    85302616.88448
  21739053.300   114239675.07309  21739050.800    89017993.13447
  24076838.120   126524651.79708  24076835.080    98590618.81946
  22123029.500   116257312.51208  22123026.320    90590104.63347
  22337944.940   117386826.32209  22337940.560    91470309.76047
  22003733.520   115630463.05409  22003733.260    90101684.98048
  24463366.380   128555685.04908  24463372.840   100173203.74146
  22626084.620   120949408.40908  22626088.240    94071788.68005
  21506781.480   114764361.56509  21506784.560    89261211.35108
  23499995.140   125797340.40107  23500003.700    97842400.18906
  23170644.240   123512434.49806  23170656.640    96065213.34505
  20542083.980   109770663.36909  20542087.760    85377200.83308
  21396876.460   114298279.35808  21396878.980    88898676.91108
  20331401.440   108797454.13309  20331402.020    84620252.63908
  21291562.180   113655943.21809  21291565.000    88399126.52608
  23267707.440   124422882.70606  23267710.160    96773352.42305
 15 03 04 00 27  0.0000000  0 16G16G18G19G21G22G27G31R01R02R03R14R15
                                R16R17R18R24
  20823839.880   109430033.29209  20823836.340    85270158.49248
  21734169.060   114214008.49709  21734166.640    88997993.22847
  24062344.220   126448486.66908  24062341.100    98531269.44646
  22134445.420   116317304.10908  22134442.320    90636851.32647
  22322223.700   117304210.97209  22322219.420    91405934.21347
  21992956.000   115573826.81009  21992955.740    90057552.87148
  24481288.440   128649862.70708  24481295.140   100246588.15345
  22633144.260   120987146.25208  22633148.580    94101140.29406
  21494138.380   114696895.30209  21494141.360    89208737.62408
  23477196.620   125675299.77207  23477204.460    97747480.43206
  23196039.960   123647804.74606  23196052.700    96170500.44905
  20556714.640   109848845.06809  20556718.360    85438008.78508
  21386821.000   114244565.01808  21386823.600    88856899.09308
  20335901.600   108821535.71909  20335902.280    84638982.76208
  21283251.560   113611580.58809  21283254.280    88364622.24808
  23281693.620   124497672.91906  23281696.400    96831522.59505
 15 03 04 00 27 30.0000000  0 16G16G18G19G21G22G27G31R01R02R03R14R15
                                R16R17R18R24
  20815998.560   109388827.12909  20815995.100    85238049.79648
  21729372.700   114188803.47909  21729370.360    88978352.98447
  24047860.580   126372374.06508  24047857.260    98471960.93846
  22145892.580   116377459.86708  22145889.540    90683725.93447
  22306549.920   117221845.24609  22306545.620    91341753.18547
  21982197.880   115517292.61309  21982197.620    90013500.26448
  24499197.540   128743971.81108  24499204.360   100319919.21046
  22640338.320   121025602.08008  22640342.380    94131050.46605
  21481603.500   114630007.00809  21481606.600    89156713.42808
  23454392.920   125553233.09907  23454400.220    97652540.52506
  23221442.260   123783209.66106  23221455.180    96275814.46906
  20571461.920   109927650.11908  20571465.700    85499301.58508
  21376904.520   114191592.82308  21376907.060    88815698.47408
  20340427.680   108845755.82408  20340428.360    84657820.62708
  21274970.280   113567374.51609  21274973.260    88330239.78908
  23295675.760   124572440.02607  23295678.400    96889674.73405
 15 03 04 00 28  0.0000000  0 16G16G18G19G21G22G27G31R01R02R03R14R15
                                R16R17R18R24
  20808244.540   109348079.77609  20808241.200    85206298.61148
  21724666.080   114164070.02409  21724663.700    88959080.17948
  24033388.300   126296322.03308  24033384.940    98412699.70046
  22157372.160   116437785.51708  22157369.060    90730732.94447
  22290925.660   117139739.40509  22290921.280    91277774.65948
  21971460.700   115460868.86909  21971460.460    89969533.71248
  24517094.520   128838017.76208  24517101.480   100393201.13146
  22647667.760   121064782.56308  22647671.340    94161524.21405
  21469178.920   114563708.35709  21469182.280    89105147.83508
  23431586.960   125431152.81107  23431593.980    97557589.92906
  23246851.700   123918652.58905  23246864.880    96381158.02105
  20586326.560   110007082.46308  20586330.440    85561082.26508
  21367128.940   114139373.43208  21367131.480    88775083.39008
  20344981.040   108870121.94908  20344981.620    84676772.06508
  21266719.760   113523332.61809  21266722.960    88295985.04208
  23309655.020   124647191.87907  23309657.240    96947815.07605
 15 03 04 00 28 30.0000000  0 16G16G18G19G21G22G27G31R01R02R03R14R15
                                R16R17R18R24
  20800577.060   109307787.22509  20800573.780    85174901.82048
  21720048.160   114139802.98509  21720045.800    88940170.82247
  24018926.620   126220324.83708  24018922.960    98353481.13546
  22168882.580   116498273.37108  22168879.460    90777866.32147
  22275350.280   117057890.25709  22275345.840    91213996.15847
  21960743.380   115404549.83909  21960743.220    89925648.78248
  24534977.760   128931992.12408  24534984.800   100466427.31345
  22655131.440   121104680.12408  22655135.340    94192555.66506
  21456864.400   114497996.69209  21456867.940    89054038.80608
  23408777.800   125309056.36707  23408784.140    97462626.80306
  23272266.260   124054123.24005  23272279.740    96486523.13805
  20601306.800   110087132.35008  20601310.760    85623343.24708
  21357493.460   114087902.81808  21357495.960    88735050.69408
  20349560.400   108894627.25709  20349560.880    84695831.75108
  21258498.660   113479447.77009  21258501.860    88261852.37808
  23323630.280   124721922.63707  23323632.300    97005938.97805
 15 03 04 00 29  0.0000000  0 16G16G18G19G21G22G27G31R01R02R03R14R15
                                R16R17R18R24
  20792996.700   109267952.32709  20792993.440    85143861.64048
  21715519.420   114116004.65309  21715517.120    88921626.68047
  24004475.580   126144383.52608  24004471.700    98294306.11646
  22180423.820   116558922.92908  22180420.760    90825125.71847
  22259824.360   116976301.44609  22259819.920    91150420.52247
  21950046.400   115348337.34709  21950046.220    89881846.85348
  24552846.960   129025892.84508  24552854.300   100539596.12645
  22662729.140   121145294.90708  22662733.260    94224144.91605
  21444661.000   114432877.41409  21444664.700    89003390.52108
  23385966.580   125186949.48507  23385972.760    97367655.52006
  23297685.400   124189618.67106  23297699.360    96591907.51305
  20616402.080   110167796.58909  20616406.040    85686082.06008
  21347998.700   114037184.29108  21348001.160    88695602.97208
  20354165.920   108919272.33809  20354166.340    84715000.15608
  21250307.120   113435720.87709  21250310.080    88227842.59308
  23337601.700   124796633.34207  23337603.600    97064047.30205
 15 03 04 00 29 30.0000000  0 16G16G18G19G21G22G27G31R01R02R03R14R15
                                R16R17R18R24
  20785505.020   109228583.54809  20785501.780    85113184.66848
  21711081.280   114092682.33009  21711078.920    88903453.46847
  23990036.320   126068504.98608  23990032.560    98235180.09046
  22191996.740   116619739.43608  22191993.820    90872515.19247
  22244349.740   116894982.35509  22244345.380    91087055.05248
  21939371.100   115292238.27209  21939370.880    89838133.31148
  24570702.960   129119724.39108  24570710.440   100612711.23146
  22670462.060   121186632.09508  22670466.520    94256296.07006
  21432570.600   114368360.60609  21432574.160    88953210.82908
  23363155.500   125064842.95607  23363161.620    97272684.48707
  23323109.840   124325141.53305  23323124.020    96697313.27305
  20631612.880   110249078.42008  20631616.900    85749301.22408
  21338646.540   113987227.12108  21338649.000    88656747.38708
  20358798.600   108944063.32008  20358799.120    84734282.02208
  21242146.240   113392157.94609  21242149.120    88193960.29708
  23351570.740   124871331.34407  23351572.460    97122145.78005
 15 03 04 00 30  0.0000000  0 16G16G18G19G21G22G27G31R01R02R03R14R15
                                R16R17R18R24
  20778099.800   109189669.41709  20778096.640    85082861.98048
  21706731.520   114069824.33409  21706729.060    88885642.06748
  23975606.700   125992676.33808  23975602.700    98176092.84146
  22203598.620   116680708.30508  22203595.780    90920023.39847
  22228924.500   116813922.79909  22228920.240    91023891.81648
  21928715.020   115236240.13609  21928714.760    89794498.41448
  24588542.640   129213470.72108  24588550.360   100685759.80246
  22678327.480   121228676.74608  22678331.840    94288997.52405
  21420591.340   114304436.65109  21420594.780    88903492.23208
  23340342.780   124942727.55407  23340349.200    97177706.57007
  23348536.220   124460674.60606  23348550.600    96802726.94005
  20646936.020   110330960.86708  20646940.100    85812987.52208
  21329434.860   113938020.15608  21329437.380    88618475.32208
  20363455.960   108968986.05909  20363456.520    84753666.37708
  21234013.440   113348744.96609  21234016.200    88160194.67108
  23365534.920   124946003.14907  23365536.440    97180223.80605
 15 03 04 00 30 30.0000000  0 16G16G18G19G21G22G27G31R01R02R03R14R15
                                R16R17R18R24
  20770783.760   109151223.70109  20770780.640    85052904.27648
  21702472.440   114047442.90909  21702470.040    88868202.00448
  23961188.540   125916908.65808  23961184.640    98117053.15746
  22215231.420   116741839.07108  22215228.500    90967657.76147
  22213551.300   116733136.40409  22213547.100    90960941.42648
  21918080.360   115180354.49509  21918080.000    89750951.18348
  24606367.760   129307140.67708  24606375.560   100758749.02245
  22686327.000   121271438.91008  22686331.160    94322256.98005
  21408726.040   114241120.75009  21408729.340    88854246.57108
  23317531.200   124820618.77707  23317537.900    97082733.81206
  23373965.860   124596224.86906  23373980.400    96908154.03005
  20662372.820   110413450.57408  20662376.920    85877146.13508
  21320366.180   113889576.60708  21320368.680    88580796.99707
  20368140.100   108994051.79609  20368140.680    84773161.95108
  21225910.800   113305492.67009  21225913.760    88126554.05008
  23379496.260   125020660.19507  23379497.560    97238290.39305
 15 03 04 00 31  0.0000000  0 16G16G18G19G21G22G27G31R01R02R03R14R15
                                R16R17R18R24
  20763556.420   109113243.91009  20763553.280    85023309.64348
  21698303.560   114025535.14009  21698301.140    88851131.03748
  23946781.240   125841198.23008  23946777.500    98058058.09346
  22226894.060   116803126.27708  22226891.120    91015414.02947
  22198229.880   116652621.75609  22198225.600    90898202.79748
  21907466.440   115124578.03709  21907465.960    89707489.03548
  24624177.080   129400727.76708  24624184.840   100831673.87945
  22694459.700   121314913.07408  22694463.740    94356070.26305
  21396974.620   114178412.59809  21396977.760    88805473.59108
  23294720.880   124698516.83807  23294727.420    96987766.22607
  23399397.300   124731784.58206  23399412.080    97013588.50105
  20677921.960   110496540.27608  20677926.020    85941771.43008
  21311440.120   113841895.01808  21311442.660    88543711.31007
  20372850.100   109019255.90909  20372850.680    84792765.14208
  21217837.460   113262396.53709  21217840.580    88093034.84608
  23393454.180   125095298.97607  23393455.360    97296342.76905
 15 03 04 00 31 30.0000000  0 16G16G18G19G21G22G27G31R01R02R03R14R15
                                R16R17R18R24
  20756417.980   109075731.19409  20756414.820    84994078.96648
  21694224.820   114004100.66209  21694222.280    88834428.86548
  23932384.680   125765544.00408  23932380.940    97999106.77946
  22238585.940   116864567.07708  22238582.980    91063289.96947
  22182960.460   116572380.57309  22182956.140    90835677.24548
  21896873.140   115068909.86709  21896872.620    89664111.25948
  24641969.760   129494227.92008  24641977.620   100904530.82045
  22702725.060   121359096.12207  22702729.700    94390434.84406
  21385337.420   114116314.38909  21385340.720    88757175.01308
  23271912.480   124576424.61307  23271918.680    96892806.16407
  23424829.380   124867348.13406  23424844.240    97119025.93905
  20693582.420   110580224.65509  20693586.380    86006859.25808
  21302656.840   113794975.99708  21302659.420    88507218.75807
  20377585.640   109044596.39709  20377586.180    84812474.42408
  21209793.060   113219454.55909  21209796.200    88059635.55908
  23407408.380   125169917.97807  23407409.500    97354379.73905
 15 03 04 00 32  0.0000000  0 16G16G18G19G21G22G27G31R01R02R03R14R15
                                R16R17R18R24
  20749369.300   109038689.87509  20749366.080    84965215.60148
  21690236.880   113983143.18909  21690234.240    88818098.39147
  23917999.340   125689949.37508  23917995.800    97940201.94846
  22250307.300   116926162.80008  22250304.200    91111286.62547
  22167744.080   116492418.28209  22167739.740    90773369.02147
  21886301.140   115013353.45309  21886300.560    89620820.56548
  24659746.020   129587641.97408  24659754.020   100977320.87946
  22711123.160   121403989.66508  22711128.320    94425351.97906
  21373815.820   114054832.86009  21373819.100    88709356.06408
  23249107.060   124454349.05107  23249113.460    96797859.19006
  23450262.160   125002914.58406  23450276.980    97224465.69005
  20709354.000   110664502.72108  20709357.860    86072408.82908
  21294017.240   113748824.63108  21294019.740    88471323.24208
  20382347.100   109070075.84308  20382347.660    84832291.75608
  21201778.020   113176669.41409  21201781.040    88026358.24408
  23421359.580   125244520.76607  23421360.700    97412404.11105
 15 03 04 00 32 30.0000000  0 16G16G18G19G21G22G27G31R01R02R03R14R15
                                R16R17R18R24
  20742409.920   109002117.79009  20742406.620    84936717.88048
  21686339.260   113962660.58509  21686336.520    88802137.94348
  23903624.600   125614410.18008  23903621.140    97881340.28246
  22262056.960   116987907.50708  22262053.840    91159399.37947
  22152580.460   116412733.46509  22152576.200    90711277.02048
  21875749.740   114957905.49109  21875749.180    89577614.37348
  24677504.580   129680962.90108  24677512.420   101050038.58345
  22719653.380   121449588.05008  22719658.000    94460817.41205
  21362409.700   113993967.33509  21362412.980    88662016.25508
  23226305.160   124332290.94107  23226310.840    96702925.58106
  23475693.980   125138475.89806  23475708.640    97329901.47205
  20725235.160   110749366.56608  20725238.960    86138414.02108
  21285521.000   113703439.06808  21285523.400    88436023.37108
  20387133.660   109095689.76208  20387134.280    84852213.69708
  21193791.420   113134036.29909  21193794.220    87993199.18408
  23435306.860   125319103.61907  23435307.960    97470412.97105
 15 03 04 00 33  0.0000000  0 16G16G18G19G21G22G27G31R01R02R03R14R15
                                R16R17R18R24
  20735540.680   108966019.42409  20735537.260    84908589.28848
  21682532.520   113942656.06209  21682529.740    88786550.01347
  23889260.940   125538929.07808  23889257.720    97822523.88646
  22273835.300   117049802.53908  22273832.120    91207629.26847
  22137470.680   116333331.44009  22137466.500    90649405.34947
  21865219.540   114902568.94809  21865219.020    89534494.99748
  24695245.360   129774190.79308  24695253.380   101122683.78445
  22728315.760   121495891.99508  22728319.260    94496831.64604
  21351120.160   113933724.16209  21351123.520    88615160.50808
  23203507.840   124210256.71108  23203512.480    96608010.56006
  23501124.340   125274030.71706  23501139.160    97435332.20305
  20741225.560   110834813.86009  20741229.260    86204872.98808
  21277168.940   113658823.65708  21277171.160    88401322.51208
  20391945.680   109121440.13209  20391946.260    84872241.76808
  21185833.620   113091557.29709  21185836.320    87960159.99608
  23449251.000   125393669.06507  23449252.160    97528408.31005
 15 03 04 00 33 30.0000000  0 15G16G18G19G21G22G27R01R02R03R14R15R16
                                R17R18R24
  20728760.800   108930390.85209  20728757.360    84880826.76548
  21678815.740   113923124.64009  21678813.040    88771330.75047
  23874907.240   125463500.64008  23874904.100    97763748.55246
  22285640.880   117111840.52408  22285637.480    91255970.55747
  22122414.060   116254208.73309  22122409.980    90587751.34748
  21854709.600   114847338.76409  21854709.100    89491458.52348
  22737108.560   121542894.64908  22737111.920    94533389.28004
  21339946.860   113874101.24709  21339950.200    88568787.15308
  23180714.740   124088244.62608  23180719.320    96513112.84307
  23526551.620   125409569.30105  23526566.660    97540750.41405
  20757323.460   110920835.63308  20757327.120    86271778.78608
  21268960.360   113614974.65908  21268962.660    88367217.72508
  20396782.120   109147320.97408  20396782.600    84892371.31508
  21177903.500   113049226.12009  21177906.200    87927235.77508
  23463190.980   125468211.82007  23463192.000    97586385.97705
 15 03 04 00 34  0.0000000  0 15G16G18G19G21G22G27R01R02R03R14R15R16
                                R17R18R24
  20722072.600   108895244.07309  20722069.200    84853439.67448
  21675191.020   113904077.19909  21675188.380    88756488.61747
  23860565.640   125388135.17308  23860562.320    97705022.21847
  22297475.280   117174030.10109  22297471.820    91304429.96447
  22107413.120   116175378.40009  22107409.080    90526325.17148
  21844221.860   114792225.48409  21844221.420    89448513.13048
  22746033.420   121590604.08108  22746037.160    94570496.61405
  21328892.260   113815112.08509  21328895.420    88522906.70408
  23157928.640   123966269.42107  23157932.940    96418243.68207
  23551977.000   125545098.61606  23551992.340    97646161.74205
  20773529.880   111007437.75508  20773533.560    86339135.96008
  21260897.520   113571904.31608  21260899.820    88333718.58408
  20401644.720   109173341.83008  20401645.140    84912609.74208
  21170002.880   113007052.32709  21170005.680    87894433.96008
  23477128.620   125542741.89308  23477129.540    97644353.80405
 15 03 04 00 34 30.0000000  0 14G16G18G19G21G22G27R01R02R03R15R16R17
                                R18R24
  20715475.860   108860577.97309  20715472.520    84826427.12448
  21671658.260   113885512.43409  21671655.560    88742022.57248
  23846235.460   125312830.00508  23846231.960    97646342.94646
  22309337.640   117236366.85608  22309334.220    91353004.05447
  22092467.800   116096839.99009  22092463.660    90465126.44248
  21833755.920   114737226.55809  21833755.520    89405656.82548
  22755089.380   121639015.43807  22755094.040    94608149.86906
  21317956.360   113756756.98009  21317959.560    88477519.44708
  23135149.640   123844332.24807  23135153.400    96323404.11007
  20789843.400   111094612.54108  20789847.240    86406938.52508
  21252980.120   113529611.32508  21252982.400    88300824.02108
  20406532.900   109199499.09708  20406533.240    84932954.27008
  21162131.060   112965032.14509  21162133.840    87861751.60708
  23491063.520   125617256.72907  23491064.200    97702309.78505
 15 03 04 00 35  0.0000000  0 14G16G18G19G21G22G27R01R02R03R15R16R17
                                R18R24
  20708970.160   108826390.20209  20708966.880    84799787.30048
  21668216.660   113867426.61109  21668213.920    88727929.74247
  23831915.940   125237581.01408  23831912.640    97587707.43446
  22321226.900   117298844.96309  22321223.420    91401688.27747
  22077577.820   116018592.22609  22077573.460    90404154.20848
  21823311.160   114682338.75309  21823310.760    89362887.14148
  22764275.760   121688123.13608  22764281.000    94646344.75806
  21307139.140   113699035.50209  21307142.380    88432624.98708
  23112377.780   123722433.34907  23112381.440    96228594.35507
  20806262.720   111182352.84108  20806266.720    86475180.91408
  21245207.800   113488093.66308  21245210.280    88268532.51608
  20411445.720   109225788.38909  20411446.040    84953401.50908
  21154287.180   112923161.23709  21154289.860    87829185.38408
  23504994.680   125691752.41007  23504995.360    97760250.86805
 15 03 04 00 35 30.0000000  0 14G16G18G19G21G22G27R01R02R03R15R16R17
                                R18R24
  20702556.040   108792683.80109  20702552.780    84773522.57848
  21664866.640   113849821.83809  21664863.820    88714211.75748
  23817607.680   125162389.86708  23817604.120    97529116.96945
  22333142.920   117361464.39608  22333139.400    91450482.63947
  22062743.760   115940638.96409  22062739.300    90343411.45347
  21812887.900   114627563.73509  21812887.420    89320205.31548
  22773592.480   121737926.48608  22773597.860    94685080.71905
  21296441.660   113641952.60309  21296445.020    88388227.20608
  23089613.780   123600578.03407  23089617.520    96133818.48007
  20822787.160   111270654.94308  20822791.340    86543860.27108
  21237581.180   113447354.11408  21237583.760    88236846.20208
  20416383.320   109252210.51008  20416383.680    84973952.04008
  21146471.360   112881440.23609  21146474.120    87796735.73908
  23518922.440   125766230.57107  23518923.220    97818178.29505
 15 03 04 00 36  0.0000000  0 14G16G18G19G21G22G27R01R02R03R15R16R17
                                R18R24
  20696235.180   108759467.51209  20696231.920    84747639.75648
  21661609.640   113832706.29509  21661606.720    88700874.97547
  23803311.380   125087263.28608  23803308.000    97470576.86246
  22345086.780   117424230.19108  22345083.320    91499391.03647
  22047967.380   115862989.25909  22047962.960    90282905.22948
  21802487.420   114572908.94809  21802486.920    89277617.18648
  22783040.440   121788430.59408  22783045.180    94724361.76505
  21285865.780   113585518.08109  21285869.220    88344333.73308
  23066860.160   123478777.85107  23066863.820    96039085.39607
  20839417.380   111359522.13908  20839421.700    86612979.13608
  21230101.960   113407401.70608  21230104.220    88205772.07608
  20421346.920   109278771.88408  20421347.320    84994610.89708
  21138684.780   112839875.56209  21138687.700    87764407.68508
  23532848.000   125840698.21807  23532849.120    97876097.55105
 15 03 04 00 36 30.0000000  0 14G16G18G19G21G22G27R01R02R03R15R16R17
                                R18R24
  20690005.800   108726731.83109  20690002.480    84722131.43948
  21658443.700   113816069.44409  21658440.800    88687911.21747
  23789025.540   125012190.61908  23789022.080    97412078.70446
  22357056.260   117487130.26109  22357052.760    91548404.07247
  22033247.220   115785635.04009  22033242.880    90222629.26948
  21792107.800   114518363.81409  21792107.280    89235114.52048
  22792617.140   121839622.12808  22792621.420    94764177.46506
  21275410.000   113529724.28609  21275413.540    88300938.59208
  23044115.440   123357025.73907  23044119.160    95944389.75807
  20856150.380   111448938.26608  20856154.760    86682524.97708
  21222768.220   113368226.57308  21222770.920    88175302.54108
  20426334.400   109305461.05208  20426334.840    85015369.13408
  21130925.280   112798455.32309  21130928.340    87732191.96008
  23546769.560   125915144.60907  23546771.020    97934000.29805
 15 03 04 00 37  0.0000000  0 14G16G18G19G21G22G27R01R02R03R15R16R17
                                R18R24
  20683869.180   108694483.70409  20683865.820    84697003.01848
  21655369.940   113799917.16509  21655367.000    88675325.03047
  23774751.020   124937177.31308  23774747.440    97353626.79646
  22369051.940   117550167.90408  22369048.380    91597524.30847
  22018584.820   115708584.07309  22018580.560    90162589.59748
  21781750.160   114463934.09009  21781749.620    89192701.75348
  22802323.140   121891504.74808  22802327.280    94804530.56106
  21265075.940   113474579.87209  21265079.540    88258048.52308
  23021381.440   123235331.10306  23021385.020    95849738.69707
  20872986.680   111538905.83308  20872990.980    86752499.71008
  21215581.320   113329835.62009  21215583.700    88145442.93108
  20431346.680   109332282.65708  20431347.080    85036230.37408
  21123193.780   112757184.13109  21123196.900    87700092.15808
  23560688.320   125989575.27907  23560689.860    97991890.79605
 15 03 04 00 37 30.0000000  0 14G16G18G19G21G22G27R01R02R03R15R16R17
                                R18R24
  20677826.380   108662728.69409  20677823.060    84672258.86148
  21652389.360   113784254.57109  21652386.380    88663120.43647
  23760488.400   124862227.36708  23760484.720    97295224.28446
  22381074.180   117613345.32208  22381070.740    91646753.46447
  22003981.340   115631842.42009  22003977.080    90102790.95248
  21771415.360   114409624.34209  21771414.780    89150382.48348
  22812158.260   121944080.10007  22812162.560    94845422.45506
  21254864.960   113420091.91809  21254868.440    88215669.03408
  22998659.620   123113702.32007  22998663.600    95755138.97207
  20889925.900   111629423.44208  20889930.160    86822902.26608
  21208542.420   113292234.86808  21208545.040    88116197.89608
  20436384.500   109359240.55708  20436384.740    85057197.63808
  21115490.940   112716065.60609  21115494.100    87668111.11808
  23574604.900   126063994.18107  23574606.560    98049772.15605
 15 03 04 00 38  0.0000000  0 14G16G18G19G21G22G27R01R02R03R15R16R17
                                R18R24
  20671876.100   108631460.30309  20671872.900    84647893.88548
  21649500.540   113769073.87509  21649497.600    88651291.34448
  23746236.380   124787332.89908  23746232.940    97236865.02746
  22393121.160   117676652.99708  22393117.860    91696084.11347
  21989435.720   115555404.85509  21989431.460    90043229.26448
  21761101.940   114355427.00109  21761101.300    89108150.79748
  22822121.100   121997338.04808  22822125.480    94886845.33805
  21244776.160   113366255.76909  21244779.540    88173796.49308
  22975949.420   122992135.52307  22975953.380    95660587.37107
  20906965.760   111720478.91608  20906970.000    86893723.15908
  21201650.080   113255417.23908  21201652.480    88087561.96008
  20441446.040   109386325.74408  20441446.240    85078263.90308
  21107815.080   112675090.93009  21107818.280    87636241.93208
  23588518.120   126138393.52307  23588519.640    98107638.33405
 15 03 04 00 38 30.0000000  0 14G16G18G19G21G22G27R01R02R03R15R16R17
                                R18R24
  20666019.540   108600684.34509  20666016.460    84623912.62148
  21646704.400   113754379.83709  21646701.420    88639841.46748
  23731995.800   124712498.15908  23731992.120    97178552.28646
  22405193.540   117740093.57808  22405190.180    91745518.33847
  21974949.200   115479277.71809  21974944.940    89983909.46648
  21750810.760   114301346.69309  21750810.140    89066010.31148
  22832212.120   122051280.69107  22832216.220    94928800.82704
  21234810.820   113313078.31909  21234814.100    88132436.27308
  22953252.460   122870638.97207  22953256.480    95566090.45706
  20924106.180   111812071.81908  20924110.440    86964962.04808
  21194905.480   113219388.62508  21194908.320    88059539.73208
  20446532.080   109413542.22408  20446532.340    85099432.25808
  21100166.820   112634263.67309  21100169.820    87604487.42208
  23602428.460   126212777.52507  23602429.560    98165492.51804
 15 03 04 00 39  0.0000000  0 14G16G18G19G21G22G27R01R02R03R15R16R17
                                R18R24
  20660257.600   108570405.23009  20660254.540    84600318.51048
  21644001.560   113740176.33809  21643998.580    88628773.83648
  23717767.100   124637725.98508  23717763.540    97120288.29346
  22417291.420   117803668.22709  22417288.080    91795057.02747
  21960522.820   115403466.62409  21960518.560    89924835.93648
  21740542.520   114247386.73309  21740541.880    89023963.59548
  22842431.360   122105908.98108  22842435.620    94971289.45805
  21224970.060   113260565.92009  21224973.300    88091593.34708
  22930570.180   122749220.00107  22930573.800    95471653.71007
  20941347.060   111904201.66008  20941351.360    87036618.54308
  21188309.380   113184153.30708  21188311.840    88032134.45308
  20451643.140   109440892.19908  20451643.280    85120704.46508
  21092546.580   112593586.12009  21092549.640    87572849.32908
  23616336.460   126287149.36807  23616337.000    98223337.33204
 15 03 04 00 39 30.0000000  0 14G16G18G19G21G22G27R01R02R03R15R16R17
                                R18R24
  20654589.080   108540617.15109  20654586.060    84577107.02748
  21641390.800   113726456.73009  21641387.860    88618083.24748
  23703549.180   124563009.50008  23703545.300    97062067.69446
  22429413.140   117867368.07708  22429409.880    91844693.27547
  21946155.580   115327966.65409  21946151.380    89866004.84048
  21730295.900   114193540.47109  21730295.340    88982005.47348
  22852777.080   122161212.98408  22852781.540    95014303.67806
  21215253.100   113208714.37809  21215256.260    88051264.42608
  22907901.740   122627875.43908  22907905.300    95377275.00507
  20958686.080   111996856.00208  20958690.380    87108682.98808
  21181860.660   113149705.23408  21181863.240    88005341.53208
  20456777.660   109468368.03108  20456777.680    85142074.54808
  21084952.820   112553050.20909  21084955.760    87541321.41708
  23630240.680   126361502.06107  23630241.360    98281167.15304
 15 03 04 00 40  0.0000000  0 14G16G18G19G21G22G27R01R02R03R15R16R17
                                R18R24
  20649015.880   108511330.08209  20649012.860    84554285.95148
  21638873.780   113713229.61709  21638870.840    88607776.43647
  23689343.200   124488356.76808  23689339.380    97003896.80246
  22441559.980   117931199.75809  22441556.700    91894432.23047
  21931849.560   115252788.49509  21931845.400    89807424.50548
  21720072.620   114139816.63509  21720072.080    88940142.76848
  22863250.440   122217199.06708  22863254.920    95057848.43406
  21205662.140   113157534.96109  21205665.100    88011458.23208
  22885249.620   122506617.60607  22885253.160    95282963.64807
  20976123.820   112090038.04908  20976128.060    87181157.87208
  21175561.160   113116054.08008  21175563.500    87979168.38408
  20461937.120   109495977.41609  20461937.140    85163548.52708
  21077387.080   112512663.81809  21077389.940    87509909.81708
  23644142.940   126435843.89107  23644143.880    98338988.56305
 15 03 04 00 40 30.0000000  0 13G16G18G19G21G22G27R01R02R03R15R16R17
                                R18
  20643536.500   108482536.34709  20643533.580    84531849.27948
  21636448.800   113700486.44209  21636445.920    88597846.69847
  23675147.740   124413758.76508  23675143.920    96945768.51246
  22453729.900   117995152.63108  22453726.580    91944265.63547
  21917603.420   115177925.08609  21917599.300    89749089.42048
  21709870.960   114086206.44709  21709870.440    88898368.60448
  22873849.320   122273855.46508  22873853.420    95101914.61105
  21196195.840   113107021.15509  21196198.820    87972169.73508
  22862612.720   122385441.61908  22862616.260    95188715.91807
  20993658.040   112183735.35608  20993662.160    87254033.49708
  21169409.240   113083191.59008  21169411.640    87953608.67208
  20467119.720   109523710.83708  20467119.840    85185118.96108
  21069847.420   112472416.80409  21069850.200    87478606.57908
 15 03 04 00 41  0.0000000  0 13G16G18G19G21G22G27R01R02R03R15R16R17
                                R18
  20638153.440   108454248.38409  20638150.520    84509806.70748
  21634118.100   113688238.66709  21634115.280    88588302.99048
  23660964.900   124339226.74408  23660960.740    96887691.63146
  22465924.600   118059236.09908  22465921.200    91994200.78947
  21903419.800   115103389.67609  21903415.600    89691009.91348
  21699693.080   114032721.40609  21699692.560    88856691.96548
  22884575.200   122331190.97808  22884579.380    95146508.81605
  21186856.860   113057187.05909  21186860.000    87933409.91208
  22839994.140   122264363.09008  22839997.620    95094544.01007
  21011289.680   112277953.28008  21011293.780    87327314.06908
  21163407.240   113051130.28508  21163409.640    87928672.11008
  20472327.500   109551578.77008  20472327.720    85206794.00608
  21062335.780   112432319.62609  21062338.600    87447419.90708
 15 03 04 00 41 30.0000000  0 13G16G18G19G21G22G27R01R02R03R15R16R17
                                R18
  20632866.520   108426465.52909  20632863.620    84488157.73248
  21631881.540   113676485.15309  21631878.660    88579144.41148
  23646794.000   124264758.61908  23646790.120    96829664.59947
  22478143.460   118123446.50509  22478140.060    92044234.87647
  21889298.800   115029183.04209  21889294.520    89633186.60048
  21689538.760   113979360.09409  21689538.220    88815111.73248
  22895427.340   122389201.28207  22895431.560    95191627.95906
  21177645.500   113008033.91709  21177648.820    87895179.73608
  22817394.060   122143383.83908  22817397.400    95000449.33507
  21029017.820   112372686.86308  21029021.860    87400995.69508
  21157555.060   113019869.35908  21157557.500    87904358.04708
  20477560.100   109579578.95908  20477560.360    85228571.94508
  21054851.780   112392369.95609  21054854.640    87416347.96408
 15 03 04 00 42  0.0000000  0 13G16G18G19G21G22G27R01R02R03R15R16R17
                                R18
  20627675.180   108399184.92409  20627672.280    84466900.12448
  21629738.300   113665221.62309  21629735.280    88570367.66347
  23632634.380   124190350.38008  23632630.300    96771684.20246
  22490385.340   118187778.07108  22490381.920    92094363.36547
  21875239.980   114955303.31009  21875235.620    89575618.01548
  21679407.220   113926118.72309  21679406.720    88773624.96248
  22906404.320   122447879.72808  22906408.620    95237266.70106
  21168561.400   112959559.84309  21168564.800    87857477.68908
  22794812.640   122022503.97307  22794815.740    94906431.88607
  21046840.680   112467926.46008  21046844.700    87475070.88908
  21151852.120   112989405.51708  21151854.680    87880663.95908
  20482816.480   109607706.41508  20482816.700    85250448.84208
  21047394.500   112352562.69409  21047397.420    87385386.76208
 15 03 04 00 42 30.0000000  0 13G16G18G19G21G22G27R01R02R03R15R16R17
                                R18
  20622579.600   108372407.18909  20622576.620    84446034.35648
  21627688.140   113654447.88509  21627685.120    88561972.55547
  23618486.200   124116001.14508  23618482.280    96713749.74246
  22502649.720   118252228.01709  22502646.220    92144584.09247
  21861243.660   114881751.95509  21861239.220    89518305.31148
  21669298.440   113872996.89109  21669297.980    88732231.35048
  22917505.540   122507223.11108  22917509.700    95283422.66205
  21159605.140   112911767.20609  21159608.600    87820305.64608
  22772250.320   121901726.73108  22772253.140    94812494.30207
  21064757.140   112563666.41408  21064761.180    87549535.25408
  21146298.440   112959738.79808  21146301.140    87857589.82708
  20488096.300   109635959.98008  20488096.600    85272423.82108
  21039963.560   112312896.25109  21039966.520    87354535.11108
 15 03 04 00 43  0.0000000  0 13G16G18G19G21G22G27R01R02R03R15R16R17
                                R18
  20617581.780   108346143.01609  20617578.640    84425568.76748
  21625732.900   113644173.69709  21625729.920    88553966.70947
  23604350.800   124041720.46808  23604347.020    96655868.76246
  22514938.280   118316804.26609  22514934.640    92194903.25547
  21847312.040   114808540.32509  21847307.420    89461257.31448
  21659214.260   113820004.56409  21659213.860    88690938.64648
  22928732.580   122567238.25608  22928736.580    95330101.10304
  21150778.860   112864667.98909  21150782.240    87783672.95408
  22749709.660   121781066.28008  22749712.520    94718647.51607
  21082768.180   112659911.82308  21082772.340    87624392.75308
  21140896.080   112930880.00008  21140898.760    87835144.09108
  20493401.260   109664348.53508  20493401.760    85294503.79808
  21032560.720   112273379.68209  21032563.880    87323800.02508
 15 03 04 00 43 30.0000000  0 13G16G18G19G21G22G27R01R02R03R15R16R17
                                R18
  20612679.440   108320380.66409  20612676.180    84405494.20748
  21623870.260   113634386.14909  21623867.360    88546340.06848
  23590226.060   123967494.99108  23590222.360    96598030.77547
  22527248.080   118381491.89509  22527244.360    92245309.20147
  21833442.940   114735657.35209  21833438.160    89404465.41948
  21649152.260   113767128.75009  21649151.920    88649736.71648
  22940082.360   122627909.11508  22940086.480    95377289.55605
  21142080.420   112818251.66809  21142083.660    87747571.39208
  22727188.860   121660512.83407  22727191.800    94624883.96007
  21100870.560   112756645.27108  21100874.800    87699629.82708
  21135642.580   112902816.49808  21135644.960    87813316.90008
  20498728.920   109692858.15308  20498729.500    85316677.94908
  21025183.260   112233998.55809  21025186.420    87293170.28708
 15 03 04 00 44  0.0000000  0 13G16G18G19G21G22G27R01R02R03R15R16R17
                                R18
  20607874.400   108295129.81409  20607871.100    84385818.22648
  21622101.960   113625094.06409  21622099.100    88539099.50147
  23576113.540   123893333.30608  23576109.920    96540242.50846
  22539580.260   118446297.83608  22539576.540    92295807.34547
  21819638.540   114663114.39109  21819633.580    89347938.47348
  21639114.160   113714378.59909  21639113.920    88608632.73348
  22951556.000   122689241.80809  22951559.820    95424992.85505
  21133512.100   112772529.64109  21133515.260    87712009.85708
  22704690.500   121540079.36508  22704693.540    94531213.71207
  21119064.880   112853870.11208  21119069.220    87775249.10708
  21130539.640   112875557.61308  21130542.040    87792115.56308
  20504080.800   109721497.13608  20504081.360    85338952.72608
  21017832.700   112194761.03409  21017836.000    87262652.26408
 15 03 04 00 44 30.0000000  0 13G16G18G19G21G22G27R01R02R03R15R16R17
                                R18
  20603166.660   108270390.47309  20603163.400    84366540.81448
  21620427.760   113616296.62009  21620424.960    88532244.37647
  23562013.060   123819234.52608  23562009.500    96482503.23647
  22551934.280   118511219.08508  22551930.740    92346395.30547
  21805899.000   114590912.36409  21805893.880    89291677.19248
  21629099.860   113661753.36209  21629099.680    88567626.07848
  22963152.760   122751232.47108  22963156.580    95473207.76905
  21125074.080   112727503.17609  21125077.320    87676989.29908
  22682215.340   121419769.05308  22682218.200    94437639.22307
  21137350.060   112951580.53308  21137354.460    87851246.03808
  21125587.300   112849103.18408  21125589.600    87771539.87608
  20509456.500   109750263.80308  20509457.140    85361326.80308
  21010508.740   112155665.36309  21010512.100    87232244.51008
 15 03 04 00 45  0.0000000  0 13G16G18G19G21G22G27R01R02R03R15R16R17
                                R18
  20598556.200   108246162.43509  20598552.980    84347661.82049
  21618847.580   113607992.76009  21618844.800    88525773.84248
  23547924.180   123745197.08508  23547920.220    96424811.75947
  22564309.660   118576252.50808  22564306.220    92397070.68447
  21792224.360   114519051.69309  21792219.220    89235681.90348
  21619109.140   113609251.94509  21619108.940    88526715.89348
  22974871.840   122813876.54108  22974875.400    95521930.98104
  21116766.580   112683173.26409  21116769.880    87642510.49408
  22659763.640   121299584.47708  22659766.560    94344162.54807
  21155725.060   113049770.73708  21155729.460    87927616.14808
  21120785.460   112823452.30109  21120787.820    87751589.19008
  20514855.660   109779156.22208  20514856.420    85383798.68008
  21003210.980   112116709.13409  21003214.320    87201945.25208
 15 03 04 00 45 30.0000000  0 13G16G18G19G21G22G27R01R02R03R15R16R17
                                R18
  20594044.340   108222452.58409  20594041.180    84329186.61248
  21617362.420   113600187.83109  21617359.620    88519692.09047
  23533847.980   123671226.32008  23533844.120    96367172.23746
  22576707.120   118641402.27309  22576703.620    92447836.72246
  21778616.080   114447540.10309  21778611.020    89179958.62548
  21609143.180   113556880.35909  21609142.920    88485906.87948
  22986713.500   122877177.85106  22986717.100    95571165.27605
  21108591.160   112639548.15209  21108594.520    87608579.86808
  22637337.460   121179535.58308  22637340.140    94250791.36007
  21174189.980   113148441.73308  21174194.420    88004360.20308
  21116135.260   112798611.40208  21116137.540    87732268.46908
  20520279.260   109808179.38108  20520280.200    85406372.25008
  20995940.240   112077897.32309  20995943.420    87171758.28808
 15 03 04 00 46  0.0000000  0 13G16G18G19G21G22G27R01R02R03R15R16R17
                                R18
  20589630.440   108199257.43009  20589627.340    84311112.46648
  21615971.300   113592877.22309  21615968.420    88513995.52248
  23519783.540   123597317.81708  23519779.800    96309581.24646
  22589125.480   118706661.72108  22589122.000    92498688.24447
  21765073.740   114376375.47009  21765068.840    89124505.70548
  21599201.140   113504634.43609  21599200.780    88445195.78948
  22998676.380   122941128.31306                                
  21100547.420   112596625.73709  21100550.700    87575195.79508
  22614936.520   121059621.60307  22614939.240    94157525.12307
  21192742.900   113247583.05408  21192747.360    88081470.05508
  21111635.900   112774576.31808  21111638.240    87713574.49008
  20525726.440   109837328.28308  20525727.360    85429043.60308
  20988695.540   112039224.47909  20988698.700    87141679.43808
 15 03 04 00 46 30.0000000  0 13G16G18G19G21G22G27R01R02R03R15R16R17
                                R18
  20585315.660   108176583.01709  20585312.640    84293444.09848
  21614675.360   113586067.05209  21614672.520    88508688.90948
  23505731.780   123523476.58908  23505728.120    96252042.69346
  22601565.400   118772034.49908  22601561.980    92549628.05847
  21751598.700   114305564.76309  21751593.980    89069328.56548
  21589284.060   113452519.75009  21589283.640    88404586.95948
  23010761.360   123005730.36808  23010765.560    95671120.67605
  21092636.840   112554413.59309  21092640.220    87542364.16108
  22592562.580   120939852.28708  22592565.040    94064371.38507
  21211384.020   113347195.55308  21211388.460    88158946.38708
  21107288.480   112751352.93808  21107290.840    87695511.87808
  20531198.020   109866607.81508  20531198.960    85451816.59608
  20981477.820   112000695.35109  20981480.780    87111712.35708
 15 03 04 00 47  0.0000000  0 13G16G18G19G21G22G27R01R02R03R15R16R17
                                R18
  20581098.740   108154422.87909  20581095.740    84276176.45648
  21613473.140   113579749.48209  21613470.380    88503766.14248
  23491691.400   123449694.84008  23491687.960    96194550.44547
  22614025.220   118837511.02209  22614021.760    92600648.73447
  21738189.940   114235101.94409  21738185.360    89014422.50648
  21579390.480   113400528.67609  21579390.000    88364074.44248
  23022966.480   123070973.29908  23022970.480    95721865.22405
  21084858.340   112512905.96809  21084861.720    87510080.48308
  22570214.900   120820223.29607  22570217.200    93971326.79007
  21230111.120   113447267.26208  21230115.540    88236779.88708
  21103091.600   112728933.75308  21103093.920    87678074.71508
  20536692.380   109896008.86008  20536693.340    85474684.05908
  20974285.300   111962300.77709  20974288.020    87081849.92708
 15 03 04 00 47 30.0000000  0 13G16G18G19G21G22G27R01R02R03R15R16R17
                                R18
  20576980.420   108132780.95909  20576977.440    84259312.62448
  21612365.220   113573927.19509  21612362.340    88499229.30348
  23477663.040   123375975.39808  23477659.180    96137106.74247
  22626505.000   118903092.35109  22626501.400    92651751.05247
  21724848.500   114164992.25409  21724843.940    88959791.61548
  21569521.060   113348664.63109  21569520.560    88323660.89748
  23035291.520   123136857.22008  23035295.460    95773108.29806
  21077212.920   112472108.29109  21077216.120    87478348.97108
  22547894.660   120700741.94608  22547896.720    93878397.00507
  21248923.680   113547795.82208  21248928.160    88314968.70708
  21099045.760   112707321.84708  21099048.400    87661265.46808
  20542210.080   109925534.37408  20542210.900    85497648.36208
  20967118.440   111924043.23109  20967121.080    87052094.07308
 15 03 04 00 48  0.0000000  0 13G16G18G19G21G22G27R01R02R03R15R16R17
                                R18
  20572961.500   108111661.32309  20572958.520    84242855.75948
  21611352.160   113568603.61809  21611349.320    88495081.07648
  23463647.180   123302321.66908  23463643.600    96079714.28446
  22639005.040   118968780.35209  22639001.400    92702936.50547
  21711575.400   114095241.46409  21711570.800    88905440.37948
  21559676.540   113296931.52109  21559676.040    88283349.39548
  23047736.540   123203382.61607  23047740.600    95824850.18906
  21069701.560   112432026.28809  21069704.680    87447174.11308
  22525603.500   120581416.32307  22525605.400    93785588.35907
  21267821.520   113648779.82908  21267826.040    88393511.77108
  21095151.860   112686521.54608  21095154.420    87645087.43508
  20547751.460   109955187.05108  20547752.180    85520711.54108
  20959977.720   111885925.55609  20959980.200    87022447.00308
 15 03 04 00 48 30.0000000  0 13G16G18G19G21G22G27R01R02R03R15R16R17
                                R18
  20569042.100   108091064.48509  20569039.060    84226806.26948
  21610433.720   113563777.39609  21610430.980    88491320.39847
  23449643.660   123228732.52008  23449639.940    96022372.11246
  22651524.920   119034572.30609  22651521.240    92754202.96547
  21698370.700   114025850.09009  21698366.040    88851369.20048
  21549856.800   113245328.56809  21549856.300    88243139.31348
  23060300.680   123270545.56907  23060304.880    95877087.97806
  21062324.560   112392661.19509  21062327.760    87416556.87208
  22503341.800   120462248.87808  22503343.640    93692902.70807
  21286803.540   113750213.73208  21286808.100    88472404.74208
  21091409.700   112666531.92508  21091412.420    87629539.95608
  20553316.260   109984965.69008  20553317.000    85543872.70608
  20952862.800   111847945.78509  20952865.340    86992907.19508
 15 03 04 00 49  0.0000000  0 13G16G18G19G21G22G27R01R02R03R15R16R17
                                R18
  20565221.960   108070989.30109  20565218.900    84211163.27049
  21609609.680   113559446.89709  21609607.000    88487946.01048
  23435652.220   123155205.92408  23435648.280    95965078.65947
  22664063.800   119100464.14409  22664060.020    92805547.25447
  21685234.440   113956818.81409  21685229.800    88797578.64148
  21540061.560   113193854.20009  21540061.020    88203029.42948
  23072983.160   123338340.58708  23072987.400    95929817.42306
  21055082.000   112354013.27209  21055085.140    87386497.40408
  22481110.040   120343241.67908  22481112.060    93600341.73107
  21305868.400   113852090.28308  21305872.980    88551642.00808
  21087819.000   112647351.27508  21087821.660    87614621.66808
  20558904.020   110014867.54908  20558904.900    85567129.71008
  20945773.140   111810101.00809  20945775.740    86963472.40808
 15 03 04 00 49 30.0000000  0 13G16G18G19G21G22G27R01R02R03R15R16R17
                                R18
  20561502.480   108051443.46209  20561499.440    84195932.74948
  21608881.260   113555619.00109  21608878.560    88484963.24148
  23421673.800   123081748.66808  23421669.820    95907839.28547
  22676622.520   119166460.75508  22676618.660    92856973.19147
  21672168.300   113888156.07909  21672163.660    88744075.24648
  21530292.120   113142515.52009  21530291.620    88163025.28948
  23085784.700   123406771.82608  23085788.780    95983041.78505
  21047975.540   112316091.35709  21047978.560    87357002.57108
  22458910.480   120224406.24508  22458912.640    93507914.31407
  21325016.560   113954411.92708  21325021.160    88631225.44208
  21084381.140   112628986.60008  21084383.360    87600338.01808
  20564516.000   110044898.66308  20564516.940    85590487.24108
  20938709.940   111772397.55909  20938712.680    86934147.52008
 15 03 04 00 50  0.0000000  0 13G16G18G19G21G22G27R01R02R03R15R16R17
                                R18
  20557883.300   108032424.59509  20557880.240    84181112.85248
  21608247.800   113552290.35609  21608245.080    88482369.49847
  23407707.920   123008357.63108  23407704.100    95850651.51647
  22689200.100   119232557.46209  22689196.440    92908477.10447
  21659172.040   113819860.37709  21659167.400    88690857.84248
  21520548.000   113091309.88709  21520547.520    88123124.81048
  23098704.040   123475832.73608  23098707.880    96036755.86303
  21041004.980   112278894.38209  21041007.780    87328071.61508
  22436743.140   120105743.09208  22436745.260    93415620.90507
  21344246.260   114057169.51708  21344250.860    88711147.94108
  21081095.440   112611434.92709  21081098.160    87586686.73108
  20570151.480   110075055.69908  20570152.480    85613942.71708
  20931672.540   111734831.60009  20931675.240    86904929.55408
 15 03 04 00 50 30.0000000  0 13G16G18G19G21G22G27R01R02R03R15R16R17
                                R18
  20554364.060   108013930.94809  20554360.980    84166702.22048
  21607708.780   113549458.14909  21607706.040    88480162.60948
  23393754.140   122935029.74108  23393750.060    95793512.91247
  22701796.120   119298750.22209  22701792.600    92960055.88047
  21646245.520   113751931.22909  21646240.840    88637926.07248
  21510828.760   113040234.80009  21510828.280    88083326.06148
  23111740.080   123545517.33308  23111743.700    96090955.08205
  21034170.060   112242421.55509  21034172.740    87299703.92108
  22414608.280   119987253.48808  22414610.100    93323462.44307
  21363556.240   114160356.04808  21363560.860    88791404.06208
  21077961.460   112594693.53908  21077963.840    87573665.64708
  20575809.900   110105335.44908  20575810.940    85637493.63208
  20924660.200   111697399.33309  20924662.920    86875815.55808
 15 03 04 00 51  0.0000000  0 13G16G18G19G21G22G27R01R02R03R15R16R17
                                R18
  20550945.240   107995965.26709  20550942.180    84152702.99448
  21607264.540   113547123.62609  21607261.700    88478343.51248
  23379812.800   122861767.05008  23379808.480    95736425.11647
  22714410.380   119365038.82908  22714407.000    93011709.34947
  21633389.400   113684371.98309  21633384.680    88585282.54548
  21501134.780   112989292.41709  21501134.300    88043630.71948
  23124892.560   123615824.75108  23124895.900    96145638.75404
  21027471.440   112206676.62209  21027474.100    87271902.28108
  22392507.020   119868943.59508  22392508.660    93231443.77607
  21382945.940   114263968.42408  21382950.600    88871991.39907
  21074979.480   112578764.18209  21074981.700    87561276.14108
  20581491.360   110135738.71208  20581492.480    85661140.61208
  20917673.040   111660101.73709  20917675.780    86846806.32908
 15 03 04 00 51 30.0000000  0 13G16G18G19G21G22G27R01R02R03R15R16R17
                                R18
  20547628.280   107978534.90809  20547625.240    84139120.89048
  21606916.280   113545293.38909  21606913.300    88476917.37647
  23365884.940   122788575.78909  23365881.060    95679393.03147
  22727043.780   119431428.12308  22727040.560    93063441.23747
  21620605.340   113617191.44209  21620600.660    88532934.10548
  21491467.400   112938489.84309  21491466.920    88004044.31148
  23138162.100   123686758.41807  23138165.640    96200809.24905
  21020910.780   112171668.55309  21020913.520    87244673.82508
  22370441.280   119750824.15108  22370442.920    93139573.25007
  21402415.720   114368008.36808  21402420.300    88952911.29307
  21072150.840   112563653.91108  21072153.560    87549523.71208
  20587197.180   110166272.19208  20587198.380    85684888.86408
  20910712.280   111622944.95509  20910715.020    86817906.63408
 15 03 04 00 52  0.0000000  0 13G16G18G19G21G22G27R01R02R03R15R16R17
                                R18
  20544412.120   107961634.09109  20544409.080    84125951.42348
  21606662.800   113543961.12709  21606659.720    88475879.26847
  23351969.380   122715449.46908  23351965.160    95622411.47747
  22739694.720   119497909.61608  22739691.500    93115244.99447
  21607892.440   113550384.67809  21607887.800    88480876.91348
  21481825.420   112887820.76209  21481824.880    87964561.91948
  23151546.760   123758308.05406  23151550.580    96256458.98405
  21014487.240   112137392.20409  21014490.180    87218014.46308
  22348410.560   119632892.50408  22348412.140    93047848.76207
  21421963.280   114472463.80108  21421967.700    89034154.34107
  21069474.200   112549355.62308  21069476.580    87538402.84008
  20592926.100   110196928.50308  20592927.240    85708732.65508
  20903776.540   111585921.45809  20903779.260    86789110.60008
 15 03 04 00 52 30.0000000  0 13G16G18G19G21G22G27R01R02R03R15R16R17
                                R18
  20541297.560   107945266.97609  20541294.520    84113197.82848
  21606504.640   113543129.59209  21606501.480    88475231.32848
  23338066.820   122642391.26508  23338062.700    95565483.05147
  22752363.660   119564484.86708  22752360.300    93167121.82347
  21595251.720   113483957.29009  21595247.140    88429115.35248
  21472209.620   112837288.96109  21472208.980    87925186.51848
  23165046.740   123830474.17508  23165050.920    96312588.18105
  21008201.900   112103853.14809  21008205.060    87191928.53908
  22326416.320   119515156.26308  22326417.900    92956276.24507
  21441588.440   114577333.98708  21441592.760    89115719.97807
  21066950.260   112535872.95908  21066952.320    87527916.30908
  20598678.600   110227710.67209  20598679.580    85732674.33808
  20896866.280   111549034.01809  20896869.000    86760420.39208
 15 03 04 00 53  0.0000000  0 13G16G18G19G21G22G27R01R02R03R15R16R17
                                R18
  20538284.360   107929432.61309  20538281.360    84100859.36249
  21606441.380   113542796.76709  21606438.100    88474972.00147
  23324176.920   122569399.33708  23324172.880    95508606.28647
  22765049.660   119631150.80608  22765046.440    93219069.30047
  21582683.180   113417909.45609  21582678.700    88377649.54448
  21462619.680   112786893.05809  21462618.880    87885916.99448
  23178661.160   123903251.41308  23178665.540    96369192.65405
  21002054.820   112071051.25309  21002057.940    87166415.98108
  22304458.900   119397617.56708  22304460.460    92864857.38607
  21461289.840   114682612.07908  21461294.220    89197602.87607
  21064578.580   112523203.80608  21064580.820    87518062.52608
  20604454.140   110258616.18808  20604454.980    85756711.97708
  20889980.980   111512279.95009  20889983.780    86731833.91308
 15 03 04 00 53 30.0000000  0 13G16G18G19G21G22G27R01R02R03R15R16R17
                                R18
  20535373.360   107914135.31009  20535370.360    84088939.39048
  21606473.700   113542966.23909  21606470.300    88475104.06548
  23310300.360   122496477.48508  23310296.200    95451784.07646
  22777753.240   119697909.15008  22777750.200    93271088.77347
  21570187.900   113352246.61309  21570183.460    88326483.72148
  21453056.340   112736637.18609  21453055.420    87846756.58648
  23192390.160   123976640.51108  23192394.540    96426273.11305
  20996047.020   112038992.14509  20996050.020    87141481.15008
  22282539.920   119280284.75008  22282541.460    92773598.65107
  21481067.100   114788295.77608  21481071.600    89279801.24308
  21062359.820   112511351.82008  21062362.160    87508844.32908
  20610253.480   110289648.84708  20610254.120    85780848.48708
  20883121.280   111475662.38209  20883124.060    86703353.59508
 15 03 04 00 54  0.0000000  0 13G16G18G19G21G22G27R01R02R03R15R16R17
                                R18
  20532564.680   107899375.37409  20532561.640    84077438.13948
  21606601.260   113543636.42909  21606597.820    88475626.30247
  23296436.840   122423624.80009  23296432.960    95395015.80547
  22790473.980   119764757.40008  22790471.000    93323178.30847
  21557766.040   113286969.69009  21557761.640    88275618.61048
  21443519.540   112686520.92709  21443518.540    87807704.97048
  23206232.880   124050637.00808  23206237.060    96483825.98404
  20990178.640   112007676.81609  20990181.500    87117124.80408
  22260660.060   119163160.91408  22260661.500    92682502.45107
  21500919.240   114894379.66808  21500923.820    89362310.85207
  21060293.800   112500315.89708  21060296.200    87500260.82108
  20616076.160   110320806.82309  20616076.660    85805082.44908
  20876286.860   111439179.70909  20876289.560    86674978.21408
 15 03 04 00 54 30.0000000  0 13G16G18G19G21G22G27R01R02R03R15R16R17
                                R18
  20529857.860   107885150.41009  20529854.720    84066353.75048
  21606823.540   113544805.02309  21606820.140    88476536.91347
  23282586.000   122350838.58308  23282582.020    95338299.30246
  22803211.020   119831690.95808  22803208.040    93375334.32147
  21545417.440   113222077.47709  21545412.940    88225053.27448
  21434008.780   112636541.73509  21434007.800    87768760.16348
  23220188.160   124125234.94808  23220192.060    96541846.65805
  20984449.420   111977103.92309  20984452.160    87093345.90408
  22238819.440   119046247.04508  22238820.840    92591569.54207
  21520844.780   115000855.43108  21520849.380    89445125.26407
  21058380.000   112490092.90808  21058382.540    87492309.58408
  20621921.640   110352086.93109  20621922.060    85829411.43308
  20869477.040   111402828.27509  20869479.700    86646704.89708
 15 03 04 00 55  0.0000000  0 13G16G18G19G21G22G27R01R02R03R15R16R17
                                R18
  20527253.400   107871463.42909  20527250.160    84055688.56948
  21607140.880   113546473.83809  21607137.720    88477837.31147
  23268748.260   122278120.99208  23268744.440    95281636.24847
  22815964.480   119898710.61108  22815961.380    93427557.43747
  21533142.900   113157574.45209  21533138.260    88174791.21848
  21424524.640   112586702.52909  21424523.740    87729924.43548
  23234255.660   124200433.33008  23234259.400    96600334.30705
  20978860.080   111947277.70209  20978862.720    87070147.75208
  22217019.380   118929549.85808  22217020.820    92500805.18607
  21540843.360   115107721.34708  21540847.980    89528243.12307
  21056618.740   112480684.80808  21056621.220    87484992.18208
  20627790.340   110383491.34308  20627790.740    85853837.09508
  20862692.120   111366609.86909  20862694.780    86618535.02708
 15 03 04 00 55 30.0000000  0 13G16G18G19G21G22G27R01R02R03R15R16R17
                                R18
  20524751.620   107858316.20509  20524748.360    84045443.97748
  21607553.520   113548643.01709  21607550.560    88479527.59247
  23254923.740   122205472.58408  23254919.840    95225027.13746
  22828734.120   119965815.39408  22828730.980    93479846.85446
  21520942.900   113093463.11209  21520938.180    88124834.35248
  21415067.380   112537004.56809  21415066.560    87691198.75348
  23248434.900   124276229.31508  23248438.680    96659286.71306
  20973411.060   111918200.69209  20973413.620    87047532.33408
  22195260.800   118813074.69508  22195262.280    92410213.49007
  21560914.220   115214973.77908  21560918.880    89611661.59307
  21055010.140   112472092.24908  21055012.560    87478309.07808
  20633682.300   110415020.37409  20633682.780    85878359.65808
  20855932.100   111330524.59109  20855934.740    86590468.72308
 15 03 04 00 56  0.0000000  0 13G16G18G19G21G22G27R01R02R03R15R16R17
                                R18
  20522352.760   107845709.97109  20522349.520    84035620.93448
  21608061.520   113551312.69609  21608058.620    88481607.88247
  23241112.560   122132894.12008  23241108.380    95168472.47947
  22841519.720   120033004.09608  22841516.620    93532201.68347
  21508817.920   113029745.89109  21508813.180    88075184.59648
  21405637.180   112487448.69809  21405636.400    87652583.80648
  23262725.460   124352620.18708  23262729.220    96718701.86305
  20968102.760   111889875.07409  20968105.400    87025501.31608
  22173544.400   118696825.56908  22173545.820    92319797.60707
  21581056.380   115322607.05508  21581061.080    89695376.28607
  21053554.260   112464315.26708  21053556.760    87472260.30808
  20639597.440   110446673.96208  20639598.080    85902979.11308
  20849197.000   111294572.23109  20849199.640    86562505.81408
 15 03 04 00 56 30.0000000  0 13G16G18G19G21G22G27R01R02R03R15R16R17
                                R18
  20520056.840   107833644.92809  20520053.640    84026219.59949
  21608664.780   113554482.71209  21608661.900    88484078.03748
  23227314.620   122060385.33708  23227310.520    95111972.18946
  22854321.040   120100274.95408  22854317.880    93584620.53747
  21496768.260   112966424.21409  21496763.460    88025843.04348
  21396234.060   112438035.19009  21396233.320    87614079.79048
  23277126.540   124429602.34408  23277130.360    96778576.86706
  20962935.440   111862301.93409  20962938.020    87004055.57008
  22151871.040   118580806.82008  22151872.400    92229560.92107
  21601269.020   115430616.96208  21601273.680    89779383.91207
  21052250.860   112457353.10608  21052253.460    87466845.28408
  20645535.820   110478451.73508  20645536.480    85927695.16108
  20842486.620   111258751.77209  20842489.160    86534645.45908
 15 03 04 00 57  0.0000000  0 13G16G18G19G21G22G27R01R02R03R15R16R17
                                R18
  20517864.080   107822122.22209  20517860.940    84017240.86549
  21609363.260   113558153.06509  21609360.360    88486938.05848
  23213529.960   121987946.62808  23213525.740    95055526.50547
  22867137.680   120167626.39708  22867134.360    93637102.15447
  21484794.320   112903500.45009  21484789.420    87976811.56448
  21386858.240   112388764.96009  21386857.480    87575687.41149
  23291637.700   124507172.81308  23291641.620    96838909.38605
  20957909.500   111835483.22509  20957912.100    86983196.58008
  22130241.660   118465022.98008  22130242.760    92139506.91307
  21621551.140   115538998.17108  21621555.700    89863680.32707
  21051100.040   112451205.87308  21051102.640    87462064.09008
  20651497.380   110510353.44809  20651498.040    85952507.59608
  20835800.920   111223063.20109  20835803.480    86506887.69808
 15 03 04 00 57 30.0000000  0 13G16G18G19G21G22G27R01R02R03R15R16R17
                                R18
  20515774.960   107811144.03009  20515771.820    84008686.42349
  21610157.100   113562324.64609  21610154.140    88490188.64548
  23199759.020   121915579.84508  23199754.680    94999136.81647
  22879969.840   120235058.89409  22879966.320    93689646.95347
  21472896.680   112840977.97009  21472891.740    87928092.77748
  21377510.060   112339640.12609  21377509.300    87537408.33748
  23306258.460   124585329.70006  23306262.500    96899698.07803
  20953025.520   111809422.35109  20953028.420    86962927.02608
  22108657.220   118349479.87708  22108658.260    92049640.15107
  21641902.000   115647747.06608  21641906.560    89948262.70907
  21050102.040   112445874.70408  21050104.960    87457917.60208
  20657482.480   110542380.88108  20657483.260    85977417.81108
  20829140.100   111187507.49209  20829142.640    86479233.26408
 15 03 04 00 58  0.0000000  0 13G16G18G19G21G22G27R01R02R03R15R16R17
                                R18
  20513789.580   107800710.70309  20513786.400    84000556.56148
  21611046.320   113566997.27709  21611043.300    88493829.68047
  23186001.680   121843284.70308  23185997.320    94942803.00147
  22892817.060   120302570.62308  22892813.420    93742253.50446
  21461075.600   112778858.22209  21461070.780    87879687.80348
  21368189.640   112290661.08109  21368188.900    87499242.85948
  23320988.260   124664069.56707  23320992.440    96960940.28404
  20948283.900   111784120.74009  20948287.060    86943248.04508
  22087118.540   118234181.59608  22087119.520    91959963.81007
  21662320.820   115756859.03808  21662325.380    90033127.49407
  21049256.720   112441358.81708  21049259.780    87454405.27508
  20663490.920   110574533.13208  20663491.860    86002425.11708
  20822504.060   111152083.88409  20822506.580    86451681.59408
 15 03 04 00 58 30.0000000  0 13G16G18G19G21G22G27R01R02R03R15R16R17
                                R18
  20511908.340   107790824.68109  20511905.180    83992853.16749
  21612031.000   113572171.68209  21612027.880    88497861.69847
  23172258.220   121771062.85408  23172253.660    94886526.24547
  22905679.160   120370161.14708  22905675.680    93794921.42847
  21449331.820   112717144.81409  21449327.160    87831599.47048
  21358897.280   112241829.61709  21358896.640    87461192.38649
  23335826.620   124743390.37506  23335831.040    97022634.13103
  20943685.120   111759580.96609  20943688.220    86924161.56408
  22065626.540   118119133.65508  22065627.360    91870482.15507
  21682806.920   115866330.23308  21682811.540    90118271.67307
  21048564.240   112437658.96008  21048567.000    87451527.58308
  20669522.860   110606811.35208  20669523.920    86027530.40408
  20815892.920   111116793.16409  20815895.520    86424233.26908
 15 03 04 00 59  0.0000000  0 13G16G18G19G21G22G27R01R02R03R15R16R17
                                R18
  20510130.880   107781483.94509  20510127.740    83985574.67149
  21613110.680   113577845.08909  21613107.360    88502282.54147
  23158528.180   121698911.53209  23158523.720    94830304.51446
  22918555.500   120437826.66808  22918552.140    93847647.79746
  21437665.340   112655837.09209  21437660.720    87783827.24848
  21349632.660   112193143.95809  21349632.100    87423255.52548
  23350772.640   124823285.62808  23350777.000    97084775.03803
  20939229.080   111735802.14409  20939231.960    86905666.95208
  22044181.600   118004337.98808  22044182.480    91781196.73007
  21703358.800   115976152.77808  21703363.420    90203689.11007
  21048023.940   112434772.01308  21048026.640    87449282.19108
  20675577.860   110639212.97908  20675578.940    86052731.67508
  20809306.100   111081632.22109  20809308.740    86396885.88508
 15 03 04 00 59 30.0000000  0 13G16G18G19G21G22G27R01R02R03R15R16R17
                                R18
  20508457.580   107772690.66509  20508454.500    83978722.75749
  21614285.520   113584018.73609  21614282.060    88507093.18847
  23144811.940   121626832.58508  23144807.520    94774139.13447
  22931445.980   120505566.54008  22931442.500    93900432.10547
  21426076.720   112594938.13909  21426072.020    87736373.53948
  21340396.140   112144606.09109  21340395.640    87385433.81249
  23365825.920   124903753.68708  23365829.920    97147361.35104
  20934916.160   111712787.07009  20934918.920    86887766.35108
  22022784.860   117889800.22008  22022785.860    91692111.86607
  21723975.980   116086324.38408  21723980.660    90289378.03407
  21047635.960   112432699.06108  21047638.460    87447669.89408
  20681656.220   110671739.26809  20681657.260    86078029.88508
  20802743.760   111046602.12709  20802746.540    86369640.28808
 15 03 04 01 00  0.0000000  0 13G16G18G19G21G22G27R01R02R03R15R16R17
                                R18
  20506888.440   107764444.54009  20506885.300    83972297.19449
  21615555.240   113590691.29609  21615551.840    88512292.58848
  23131109.480   121554825.31208  23131104.900    94718029.58046
  22944350.180   120573378.91308  22944346.680    93953272.89746
  21414566.060   112534448.87909  21414561.260    87689239.07748
  21331187.680   112096215.76909  21331187.280    87347727.07448
  23380985.620   124984790.39108  23380989.500    97210389.88705
  20930746.460   111690536.45309  20930749.160    86870460.35108
  22001436.940   117775523.68608  22001438.160    91603230.22007
  21744657.260   116196838.40608  21744662.060    90375333.28707
  21047399.940   112431438.35608  21047402.100    87446689.33808
  20687757.640   110704388.84508  20687758.620    86103424.01008
  20796205.700   111011701.41209  20796208.400    86342495.28308
 15 03 04 01 00 30.0000000  0 13G16G18G19G21G22G27R01R02R03R15R16R17
                                R18
  20505424.740   107756752.29209  20505421.500    83966303.24549
  21616920.920   113597868.23209  21616917.600    88517885.02448
  23117421.740   121482895.98709  23117417.440    94661980.81147
  22957269.140   120641268.53208  22957265.600    94006173.90747
  21403134.760   112474376.81609  21403129.900    87642429.70848
  21322008.600   112047979.78809  21322008.260    87310140.62249
  23396252.180   125066398.08308  23396255.920    97273862.57905
  20926721.420   111669057.86009  20926724.020    86853754.77708
  21980139.860   117661519.24008  21980141.240    91514560.18207
  21765403.000   116307696.60608  21765407.800    90461556.22807
  21047317.020   112430995.51208  21047319.200    87446344.89908
  20693883.200   110737167.99409  20693884.200    86128918.89508
  20789693.000   110976935.88909  20789695.600    86315455.47308
 15 03 04 01 01  0.0000000  0 13G16G18G19G21G22G27R01R02R03R15R16R17
                                R18
  20504064.840   107749605.71709  20504061.520    83960734.48448
  21618380.860   113605540.52609  21618377.600    88523863.44548
  23103747.320   121411036.05908  23103743.140    94605986.04847
  22970200.900   120709225.19509  22970197.300    94059127.12846
  21391781.660   112414715.77009  21391776.780    87595940.60848
  21312857.380   111999889.90709  21312857.020    87272668.00048
  23411623.220   125148564.39808  23411626.900    97337769.74005
  20922839.660   111648343.51609  20922842.120    86837643.66208
  21958892.620   117547781.76908  21958894.080    91426097.77007
  21786210.480   116418884.74608  21786215.300    90548035.77707
  21047385.360   112431360.95908  21047387.540    87446629.12108
  20700031.140   110770067.37208  20700032.220    86154507.28908
  20783203.800   110942296.05309  20783206.300    86288513.37708
 15 03 04 01 01 30.0000000  0 13G16G18G19G21G22G27R01R02R03R15R16R17
                                R18
  20502810.140   107743011.94309  20502806.760    83955596.48248
  21619936.320   113613714.46609  21619933.120    88530232.78947
  23090087.300   121339252.04108  23090082.880    94550050.47247
  22983146.340   120777253.64409  22983142.660    94112136.32046
  21380508.260   112355473.64009  21380503.360    87549777.94848
  21303735.360   111951953.37909  21303734.940    87235314.87848
  23427099.340   125231292.92308  23427103.040    97402114.13205
  20919102.540   111628401.47509  20919104.980    86822133.20008
  21937697.340   117434322.45908  21937698.920    91337851.73508
  21807079.860   116530403.87808  21807084.740    90634772.79207
  21047606.000   112432540.39508  21047608.340    87447546.45508
  20706202.740   110803093.43009  20706203.940    86180194.20908
  20776739.260   110907788.08609  20776741.780    86261673.86608
 15 03 04 01 02  0.0000000  0 13G16G18G19G21G22G27R01R02R03R15R16R17
                                R18
  20501660.300   107736969.65909  20501656.900    83950888.20648
  21621586.640   113622387.38209  21621583.580    88536990.90548
  23076441.340   121267542.16309  23076437.100    94494172.71947
  22996104.720   120845350.31708  22996101.060    94165198.66247
  21369314.580   112296650.33109  21369309.560    87503941.63248
  21294642.240   111904168.81109  21294641.780    87198080.16249
  23442679.440   125314577.63408  23442683.160    97466891.18305
  20915509.840   111609230.94209  20915512.460    86807222.77908
  21916554.420   117321143.56108  21916555.980    91249823.77007
  21828010.200   116642249.01208  21828015.220    90721763.32707
  21047978.500   112434531.05208  21047981.180    87449094.73008
  20712397.780   110836244.43208  20712399.060    86205978.31108
  20770298.960   110873409.55709  20770301.440    86234935.02208
 15 03 04 01 02 30.0000000  0 13G16G18G19G21G22G27R01R02R03R15R16R17
                                R18
  20500615.780   107731481.08409  20500612.420    83946611.39748
  21623332.200   113631560.66409  21623329.200    88544138.93648
  23062809.860   121195908.69109  23062805.480    94438354.44947
  23009076.160   120913515.60308  23009072.520    94218314.45947
  21358201.240   112238249.48009  21358196.160    87458434.49848
  21285578.520   111856538.76209  21285578.040    87160965.85848
  23458363.280   125398416.94807  23458367.040    97532099.58605
  20912062.300   111590834.87009  20912064.940    86792914.74408
  21895465.260   117208251.54508  21895466.580    91162018.94607
  21849000.820   116754416.31008  21849005.920    90809004.44107
  21048503.060   112437333.73608  21048505.720    87451274.57108
  20718616.580   110869521.89309  20718617.680    86231860.77708
  20763883.160   110839161.90409  20763885.700    86208297.97308
 15 03 04 01 03  0.0000000  0 13G16G18G19G21G22G27R01R02R03R15R16R17
                                R18
  20499676.500   107726545.63609  20499673.160    83942765.58348
  21625172.720   113641232.85109  21625169.800    88551675.70748
  23049192.800   121124350.75008  23049188.320    94382595.03347
  23022060.240   120981747.35608  23022056.620    94271482.04746
  21347168.300   112180271.58509  21347163.260    87413256.95248
  21276544.100   111809062.70909  21276543.600    87123971.53348
  23474150.000   125482806.54307  23474153.860    97597735.86505
  20908760.040   111573213.45209  20908762.620    86779209.22208
  21874430.300   117095649.40908  21874431.520    91074439.58007
  21870050.340   116866898.30408  21870055.500    90896490.33007
  21049179.420   112440946.80208  21049182.360    87454084.72108
  20724858.780   110902924.32009  20724859.540    86257840.45508
  20757491.580   110805043.65909  20757494.280    86181761.58108
 15 03 04 01 03 30.0000000  0 13G16G18G19G21G22G27R01R02R03R15R16R17
                                R18
  20498842.740   107722164.65509  20498839.480    83939351.83249
  21627108.220   113651403.86409  21627105.220    88559601.19047
  23035590.160   121052868.92009  23035585.800    94326894.97547
  23035056.760   121050044.64608  23035053.060    94324700.71046
  21336216.320   112122719.06209  21336211.320    87368410.85948
  21267539.220   111761742.17109  21267538.760    87087098.40348
  23490038.980   125567743.11007  23490042.980    97663797.63805
  20905603.280   111556368.75209  20905605.940    86766107.79908
  21853450.460   116983342.12108  21853451.440    90987089.51607
  21891158.360   116979692.78908  21891163.480    90984219.25107
  21050007.520   112445369.92608  21050010.380    87457524.91608
  20731124.420   110936452.61108  20731124.900    86283918.01208
  20751124.340   110771054.99809  20751127.120    86155325.98108
 15 03 04 01 04  0.0000000  0 14G04G16G18G19G21G22G27R01R02R03R15R16
                                R17R18
  24576295.160   129149316.25506  24576302.580   100635834.16944
  20498114.640   107718338.65009  20498111.420    83936370.53149
  21629138.560   113662073.18109  21629135.480    88567914.95448
  23022002.160   120981463.52708  23021997.720    94271254.41947
  23048065.380   121118406.08308  23048061.740    94377969.34446
  21325345.660   112065593.55009  21325340.740    87323897.49448
  21258564.080   111714577.85409  21258563.680    87050346.99648
  23506029.600   125653223.22906  23506033.860    97730282.15605
  20902592.280   111540301.56509  20902595.140    86753611.11008
  21832526.440   116871333.93108  21832527.260    90899972.12007
  21912323.780   117092793.67608  21912328.800    91072186.49307
  21050986.980   112450601.91008  21050989.660    87461594.23108
  20737413.500   110970106.61708  20737413.900    86310093.33208
  20744781.280   110737195.58509  20744784.120    86128990.87208
 15 03 04 01 04 30.0000000  0 14G04G16G18G19G21G22G27R01R02R03R15R16
                                R17R18
  24558048.720   129053424.82908  24558055.780   100561114.48345
  20497499.520   107715106.27009  20497496.380    83933851.78748
  21631271.000   113673278.92709  21631267.880    88576646.70648
  23008435.980   120910173.18508  23008431.560    94215703.55547
  23061093.320   121186868.59008  23061089.680    94431316.76946
  21314563.940   112008935.54509  21314559.100    87279748.42548
  21249626.060   111667608.62309  21249625.700    87013747.60348
  23522128.520   125739282.28607  23522133.040    97797216.93904
  20899734.560   111525051.89809  20899737.320    86741750.28508
  21811666.340   116759668.45008  21811667.200    90813121.26407
  21933552.800   117206234.46708  21933557.740    91160418.10607
  21052125.040   112456680.73908  21052127.840    87466322.18808
  20743733.340   111003925.12208  20743733.760    86336396.60108
  20738469.660   110703503.85209  20738472.540    86102786.21908
 15 03 04 01 05  0.0000000  0 14G04G16G18G19G21G22G27R01R02R03R15R16
                                R17R18
  24539820.460   128957637.08608  24539826.800   100486475.82745
  20496981.860   107712385.56209  20496978.700    83931731.75549
  21633489.620   113684937.81709  21633486.440    88585731.57648
  22994876.060   120838915.57908  22994871.800    94160178.14547
  23074124.540   121255348.17708  23074121.060    94484677.49347
  21303855.660   111952663.88909  21303850.900    87235900.40848
  21240709.660   111620752.74309  21240709.280    86977236.53848
  23538319.480   125825832.64208  23538324.060    97864533.90904
  20897014.620   111510537.32009  20897017.200    86730461.16308
  21790855.280   116648265.84008  21790856.160    90726474.85808
  21954829.140   117319928.14208  21954834.040    91248846.39707
  21053405.760   112463521.44008  21053408.380    87471642.71908
  20750068.100   111037824.08508  20750068.560    86362762.45308
  20732173.700   110669895.80609  20732176.640    86076646.62808
 15 03 04 01 05 30.0000000  0 14G04G16G18G19G21G22G27R01R02R03R15R16
                                R17R18
  24521621.460   128862004.47907  24521628.540   100411958.01445
  20496571.460   107710228.25709  20496568.180    83930050.73048
  21635804.160   113697100.94109  21635801.060    88595209.35547
  22981332.280   120767742.51909  22981327.980    94104718.67547
  23087168.500   121323895.11708  23087165.220    94538090.66346
  21293231.080   111896831.99109  21293226.380    87192395.05848
  21231824.780   111574062.44909  21231824.400    86940854.50148
  23554611.560   125912922.99508  23554616.100    97932270.89804
  20894442.380   111496810.70109  20894444.820    86719784.94708
  21770104.000   116537183.00408  21770104.880    90640077.16607
  21976161.440   117433920.94308  21976166.340    91337507.34407
  21054838.700   112471175.32608  21054841.080    87477595.72708
  20756427.640   111071855.80608  20756428.160    86389231.56708
  20725903.080   110636423.10209  20725906.080    86050612.32908
 15 03 04 01 06  0.0000000  0 14G04G16G18G19G21G22G27R01R02R03R15R16
                                R17R18
  24503451.040   128766520.00408  24503457.360   100337555.44444
  20496266.760   107708626.52009  20496263.380    83928802.61349
  21638212.960   113709759.25209  21638209.860    88605072.97848
  22967803.000   120696646.05108  22967798.960    94049318.87547
  23100223.340   121392499.29808  23100220.160    94591548.44946
  21282688.920   111841433.14909  21282684.260    87149227.14848
  21222970.000   111527530.18509  21222969.560    86904595.59249
  23571002.460   126000541.59408  23571006.840    98000418.73004
  20892016.380   111483864.60109  20892018.620    86709715.77708
  21749411.620   116426415.52408  21749412.480    90553924.72907
  21997547.200   117548199.03308  21997552.080    91426390.17407
  21056422.020   112479632.69908  21056424.420    87484173.67908
  20762810.500   111106012.05809  20762811.080    86415797.53208
  20719656.200   110603077.15209  20719659.160    86024676.59508
 15 03 04 01 06 30.0000000  0 14G04G16G18G19G21G22G27R01R02R03R15R16
                                R17R18
  24485309.780   128671190.82808  24485316.140   100263274.44845
  20496069.060   107707587.49109  20496065.660    83927992.98049
  21640717.040   113722918.47509  21640713.960    88615326.93147
  22954289.600   120625632.80208  22954285.440    93993983.89747
  23113290.280   121461166.17908  23113286.980    94645055.12046
  21272230.800   111786475.65209  21272226.140    87106403.15048
  21214146.700   111481163.22309  21214146.200    86868465.52448
  23587492.700   126088691.25408  23587496.940    98068979.63104
  20889737.900   111471706.72409  20889740.220    86700259.67708
  21728780.240   116315974.58908  21728781.180    90468026.28607
  22018987.000   117662765.88608  22018991.860    91515497.59707
  21058156.740   112488898.94108  21058159.200    87491380.76108
  20769217.900   111140299.36008  20769218.620    86442465.43808
  20713434.260   110569864.28409  20713437.200    85998844.39108
 15 03 04 01 07  0.0000000  0 15G04G16G18G19G21G22G27R01R02R03R09R15
                                R16R17R18
  24467196.860   128576012.53508  24467203.260   100189110.96945
  20495977.640   107707106.90509  20495974.220    83927618.48749
  21643315.500   113736573.63009  21643312.440    88625967.31148
  22940791.220   120554698.39908  22940786.960    93938710.38547
  23126368.080   121529889.80108  23126364.640    94698605.98746
  21261856.020   111731956.05709  21261851.400    87063920.37848
  21205354.100   111434957.53009  21205353.540    86832461.09448
  23604080.720   126177363.34007  23604084.700    98137946.84103
  20887606.340   111460333.00809  20887608.760    86691413.47408
  21708209.760   116205859.73108  21708210.760    90382381.47208
  23511367.580   125549390.52705                                
  22040478.620   117777610.00708  22040483.500    91604820.65707
  21060041.720   112498968.17708  21060044.100    87499212.38208
  20775648.880   111174712.76108  20775649.580    86469231.41008
  20707236.240   110536779.12309  20707239.180    85973111.48608
 15 03 04 01 07 30.0000000  0 15G04G16G18G19G21G22G27R01R02R03R09R15
                                R16R17R18
  24449113.240   128480988.76008  24449119.480   100115067.75345
  20495993.100   107707188.05909  20495989.620    83927681.72849
  21646008.720   113750727.03009  21646005.720    88636995.95748
  22927308.560   120483846.62409  22927304.360    93883501.24547
  23139456.960   121598671.98308  23139453.600    94752202.47346
  21251565.560   111677879.46609  21251560.980    87021782.80348
  21196592.960   111388917.15809  21196592.380    86796585.48649
  23620766.320   126266557.23407  23620770.180    98207319.87603
  20885622.520   111449747.64409  20885625.020    86683180.42208
  21687701.620   116096078.64608  21687702.700    90296996.23208
  23495935.880   125466987.02306                                
  22062021.980   117892731.10008  22062027.000    91694359.14407
  21062077.320   112509842.15508  21062079.840    87507669.91508
  20782104.000   111209255.38208  20782104.780    86496097.87108
  20701062.780   110503824.86009  20701065.700    85947480.41308
 15 03 04 01 08  0.0000000  0 15G04G16G18G19G21G22G27R01R02R03R09R15
                                R16R17R18
  24431057.920   128386112.93408  24431064.300   100041139.75445
  20496114.160   107707824.07309  20496110.640    83928177.32648
  21648795.240   113765370.90909  21648792.400    88648406.78247
  22913840.240   120413070.18809  22913836.120    93828350.81247
  23152555.360   121667504.02708  23152551.920    94805837.81846
  21241358.420   111624240.61809  21241353.860    86979986.33548
  21187862.000   111343035.46409  21187861.380    86760833.53348
  23637547.520   126356262.38206                                
  20883785.180   111439943.70009  20883787.720    86675555.15608
  21667255.260   115986628.17008  21667256.480    90211868.13808
  23480608.920   125385141.21507  23480610.180                  
  22083614.680   118008115.66708  22083619.760    91784102.56707
  21064261.940   112521512.20608  21064264.580    87516746.60008
  20788581.880   111243919.78108  20788582.700    86523059.07208
  20694912.440   110470993.73509  20694915.340    85921945.10608
 15 03 04 01 08 30.0000000  0 15G04G16G18G19G21G22G27R01R02R03R09R15
                                R16R17R18
  24413032.700   128291395.27608  24413038.700    99967334.85345
  20496342.680   107709024.78309  20496339.180    83929112.93349
  21651676.700   113780513.99009  21651673.980    88660206.59247
  22900388.100   120342378.94908  22900383.860    93773266.76447
  23165664.800   121736394.01808  23165661.080    94859518.33546
  21231236.600   111571049.85009  21231232.020    86938539.00848
  21179163.160   111297322.87009  21179162.600    86725213.34048
  23654425.480   126446484.52605                                
  20882096.360   111430931.96309  20882099.040    86668546.03908
  21646873.280   115877522.09308  21646874.520    90127007.91708
  23465388.740   125303865.74807  23465389.940                  
  22105257.840   118123769.93008  22105262.980    91874055.73507
  21066597.260   112533986.94108  21066599.840    87526449.15508
  20795084.360   111278715.88108  20795085.100    86550122.69708
  20688786.940   110438295.17009  20688789.720    85896512.90008
 15 03 04 01 09  0.0000000  0 14G04G16G18G19G21G22G27R02R03R09R15R16
                                R17R18
  24395036.960   128196831.71707  24395042.760    99893650.00945
  20496677.800   107710785.60609  20496674.320    83930484.99949
  21654652.180   113796150.77109  21654649.520    88672391.10548
  22886951.360   120271768.29309  22886947.040    93718245.50147
  23178783.940   121805335.87208  23178780.180    94913239.23746
  21221199.600   111518304.68909  21221194.980    86897438.90948
  21170495.700   111251775.38109  21170495.220    86689721.79848
  20880555.260   111422708.10009  20880557.840    86662149.71308
  21626555.580   115768760.42608  21626556.980    90042415.56908
  23450274.980   125223158.88608  23450276.220                  
  22126949.640   118239683.54408  22126954.780    91964210.62507
  21069081.940   112547259.78908  21069084.760    87536772.47908
  20801610.480   111313638.67408  20801611.240    86577284.85808
  20682685.360   110405724.16209  20682688.000    85871179.90908
 15 03 04 01 09 30.0000000  0 14G04G16G18G19G21G22G27R02R03R09R15R16
                                R17R18
  24377070.940   128102424.38708  24377076.420    99820086.82944
  20497119.820   107713108.45009  20497116.380    83932295.00849
  21657721.860   113812282.34209  21657719.120    88684961.17747
  22873530.300   120201240.27809  22873525.980    93663288.65147
  23191913.020   121874329.87408  23191909.380    94967000.77946
  21211247.940   111466008.26309  21211243.320    86856688.47848
  21161860.080   111206395.35609  21161859.700    86654360.74848
  20879162.280   111415274.49409  20879164.840    86656368.02708
  21606303.300   115660348.48008  21606304.820    89958095.22208
  23435268.500   125143025.12508  23435269.740                  
  22148689.400   118355853.39408  22148694.560    92054564.81107
  21071716.020   112561330.80608  21071718.780    87547716.58308
  20808160.600   111348689.96208  20808161.400    86604546.96908
  20676607.760   110373281.67509  20676610.480    85845946.87708
 15 03 04 01 10  0.0000000  0 14G04G16G18G19G21G22G27R02R03R09R15R16
                                R17R18
  24359134.900   128008174.52208  24359140.380    99746646.32345
  20497668.860   107715994.07409  20497665.520    83934543.53848
  21660885.580   113828908.07409  21660882.760    88697916.29647
  22860125.120   120130795.51408  22860120.720    93608396.64747
  23205052.000   121943375.33008  23205048.320    95020802.41746
  21201382.020   111414162.16209  21201377.320    86816288.93548
  21153256.560   111161183.95009  21153256.280    86619131.08748
  20877917.420   111408631.86909  20877920.040    86651201.56408
  21586117.300   115552291.36208  21586118.740    89874050.84508
  23420369.880   125063467.88608  23420371.300    97271589.59504
  22170476.120   118472274.14408  22170481.320    92145114.14007
  21074499.360   112576199.03709  21074501.960    87559280.75008
  20814734.900   111383870.33208  20814735.680    86631909.46008
  20670554.280   110340968.05409  20670557.100    85820814.06708
 15 03 04 01 10 30.0000000  0 14G04G16G18G19G21G22G27R02R03R09R15R16
                                R17R18
  24341228.320   127914079.53608  24341233.660    99673326.40345
  20498324.480   107719439.73509  20498321.200    83937228.46649
  21664142.780   113846024.16109  21664139.760    88711253.51747
  22846735.240   120060431.31108  22846730.840    93553567.44147
  23218200.000   122012467.73208  23218196.160    95074640.64846
  21191601.460   111362764.90409  21191596.800    86776239.14848
  21144684.700   111116138.77109  21144684.460    86584030.96249
  20876820.260   111402777.73109  20876823.040    86646648.35008
  21565997.740   115444590.10308  21565999.020    89790283.25508
  23405579.100   124984486.77907  23405580.740    97210159.84504
  22192308.460   118588939.19408  22192313.780    92235853.44707
  21077431.120   112591859.71908  21077433.500    87571461.25808
  20821332.700   111419176.31808  20821333.420    86659369.66808
  20664524.320   110308779.87109  20664527.280    85795778.81708
 15 03 04 01 11  0.0000000  0 14G04G16G18G19G21G22G27R02R03R09R15R16
                                R17R18
  24323352.460   127820145.68008  24323357.820    99600132.02544
  20499087.780   107723450.94609  20499084.480    83940354.08748
  21667494.280   113863635.51909  21667491.080    88724976.67747
  22833361.800   119990153.60709  22833357.480    93498805.64147
  23231357.700   122081611.34508  23231353.740    95128518.78246
  21181907.700   111311823.86909  21181903.040    86736544.85648
  21136145.760   111071266.31009  21136145.500    86549065.42948
  20875872.180   111397718.41309  20875874.980    86642713.36208
  21545946.540   115337254.98408  21545947.800    89706800.43908
  23390898.000   124906090.69006  23390899.720    97149185.11804
  22214186.360   118705848.12008  22214191.880    92326782.47007
  21080512.020   112608316.90908  21080514.320    87584261.29908
  20827955.140   111454613.68009  20827955.780    86686932.06608
  20658518.880   110276722.35709  20658521.900    85770845.20208
 15 03 04 01 11 30.0000000  0 14G04G16G18G19G21G22G27R02R03R09R15R16
                                R17R18
  24305506.580   127726367.85907  24305511.660    99527059.13345
  20499957.660   107728022.20709  20499954.340    83943916.10448
  21670938.780   113881735.76309  21670935.440    88739080.76647
  22820003.820   119919957.22909  22819999.360    93444107.17547
  23244523.720   122150799.07408  23244519.680    95182431.29446
  21172299.860   111261334.60809  21172295.140    86697202.59748
  21127638.760   111026561.71509  21127638.440    86514230.69248
  20875072.020   111393448.43809  20875074.800    86639392.28908
  21525963.480   115230284.45808  21525964.700    89623601.19308
  23376325.920   124828276.74007  23376327.740    97088663.18103
  22236108.020   118822990.57908  22236113.660    92417893.09007
  21083740.580   112625563.23108  21083742.920    87597675.09208
  20834601.140   111490176.84009  20834601.560    86714592.28308
  20652536.960   110244789.95509  20652539.860    85746008.90808
 15 03 04 01 12  0.0000000  0 14G04G16G18G19G21G22G27R02R03R09R15R16
                                R17R18
  24287691.860   127632753.08808  24287696.400    99454113.21845
  20500935.400   107733160.22809  20500932.080    83947919.75149
  21674477.300   113900330.20209  21674473.900    88753569.94347
  22806662.460   119849848.53708  22806657.980    93389477.06847
  23257699.020   122220036.02108  23257694.980    95236382.14946
  21162779.460   111211304.94709  21162774.640    86658218.46648
  21119165.060   110982032.15809  21119164.720    86479532.35648
  20874421.120   111389974.95809  20874423.880    86636690.70008
  21506050.520   115123689.09408  21506051.620    89540693.74408
  23361864.720   124751054.36707  23361866.480    97028601.28804
  22258073.840   118940369.06808  22258079.600    92509187.30707
  21087117.760   112643603.45608  21087120.080    87611706.36808
  20841271.840   111525872.22009  20841272.120    86742355.34008
  20646579.580   110212988.53009  20646582.400    85721274.47408
 15 03 04 01 12 30.0000000  0 14G04G16G18G19G21G22G27R02R03R09R15R16
                                R17R18
  24269907.960   127539301.26608  24269912.560    99381294.35645
  20502020.820   107738864.12809  20502017.500    83952364.35248
  21678109.500   113919417.37109  21678106.140    88768443.06847
  22793337.820   119779827.58908  22793333.580    93334915.31747
  23270883.240   122289320.55008  23270879.320    95290370.07045
  21153346.720   111161736.02609  21153341.860    86619593.35748
  21110724.640   110937677.70109  21110724.300    86444970.44448
  20873919.420   111387297.54009  20873922.060    86634608.26808
  21486208.460   115017472.62908  21486209.380    89458080.98808
  23347514.680   124674425.48707  23347516.360    96969001.03204
  22280082.520   119057976.48708  22280088.360    92600659.57407
  21090643.060   112662435.01608  21090645.320    87626353.11808
  20847966.960   111561698.95309  20847967.120    86770220.56908
  20640646.540   110181317.17009  20640649.140    85696641.20008
 15 03 04 01 13  0.0000000  0 14G04G16G18G19G21G22G27R02R03R09R15R16
                                R17R18
  24252154.340   127446008.15308  24252158.660    99308599.07345
  20503213.060   107745129.16809  20503209.680    83957246.19848
  21681834.300   113938991.65809  21681831.040    88783695.76547
  22780028.960   119709889.39909  22780024.800    93280418.07747
  23284075.340   122358646.18408  23284071.440    95344390.05646
  21144001.040   111112624.28509  21143996.180    86581324.49748
  21102316.780   110893494.23809  21102316.420    86410541.77949
  20873566.000   111385411.37009  20873568.440    86633141.25108
  21466437.000   114911634.26308  21466437.880    89375762.31708
  23333275.360   124598388.07807  23333277.000    96909860.88004
  22302132.460   119175804.38708  22302138.340    92692303.31707
  21094315.260   112682051.16908  21094317.540    87641610.10508
  20854685.700   111597652.58509  20854685.860    86798184.49008
  20634736.880   110149770.81909  20634739.400    85672105.17308
 15 03 04 01 13 30.0000000  0 14G04G16G18G19G21G22G27R02R03R09R15R16
                                R17R18
  24234432.120   127352879.71308  24234436.140    99236032.03445
  20504513.200   107751961.15009  20504509.740    83962569.82449
  21685652.640   113959057.60909  21685649.500    88799331.58647
  22766736.960   119640039.81709  22766732.800    93225989.84247
  23297276.160   122428017.04508  23297272.400    95398445.24246
  21134743.680   111063976.55909  21134738.840    86543417.19648
  21093942.680   110849488.09309  21093942.300    86376251.28449
  20873361.920   111384322.32809  20873364.100    86632294.25808
  21446737.920   114806184.01408  21446738.960    89293745.52508
  23319148.400   124522950.40007  23319150.060    96851187.10003
  22324223.600   119293851.98608  22324229.540    92784117.91907
  21098135.020   112702455.73508  21098137.460    87657480.30608
  20861429.060   111633738.33308  20861429.260    86826251.18708
  20628851.560   110118354.71209  20628854.020    85647670.41908
 15 03 04 01 14  0.0000000  0 14G04G16G18G19G21G22G27R02R03R09R15R16
                                R17R18
  24216740.720   127259912.86708  24216744.620    99163590.94045
  20505920.480   107759356.34609  20505916.960    83968332.30748
  21689563.620   113979610.49609  21689560.640    88815346.82947
  22753461.280   119570275.73408  22753457.080    93171628.23347
  23310484.800   122497428.35008  23310481.160    95452531.96746
  21125574.160   111015790.32509  21125569.340    86505869.51048
  21085601.820   110805656.40209  21085601.400    86342096.72848
  20873306.520   111384026.82609  20873308.800    86632064.42008
  21427111.440   114701122.28608  21427112.440    89212030.87108
  23305133.580   124448111.67507  23305135.240    96792979.18204
  22346354.520   119412112.06208  22346360.460    92876097.78907
  21102101.340   112723643.09408  21102103.560    87673959.37408
  20868196.480   111669952.69408  20868196.800    86854417.92108
  20622989.900   110087064.92509  20622992.320    85623333.94708
 15 03 04 01 14 30.0000000  0 14G04G16G18G19G21G22G27R02R03R09R15R16
                                R17R18
  24199080.780   127167111.68708  24199084.400    99091278.88145
  20507435.540   107767317.98509  20507432.000    83974536.18348
  21693567.800   114000652.62009  21693564.840    88831743.31648
  22740202.540   119500600.78009  22740198.480    93117336.10647
  23323701.420   122566882.06708  23323698.060    95506651.73646
  21116493.420   110968070.79509  21116488.620    86468685.48448
  21077294.980   110762003.28409  21077294.480    86308081.33349
  20873400.560   111384528.55309  20873402.840    86632454.66908
  21407559.000   114596456.52808  21407559.820    89130624.21008
  23291232.080   124373877.94607  23291233.760    96735241.88304
  22368524.860   119530582.71808  22368530.680    92968241.44607
  21106214.380   112745614.54908  21106216.820    87691048.25408
  20874988.620   111706299.36408  20874989.220    86882687.52808
  20617152.480   110055904.51409  20617154.820    85599098.07008
 15 03 04 01 15  0.0000000  0 14G04G16G18G19G21G22G27R02R03R09R15R16
                                R17R18
  24181452.020   127074474.40808  24181455.440    99019094.53745
  20509057.960   107775843.88909  20509054.420    83981179.74049
  21697664.520   114022181.09509  21697661.580    88848518.74447
  22726960.520   119431013.44008  22726956.460    93063112.23847
  23336925.460   122636375.15308  23336922.140    95560802.17446
  21107501.360   110920817.10409  21107496.580    86431864.44648
  21069021.940   110718527.70609  21069021.380    86274204.26549
  20873643.640   111385825.72309  20873645.880    86633463.59808
  21388081.080   114492189.34108  21388081.720    89049527.56308
  23277444.000   124300250.01307  23277445.620    96677975.70703
  22390733.200   119649256.59808  22390738.940    93060543.14407
  21110473.500   112768366.28708  21110476.220    87708744.03608
  20881805.100   111742776.10008  20881805.880    86911058.32008
  20611338.960   110024871.67009  20611341.300    85574961.42308
 15 03 04 01 15 30.0000000  0 14G04G16G18G19G21G22G27R02R03R09R15R16
                                R17R18
  24163855.320   126982004.89908  24163858.340    98947040.83945
  20510788.400   107784937.48309  20510784.880    83988265.64649
  21701854.280   114044198.33009  21701851.400    88865675.03547
  22713735.840   119361516.98309  22713731.720    93008959.13647
  23350157.300   122705909.40908  23350153.880    95614984.69746
  21098598.760   110874033.71209  21098594.020    86395409.87148
  21060783.440   110675233.51009  21060782.820    86240468.53648
  20874036.380   111387921.45609  20874038.520    86635093.63108
  21368678.920   114388328.00608  21368679.480    88968746.57008
  23263770.480   124227233.67707  23263772.040    96621185.21104
  22412979.380   119768132.69108  22412985.060    93153002.12807
  21114878.960   112791899.38308  21114881.820    87727047.53208
  20888646.520   111779386.45508  20888647.500    86939533.03708
  20605549.840   109993968.94409  20605552.200    85550925.98808
 15 03 04 01 16  0.0000000  0 14G04G16G18G19G21G22G27R02R03R09R15R16
                                R17R18
  24146289.980   126889699.92008  24146292.760    98875115.34645
  20512626.080   107794594.63509  20512622.600    83995790.69349
  21706136.080   114066699.20109  21706133.120    88883208.18847
  22700527.860   119292108.06709  22700523.680    92954874.27747
  23363396.040   122775479.35208  23363392.540    95669195.02246
  21089785.160   110827717.87309  21089780.380    86359319.63048
  21052578.880   110632117.63409  21052578.180    86206871.75949
  20874577.920   111390811.75109  20874580.280    86637341.66308
  21349352.620   114284872.71808  21349353.140    88888281.40908
  23250211.200   124154827.69207  23250212.640    96564869.50503
  22435261.680   119887201.61108  22435267.300    93245611.07606
  21119429.580   112816207.75108  21119432.020    87745954.01008
  20895512.120   111816126.17308  20895513.200    86968108.35508
  20599784.380   109963192.57709  20599786.680    85526988.81408
 15 03 04 01 16 30.0000000  0 14G04G16G18G19G21G22G27R02R03R09R15R16
                                R17R18
  24128756.860   126797564.61208  24128759.680    98803322.07745
  20514571.940   107804820.27209  20514568.520    84003758.71849
  21710510.640   114089687.58309  21710507.620    88901121.22547
  22687337.480   119222791.64609  22687333.140    92900861.50547
  23376642.200   122845088.67708  23376638.920    95723436.08546
  21081061.720   110781875.77609  21081056.900    86323598.53648
  21044409.320   110589185.72609  21044408.540    86173418.33749
  20875269.260   111394501.58809  20875271.880    86640211.54108
  21330103.900   114181832.89808  21330104.460    88808139.37308
  23236767.600   124083039.49007  23236768.740    96509034.19704
  22457580.100   120006463.54008  22457585.720    93338370.13607
  21124125.860   112841294.13108  21124128.640    87765465.64308
  20902402.940   111853000.41308  20902404.100    86996788.33308
  20594043.380   109932546.91909  20594045.700    85503153.32308
 15 03 04 01 17  0.0000000  0 14G04G16G18G19G21G22G27R02R03R09R15R16
                                R17R18
  24111255.880   126705598.27308  24111258.440    98731660.41445
  20516625.680   107815612.80709  20516622.300    84012168.48749
  21714977.500   114113161.06709  21714974.400    88919412.25147
  22674164.560   119153567.15309  22674160.120    92846920.34247
  23389895.360   122914735.12508  23389892.160    95777706.00846
  21072428.480   110736507.85209  21072423.620    86288246.92948
  21036274.660   110546437.35709  21036273.820    86140107.93449
  20876110.200   111398989.54209  20876113.060    86643702.20008
  21310933.340   114079211.13808  21310933.860    88728322.50608
  23223439.940   124011870.60108  23223441.260    96453680.67704
  22479933.480   120125911.99108  22479939.060    93431274.25807
  21128967.100   112867155.07308  21128970.000    87785579.69608
  20909318.820   111890007.95609  20909319.960    87025571.95308
  20588326.580   109902030.61809  20588328.980    85479418.44108
 15 03 04 01 17 30.0000000  0 14G04G16G18G19G21G22G27R02R03R09R15R16
                                R17R18
  24093787.100   126613800.66008  24093789.680    98660130.23445
  20518787.100   107826971.18809  20518783.740    84021019.16148
  21719536.320   114137117.69609  21719533.100    88938079.76947
  22661008.920   119084433.65909  22661004.400    92793050.12847
  23403155.060   122984416.26008  23403151.980    95832002.96946
  21063885.420   110691614.18909  21063880.520    86253264.88048
  21028174.820   110503872.35809  21028173.940    86106940.41148
  20877100.660   111404274.74309  20877103.600    86647812.94208
  21291841.480   113977010.47808  21291841.980    88648833.12908
  23210228.380   123941322.39307  23210229.740    96398809.84803
  22502320.780   120245541.58508  22502326.320    93524319.26707
  21133952.740   112893787.40008  21133955.440    87806293.69708
  20916259.540   111927147.84209  20916260.560    87054458.52308
  20582633.760   109871642.47609  20582636.360    85455783.22508
 15 03 04 01 18  0.0000000  0 14G04G16G18G19G21G22G27R02R03R09R15R16
                                R17R18
  24076350.160   126522170.30108  24076352.680    98588730.33846
  20521055.760   107838893.32909  20521052.480    84030309.14149
  21724186.620   114161554.72509  21724183.180    88957121.62447
  22647870.400   119015390.16708  22647865.760    92739250.01147
  23416420.980   123054129.17108  23416418.060    95886324.70046
  21055432.400   110647193.63409  21055427.520    86218651.48648
  21020109.680   110461489.95109  21020108.820    86073915.16049
  20878240.180   111410355.13909  20878243.040    86652542.14308
  21272828.640   113875233.67108  21272829.240    88569673.45108
  23197133.280   123871396.02307  23197134.940    96344422.68704
  22524740.720   120365345.48008  22524746.220    93617499.84406
  21139082.040   112921187.18708  21139084.520    87827604.64008
  20923224.600   111964418.68108  20923225.540    87083446.94408
  20576964.700   109841380.78509  20576967.280    85432246.36708
 15 03 04 01 18 30.0000000  0 14G04G16G18G19G21G22G27R02R03R09R15R16
                                R17R18
  24058946.840   126430716.35108  24058949.060    98517467.89445
  20523433.360   107851387.60609  20523430.080    84040044.94249
  21728929.700   114186479.59209  21728926.180    88976543.60747
  22634750.540   118946445.03809  22634745.900    92685526.57647
  23429694.400   123123880.78108  23429691.300    95940676.57346
  21047071.540   110603257.14509  21047066.660    86184415.28748
  21012081.000   110419299.20509  21012080.220    86041039.26849
  20879530.220   111417238.75909  20879533.080    86657896.08008
  21253897.240   113773893.41908  21253898.060    88490853.32108
  23184156.600   123802102.08808  23184158.200    96290527.41403
  22547193.980   120485327.40308  22547199.460    93710818.88407
  21144356.160   112949360.61108  21144358.640    87849517.29108
  20930215.560   112001829.01708  20930216.540    87112543.87508
  20571320.880   109811253.72009  20571323.480    85408814.22008
 15 03 04 01 19  0.0000000  0 14G04G16G18G19G21G22G27R02R03R09R15R16
                                R17R18
  24041575.040   126339428.36308  24041577.300    98446334.78245
  20525917.840   107864443.41909  20525914.500    84050218.29248
  21733763.320   114211880.42609  21733759.720    88996336.46747
  22621647.520   118877588.46009  22621642.960    92631872.06147
  23442973.080   123193659.95308  23442969.800    95995049.93646
  21038800.900   110559794.61709  21038795.980    86150548.40748
  21004086.980   110377290.64609  21004086.280    86008305.33249
  20880968.700   111424915.13809  20880971.460    86663866.60708
  21235046.320   113672983.28508  21235047.140    88412367.66708
  23171297.140   123733432.74408  23171298.660    96237117.92004
  22569677.700   120605472.44708  22569683.200    93804264.79706
  21149772.680   112978294.57108  21149775.220    87872021.46708
  20937230.560   112039368.40808  20937231.600    87141741.17208
  20565700.340   109781250.77509  20565702.840    85385478.59208
 15 03 04 01 19 30.0000000  0 14G04G16G18G19G21G22G27R02R03R09R15R16
                                R17R18
  24024236.560   126248315.68108  24024238.800    98375338.27445
  20528510.780   107878069.08509  20528507.380    84060835.69249
  21738688.840   114237764.56809  21738685.360    89016505.93248
  22608563.020   118808829.33009  22608558.600    92578293.60847
  23456258.320   123263473.74308  23456255.040    96049450.30646
  21030622.280   110516815.70509  21030617.280    86117058.36848
  20996129.400   110335473.58809  20996128.780    85975720.61849
  20882557.260   111433392.44909  20882560.000    86670460.09808
  21216278.180   113572516.13308  21216278.960    88334226.59508
  23158556.580   123665399.13408  23158558.160    96184202.89003
  22592192.580   120725784.30308  22592198.260    93897840.41907
  21155332.660   113007995.32508  21155335.160    87895122.04008
  20944271.360   112077045.39208  20944272.220    87171045.48308
  20560104.620   109751380.33309  20560107.200    85362246.04008
 15 03 04 01 20  0.0000000  0 14G04G16G18G19G21G22G27R02R03R09R15R16
                                R17R18
  24006930.800   126157374.35408  24006932.840    98304475.23845
  20531211.180   107892259.46209  20531207.700    84071893.12549
  21743705.240   114264126.78209  21743702.020    89037047.92747
  22595496.340   118740163.65508  22595492.000    92524787.87147
  23469549.080   123333316.64908  23469545.740    96103873.34346
  21022535.100   110474317.44209  21022530.060    86083942.86748
  20988207.620   110293844.60009  20988207.040    85943282.46249
  20884295.020   111442666.07009  20884297.780    86677672.91408
  21197592.640   113472491.66808  21197593.380    88256429.84108
  23145934.640   123597999.25008  23145936.600    96131780.78304
  22614736.700   120846252.49208  22614742.600    93991537.60407
  21161035.020   113038456.21008  21161037.640    87918813.82808
  20951337.100   112114855.71909  20951337.980    87200453.50708
  20554532.880   109721637.70709  20554535.420    85339112.90208
 15 03 04 01 20 30.0000000  0 14G04G16G18G19G21G22G27R02R03R09R15R16
                                R17R18
  23989658.140   126066607.15408  23989659.860    98233747.88545
  20534019.480   107907017.14609  20534016.000    84083392.61348
  21748812.880   114290968.00609  21748809.760    89057963.17947
  22582447.960   118671594.22009  22582443.520    92471357.19647
  23482845.480   123403189.40008  23482842.160    96158319.60846
  21014540.020   110432303.23409  21014535.020    86051204.54648
  20980322.200   110252406.68309  20980321.620    85910993.18249
  20886182.440   111452737.74209  20886185.100    86685506.46008
  21178990.940   113372916.00708  21178991.740    88178982.15108
  23133432.320   123531237.83108  23133434.580    96079855.27903
  22637309.740   120966875.25008  22637315.800    94085355.03907
  21166879.720   113069677.07308  21166882.140    87943096.69908
  20958428.220   112152801.90108  20958429.140    87229967.20008
  20548985.540   109692025.21109  20548988.020    85316080.98308
 15 03 04 01 21  0.0000000  0 14G04G16G18G19G21G22G27R02R03R09R15R16
                                R17R18
  23972418.520   125976013.76808  23972419.820    98163155.94645
  20536935.520   107922340.89509  20536932.040    84095333.19349
  21754011.240   114318285.98209  21754008.260    89079249.91547
  22569417.880   118603120.71409  22569413.400    92418001.20347
  23496147.200   123473090.01108  23496143.700    96212787.60446
  21006637.160   110390773.53009  21006632.180    86018843.75748
  20972473.200   110211160.04609  20972472.600    85878852.95849
  20888219.140   111463606.35609  20888221.780    86693959.83508
  21160473.800   113273792.84508  21160474.600    88101886.39908
  23121049.980   123465116.45608  23121052.080    96028427.48804
  22659910.980   121087648.34708  22659917.080    94179289.37907
  21172866.020   113101654.62608  21172868.540    87967968.12308
  20965544.620   112190883.52908  20965545.500    87259586.21308
  20543462.360   109662542.04509  20543464.900    85293149.62708
 15 03 04 01 21 30.0000000  0 14G04G16G18G19G21G22G27R02R03R09R15R16
                                R17R18
  23955212.280   125885596.06208  23955213.820    98092700.93245
  20539959.420   107938231.73909  20539956.000    84107715.66049
  21759300.560   114346081.47209  21759297.640    89100908.75147
  22556406.360   118534744.65409  22556401.840    92364721.19147
  23509454.340   123543019.35708  23509450.720    96267277.99746
  20998826.840   110349730.33609  20998822.000    85986862.07548
  20964661.060   110170106.97609  20964660.440    85846863.56148
  20890405.480   111475272.74909  20890407.960    86703033.71208
  21142042.240   113175127.55008  21142043.020    88025146.76908
  23108788.300   123399639.02308  23108790.160    95977500.63403
  22682539.360   121208566.24508  22682545.560    94273336.32106
  21178993.720   113134387.73408  21178996.440    87993427.18608
  20972686.620   112229102.30608  20972687.400    87289311.92408
  20537963.560   109633189.33309  20537966.200    85270319.74508
 15 03 04 01 22  0.0000000  0 14G04G16G18G19G21G22G27R02R03R09R15R16
                                R17R18
  23938040.080   125795357.32308  23938041.700    98022385.32945
  20543091.600   107954692.08709  20543088.360    84120541.88949
  21764680.940   114374355.78909  21764678.080    89122940.68047
  22543414.000   118466469.27909  22543409.420    92311519.60848
  23522767.140   123612978.55608  23522763.520    96321791.63546
  20991110.020   110309178.19409  20991105.240    85955263.02248
  20956886.460   110129251.10109  20956885.780    85815027.81649
  20892741.840   111487739.46909  20892744.220    86712730.04408
  21123697.700   113076927.49408  21123698.380    87948768.98608
  23096648.020   123334810.59507  23096649.660    95927078.47503
  22705194.680   121329628.06208  22705200.900    94367495.20506
  21185262.900   113167876.55508  21185265.680    88019474.01208
  20979854.740   112267460.47608  20979855.560    87319146.04208
  20532489.760   109603970.05209  20532492.360    85247593.64508
 15 03 04 01 22 30.0000000  0 14G04G16G18G19G21G22G27R02R03R09R15R16
                                R17R18
  23920900.540   125705289.92808  23920901.880    97952203.21345
  20546330.520   107971713.35909  20546327.440    84133805.21249
  21770150.660   114403099.46109  21770147.760    89145338.35947
  22530439.360   118398287.21708  22530434.800    92258390.76348
  23536083.980   123682958.58708  23536080.460    96376321.52846
  20983485.380   110269110.05509  20983480.480    85924041.11148
  20949148.020   110088585.29009  20949147.320    85783340.18649
  20895226.400   111500997.49809  20895228.920    86723041.85308
  21105439.260   112979188.31108  21105439.840    87872749.67108
  23084628.200   123270625.49308  23084630.080    95877156.77104
  22727874.460   121450820.72008  22727880.740    94461755.83707
  21191671.640   113202110.45308  21191674.360    88046100.36208
  20987047.660   112305950.55709  20987048.560    87349082.75908
  20527039.380   109574875.91909  20527042.080    85224964.88808
 15 03 04 01 23  0.0000000  0 14G04G16G18G19G21G22G27R02R03R09R15R16
                                R17R18
  23903795.040   125615400.69308  23903796.380    97882159.90145
  20549677.420   107989301.65309  20549674.380    84147510.37049
  21775710.740   114432317.76909  21775707.720    89168105.89248
  22517483.740   118330205.35009  22517479.240    92205340.00147
  23549405.700   123752964.88408  23549402.360    96430871.87046
  20975954.240   110229533.22409  20975949.180    85893202.04948
  20941447.160   110048116.91609  20941446.400    85751806.38849
  20897860.480   111515053.11309  20897863.040    86733974.03108
  21087268.880   112881920.59608  21087269.500    87797097.03708
  23072730.480   123207092.26008  23072732.380    95827742.02604
  22750578.960   121572145.44908  22750585.380    94556119.17006
  21198220.540   113237093.09008  21198223.160    88073309.06608
  20994266.600   112344579.39109  20994267.440    87379127.39108
  20521613.640   109545913.44109  20521616.420    85202438.52708
 15 03 04 01 23 30.0000000  0 14G04G16G18G19G21G22G27R02R03R09R15R16
                                R17R18
  23886724.320   125525694.51108  23886725.640    97812259.25245
  20553133.100   108007461.08209  20553130.020    84161660.56649
  21781361.780   114462014.05509  21781358.800    89191245.86047
  22504548.080   118262228.50709  22504543.740    92152371.06448
  23562732.840   123823000.39208  23562729.760    96485444.93546
  20968517.480   110190452.90709  20968512.440    85862749.87048
  20933784.800   110007851.18409  20933784.040    85720430.50149
  20900644.760   111529909.99309  20900647.300    86745529.39308
  21069188.140   112785132.83708  21069188.760    87721817.71908
  23060956.300   123144217.88008  23060957.940    95778839.73204
  22773308.160   121693602.18708  22773314.760    94650585.18706
  21204909.940   113272826.47508  21204912.480    88101101.71008
  21001512.160   112383351.32708  21001512.940    87409283.35108
  20516213.400   109517087.01009  20516216.240    85180017.98708
 15 03 04 01 24  0.0000000  0 14G04G16G18G19G21G22G27R02R03R09R15R16
                                R17R18
  23869687.420   125436166.18508  23869688.780    97742497.18645
  20556696.300   108026185.27009  20556693.080    84176250.83448
  21787102.440   114492181.03309  21787099.280    89214752.59247
  22491631.460   118194351.45009  22491627.180    92099479.81347
  23576064.300   123893058.13408  23576061.300    96540035.34946
  20961174.380   110151864.83509  20961169.380    85832681.25948
  20926160.080   109967783.30709  20926159.340    85689208.78149
  20903577.960   111545561.65709  20903580.620    86757702.91908
  21051196.760   112688823.47508  21051197.280    87646910.47208
  23049304.620   123081998.57008  23049305.580    95730446.88903
  22796060.060   121815180.73208  22796066.840    94745145.89306
  21211738.220   113309301.85708  21211740.820    88129471.43108
  21008783.380   112422260.84508  21008784.080    87439546.30208
  20510837.620   109488390.75809  20510840.440    85157698.68008
 15 03 04 01 24 30.0000000  0 14G04G16G18G19G21G22G27R02R03R09R15R16
                                R17R18
  23852684.340   125346816.02208  23852685.680    97672873.93346
  20560366.840   108045473.53909  20560363.460    84191280.65649
  21792932.440   114522817.70309  21792929.200    89238625.33047
  22478733.920   118126574.64609  22478729.600    92046666.79347
  23589399.980   123963137.18208  23589396.980    96594642.40146
  20953925.140   110113769.80809  20953920.120    85802996.85348
  20918573.200   109927914.28609  20918572.520    85658142.02549
  20906659.960   111562007.31109  20906662.500    86770494.00208
  21033295.420   112592996.58008  21033296.000    87572378.49308
  23037775.940   123020436.76407  23037776.960    95682565.52204
  22818833.800   121936875.98308  22818840.700    94839797.37306
  21218704.920   113346516.60508  21218707.600    88158416.21508
  21016080.480   112461308.30709  21016080.960    87469916.52908
  20505486.280   109459824.75709  20505488.960    85135480.69408
 15 03 04 01 25  0.0000000  0 14G04G16G18G19G21G22G27R02R03R09R15R16
                                R17R18
  23835714.940   125257641.92308  23835715.760    97603387.85145
  20564144.280   108065323.81009  20564140.860    84206748.38748
  21798851.080   114553919.74909  21798847.680    89262860.70247
  22465855.080   118058896.01409  22465850.860    91993930.22147
  23602739.140   124033233.97708  23602735.840    96649263.24346
  20946769.480   110076166.36209  20946764.360    85773695.48348
  20911023.840   109888242.48909  20911023.240    85627228.93848
  20909889.960   111579243.66409  20909892.640    86783900.04008
  21015484.460   112497653.73208  21015485.140    87498222.97408
  23026370.520   122959532.09208  23026371.420    95635195.18603
  22841628.140   122058680.95608  22841635.200    94934534.15806
  21225808.940   113384465.26408  21225811.640    88187931.82408
  21023402.800   112500491.24408  21023403.300    87500392.14508
  20500158.920   109431386.51309  20500161.520    85113362.06808
 15 03 04 01 25 30.0000000  0 14G04G16G18G19G21G22G27R02R03R09R15R16
                                R17R18
  23818780.540   125168651.71508  23818781.540    97534045.08345
  20568029.740   108085742.11709  20568026.380    84222658.75049
  21804859.460   114585493.64409  21804855.960    89287463.72947
  22452996.460   117991323.38109  22452992.220    91941276.20748
  23616082.840   124103354.33008  23616079.320    96703902.49246
  20939708.840   110039062.26709  20939703.660    85744783.21748
  20903513.580   109848775.96609  20903513.020    85596475.80649
  20913269.380   111597277.23209  20913271.940    86797926.18208
  20997766.060   112402806.06008  20997766.760    87424452.60008
  23015089.800   122899293.69808  23015090.900    95588343.14404
  22864443.480   122180597.71607  22864450.780    95029357.88806
  21233051.200   113423152.33408  21233053.800    88218021.74808
  21030751.760   112539817.15308  21030752.360    87530978.96108
  20494856.760   109403083.14509  20494859.400    85091348.34808
 15 03 04 01 26  0.0000000  0 14G04G16G18G19G21G22G27R02R03R09R15R16
                                R17R18
  23801880.420   125079841.15008  23801881.380    97464842.24146
  20572022.280   108106723.63109  20572019.020    84239007.96649
  21810956.520   114617533.37209  21810952.980    89312429.78247
  22440157.200   117923852.51409  22440152.900    91888701.51848
  23629429.980   124173492.95708  23629426.200    96758555.93746
  20932742.600   110002454.55209  20932737.460    85716257.73548
  20896041.780   109809511.30509  20896041.200    85565879.97549
  20916797.180   111616102.71309  20916799.720    86812568.22708
  20980140.140   112308453.17108  20980140.840    87351067.05708
  23003933.600   122839719.52607  23003934.620    95542007.62704
  22887278.000   122302616.77408  22887285.520    95124261.13807
  21240430.380   113462570.54308  21240433.060    88248680.33708
  21038126.600   112579281.79708  21038127.360    87561673.65408
  20489579.000   109374910.30909  20489581.740    85069436.15508
 15 03 04 01 26 30.0000000  0 14G04G16G18G19G21G22G27R02R03R09R15R16
                                R17R18
  23785015.380   124991215.29208  23785016.200    97395783.34845
  20576122.780   108128272.35909  20576119.540    84255799.16648
  21817142.700   114650041.97809  21817139.220    89337761.16147
  22427338.300   117856488.67509  22427334.040    91836210.26147
  23642781.160   124243653.15408  23642777.020    96813226.20646
  20925871.860   109966348.81109  20925866.780    85688123.40448
  20888609.480   109770453.94309  20888608.840    85535445.66249
  20920474.100   111635723.80509  20920476.580    86827829.08808
  20962608.340   112214603.82908  20962608.920    87278073.17008
  22992902.720   122780816.12608  22992903.660    95496193.90404
  22910131.900   122424739.22407  22910139.440    95219244.81906
  21247946.680   113502721.30608  21247949.420    88279908.69108
  21045528.240   112618890.28108  21045529.260    87592480.24508
  20484326.580   109346872.61509  20484329.340    85047629.05908
 15 03 04 01 27  0.0000000  0 14G04G16G18G19G21G22G27R02R03R09R15R16
                                R17R18
  23768185.140   124902772.56208  23768185.680    97326867.11745
  20580330.640   108150385.23309  20580327.460    84273029.96648
  21823417.360   114683016.28309  21823414.100    89363455.41647
  22414539.420   117789230.13009  22414535.080    91783801.02648
  23656135.820   124313832.17608  23656131.740    96867911.13046
  20919096.400   109930743.84609  20919091.380    85660379.29248
  20881216.460   109731602.86909  20881215.740    85505172.09649
  20924299.480   111656137.42209  20924302.040    86843706.36508
  20945170.880   112121259.99708  20945171.400    87205472.44308
  22981997.760   122722583.82608  22981998.700    95450902.09504
  22933003.720   122546957.64207  22933011.380    95314303.10406
  21255599.180   113543599.95108  21255601.980    88311703.16408
  21052956.420   112658640.26408  21052957.360    87623396.86708
  20479099.120   109318968.23609  20479101.900    85025925.65108
 15 03 04 01 27 30.0000000  0 14G04G16G18G19G21G22G27R02R03R09R15R16
                                R17R18
  23751390.140   124814515.31308  23751390.600    97258095.44145
  20584646.220   108173063.79309  20584643.000    84290701.56548
  21829780.760   114716456.72209  21829777.660    89389512.89947
  22401761.160   117722079.96509  22401756.780    91731476.23348
  23669494.040   124384030.68208  23669490.140    96922611.23846
  20912416.740   109895642.14609  20912411.700    85633027.34748
  20873863.260   109692960.98009  20873862.420    85475061.53749
  20928273.660   111677344.77109  20928276.340    86860200.96508
  20927828.900   112028427.42208  20927829.480    87133269.37108
  22971219.180   122665026.37008  22971220.060    95406135.14104
  22955893.040   122669269.25607  22955900.760    95409433.82806
  21263387.760   113585205.28908  21263390.480    88344062.85008
  21060411.520   112698534.58808  21060412.480    87654425.77808
  20473897.020   109291198.99009  20473899.740    85004327.37008
 15 03 04 01 28  0.0000000  0 14G04G16G18G19G21G22G27R02R03R09R15R16
                                R17R18
  23734630.380   124726443.38308  23734630.760    97189468.17045
  20589069.380   108196307.36909  20589066.080    84308813.43148
  21836232.540   114750361.34409  21836229.500    89415932.09747
  22389003.420   117655037.82008  22388999.020    91679235.60848
  23682855.580   124454246.77408  23682851.900    96977325.07145
  20905832.980   109861044.52709  20905827.920    85606068.18348
  20866549.900   109654528.75109  20866549.020    85445114.35049
  20932396.280   111699344.31709  20932399.040    86877311.73208
  20910583.060   111936109.58308  20910583.680    87061466.64308
  22960566.860   122608145.15308  22960568.460    95361894.30704
  22978798.840   122791668.75508  22978806.740    95504632.90207
  21271311.780   113627533.90608  21271314.500    88376985.10008
  21067893.540   112738572.72008  21067894.320    87685566.53008
  20468720.180   109263564.57609  20468722.840    84982833.93608
 15 03 04 01 28 30.0000000  0 14G04G16G18G19G21G22G27R02R03R09R15R16
                                R17R18
  23717905.520   124638554.59208  23717905.920    97120983.59645
  20593599.440   108220112.58309  20593596.000    84327362.93848
  21842771.920   114784726.15409  21842768.900    89442709.87647
  22376265.840   117588101.56709  22376261.460    91627077.53048
  23696219.860   124524477.07008  23696216.360    97032049.92046
  20899344.800   109826948.98209  20899339.700    85579500.24048
  20859276.040   109616304.47209  20859275.200    85415329.20549
  20936666.620   111722132.10709  20936669.360    86895035.58908
  20893433.680   111844308.02708  20893434.340    86990065.46308
  22950041.500   122551939.74908  22950042.600    95318178.89103
  23001719.820   122914148.96908  23001727.800    95599894.73107
  21279370.140   113670579.92308  21279373.020    88410465.30408
  21075402.060   112778752.28708  21075402.680    87716817.29008
  20463568.140   109236062.40709  20463570.840    84961443.36508
 15 03 04 01 29  0.0000000  0 14G04G16G18G19G21G22G27R02R03R09R15R16
                                R17R18
  23701215.720   124550849.67608  23701216.160    97052642.27545
  20598236.240   108244478.87909  20598232.740    84346349.65648
  21849398.680   114819550.03409  21849395.580    89469845.37347
  22363548.520   117521271.89809  22363544.220    91575002.45148
  23709586.700   124594720.78008  23709583.280    97086785.28046
  20892952.400   109793356.52509  20892947.200    85553324.32548
  20852041.940   109578289.33809  20852041.160    85385707.02749
  20941084.620   111745707.48209  20941087.400    86913371.97108
  20876381.560   111753026.90508  20876382.180    86919069.06408
  22939642.920   122496412.15208  22939644.320    95274990.81205
  23024655.020   123036705.11107  23024662.920    95695215.60106
  21287562.320   113714340.64508  21287565.040    88444501.40508
  21082937.220   112819073.72008  21082937.660    87748178.37108
  20458440.880   109208692.73109  20458443.600    84940155.83708
 15 03 04 01 29 30.0000000  0 14G04G16G18G19G21G22G27R02R03R09R15R16
                                R17R18
  23684561.460   124463331.67408  23684561.740    96984446.57545
  20602980.180   108269408.15009  20602976.640    84365775.04948
  21856112.980   114854834.42009  21856109.960    89497339.69647
  22350852.220   117454552.56509  22350847.920    91523013.39747
  23722956.620   124664979.82608  23722953.060    97141532.57146
  20886656.460   109760270.89809  20886651.180    85527543.31648
  20844848.400   109540487.25309  20844847.680    85356250.86149
  20945650.580   111770072.06009  20945653.440    86932322.20508
  20859427.960   111662273.09808  20859428.480    86848482.81408
  22929372.100   122441567.38007  22929373.700    95232333.77904
  23047604.120   123159335.90907  23047612.080    95790594.48206
  21295888.260   113758815.68908  21295890.680    88479093.08907
  21090499.500   112859540.27208  21090499.960    87779652.34608
  20453339.080   109181458.57609  20453341.660    84918973.72108
 15 03 04 01 30  0.0000000  0 14G04G16G18G19G21G22G27R02R03R09R15R16
                                R17R18
  23667942.780   124376000.64908  23667943.220    96916396.61245
  20607831.040   108294899.64109  20607827.560    84385638.54548
  21862914.680   114890577.43709  21862911.620    89525191.41248
  22338176.940   117387943.89709  22338172.700    91471110.53548
  23736329.140   124735252.68008  23736325.560    97196290.63145
  20880457.080   109727692.77109  20880451.760    85502157.78548
  20837695.540   109502898.88609  20837694.860    85326961.22749
  20950364.200   111795224.49009  20950366.980    86951885.23108
  20842573.500   111572050.09508  20842574.020    86778309.41708
  22919229.740   122387406.98008  22919231.100    95190209.01504
  23070566.140   123282035.96807  23070574.300    95886027.24107
  21304347.280   113804001.82008  21304349.720    88514237.82008
  21098088.800   112900151.82608  21098089.420    87811239.09308
  20448262.640   109154359.84809  20448265.080    84897896.94408
 15 03 04 01 30 30.0000000  0 14G04G16G18G19G21G22G27R02R03R09R15R16
                                R17R18
  23651360.000   124288858.30408  23651360.460    96848493.64145
  20612788.940   108320953.95209  20612785.600    84405940.59748
  21869803.640   114926778.94609  21869800.540    89553400.38547
  22325523.000   117321447.16709  22325518.720    91419294.93448
  23749704.340   124805539.77008  23749700.900    97251059.77146
  20874354.580   109695623.76409  20874349.280    85477168.97248
  20830583.780   109465526.45009  20830583.100    85297839.85449
  20955225.420   111821164.63609  20955228.100    86972060.90208
  20825819.240   111482363.14408  20825819.660    86708552.93308
  22909216.020   122333933.92407  22909217.420    95148618.89804
  23093540.760   123404803.22007  23093549.060    95981512.24206
  21312939.000   113849896.92008  21312941.420    88549933.97408
  21105705.580   112940910.39309  21105706.360    87842940.19508
  20443211.800   109127397.86509  20443214.220    84876926.50708
 15 03 04 01 31  0.0000000  0 14G04G16G18G19G21G22G27R02R03R09R15R16
                                R17R18
  23634812.800   124201902.61408  23634813.100    96780736.11145
  20617853.260   108347567.51909  20617850.060    84426678.42748
  21876779.180   114963434.89109  21876775.940    89581963.45247
  22312890.140   117255060.89309  22312885.740    91367565.39447
  23763081.460   124875837.56508  23763078.180    97305837.23545
  20868348.660   109664062.51309  20868343.420    85452575.80348
  20823512.800   109428368.48309  20823512.160    85268885.60149
  20960233.600   111847889.07809  20960236.160    86992846.58108
  20809165.400   111393213.74908  20809165.800    86639214.53508
  22899330.900   122281147.66708  22899332.120    95107562.90604
  23116526.440   123527629.32808  23116534.960    96077042.92606
  21321662.340   113896495.26608  21321664.760    88586177.11308
  21113349.500   112981813.39708  21113350.020    87874753.61108
  20438186.040   109100570.23809  20438188.480    84856060.56708
 15 03 04 01 31 30.0000000  0 14G04G16G18G19G21G22G27R02R03R09R15R16
                                R17R18
  23618301.660   124115136.75508  23618301.980    96713126.54145
  20623024.320   108374741.97809  20623021.160    84447853.31648
  21883841.360   115000546.29609  21883838.020    89610881.44247
  22300278.940   117188787.99609  22300274.440    91315924.19848
  23776460.880   124946147.47208  23776457.720    97360624.17746
  20862440.020   109633012.59209  20862434.880    85428381.07048
  20816483.280   109391428.58709  20816482.700    85240101.27249
  20965388.960   111875398.81409  20965391.440    87014243.06108
  20792613.060   111304608.08708  20792613.600    86570299.06208
  22889575.140   122229052.58408  22889576.500    95067044.55604
  23139522.780   123650511.45407  23139531.280    96172617.23506
  21330517.240   113943796.49608  21330519.740    88622966.91908
  21121020.820   113022863.80008  21121021.080    87906681.67908
  20433186.060   109073879.92509  20433188.460    84835301.45508
 15 03 04 01 32  0.0000000  0 14G04G16G18G19G21G22G27R02R03R09R15R16
                                R17R18
  23601826.300   124028558.67408  23601826.540    96645663.23645
  20628301.820   108402475.27009  20628298.560    84469463.66748
  21890989.320   115038109.30509  21890985.960    89640151.32147
  22287689.100   117122627.35909  22287684.460    91264370.46048
  23789842.060   125016466.58608  23789839.200    97415418.26246
  20856628.300   109602472.32809  20856623.280    85404583.47648
  20809495.040   109354705.74009  20809494.560    85211486.07349
  20970690.900   111903690.58409  20970693.200    87036247.77308
  20776162.800   111216548.38908  20776163.380    86501808.22508
  22879948.800   122177648.33708  22879949.940    95027063.41504
  23162528.660   123773444.98707  23162537.280    96268231.46106
  21339502.560   113991794.93308  21339505.420    88660299.01408
  21128719.240   113064059.90308  21128719.400    87938723.07808
  20428211.420   109047324.82809  20428213.760    84814647.49108
 15 03 04 01 32 30.0000000  0 14G04G16G18G19G21G22G27R02R03R09R15R16
                                R17R18
  23585387.680   123942173.60008  23585387.800    96578350.34745
  20633686.420   108430771.02909  20633683.000    84491512.30548
  21898223.940   115076127.61409  21898220.560    89669775.99147
  22275121.560   117056584.24909  22275116.820    91212908.30848
  23803225.860   125086798.74108  23803223.120    97470222.51746
  20850914.560   109572447.18809  20850909.660    85381187.28448
  20802549.220   109318205.65609  20802548.800    85183044.45949
  20976140.060   111932767.80409  20976142.180    87058863.39308
  20759816.140   111129043.30208  20759816.660    86433748.74608
  22870452.860   122126941.33508  22870454.300    94987624.70004
  23185544.080   123896429.19908  23185552.780    96363885.11306
  21348618.700   114040492.02109  21348621.480    88698174.50208
  21136445.800   113105406.73008  21136445.980    87970881.73008
  20423262.980   109020909.98909  20423265.320    84794102.61408
 15 03 04 01 33  0.0000000  0 14G04G16G18G19G21G22G27R02R03R09R15R16
                                R17R18
  23568984.540   123855975.04608  23568984.500    96511182.78245
  20639176.560   108459621.42409  20639172.980    84513993.12548
  21905543.520   115114592.99909  21905540.320    89699749.01947
  22262575.180   116990652.35709  22262570.360    91161532.83448
  23816610.800   125157135.94808  23816607.820    97525030.72546
  20845297.740   109542931.07009  20845292.840    85358187.73448
  20795644.760   109281922.57109  20795644.360    85154771.93149
  20981734.700   111962621.96909  20981736.940    87082083.30908
  20743572.440   111042089.45508  20743572.880    86366118.00808
  22861086.600   122076926.61108  22861088.080    94948724.33604
  23208566.700   124019452.08307  23208575.560    96459568.79106
  21357863.800   114089877.83809  21357866.400    88736585.66608
  21144199.340   113146897.83408  21144199.680    88003152.55908
  20418339.560   108994628.77509  20418341.960    84773661.68608
 15 03 04 01 33 30.0000000  0 14G04G16G18G19G21G22G27R02R03R09R15R16
                                R17R18
  23552618.260   123769970.00308  23552618.320    96444165.99646
  20644773.300   108489031.97309  20644769.600    84536910.42448
  21912949.160   115153510.31009  21912946.080    89730074.18847
  22250051.340   116924838.96009  22250046.440    91110249.68048
  23829997.700   125227483.89708  23829994.520    97579847.30046
  20839779.260   109513931.11509  20839774.280    85335590.38448
  20788783.060   109245864.10709  20788782.660    85126674.43149
  20987476.000   111993258.46709  20987478.160    87105911.70708
  20727433.740   110955697.44708  20727434.120    86298924.24708
  22851851.520   122027612.38908  22851852.980    94910368.83404
  23231596.980   124142515.91708  23231606.080    96555284.28506
  21367238.440   114139955.21809  21367240.920    88775534.72707
  21151981.040   113188540.26708  21151981.580    88035541.10208
  20413442.460   108968488.05409  20413444.880    84753330.02208
 15 03 04 01 34  0.0000000  0 14G04G16G18G19G21G22G27R02R03R09R15R16
                                R17R18
  23536288.360   123684156.29608  23536288.340    96377298.28345
  20650475.940   108518999.47009  20650472.260    84560261.71048
  21920440.060   115192875.26309  21920437.000    89760748.18147
  22237549.680   116859142.25109  22237544.800    91059057.46648
  23843385.900   125297839.17608  23843382.900    97634669.55846
  20834358.660   109485445.34409  20834353.560    85313393.69248
  20781963.820   109210028.67009  20781963.400    85098750.71249
  20993363.000   112024673.18709  20993365.340    87130345.35708
  20711400.160   110869868.37108  20711400.580    86232168.34108
  22842747.620   121978997.88208  22842749.380    94872557.53604
  23254633.580   124265613.39107  23254642.860    96651025.94406
  21376741.520   114190718.62408  21376743.900    88815017.34407
  21159790.560   113230331.60308  21159791.260    88068045.46808
  20408571.200   108942485.50509  20408573.660    84733105.81808
 15 03 04 01 34 30.0000000  0 14G04G16G18G19G21G22G27R02R03R09R15R16
                                R17R18
  23519995.360   123598536.66008  23519995.200    96310581.81345
  20656284.880   108549525.88709  20656281.340    84584048.51848
  21928016.360   115232689.00709  21928013.320    89791771.88447
  22225070.780   116793565.33309  22225065.920    91007958.59248
  23856775.800   125368203.56508  23856772.920    97689498.91646
  20829036.580   109457477.60109  20829031.380    85291600.65848
  20775187.720   109174419.96909  20775187.260    85071003.66849
  20999396.020   112056867.23709  20999398.480    87155385.18008
  20695472.880   110784608.98308  20695473.360    86165855.50208
  22833775.360   121931087.10408  22833777.120    94835293.62904
  23277676.140   124388742.94907  23277685.700    96746792.50706
  21386372.820   114242167.04308  21386375.240    88855032.73607
  21167628.660   113272274.98308  21167629.440    88100668.05908
  20403726.360   108916623.82609  20403728.900    84712991.17308
 15 03 04 01 35  0.0000000  0 15G04G16G18G19G21G22G27R02R03R09R15R16
                                R17R18R19
  23503738.740   123513107.97108  23503738.560    96244014.12645
  20662199.320   108580606.34209  20662195.880    84608267.03948
  21935677.040   115272946.14409  21935673.980    89823141.08847
  22212614.060   116728105.05709  22212609.240    90956950.59248
  23870166.600   125438572.01108  23870163.680    97744331.46746
  20823812.420   109430024.38409  20823807.160    85270208.55948
  20768454.280   109139035.27909  20768453.760    85043431.18949
  21005573.980   112089835.09009  21005576.700    87181026.84008
  20679651.840   110699918.93808  20679652.460    86099985.50208
  22824934.660   121883877.81908  22824936.300    94798575.29604
  23300723.200   124511896.04907  23300732.740    96842577.43706
  21396130.940   114294293.03808  21396133.420    88895575.13907
  21175494.680   113314366.96809  21175495.400    88133406.24208
  20398907.260   108890899.52709  20398909.900    84692983.39508
  23643494.440   126476749.66107  23643495.560    98370813.29507
 15 03 04 01 35 30.0000000  0 15G04G16G18G19G21G22G27R02R03R09R15R16
                                R17R18R19
  23487519.220   123427874.34308  23487518.900    96177598.43745
  20668219.660   108612243.65209  20668216.400    84632919.47848
  21943422.580   115313649.20509  21943419.360    89854857.76747
  22200180.460   116662766.22109  22200175.700    90906037.22448
  23883558.620   125508947.47708  23883555.840    97799169.43546
  20818687.000   109403090.20709  20818681.760    85249220.90548
  20761764.420   109103879.54409  20761763.880    85016037.11649
  21011897.660   112123579.28209  21011900.380    87207272.33908
  20663938.600   110615805.94608  20663939.360    86034564.31808
  22816226.420   121837375.52108  22816227.960    94762406.81504
  23323774.900   124635074.28807  23323784.560    96938381.90506
  21406015.940   114347097.23508  21406018.500    88936645.04507
  21183389.220   113356611.95108  21183390.080    88166263.44808
  20394114.720   108865316.94409  20394117.520    84673085.83408
  23629567.460   126402247.26707  23629567.980    98312867.01106
 15 03 04 01 36  0.0000000  0 15G04G16G18G19G21G22G27R02R03R09R15R16
                                R17R18R19
  23471336.440   123342833.80408  23471336.060    96111333.19945
  20674345.320   108644434.63309  20674342.200    84658003.34748
  21951252.160   115354793.98909  21951248.960    89886918.62747
  22187769.680   116597546.99009  22187764.920    90855217.06648
  23896951.460   125579326.93208  23896948.580    97854010.56946
  20813659.960   109376673.19609  20813654.800    85228636.24048
  20755117.920   109068951.54909  20755117.320    84988820.50049
  21018366.020   112158095.78709  21018368.760    87234118.53808
  20648333.620   110532271.90308  20648334.500    85969593.43908
  22807650.100   121791579.58008  22807652.060    94726787.82904
  23346829.540   124758268.46706  23346839.380    97034198.79506
  21416026.880   114400573.72808  21416029.560    88978237.85007
  21191311.960   113399007.78808  21191312.960    88199237.96508
  20389348.400   108839873.99609  20389351.240    84653296.88308
  23615635.420   126327720.67507  23615635.880    98254901.94206
 15 03 04 01 36 30.0000000  0 15G04G16G18G19G21G22G27R02R03R09R15R16
                                R17R18R19
  23455190.780   123257988.03308  23455190.460    96045219.72345
  20680576.360   108677179.34309  20680573.280    84683518.68948
  21959165.760   115396380.11909  21959162.540    89919323.39847
  22175382.000   116532449.51309  22175377.300    90804491.77448
  23910345.080   125649711.09108  23910342.200    97908855.31246
  20808731.680   109350775.12609  20808726.580    85208455.93548
  20748515.160   109034253.50109  20748514.520    84961783.05049
  21024978.920   112193384.07509  21024981.720    87261564.95408
  20632837.680   110449321.20408  20632838.620    85905076.26008
  22799206.880   121746492.55608  22799208.140    94691720.05204
  23369886.720   124881475.86907  23369896.720    97130026.01406
  21426163.300   114454720.19908  21426165.980    89020351.73907
  21199263.260   113441556.17508  21199264.220    88232331.14408
  20384608.500   108814572.05609  20384611.340    84633617.59408
  23601698.880   126253170.53007  23601699.380    98196918.52107
 15 03 04 01 37  0.0000000  0 15G04G16G18G19G21G22G27R02R03R09R15R16
                                R17R18R19
  23439082.060   123173336.67908  23439081.960    95979257.75645
  20686912.560   108710476.45409  20686909.460    84709464.47948
  21967162.900   115438405.40809  21967159.700    89952070.37647
  22163017.400   116467473.59309  22163012.740    90753861.21548
  23923739.300   125720097.74808  23923736.260    97963702.04245
  20803902.180   109325396.10809  20803897.120    85188680.09148
  20741956.280   108999785.95209  20741955.600    84934925.23049
  21031735.980   112229441.61309  21031738.720    87289609.71208
  20617451.420   110366957.42008  20617452.320    85841015.56608
  22790896.280   121702115.20608  22790897.720    94657204.36704
  23392945.380   125004691.01207  23392955.620    97225859.35706
  21436424.260   114509532.41608  21436427.040    89062983.42807
  21207242.980   113484256.94208  21207244.080    88265542.84808
  20379895.000   108789410.95509  20379897.820    84614047.87008
  23587757.860   126178596.06007  23587758.440    98138916.24107
 15 03 04 01 37 30.0000000  0 15G04G16G18G19G21G22G27R02R03R09R15R16
                                R17R18R19
  23423010.940   123088883.24308  23423010.960    95913449.97846
  20693354.280   108744328.06809  20693351.160    84735842.34848
  21975243.880   115480871.43909  21975240.700    89985160.79447
  22150676.680   116402623.20009  22150672.060    90703328.46648
  23937134.460   125790489.68908  23937131.260    98018552.89346
  20799172.260   109300540.15509  20799167.180    85169311.82748
  20735442.080   108965553.21609  20735441.340    84908250.37349
  21038637.680   112266270.30309  21038640.400    87318254.24608
  20602176.200   110285187.31008  20602176.980    85777416.61908
  22782719.700   121658452.35209  22782721.680    94623244.43304
  23416005.360   125127913.75307  23416015.720    97321698.67506
  21446809.820   114565010.25908  21446812.740    89106132.82607
  21215251.840   113527113.63008  21215252.960    88298875.79608
  20375208.540   108764394.31109  20375211.400    84594590.48208
  23573812.940   126103999.96907  23573813.340    98080897.07806
 15 03 04 01 38  0.0000000  0 15G04G16G18G19G21G22G27R02R03R09R15R16
                                R17R18R19
  23406977.140   123004625.94108  23406977.280    95847795.05445
  20699900.840   108778730.43909  20699897.680    84762649.37448
  21983408.000   115523774.37309  21983404.840    90018591.65247
  22138359.540   116337896.99309  22138355.000    90652892.47848
  23950530.040   125860883.63208  23950526.800    98073405.30845
  20794541.460   109276205.22609  20794536.420    85150349.55148
  20728972.320   108931554.16709  20728971.520    84881757.61549
  21045683.220   112303866.15509  21045685.840    87347495.47708
  20587012.060   110204012.22108  20587012.800    85714280.46808
  22774676.800   121615503.17808  22774677.820    94589839.43903
  23439065.320   125251136.51908  23439075.920    97417538.06806
  21457318.860   114621147.71008  21457321.840    89149795.23607
  21223289.360   113570124.51208  21223290.540    88332328.69008
  20370548.800   108739520.13109  20370551.620    84575243.90408
  23559863.520   126029379.42508  23559863.880    98022858.91407
 15 03 04 01 38 30.0000000  0 15G04G16G18G19G21G22G27R02R03R09R15R16
                                R17R18R19
  23390980.640   122920563.78508  23390980.640    95782292.17445
  20706551.940   108813681.76609  20706548.680    84789884.16448
  21991654.720   115567111.39209  21991651.540    90052360.75147
  22126065.980   116273294.36709  22126061.540    90602552.79348
  23963925.520   125931277.19708  23963922.000    98128257.43845
  20790009.660   109252390.60609  20790004.680    85131792.71648
  20722546.920   108897788.56709  20722546.100    84855446.75649
  21052871.880   112342225.65709  21052874.400    87377330.63308
  20571959.400   110123434.34408  20571960.120    85651608.81908
  22766767.340   121573267.59708  22766768.380    94556989.55104
  23462124.240   125374353.90008  23462134.960    97513373.36406
  21467950.400   114677939.61708  21467953.440    89193966.69807
  21231355.480   113613288.86208  21231356.700    88365900.92908
  20365915.620   108714787.65409  20365918.280    84556007.52908
  23545909.200   125954732.78908  23545909.500    97964800.47606
 15 03 04 01 39  0.0000000  0 15G04G16G18G19G21G22G27R02R03R09R15R16
                                R17R18R19
  23375021.900   122836699.98508  23375021.880    95716943.86546
  20713307.820   108849183.59809  20713304.500    84817547.92148
  21999984.260   115610883.47009  21999981.140    90086468.86047
  22113796.720   116208819.08609  22113792.280    90552312.32748
  23977321.340   126001673.15008  23977317.840    98183111.39346
  20785577.500   109229099.45909  20785572.560    85113643.78548
  20716166.700   108864260.50309  20716165.900    84829320.98949
  21060204.000   112381350.10409  21060206.260    87407760.78108
  20557019.600   110043460.78408  20557020.320    85589407.18608
  22758992.780   121531750.07508  22758994.220    94524698.14504
  23485181.960   125497564.96607  23485192.700    97609203.76706
  21478704.420   114735385.51208  21478707.400    89238646.78007
  21239451.000   113656609.89308  21239452.280    88399595.04308
  20361309.540   108690199.89409  20361312.120    84536883.71108
  23531950.380   125880062.55207  23531950.580    97906723.63906
 15 03 04 01 39 30.0000000  0 15G04G16G18G19G21G22G27R02R03R09R15R16
                                R17R18R19
  23359100.520   122753032.43908  23359100.160    95651748.45945
  20720167.880   108885233.01009  20720164.500    84845638.35848
  22008395.960   115655086.77909  22008392.680    90120912.99947
  22101551.360   116144469.26409  22101546.940    90502169.62748
  23990717.020   126072068.08908  23990713.620    98237964.57845
  20781244.580   109206330.00209  20781239.660    85095901.36748
  20709831.380   108830968.56809  20709830.640    84803379.22249
  21067678.460   112421235.00409  21067680.680    87438782.37408
  20542192.780   109964092.24708  20542193.580    85527676.13508
  22751351.800   121490949.04608  22751353.360    94492964.07403
  23508236.780   125620761.02907  23508247.640    97705022.26006
  21489579.720   114793479.15808  21489582.520    89283830.69307
  21247575.460   113700085.65008  21247576.540    88433409.48608
  20356730.240   108665754.95109  20356732.720    84517870.99208
  23517986.660   125805365.85708  23517987.020    97848626.22207
 15 03 04 01 40  0.0000000  0 15G04G16G18G19G21G22G27R02R03R09R15R16
                                R17R18R19
  23343217.160   122669564.92908  23343216.840    95586708.94546
  20727132.520   108921832.10409  20727129.080    84874157.12048
  22016890.120   115699722.78509  22016886.720    90155694.31347
  22089330.660   116080249.38909  22089326.320    90452128.17448
  24004113.000   126142464.24008  24004109.420    98292818.70145
  20777011.720   109184086.42809  20777006.820    85078568.72048
  20703541.900   108797917.52709  20703541.220    84777625.16049
  21075295.680   112461882.37409  21075298.040    87470397.00308
  20527480.440   109885336.12108  20527481.300    85466421.39508
  22743846.500   121450869.96608  22743847.460    94461791.39204
  23531289.080   125743943.09907  23531300.060    97800829.76006
  21500576.160   114852220.17808  21500578.820    89329518.12707
  21255729.640   113743720.11908  21255730.580    88467347.38708
  20352178.420   108641456.88509  20352180.840    84498972.49708
  23504018.560   125730645.96207  23504019.000    97790510.84006
 15 03 04 01 40 30.0000000  0 15G04G16G18G19G21G22G27R02R03R09R15R16
                                R17R18R19
  23327371.240   122586294.77008  23327370.840    95521823.21345
  20734200.800   108958976.14009  20734197.400    84903100.51448
  22025465.560   115744786.75309  22025462.120    90190809.09347
  22077134.200   116016156.83209  22077129.920    90402185.93848
  24017508.420   126212857.78608  24017504.600    98347670.79645
  20772878.360   109162365.45309  20772873.440    85061643.30248
  20697297.880   108765105.07509  20697297.200    84752057.01649
  21083054.780   112503286.54409  21083057.280    87502600.25108
  20512882.620   109807192.66808  20512883.480    85405643.18508
  22736475.740   121411510.15907  22736477.280    94431178.23104
  23554337.060   125867102.26407  23554348.240    97896619.29406
  21511692.560   114911601.65208  21511695.280    89375703.69507
  21263912.860   113787510.15008  21263913.680    88501406.28408
  20347653.480   108617302.63209  20347655.920    84480185.86008
  23490045.280   125655898.98608  23490045.560    97732374.32806
 15 03 04 01 41  0.0000000  0 16G04G16G18G19G21G22G27R02R03R04R09R15
                                R16R17R18R19
  23311563.680   122503226.58808  23311563.280    95457094.84745
  20741373.400   108996668.55409  20741370.100    84932471.21348
  22034122.960   115790281.71309  22034119.560    90226259.70947
  22064963.040   115952197.03909  22064958.780    90352347.14048
  24030904.220   126283252.43608  24030900.740    98402523.75445
  20768845.480   109141172.33909  20768840.440    85045129.18948
  20691100.400   108732536.95109  20691099.720    84726679.25949
  21090956.200   112545450.04509  21090958.720    87535394.09408
  20498400.780   109729669.99308  20498401.580    85345347.78208
  23551629.660   126117909.38707  23551638.680    98091728.79607
  22729240.600   121372875.37708  22729242.280    94401129.01004
  23577380.780   125990238.81907  23577392.420    97992391.22906
  21522929.040   114971624.45208  21522931.840    89422388.04807
  21272126.160   113831461.18908  21272127.120    88535590.38708
  20343156.400   108593297.18609  20343158.860    84461514.94508
  23476067.840   125581129.20408  23476068.260    97674220.06707
 15 03 04 01 41 30.0000000  0 16G04G16G18G19G21G22G27R02R03R04R09R15
                                R16R17R18R19
  23295794.360   122420359.41608  23295794.040    95392523.13346
  20748649.920   109034907.22209  20748646.720    84962267.56348
  22042861.720   115836204.42509  22042858.360    90262043.63447
  22052817.060   115888369.37509  22052812.780    90302611.31148
  24044299.800   126353646.09308  24044296.360    98457375.91745
  20764912.860   109120506.05909  20764907.740    85029025.61848
  20684949.420   108700212.97809  20684948.700    84701491.74949
  21098999.300   112588369.83509  21099001.920    87568776.13608
  20484035.280   109652770.25008  20484036.020    85285536.90608
  23526620.460   125983987.46206  23526629.560    97987567.73406
  22722141.620   121334965.80208  22722142.300    94371643.63004
  23600419.320   126113348.16507  23600431.520    98088142.04906
  21534284.580   115032283.31308  21534287.400    89469567.11407
  21280369.480   113875572.39108  21280370.360    88569899.09508
  20338687.060   108569439.61209  20338689.520    84442959.05608
  23462085.640   125506334.77408  23462086.180    97616046.69506
 15 03 04 01 42  0.0000000  0 16G04G16G18G19G21G22G27R02R03R04R09R15
                                R16R17R18R19
  23280062.860   122337690.47408  23280062.480    95328105.87946
  20756029.500   109073687.63409  20756026.400    84992486.05748
  22051680.940   115882549.90909  22051677.520    90298157.00147
  22040695.860   115824671.76609  22040691.500    90252976.82948
  24057694.360   126424034.83408  24057691.060    98512224.27945
  20761079.940   109100363.88609  20761074.820    85013330.43748
  20678844.520   108668131.33009  20678843.780    84676493.07149
  21107183.080   112632040.57609  21107185.760    87602742.26108
  20469786.100   109576494.15008  20469786.920    85226211.08508
  23501610.060   125850056.66307  23501618.580    97883399.58106
  22715177.480   121297779.25308  22715179.120    94342720.87805
  23623451.580   126236422.58406  23623464.040    98183865.87806
  21545757.880   115093571.29108  21545760.540    89517235.49807
  21288642.240   113919840.95608  21288643.160    88604330.19308
  20334244.980   108545727.60309  20334247.480    84424516.40308
  23448098.240   125431512.33508  23448098.820    97557851.48607
 15 03 04 01 42 30.0000000  0 16G04G16G18G19G21G22G27R02R03R04R09R15
                                R16R17R18R19
  23264369.520   122255221.78408  23264369.200    95263844.64146
  20763512.300   109113010.31509  20763509.240    85023127.08948
  22060580.620   115929318.22009  22060577.140    90334599.84447
  22028599.860   115761106.49209  22028595.380    90203445.45648
  24071088.240   126494419.64108  24071084.840    98567069.58145
  20757347.080   109080747.74809  20757341.960    84998045.14548
  20672786.240   108636294.71509  20672785.480    84651685.31749
  21115507.560   112676461.86109  21115510.220    87637292.16808
  20455654.360   109500846.56408  20455655.180    85167374.09308
  23476598.800   125716122.45607  23476606.840    97779228.84706
  22708349.720   121261318.61608  22708351.320    94314362.58403
  23646476.860   126359459.48207  23646489.760    98279560.48106
  21557348.540   115155486.43608  21557351.180    89565391.69907
  21296944.840   113964269.29409  21296945.700    88638885.54108
  20329830.480   108522162.85109  20329832.980    84406188.25708
  23434105.980   125356663.34208  23434106.720    97499635.65007
 15 03 04 01 43  0.0000000  0 15G04G16G18G19G21G22G27R02R03R04R09R16
                                R17R18R19
  23248714.760   122172955.70408  23248714.480    95199741.29546
  20771098.460   109152875.85809  20771095.380    85054191.13848
  22069560.780   115976509.73109  22069557.380    90371372.44247
  22016529.540   115697676.48509  22016525.060    90154019.48948
  24084481.600   126564801.78908  24084477.700    98621912.77545
  20753714.760   109061660.19209  20753709.700    84983171.73948
  20666775.160   108604706.17909  20666774.380    84627070.86949
  21123972.700   112721633.61409  21123975.420    87672425.75208
  20441641.140   109425832.95508  20441641.900    85109030.21208
  23451587.680   125582190.46806  23451595.600    97675060.02406
  22701657.960   121225586.67808  22701659.200    94286571.03404
  21569056.260   115218026.64108  21569058.940    89614034.03307
  21305277.640   114008859.37808  21305278.420    88673566.71108
  20325444.100   108498748.11809  20325446.580    84387976.80608
  23420108.880   125281789.17308  23420109.380    97441400.19706
 15 03 04 01 43 30.0000000  0 15G04G16G18G19G21G22G27R02R03R04R09R16
                                R17R18R19
  23233098.500   122090892.02708  23233098.080    95135795.66246
  20778787.540   109193282.18609  20778784.460    85085676.57848
  22078620.960   116024121.81609  22078617.620    90408472.76447
  22004484.980   115634381.99209  22004480.520    90104699.13848
  24097874.140   126635179.94608  24097870.340    98676752.88345
  20750183.040   109043101.29909  20750178.020    84968710.27448
  20660811.440   108573366.61909  20660810.660    84602650.43549
  21132578.060   112767553.05309  21132580.740    87708140.86708
  20427747.080   109351456.41508  20427747.620    85051181.81308
  23426577.780   125448263.93507  23426585.560    97570895.22906
  22695103.280   121190584.42208  22695105.140    94259347.09205
  21580880.140   115281187.63208  21580882.840    89663159.22707
  21313640.780   114053611.62008  21313641.680    88708373.98308
  20321085.820   108475483.43609  20321088.300    84369882.04708
  23406107.280   125206889.41208  23406107.600    97383144.84706
 15 03 04 01 44  0.0000000  0 15G04G16G18G19G21G22G27R02R03R04R09R16
                                R17R18R19
  23217520.760   122009030.66108  23217520.440    95072007.66946
  20786579.420   109234228.60509  20786576.340    85117582.86448
  22087760.860   116072152.70809  22087757.660    90445899.41947
  21992466.320   115571223.49209  21992461.800    90055484.72448
  24111265.600   126705552.71508  24111262.120    98731588.78545
  20746751.880   109025070.63909  20746746.860    84954660.41648
  20654895.220   108542276.74109  20654894.460    84578424.54849
  21141323.020   112814217.76609  21141325.740    87744435.63308
  20413972.720   109277720.26108  20413973.020    84993831.48408
  23401569.200   125314345.28907  23401577.140    97466736.43506
  22688685.100   121156312.09708  22688686.620    94232690.82503
  21592819.440   115344965.12308  21592822.200    89712763.90507
  21322034.260   114098526.05309  21322035.160    88743307.38908
  20316755.620   108452368.84909  20316758.240    84351904.04508
  23392100.460   125131963.21507  23392100.920    97324868.97806
 15 03 04 01 44 30.0000000  0 15G04G16G18G19G21G22G27R02R03R04R09R16
                                R17R18R19
  23201982.060   121927374.54908  23201981.820    95008379.61946
  20794474.320   109275716.28209  20794471.220    85149910.90848
  22096980.680   116120603.39709  22096977.640    90483653.20747
  21980474.340   115508205.01209  21980469.720    90006379.42148
  24124656.360   126775922.58208  24124652.940    98786422.41345
  20743421.760   109007570.97209  20743416.840    84941024.31548
  20649027.260   108511440.36109  20649026.500    84554396.20249
  21150207.700   112861628.02209  21150210.400    87781310.28708
  20400318.960   109204630.16808  20400319.260    84936983.66108
  23376563.840   125180443.01908  23376571.340    97362590.67206
  22682404.460   121122773.66408  22682405.600    94206605.35804
  21604873.900   115409357.87108  21604876.640    89762847.11007
  21330458.560   114143605.91408  21330459.440    88778369.47608
  20312454.160   108429407.69409  20312456.920    84334045.35708
  23378089.300   125057013.03208  23378089.960    97266574.41207
 15 03 04 01 45  0.0000000  0 15G04G16G18G19G21G22G27R02R03R04R09R16
                                R17R18R19
  23186481.340   121845917.88308  23186481.040    94944906.98346
  20802470.740   109317737.28309  20802467.620    85182654.53748
  22106278.800   116169465.78109  22106275.820    90521727.78747
  21968507.880   115445320.61909  21968503.160    89957378.61448
  24138045.080   126846282.58008  24138042.260    98841248.35545
  20740191.640   108990596.33709  20740186.660    84927797.34048
  20643206.580   108480852.48909  20643205.820    84530561.50549
  21159230.540   112909775.41109  21159233.220    87818758.26508
  20386785.220   109132183.26808  20386785.640    84880636.09908
  23351560.960   125046553.40007  23351568.080    97258454.83506
  22676260.160   121089963.33608  22676261.980    94181086.27804
  21617041.580   115474355.52208  21617044.320    89813400.80707
  21338912.740   114188845.35308  21338913.640    88813555.66708
  20308180.300   108406594.01709  20308183.120    84316301.39808
  23364072.460   124982032.16508  23364072.760    97208255.97606
 15 03 04 01 45 30.0000000  0 15G04G16G18G19G21G22G27R02R03R04R09R16
                                R17R18R19
  23171020.220   121764669.47008  23171019.720    94881596.61146
  20810569.920   109360298.57909  20810566.780    85215819.17148
  22115656.640   116218746.78609  22115653.680    90560128.58547
  21956568.760   115382579.97809  21956564.000    89908489.81148
  24151433.340   126916640.27207  24151430.460    98896072.52246
  20737063.160   108974155.76209  20737058.040    84914986.50648
  20637435.040   108450522.99409  20637434.300    84506928.12449
  21168392.780   112958666.44709  21168395.320    87856784.62608
  20373373.900   109060391.90408  20373374.440    84824798.40308
  23326562.640   124912689.70708  23326569.460    97154339.58506
  22670253.840   121057890.89908  22670255.320    94156141.01004
  21629323.360   115539962.86108  21629326.160    89864428.69807
  21347398.440   114234253.90308  21347399.440    88848873.40608
  20303935.900   108383937.33509  20303938.720    84298679.52208
  23350051.400   124907029.05008  23350051.820    97149920.21007
 15 03 04 01 46  0.0000000  0 15G04G16G18G19G21G22G27R02R03R04R09R16
                                R17R18R19
  23155597.840   121683624.38408  23155597.280    94818444.68546
  20818770.740   109403394.32909  20818767.580    85249400.26148
  22125112.800   116268439.09509  22125109.920    90598849.86347
  21944656.120   115319978.61109  21944651.340    89859709.53448
  24164820.160   126986989.88907  24164817.540    98950890.38345
  20734035.420   108958244.65209  20734030.200    84902588.25348
  20631711.860   108420447.63309  20631711.120    84483492.77949
  21177692.920   113008293.12609  21177695.340    87895383.16608
  20360084.680   108989254.02008  20360085.260    84769468.96608
  23301568.540   124778848.96207  23301575.000    97050241.86806
  22664384.920   121026551.73308  22664386.260    94131766.09104
  21641717.560   115606170.45108  21641720.360    89915923.45707
  21355914.680   114279826.43908  21355915.640    88884318.72108
  20299720.000   108361432.69009  20299722.860    84281175.92708
  23336025.080   124831998.04908  23336026.040    97091562.87907
 15 03 04 01 46 30.0000000  0 15G04G16G18G19G21G22G27R02R03R04R09R16
                                R17R18R19
  23140213.740   121602780.47708  23140212.920    94755449.47746
  20827072.360   109447020.17509  20827069.320    85283394.41048
  22134646.480   116318538.57809  22134643.600    90637888.41247
  21932769.600   115257514.90009  21932764.900    89811036.52448
  24178204.880   127057328.36508  24178202.580    99005699.53645
  20731107.880   108942860.16009  20731102.620    84890600.35148
  20626036.800   108390625.18009  20626036.080    84460254.51149
  21187130.020   113058650.96609  21187132.420    87934550.38008
  20346917.700   108918770.37008  20346918.160    84714648.36808
  23276579.020   124645033.47707  23276585.260    96946164.05206
  22658653.220   120995944.48108  22658654.860    94107960.47104
  21654222.960   115672971.85808  21654225.800    89967880.06707
  21364461.220   114325560.98708  21364462.160    88919890.02808
  20295532.280   108339078.31009  20295535.140    84263789.19608
  23321993.060   124756936.44908  23321993.440    97033181.61405
 15 03 04 01 47  0.0000000  0 15G04G16G18G19G21G22G27R02R03R04R09R16
                                R17R18R19
  23124868.960   121522143.50308  23124868.020    94692615.57046
  20835475.660   109491180.19109  20835472.720    85317804.79748
  22144258.460   116369048.84409  22144255.340    90677247.06947
  21920910.460   115195195.23509  21920905.880    89762475.76348
  24191588.580   127127660.01808  24191586.340    99060503.39545
  20728281.620   108928007.76909  20728276.300    84879027.07048
  20620411.160   108361062.29309  20620410.440    84437218.50349
  21196704.660   113109742.79109  21196706.940    87974288.46408
  20333874.700   108848949.95008  20333875.000    84660343.61608
  23251595.680   124511252.30107  23251601.840    96842113.08506
  22653059.440   120966075.12408  22653061.240    94084728.76404
  21666839.800   115740368.44508  21666842.620    90020299.57707
  21373039.160   114371463.64809  21373040.120    88955592.08408
  20291373.860   108316880.11309  20291376.620    84246523.94408
  23307956.340   124681849.47608  23307957.000    96974780.65807
 15 03 04 01 47 30.0000000  0 15G04G16G18G19G21G22G27R02R03R04R09R16
                                R17R18R19
  23109562.780   121441709.16008  23109561.960    94629939.53846
  20843979.620   109535868.76309  20843976.680    85352627.04548
  22153947.320   116419963.53409  22153944.020    90716920.84847
  21909078.060   115133016.01309  21909073.600    89714024.43748
  24204970.380   127197980.93408  24204967.760    99115298.85945
  20725555.920   108913683.59909  20725550.480    84867865.38748
  20614834.280   108331755.63209  20614833.540    84414382.14049
  21206415.440   113161561.48609  21206417.760    88014591.87108
  20320955.320   108779790.94908  20320955.500    84606553.30508
  23226618.240   124377504.33907  23226624.420    96738087.94806
  22647603.440   120936939.92708  22647605.220    94062068.03204
  21679566.460   115808351.73008  21679569.440    90073175.42407
  21381647.860   114417530.34808  21381648.780    88991421.73508
  20287244.080   108294834.26609  20287246.680    84229377.17408
  23293913.980   124606732.33208  23293914.980    96916356.31306
 15 03 04 01 48  0.0000000  0 15G04G16G18G19G21G22G27R02R03R04R09R16
                                R17R18R19
  23094295.920   121361481.54008  23094295.240    94567424.57746
  20852584.700   109581088.30109  20852581.680    85387863.03648
  22163713.580   116471285.00409  22163710.140    90756911.60247
  21897273.460   115070982.64709  21897269.060    89665686.76848
  24218350.520   127268293.24308  24218347.740    99170087.65345
  20722931.400   108899891.56909  20722925.920    84857118.36348
  20609307.140   108302710.28909  20609306.380    84391749.40949
  21216262.780   113214108.74709  21216265.040    88055461.97108
  20308160.920   108711300.79608  20308160.940    84553283.21708
  23201648.480   124243797.22307  23201654.540    96634094.30306
  22642285.660   120908543.25408  22642287.180    94039981.73704
  21692402.860   115876921.34108  21692405.860    90126507.28807
  21390288.020   114463765.58208  21390288.980    89027382.44108
  20283143.660   108272945.19309  20283146.080    84212352.33908
  23279866.820   124531588.93408  23279867.120    96857911.38706
 15 03 04 01 48 30.0000000  0 15G04G16G18G19G21G22G27R02R03R04R09R16
                                R17R18R19
  23079068.920   121281463.54308  23079068.140    94505072.94746
  20861291.040   109626839.71709  20861287.860    85423513.47248
  22173557.200   116523013.40809  22173553.740    90797219.44347
  21885497.200   115009098.08909  21885492.820    89617465.04048
  24231729.300   127338598.59408  24231726.140    99224871.03945
  20720408.600   108886634.25709  20720403.140    84846787.99648
  20603830.420   108273930.02609  20603829.660    84369323.23049
  21226246.600   113267384.55609  21226248.860    88096898.73008
  20295492.520   108643485.53208  20295492.520    84500538.04308
  23176687.740   124110137.39307  23176693.280    96530137.26306
  22637107.020   120880888.71408  22637108.480    94018472.62304
  21705348.800   115946075.82308  21705351.700    90180294.06307
  21398960.360   114510172.58308  21398961.260    89063476.74408
  20279073.140   108251216.08309  20279075.520    84195451.92508
  23265814.700   124456421.17408  23265815.300    96799447.66607
 15 03 04 01 49  0.0000000  0 15G04G16G18G19G21G22G27R02R03R04R09R16
                                R17R18R19
  23063880.640   121201649.18208  23063879.860    94442880.00546
  20870097.160   109673115.70909  20870093.840    85459572.67048
  22183476.820   116575140.83809  22183473.280    90837838.21147
  21873748.280   114947356.97609  21873743.900    89569355.11348
  24245105.700   127408890.77608  24245102.200    99279644.15445
  20717986.400   108873905.80709  20717981.020    84836869.72848
  20598403.140   108245409.86609  20598402.440    84347099.73949
  21236365.340   113321380.15009  21236367.780    88138895.27808
  20282949.520   108576341.68608  20282949.620    84448315.06908
  23151735.280   123976522.37507  23151740.580    96426215.11506
  22632066.140   120853970.37808  22632067.820    93997536.20404
  21718402.260   116015804.89008  21718405.140    90234527.74607
  21407663.600   114556745.48608  21407664.480    89099700.10408
  20275031.520   108229641.37909  20275033.900    84178671.60808
  23251757.340   124381223.13508  23251758.040    96740960.29406
 15 03 04 01 49 30.0000000  0 15G04G16G18G19G21G22G27R02R03R04R09R16
                                R17R18R19
  23048731.920   121122042.69408  23048731.320    94380849.05946
  20879003.340   109719918.06409  20879000.060    85496042.02348
  22193472.680   116627669.48109  22193469.180    90878769.61747
  21862027.660   114885764.47109  21862023.200    89521360.97048
  24258480.140   127479173.00308  24258476.400    99334409.51944
  20715665.460   108861709.61909  20715660.200    84827366.21748
  20593026.300   108217154.79409  20593025.680    84325082.80849
  21246619.160   113376096.85909  21246621.480    88181452.72008
  20270533.200   108509876.54908  20270533.440    84396619.99108
  23126792.920   123842960.20708  23126797.940    96322334.00507
  22627164.040   120827792.87108  22627165.280    93977175.88204
  21731563.180   116086108.14908  21731566.060    90289208.03807
  21416398.580   114603489.06508  21416399.700    89136056.21108
  20271019.620   108208225.61409  20271022.060    84162014.89308
  23237694.680   124305997.88208  23237695.200    96682451.80506
 15 03 04 01 50  0.0000000  0 15G04G16G18G19G21G22G27R02R03R04R09R16
                                R17R18R19
  23033622.820   121042644.27108  23033622.380    94318980.22646
  20888009.360   109767245.17609  20888006.180    85532920.26848
  22203544.300   116680597.02409  22203540.900    90920011.85847
  21850335.440   114824321.06509  21850330.900    89473482.99948
  24271852.440   127549444.27008  24271848.660    99389166.34645
  20713445.900   108850046.23109  20713440.720    84818277.87248
  20587700.140   108189165.91509  20587699.580    84303273.29449
  21257007.560   113431531.86409  21257010.040    88224568.83108
  20258244.220   108444092.95608  20258244.540    84345454.99508
  23101861.180   123709454.19807  23101866.060    96218496.56106
  22622400.260   120802356.23708  22622401.800    93957391.87804
  21744830.820   116156981.20408  21744833.600    90344331.46307
  21425165.380   114650403.11908  21425166.700    89172544.92608
  20267037.540   108186969.16909  20267040.020    84145482.10508
  23223627.100   124230745.56008  23223627.480    96623922.24206
 15 03 04 01 50 30.0000000  0 16G04G16G18G19G21G22G27G32R02R03R04R09
                                R16R17R18R19
  23018553.580   120963455.26108  23018553.060    94257274.58046
  20897115.320   109815097.45509  20897112.220    85570207.75248
  22213691.820   116733923.06109  22213688.560    90961564.61147
  21838672.040   114763028.91409  21838667.400    89425722.87948
  24285222.600   127619705.20608  24285219.040    99443915.07245
  20711327.960   108838916.54609  20711322.760    84809605.40348
  20582425.160   108161445.73709  20582424.640    84281673.16349
  24491489.320   128703648.44407  24491497.720   100288568.54145
  21267530.360   113487683.99209  21267532.960    88268242.71008
  20246083.480   108378995.41008  20246083.760    84294823.59708
  23076941.180   123576010.17008  23076945.720    96114707.28406
  22617776.040   120777662.75408  22617777.400    93938185.77804
  21758204.560   116228421.16508  21758207.220    90399895.84807
  21433964.660   114697490.03908  21433966.000    89209168.06408
  20263085.740   108165874.18409  20263088.180    84129074.90508
  23209554.800   124155467.04608  23209555.040    96565372.25706
 15 03 04 01 51  0.0000000  0 16G04G16G18G19G21G22G27G32R02R03R04R09
                                R16R17R18R19
  23003524.020   120884474.57908  23003523.340    94195731.24146
  20906320.560   109863471.33609  20906317.460    85607901.66748
  22223914.580   116787644.17709  22223911.480    91003425.20847
  21827037.340   114701887.46409  21827032.580    89378080.20248
  24298590.460   127689953.63908  24298587.000    99498654.09945
  20709311.320   108828319.21609  20709306.160    84801347.74948
  20577201.360   108133994.06509  20577200.800    84260282.24449
  24468853.660   128584696.75107  24468861.040   100195879.63944
  21278186.900   113544549.07009  21278189.440    88312471.08408
  20234051.120   108314585.29008  20234051.380    84244726.85408
  23052033.120   123442629.75807  23052037.540    96010967.52206
  22613290.580   120753711.15308  22613292.400    93919556.82804
  21771683.440   116300422.57508  21771686.240    90455896.88507
  21442796.220   114744748.73608  21442797.420    89245924.79208
  20259164.000   108144939.86409  20259166.460    84112792.65008
  23195476.940   124080160.87008  23195477.320    96506800.89206
 15 03 04 01 51 30.0000000  0 16G04G16G18G19G21G22G27G32R02R03R04R09
                                R16R17R18R19
  22988534.160   120805702.59908  22988533.380    94134350.55246
  20915624.860   109912365.85209  20915621.740    85646001.27448
  22234212.300   116841758.90609  22234209.040    91045592.53047
  21815431.500   114640898.03809  21815426.660    89330555.97548
  24311955.980   127760189.17008  24311952.340    99553383.07345
  20707396.000   108818254.10909  20707390.840    84793504.81548
  20572028.920   108106812.29209  20572028.320    84239101.64349
  24446223.340   128465775.95008  24446230.960   100103214.98945
  21288976.640   113602124.56309  21288979.000    88357252.04508
  20222147.720   108250865.90808  20222148.040    84195167.35708
  23027137.720   123309317.57808  23027142.100    95907280.77406
  22608944.460   120730502.16908  22608945.760    93901505.33604
  21785266.640   116372981.15408  21785269.420    90512331.27807
  21451659.900   114792179.76708  21451660.900    89282815.59208
  20255272.520   108124166.97809  20255274.940    84096635.97308
  23181394.220   124004827.16508  23181394.340    96448207.95706
 15 03 04 01 52  0.0000000  0 16G04G16G18G19G21G22G27G32R02R03R04R09
                                R16R17R18R19
  22973584.100   120727139.91008  22973583.480    94073132.95146
  20925027.980   109961779.51609  20925024.820    85684505.41148
  22244584.620   116896265.65009  22244581.300    91088065.31947
  21803854.940   114580062.67809  21803850.060    89283151.80748
  24325318.920   127830411.27308  24325315.300    99608101.58846
  20705582.140   108808721.91709  20705576.920    84786077.13748
  20566908.100   108079901.99909  20566907.480    84218132.58249
  24423599.280   128346889.05208  24423607.220   100010576.76145
  21299898.980   113660407.87309  21299901.280    88402583.50408
  20210373.980   108187840.83008  20210374.460    84146147.86908
  23002255.900   123176077.79308  23002259.880    95803650.32806
  22604737.240   120708036.39408  22604738.760    93884032.00005
  21798953.360   116446092.98108  21798956.120    90569196.00007
  21460556.080   114839784.24008  21460556.760    89319841.27408
  20251411.520   108103556.72209  20251413.940    84080605.77608
  23167305.960   123929465.79208  23167306.520    96389593.64807
 15 03 04 01 52 30.0000000  0 17G04G11G16G18G19G21G22G27G32R02R03R04
                                R09R16R17R18R19
  22958674.160   120648787.72008  22958673.440    94012079.36046
  24652115.180   129547743.49807  24652112.580   100946283.17744
  20934529.680   110011711.38109  20934526.540    85723413.33548
  22255031.300   116951163.19009  22255027.920    91130842.62147
  21792307.840   114519382.50009  21792302.960    89235868.55748
  24338679.460   127900621.06408  24338675.760    99662810.46844
  20703869.860   108799723.55409  20703864.600    84779065.43648
  20561839.280   108053265.26409  20561838.700    84197376.69149
  24400982.400   128228039.43608  24400989.920    99917967.51445
  21310953.660   113719397.62409  21310955.880    88448464.43108
  20198730.660   108125513.75608  20198731.140    84097671.27708
  22977388.460   123042914.99108  22977392.200    95700079.71007
  22600669.800   120686315.10308  22600671.020    93867137.62804
  21812743.100   116519754.85108  21812746.120    90626488.51407
  21469484.960   114887563.66109  21469485.480    89357003.00508
  20247581.240   108083110.58009  20247583.720    84064703.21508
  23153213.060   123854077.74708  23153213.280    96330958.48506
 15 03 04 01 53  0.0000000  0 17G04G11G16G18G19G21G22G27G32R02R03R04
                                R09R16R17R18R19
  22943803.580   120570642.38708  22943802.680    93951186.93346
  24635285.660   129459304.12807  24635283.760   100877369.52144
  20944129.000   110062156.09309  20944125.880    85762720.89048
  22265551.220   117006445.64609  22265547.740    91173919.85947
  21780789.620   114458854.35209  21780784.780    89188703.78148
  24352037.060   127970814.08608  24352033.120    99717506.34245
  20702258.280   108791254.96209  20702253.080    84772466.54948
  20556821.980   108026899.42409  20556821.440    84176831.88749
  24378372.300   128109225.61408  24378379.580    99825386.23045
  21322139.200   113779086.57009  21322141.680    88494889.13108
  20187217.700   108063883.81708  20187218.020    84049736.90108
  22952535.360   122909829.09408  22952538.980    95596568.93006
  22596740.720   120665334.60608  22596742.000    93850819.47005
  21826634.200   116593958.42708  21826637.280    90684202.35807
  21478445.820   114935514.55208  21478446.580    89394298.14208
  20243781.100   108062825.40909  20243783.640    84048925.87208
  23139114.120   123778658.72508  23139114.680    96272299.32307
 15 03 04 01 53 30.0000000  0 17G04G11G16G18G19G21G22G27G32R02R03R04
                                R09R16R17R18R19
  22928973.220   120492708.10908  22928972.100    93890458.98446
  24618468.320   129370930.15508  24618466.740   100808506.81044
  20953826.380   110113116.12709  20953823.280    85802429.99148
  22276144.840   117062115.38709  22276141.280    91217298.85547
  21769301.480   114398484.17609  21769296.640    89141662.09848
  24365391.840   128040993.08808  24365387.280    99772191.30344
  20700748.240   108783319.90009  20700743.080    84766283.39748
  20551857.240   108000809.77409  20551856.740    84156502.28949
  24355770.320   127990454.26608  24355777.320    99732838.00944
  21333456.180   113839476.41809  21333458.620    88541859.03208
  20175836.280   108002957.88208  20175836.500    84002350.07908
  22927698.140   122776828.57208  22927701.580    95493124.52306
  22592951.360   120645099.28507  22592952.920    93835080.89704
  21840626.620   116668703.33308  21840629.620    90742337.24507
  21487439.680   114983641.71908  21487440.220    89431730.36008
  20240012.020   108042706.01509  20240014.640    84033277.45208
  23125010.220   123703212.85708  23125010.960    96213619.22207
 15 03 04 01 54  0.0000000  0 17G04G11G16G18G19G21G22G27G32R02R03R04
                                R09R16R17R18R19
  22914183.120   120414985.53508  22914181.980    93829896.00146
  24601663.740   129282622.09507  24601662.400   100739695.43344
  20963621.520   110164590.15309  20963618.460    85842539.60248
  22286811.740   117118170.64309  22286808.340    91260978.26547
  21757843.520   114338272.75509  21757838.720    89094744.11048
  24378743.980   128111158.53508  24378739.880    99826865.63245
  20699339.880   108775918.84509  20699334.680    84760516.34148
  20546945.360   107974997.90109  20546944.920    84136389.14349
  24333177.020   127871728.24908  24333183.740    99640325.07645
  21344904.000   113900564.59509  21344906.480    88589372.04608
  20164586.960   107942739.29008  20164587.140    83955513.41508
  22902877.440   122643917.25708  22902880.780    95389749.47006
  22589301.620   120625609.76808  22589302.460    93819922.34004
  21854719.640   116743985.71608  21854722.760    90800890.13907
  21496466.580   115031945.92508  21496467.100    89469300.28808
  20236274.220   108022753.47509  20236276.880    84017758.80608
  23110901.400   123627740.45908  23110902.040    96154918.51606
 15 03 04 01 54 30.0000000  0 17G04G11G16G18G19G21G22G27G32R02R03R04
                                R09R16R17R18R19
  22899433.460   120337475.87708  22899432.460    93769498.93746
  24584871.820   129194381.13708  24584870.780   100670936.38444
  20973514.360   110216577.34609  20973511.320    85883049.09148
  22297551.820   117174610.22009  22297548.540    91304957.14547
  21746416.180   114278222.26909  21746411.480    89047951.54848
  24392093.520   128181310.35708  24392089.820    99881529.38845
  20698033.340   108769052.72809  20698028.100    84755166.13048
  20542086.820   107949466.11709  20542086.380    84116494.25549
  24310593.100   127753051.17108  24310599.300    99547850.27745
  21356482.420   113962349.22609  21356485.120    88637426.72908
  20153470.520   107883231.96608  20153470.680    83909229.96208
  22878074.300   122511100.09108  22878077.560    95286447.63807
  22585791.800   120606867.30808  22585793.280    93805344.90305
  21868912.760   116819802.52408  21868915.880    90859858.72607
  21505526.800   115080428.83208  21505527.380    89507009.19208
  20232568.060   108002969.68609  20232570.640    84002371.42508
  23096787.800   123552242.42208  23096788.200    96096197.77707
 15 03 04 01 55  0.0000000  0 17G04G11G16G18G19G21G22G27G32R02R03R04
                                R09R16R17R18R19
  22884723.820   120260176.76208  22884722.920    93709265.92546
  24568092.420   129106204.74807  24568091.300   100602227.56945
  20983504.080   110269073.71109  20983501.080    85923955.33248
  22308364.280   117231430.09909  22308360.980    91349232.38547
  21735019.160   114218331.04809  21735014.520    89001283.07248
  24405439.740   128251445.92408  24405435.940    99936180.47045
  20696828.040   108762718.64209  20696822.740    84750230.49548
  20537281.320   107924212.99909  20537280.900    84096816.50149
  24288018.440   127634422.82808  24288024.360    99455413.48745
  21368190.340   114024824.73809  21368192.880    88686018.81908
  20142486.880   107824435.90608  20142487.140    83863499.72808
  22853289.080   122378378.75707  22853292.440    95183220.31907
  22582421.120   120588869.37108  22582423.100    93791346.54104
  21883204.540   116896146.39108  21883207.400    90919237.25707
  21514619.980   115129088.61408  21514620.600    89544855.64008
  20228893.180   107983352.85209  20228895.680    83987113.88308
  23082668.880   123476715.98008  23082669.760    96037455.10507
 15 03 04 01 55 30.0000000  0 17G04G11G16G18G19G21G22G27G32R02R03R04
                                R09R16R17R18R19
  22870054.880   120183091.44109  22870054.120    93649199.48246
  24551325.640   129018096.04108  24551324.740   100533571.59944
  20993590.940   110322080.70709  20993588.040    85965259.47148
  22319249.180   117288631.21309  22319246.000    91393804.67447
  21723653.220   114158603.09809  21723648.640    88954741.81448
  24418783.160   128321567.37507  24418779.680    99990820.53444
  20695724.480   108756919.46909  20695719.120    84745711.67948
  20532529.680   107899242.86309  20532529.240    84077359.26049
  24265454.020   127515848.86208  24265459.460    99363019.01045
  21380027.760   114087991.33509  21380030.300    88735148.39908
  20131637.260   107766357.25208  20131637.560    83818327.46908
  22828523.080   122245759.99708  22828526.400    95080072.72406
  22579190.780   120571619.15608  22579192.460    93777929.63604
  21897594.800   116973016.19308  21897597.660    90979024.82007
  21523746.720   115177928.62608  21523747.420    89582842.31108
  20225250.260   107963906.63309  20225252.760    83971989.06108
  23068545.140   123401164.41508  23068546.020    95978692.83006
 15 03 04 01 56  0.0000000  0 17G04G11G16G18G19G21G22G27G32R02R03R04
                                R09R16R17R18R19
  22855426.100   120106217.10908  22855425.460    93589297.46446
  24534571.500   128930052.25907  24534570.220   100464966.10044
  21003774.140   110375593.61609  21003771.220    86006957.82148
  22330205.820   117346208.97909  22330202.780    91438670.46147
  21712318.140   114099036.95509  21712313.540    88908326.64648
  24432123.340   128391671.32408  24432119.440   100045446.97744
  20694722.220   108751652.47309  20694716.860    84741607.52748
  20527831.600   107874554.01209  20527831.120    84058121.18849
  24242899.820   127397328.95508  24242905.200    99270666.67945
  21391993.580   114151843.19808  21391996.180    88784810.93608
  20120921.620   107708995.46408  20120921.840    83773712.75308
  22803776.540   122113244.94707  22803779.860    94977005.80207
  22576099.480   120555113.73608  22576102.060    93765092.16004
  21912082.040   117050404.42008  21912085.060    91039215.59507
  21532906.700   115226946.61808  21532907.540    89620967.40208
  20221638.900   107944629.07109  20221641.480    83956995.39308
  23054416.520   123325584.57008  23054416.860    95919908.50306
 15 03 04 01 56 30.0000000  0 17G04G11G16G18G19G21G22G27G32R02R03R04
                                R09R16R17R18R19
  22840838.180   120029556.81408  22840837.400    93529562.23946
  24517830.260   128842076.65208  24517828.840   100396413.83244
  21014053.740   110429612.97609  21014050.780    86049050.81148
  22341234.200   117404163.45709  22341231.220    91483829.79447
  21701014.520   114039636.09409  21701009.940    88862040.26748
  24445460.660   128461760.19907  24445456.800   100100061.67944
  20693821.660   108746919.79109  20693816.280    84737919.74348
  20523187.840   107850150.33209  20523187.240    84039105.33649
  24220356.960   127278868.28208  24220361.980    99178360.44645
  21404087.740   114216379.76909  21404090.280    88835006.04308
  20110340.900   107652356.07308  20110341.040    83729659.91408
  22779050.580   121980839.95707  22779053.720    94874024.44707
  22573148.620   120539355.93407  22573150.120    93752835.96704
  21926666.140   117128309.73108  21926669.300    91099808.56807
  21542100.640   115276146.01608  21542101.580    89659233.57708
  20218059.640   107925523.37909  20218062.420    83942135.41308
  23040282.900   123249978.77308  23040283.180    95861104.00407
 15 03 04 01 57  0.0000000  0 17G04G11G16G18G19G21G22G27G32R02R03R04
                                R09R16R17R18R19
  22826290.020   119953105.02609  22826289.020    93469989.47946
  24501100.900   128754163.43708  24501099.260   100327910.12344
  21024428.360   110484131.64409  21024425.360    86091532.86748
  22352332.740   117462487.25608  22352329.900    91529276.90747
  21689741.440   113980395.65109  21689736.800    88815878.89748
  24458793.960   128531826.94108  24458789.820   100154659.19344
  20693021.540   108742715.40809  20693016.180    84734643.61048
  20518597.480   107826027.36709  20518596.780    84020308.22049
  24197824.740   127160463.63608  24197829.520    99086097.87345
  21416308.580   114281592.53509  21416311.100    88885727.09108
  20099894.440   107596435.78908  20099894.600    83686166.38008
  22754344.880   121848543.48508  22754347.900    94771127.53406
  22570336.200   120524339.75008  22570338.620    93741156.82905
  21941345.100   117206721.59008  21941348.240    91160795.52407
  21551327.480   115325521.18508  21551328.640    89697636.47408
  20214511.700   107906584.75709  20214514.640    83927405.38208
  23026143.220   123174341.50408  23026143.800    95802275.14206
 15 03 04 01 57 30.0000000  0 17G04G11G16G18G19G21G22G27G32R02R03R04
                                R09R16R17R18R19
  22811783.040   119876869.56709  22811781.700    93410585.26246
  24484384.880   128666320.39308  24484383.280   100259461.10044
  21034899.020   110539155.07609  21034895.980    86134408.24648
  22363502.720   117521186.13409  22363500.060    91575016.28047
  21678500.600   113921324.72809  21678495.940    88769849.62948
  24472124.660   128601879.42708  24472120.840   100209245.51644
  20692323.400   108739047.03809  20692318.060    84731785.14348
  20514062.220   107802194.13909  20514061.440    84001736.87249
  24175305.120   127042125.37108  24175309.660    98993886.99045
  21428657.080   114347486.32309  21428659.680    88936977.80308
  20089584.340   107541245.54608  20089584.480    83643240.66108
  22729661.700   121716367.44307  22729664.700    94668324.20507
  22567664.920   120510073.35708  22567667.440    93730060.69204
  21956119.460   117285643.60708  21956122.700    91222179.24207
  21560588.940   115375081.02408  21560590.120    89736182.99907
  20210996.660   107887821.83309  20210999.800    83912811.99808
  23011999.180   123098680.63308  23011999.580    95743427.78306
 15 03 04 01 58  0.0000000  0 17G04G11G16G18G19G21G22G27G32R02R03R04
                                R09R16R17R18R19
  22797316.280   119800845.91208  22797314.680    93351346.10246
  24467681.560   128578543.48908  24467679.960   100191063.57845
  21045464.580   110594677.23509  21045461.480    86177672.25048
  22374742.740   117580253.13709  22374740.140    91621042.49847
  21667291.340   113862419.64809  21667286.640    88723949.56248
  24485451.800   128671913.01408  24485447.980   100263817.17345
  20691726.300   108735909.34109  20691720.940    84729340.18748
  20509581.320   107778646.95309  20509580.520    83983388.41549
  24152797.680   126923851.26808  24152801.940    98901726.07245
  21441131.720   114414052.88609  21441134.240    88988751.78408
  20079410.060   107486782.78908  20079410.340    83600880.75608
  22705000.760   121584310.79807  22705003.560    94565613.73506
  22565132.420   120496551.29407  22565134.020    93719543.51504
  21970987.480   117365066.07208  21970990.860    91283952.19607
  21569884.060   115424820.96508  21569885.400    89774869.59708
  20207513.820   107869230.59709  20207517.100    83898352.13808
  22997849.840   123022991.08708  22997850.020    95684558.12407
 15 03 04 01 58 30.0000000  0 17G04G11G16G18G19G21G22G27G32R02R03R04
                                R09R16R17R18R19
  22782890.740   119725039.38009  22782889.020    93292276.12846
  24450991.520   128490837.66108  24450990.240   100122721.51244
  21056125.540   110650700.78209  21056122.400    86221326.94548
  22386053.460   117639691.22709  22386050.780    91667357.91347
  21656114.780   113803686.34709  21656110.040    88678183.35848
  24498775.800   128741930.96808  24498772.620   100318376.61745
  20691231.200   108733307.19709  20691225.740    84727312.54748
  20505156.040   107755392.17909  20505155.260    83965267.81849
  24130303.920   126805648.83808  24130308.000    98809621.00145
  21453732.900   114481294.41809  21453735.200    89041050.75308
  20069373.220   107433055.23508  20069373.660    83559092.67708
  22680363.840   121452382.71007  22680366.800    94463003.28707
  22562740.900   120483778.80408  22562742.500    93709609.31905
  21985949.320   117444989.78408  21985952.620    91346115.03307
  21579214.060   115474747.05708  21579215.080    89813700.97208
  20204064.320   107850816.91309  20204067.640    83884030.39008
  22983696.100   122947277.72108  22983696.820    95625670.03607
 15 03 04 01 59  0.0000000  0 17G04G11G16G18G19G21G22G27G32R02R03R04
                                R09R16R17R18R19
  22768505.620   119649445.49708  22768503.940    93233371.84746
  24434314.320   128403198.44708  24434312.900   100054431.26245
  21066880.760   110707219.88709  21066877.640    86265367.78348
  22397433.640   117699494.15909  22397430.760    91713957.59047
  21644970.240   113745121.30209  21644965.500    88632548.27548
  24512095.940   128811928.68108  24512092.580   100372920.27744
  20690837.100   108731235.86209  20690831.600    84725698.51348
  20500785.760   107732426.46509  20500785.000    83947372.46749
  24107823.480   126687516.12708  24107827.320    98717570.16445
  21466459.060   114549203.29409  21466461.400    89093868.73708
  20059473.340   107380060.54208  20059473.860    83517874.60108
  22655750.780   121320582.24607  22655753.540    94360492.04407
  22560488.020   120471750.97007  22560490.580    93700254.40704
  22001003.360   117525405.83608  22001006.760    91408660.78107
  21588578.060   115524854.73508  21588578.840    89852673.60908
  20200647.400   107832577.11909  20200650.720    83869843.88608
  22969537.040   122871536.24408  22969537.460    95566759.98106
 15 03 04 01 59 30.0000000  0 17G04G11G16G18G19G21G22G27G32R02R03R04
                                R09R16R17R18R19
  22754161.320   119574066.25409  22754159.640    93174634.82846
  24417650.080   128315628.16008  24417649.000    99986194.80645
  21077730.180   110764234.17809  21077727.120    86309794.49648
  22408883.140   117759661.89509  22408880.280    91760841.52246
  21633858.320   113686727.79009  21633853.580    88587046.84448
  24525412.380   128881907.72407  24525409.160   100427449.36745
  20690544.140   108729696.43809  20690538.640    84724498.97948
  20496471.180   107709753.05509  20496470.380    83929704.88749
  24085357.180   126569457.68008  24085360.880    98625577.24045
  21479310.080   114617778.14809  21479312.380    89147204.74708
  20049711.260   107327803.43508  20049711.780    83477230.20408
  22631162.760   121188915.75208  22631165.400    94258085.05007
  22558375.680   120460469.70208  22558378.100    93691480.03404
  22016149.060   117606311.53508  22016152.480    91471587.38607
  21597976.340   115575146.92108  21597977.100    89891789.75608
  20197263.640   107814514.06609  20197266.880    83855794.86108
  22955373.040   122795768.72908  22955373.360    95507829.76106
 15 03 04 02 00  0.0000000  0 17G04G11G16G18G19G21G22G27G32R02R03R04
                                R09R16R17R18R19
  22739858.060   119498902.67608  22739856.560    93116065.84446
  24400999.160   128228127.35008  24400997.820    99918012.42244
  21088673.680   110821742.92409  21088670.680    86354606.49048
  22420401.800   117820192.80709  22420398.880    91808008.48047
  21622779.320   113628507.40109  21622774.620    88541680.32248
  24538725.280   128951868.92307  24538722.040   100481964.54845
  20690352.560   108728689.93109  20690347.120    84723714.69848
  20492212.620   107687373.87409  20492211.760    83912266.56449
  24062905.740   126451476.80208  24062909.060    98533644.70745
  21492285.460   114687016.78209  21492287.600    89201057.00508
  20040087.680   107276287.38808  20040088.100    83437162.17708
  22606600.780   121057387.87908  22606603.120    94155785.81207
  22556403.360   120449935.27908  22556405.880    93683286.63105
  22031385.780   117687703.28908  22031389.180    91534892.00807
  21607409.300   115625624.71308  21607410.080    89931050.25308
  20193913.220   107796629.24309  20193916.420    83841884.45808
  22941204.560   122719975.81808  22941204.860    95448879.70407
 15 03 04 02 00 30.0000000  0 17G04G11G16G18G19G21G22G27G32R02R03R04
                                R09R16R17R18R19
  22725596.160   119423956.93108  22725594.880    93057666.59546
  24384361.740   128140698.47108  24384360.580    99849886.13745
  21099711.320   110879746.06409  21099708.340    86399803.71748
  22431989.420   117881086.38909  22431986.460    91855458.01747
  21611733.880   113570463.39609  21611729.220    88496451.23348
  24552034.900   129021812.40707  24552032.160   100536465.94344
  20690262.660   108728217.77609  20690257.280    84723346.79448
  20488010.680   107665292.07609  20488009.720    83895059.96449
  24040469.940   126333577.99008  24040472.860    98441776.09345
  21505384.940   114756917.71909  21505386.920    89255424.39108
  20030603.360   107225516.70608  20030603.660    83397673.89208
  22582065.900   120926004.65208  22582068.080    94053599.06007
  22554570.900   120440149.50307  22554572.920    93675675.43904
  22046712.900   117769578.15208  22046716.440    91598572.39907
  21616877.540   115676290.81708  21616877.940    89970457.17807
  20190596.720   107778925.57909  20190599.860    83828114.93908
  22927031.240   122644159.50708  22927031.500    95389911.50206
 15 03 04 02 01  0.0000000  0 17G04G11G16G18G19G21G22G27G32R02R03R04
                                R09R16R17R18R19
  22711374.480   119349222.40708  22711373.360    92999431.94246
  24367737.060   128053335.24308  24367736.160    99781810.96844
  21110841.460   110938234.82209  21110838.420    86445379.34548
  22443644.600   117942334.69509  22443641.680    91903183.94046
  21600720.980   113512590.23709  21600716.340    88451355.28048
  24565340.280   129091732.21208  24565337.280   100590948.93545
  20690273.060   108728272.72809  20690267.800    84723389.62648
  20483864.260   107643502.27909  20483863.260    83878080.89349
  24018048.960   126215757.24108  24018051.680    98349968.32145
  21518606.540   114827471.00409  21518608.560    89310299.17408
  20021257.440   107175486.61108  20021257.640    83358761.60808
  22557557.500   120794763.02608  22557559.660    93951522.44607
  22552876.840   120431105.26107  22552879.000    93668641.05904
  22062128.480   117851925.41008  22062132.080    91662620.18407
  21626379.880   115727139.11608  21626380.440    90010005.85708
  20187313.080   107761397.24009  20187316.160    83814481.78408
  22912852.600   122568312.92608  22912852.540    95330919.72306
 15 03 04 02 01 30.0000000  0 17G04G11G16G18G19G21G22G27G32R02R03R04
                                R09R16R17R18R19
  22697194.200   119274705.60008  22697193.380    92941366.95346
  24351126.060   127966043.88108  24351124.780    99713791.79245
  21122064.880   110997213.43009  21122061.700    86491336.68448
  22455368.180   118003941.82708  22455365.160    91951189.51347
  21589741.940   113454895.12109  21589737.360    88406398.05048
  24578641.980   129161633.41707  24578639.440   100645417.34145
  20690384.880   108728860.56409  20690379.740    84723847.69048
  20479774.800   107622011.93509  20479773.780    83861335.16249
  23995644.460   126098023.26408  23995646.980    98258228.06945
  21531950.960   114898679.78409  21531953.000    89365683.76108
  20012051.560   107126206.22608  20012051.700    83320432.44108
  22533077.440   120663673.58508  22533079.640    93849564.18107
  22551322.860   120422808.41108  22551324.620    93662188.02003
  22077632.820   117934746.31508  22077636.420    91727036.36607
  21635917.340   115778176.49908  21635918.260    90049701.58308
  20184063.700   107744051.26309  20184066.660    83800990.46508
  22898669.120   122492442.56808  22898669.360    95271909.52107
 15 03 04 02 02  0.0000000  0 17G04G11G16G18G19G21G22G27G32R02R03R04
                                R09R16R17R18R19
  22683054.680   119200402.25408  22683053.900    92883468.27746
  24334528.020   127878820.41008  24334526.720    99645825.55045
  21133380.320   111056675.63009  21133376.980    86537670.84648
  22467158.740   118065901.42809  22467155.660    91999469.69447
  21578796.120   113397374.73209  21578791.640    88361576.97948
  24591939.440   129231511.91207  24591936.420   100699868.12744
  20690597.120   108729976.36109  20690592.120    84724717.14448
  20475741.720   107600817.95909  20475740.720    83844820.37449
  23973256.140   125980374.35708  23973258.620    98166554.13545
  21545416.820   114970536.50009  21545418.740    89421572.31608
  20002985.160   107077673.19508  20002985.320    83282684.54208
  22508625.620   120532735.57708  22508627.740    93747723.71207
  22549909.160   120415254.40008  22549908.600    93656312.51204
  22093224.140   118018032.00608  22093227.520    91791814.07207
  21645489.400   115829398.90308  21645490.560    90089541.21208
  20180847.940   107726884.29809  20180850.700    83787638.37908
  22884480.820   122416544.15508  22884481.200    95212877.43707
 15 03 04 02 02 30.0000000  0 17G04G11G16G18G19G21G22G27G32R02R03R04
                                R09R16R17R18R19
  22668956.960   119126318.33008  22668956.120    92825740.59346
  24317944.080   127791670.80208  24317942.780    99577916.87545
  21144788.360   111116624.87509  21144784.960    86584384.52548
  22479016.980   118128216.40909  22479013.860    92048026.80647
  21567884.940   113340036.19409  21567880.540    88316897.61748
  24605233.380   129301372.32707  24605230.720   100754304.75045
  20690910.980   108731625.79309  20690905.960    84726002.42648
  20471766.340   107579927.29609  20471765.340    83828541.94149
  23950885.480   125862818.74408  23950888.160    98074952.88045
  21559004.460   115043043.50309  21559006.520    89477966.64608
  19994059.840   107029895.86308  19994060.160    83245524.42608
  22484203.940   120401959.43808  22484205.900    93646009.12907
  22548635.400   120408448.18208  22548635.180    93651018.81405
  22108902.700   118101783.88808  22108905.840    91856954.37906
  21655097.320   115880813.16108  21655098.660    90129530.06908
  20177666.940   107709903.09509  20177669.540    83774430.78508
  22870287.940   122340623.54007  22870287.580    95153828.04306
 15 03 04 02 03  0.0000000  0 17G04G11G16G18G19G21G22G27G32R02R03R04
                                R09R16R17R18R19
  22654899.960   119052448.02308  22654899.060    92768179.35646
  24301373.020   127704588.94208  24301371.260    99510060.89346
  21156287.620   111177053.98409  21156284.280    86631472.13348
  22490941.500   118190879.71109  22490938.260    92096855.34147
  21557007.440   113282874.74009  21557003.120    88272356.24148
  24618522.940   129371209.09207  24618520.260   100808722.99245
  20691325.240   108733802.31809  20691320.080    84727698.43448
  20467847.800   107559335.40309  20467846.820    83812496.31049
  23928532.100   125745353.34608  23928534.840    97983421.88345
  21572712.340   115116191.56609  21572714.380    89534859.58008
  19985275.020   106982870.37608  19985275.340    83208949.07108
  22459812.140   120271342.85308  22459813.940    93544418.65107
  22547499.480   120402383.63708  22547500.160    93646301.98104
  22124666.540   118185991.20908  22124669.660    91922448.88707
  21664740.020   115932413.61108  21664741.540    90169663.75008
  20174519.760   107693102.58409  20174522.260    83761363.72208
  22856090.220   122264674.70708  22856090.580    95094756.76808
 15 03 04 02 03 30.0000000  0 17G04G11G16G18G19G21G22G27G32R02R03R04
                                R09R16R17R18R19
  22640884.580   118978796.53108  22640883.500    92710788.64646
  24284815.800   127617580.34508  24284814.240    99442262.10145
  21167878.720   111237965.90109  21167875.480    86678935.94748
  22502932.820   118253893.81109  22502929.260    92145957.24946
  21546164.740   113225896.20409  21546160.460    88227957.38948
  24631808.740   129441026.13008  24631806.160   100863125.88945
  20691840.660   108736510.42209  20691835.320    84729808.64948
  20463987.260   107539048.38009  20463986.340    83796688.24749
  23906197.280   125627985.53108  23906200.140    97891966.94645
  21586540.600   115189982.43309  21586542.780    89592252.45108
  19976632.100   106936603.99608  19976632.300    83172964.12308
  22435451.880   120140895.02408  22435453.520    93442959.38307
  22546502.760   120397064.99607  22546504.520    93642165.24204
  22140515.840   118270654.49108  22140518.920    91988298.03606
  21674418.560   115984205.66608  21674419.860    90209946.43307
  20171407.480   107676488.68809  20171409.920    83748441.80608
  22841888.180   122188702.90107  22841889.040    95035667.68306
 15 03 04 02 04  0.0000000  0 17G04G11G16G18G19G21G22G27G32R02R03R04
                                R09R16R17R18R19
  22626910.400   118905361.61708  22626909.220    92653566.66246
  24268272.220   127530643.04308  24268270.000    99374518.75745
  21179560.860   111299355.96109  21179557.680    86726772.34548
  22514989.940   118317254.50708  22514986.300    92195329.22047
  21535356.740   113169099.77309  21535352.420    88183700.44848
  24645090.320   129510821.01208  24645087.620   100917511.45444
  20692456.640   108739747.25909  20692451.160    84732330.86348
  20460184.500   107519065.17809  20460183.680    83781116.91649
  23883881.240   125510715.76008  23883884.020    97800588.34245
  21600488.340   115264410.42809  21600490.400    89650140.93108
  19968130.960   106891096.52708  19968131.020    83137569.44408
  22411123.400   120010617.91308  22411124.940    93341632.90407
  22545645.420   120392489.49208  22545648.560    93638606.61204
  22156449.280   118355766.80208  22156452.160    92054496.45207
  21684132.720   116036187.96508  21684133.900    90250377.10707
  20168329.820   107660060.07709  20168332.240    83735664.02208
  22827681.400   122112705.99408  22827681.140    94976558.89807
 15 03 04 02 04 30.0000000  0 17G04G11G16G18G19G21G22G27G32R02R03R04
                                R09R16R17R18R19
  22612977.560   118832143.88809  22612976.300    92596513.94846
  24251742.180   127443777.76908  24251740.480    99306831.68045
  21191333.700   111361222.56409  21191330.560    86774980.06948
  22527112.680   118380959.85909  22527109.200    92244969.74246
  21524583.720   113112487.04909  21524579.380    88139586.64848
  24658367.820   129580594.02307  24658364.560   100971880.04044
  20693173.220   108743512.85909  20693167.640    84735265.10348
  20456439.900   107499387.53409  20456439.200    83765783.68749
  23861584.380   125393546.96708  23861586.980    97709288.43845
  21614554.940   115339472.40209  21614557.140    89708522.44808
  19959772.180   106846350.59008  19959772.040    83102767.06708
  22386827.600   119880515.63608  22386829.100    93240442.41507
  22544928.100   120388656.99508  22544930.180    93635625.68504
  22172465.920   118441323.99008  22172468.800    92121040.86907
  21693882.600   116088361.26408  21693883.800    90290956.33007
  20165287.080   107643818.14009  20165289.520    83723031.41708
  22813470.220   122036684.46607  22813470.760    94917431.11607
 15 03 04 02 05  0.0000000  0 17G04G11G16G18G19G21G22G27G32R02R03R04
                                R09R16R17R18R19
  22599086.240   118759144.49308  22599084.980    92539631.33146
  24235225.960   127356985.35108  24235224.120    99239201.25545
  21203196.960   111423564.30609  21203193.860    86823558.02748
  22539300.640   118445008.66009  22539297.200    92294877.88446
  21513846.000   113056059.76109  21513841.600    88095617.34148
  24671641.000   129650344.75207  24671637.640   101026231.20344
  20693990.440   108747807.27209  20693984.880    84738611.40348
  20452753.840   107480017.50309  20452753.240    83750690.15449
  23839307.480   125276482.65708  23839309.940    97618069.90945
  21628739.760   115415166.06609  21628742.160    89767395.27108
  19951556.120   106802369.04808  19951555.900    83068559.21808
  22362565.320   119750593.21408  22362566.800    93139391.81307
  22544349.520   120385567.48008  22544350.920    93633222.73704
  22188565.080   118527322.17708  22188568.080    92187928.27407
  21703668.560   116140727.28608  21703669.680    90331685.42307
  20162279.640   107627764.77909  20162282.160    83710545.47608
  22799253.820   121960639.16608  22799254.680    94858284.84706
 15 03 04 02 05 30.0000000  0 17G04G11G16G18G19G21G22G27G32R02R03R04
                                R09R16R17R18R19
  22585236.460   118686363.58709  22585235.200    92482918.98146
  24218723.820   127270266.21508  24218722.200    99171627.97745
  21215150.400   111486379.97509  21215147.280    86872505.27948
  22551553.860   118509399.46109  22551550.400    92345052.52447
  21503143.900   112999819.60409  21503139.400    88051793.84248
  24684909.960   129720073.87107  24684906.540   101080565.59745
  20694908.200   108752630.32209  20694902.660    84742369.63048
  20449126.660   107460956.66709  20449126.120    83735837.55149
  23817050.980   125159525.77308  23817053.340    97526935.06645
  21643042.420   115491488.18509  21643045.040    89826756.92708
  19943483.160   106759154.35908  19943483.060    83034947.82208
  22338337.340   119620855.01508  22338338.860    93038484.46007
  22543910.120   120383220.85208  22543911.260    93631397.56104
  22204745.980   118613757.48308  22204749.040    92255155.66907
  21713490.740   116193286.78209  21713491.840    90372565.04508
  20159307.780   107611901.25009  20159310.300    83698207.16908
  22785033.740   121884570.87508  22785033.820    94799120.56407
 15 03 04 02 06  0.0000000  0 17G04G11G16G18G19G21G22G27G32R02R03R04
                                R09R16R17R18R19
  22571428.020   118613799.82409  22571426.720    92426375.82647
  24202235.440   127183619.18208  24202233.760    99104110.87345
  21227193.180   111549665.28509  21227190.060    86921818.49348
  22563871.440   118574128.35009  22563868.080    92395490.61947
  21492477.320   112943766.13009  21492472.720    88008115.82048
  24698174.400   129789778.98607  24698170.980   101134881.26344
  20695926.120   108757979.88809  20695920.700    84746538.13748
  20445558.260   107442204.59509  20445557.700    83721225.54549
  23794815.040   125042677.22908  23794817.440    97435884.66845
  21657461.960   115568433.68809  21657464.680    89886603.39008
  19935553.480   106716706.93508  19935553.460    83001933.17108
  22314144.260   119491303.38108  22314145.980    92937722.23007
  22543609.280   120381614.46008  22543610.720    93630148.16704
  22221007.440   118700623.16108  22221010.600    92322717.77207
  21723348.780   116246038.59408  21723349.820    90413594.20707
  20156371.360   107596226.80109  20156373.900    83686015.93508
  22770808.740   121808477.95008  22770809.560    94739937.27407
 15 03 04 02 06 30.0000000  0 17G04G11G16G18G19G21G22G27G32R02R03R04
                                R09R16R17R18R19
  22557661.040   118541454.27308  22557659.840    92370002.70747
  24185761.040   127097045.67108  24185759.400    99036651.07846
  21239325.140   111613419.56209  21239322.040    86971497.12448
  22576253.140   118639194.20409  22576249.760    92446191.27747
  21481846.680   112887901.60009  21481842.020    87964585.02448
  24711434.420   129859460.82507  24711430.740   101189178.78244
  20697044.260   108763856.31309  20697038.960    84751117.17648
  20442049.080   107423763.57509  20442048.440    83706855.91349
  23772600.380   124925940.64708  23772602.840    97344921.48645
  21671997.820   115645999.96609  21672000.480    89946932.71408
  19927767.760   106675029.72208  19927767.760    82969517.57608
  22289987.100   119361943.73708  22289988.880    92837109.31307
  22543447.420   120380748.66908  22543448.500    93629474.74404
  22237348.840   118787915.65208  22237352.200    92390611.85907
  21733243.100   116298984.62308  21733243.960    90454774.42307
  20153470.840   107580743.57509  20153473.340    83673973.41408
  22756579.480   121732361.69708  22756580.460    94680735.78506
 15 03 04 02 07  0.0000000  0 17G04G11G16G18G19G21G22G27G32R02R03R04
                                R09R16R17R18R19
  22543935.760   118469327.66609  22543934.580    92313800.21146
  24169300.800   127010546.08208  24169298.860    98969248.84545
  21251546.000   111677640.84109  21251542.940    87021539.65848
  22588698.720   118704595.42309  22588695.180    92497153.25746
  21471252.280   112832227.49009  21471247.600    87921202.60248
  24724689.940   129929119.56207  24724686.400   101243458.32544
  20698262.600   108770259.42709  20698257.460    84756106.62748
  20438599.400   107405635.41609  20438598.700    83692730.07449
  23750407.760   124809319.32608  23750410.000    97254048.06845
  21686649.680   115724184.26909  21686652.200    90007742.73908
  19920126.380   106634125.17008  19920126.520    82937702.94508
  22265866.600   119232780.36908  22265868.380    92736649.05107
  22543423.900   120380623.21208  22543424.840    93629377.17704
  22253769.400   118875630.92808  22253772.700    92458834.77407
  21743173.800   116352125.85808  21743174.580    90496106.44907
  20150606.420   107565452.94109  20150608.880    83662080.71708
  22742346.140   121656222.93007  22742346.500    94621516.71307
 15 03 04 02 07 30.0000000  0 17G04G11G16G18G19G21G22G27G32R02R03R04
                                R09R16R17R18R19
  22530252.360   118397420.86909  22530251.120    92257768.96346
  24152854.700   126924121.46908  24152852.680    98901905.08145
  21263855.620   111742328.43009  21263852.620    87071945.54848
  22601207.700   118770330.73709  22601204.220    92548375.58046
  21460694.540   112776745.93409  21460689.820    87877970.23348
  24737941.200   129998755.90007  24737937.980   101297720.36444
  20699581.180   108777189.39709  20699576.240    84761506.60848
  20435209.600   107387821.98809  20435208.880    83678849.47549
  23728237.780   124692816.47208  23728239.820    97163266.96745
  21701416.760   115802983.99509  21701419.200    90069031.39007
  19912629.960   106593996.18008  19912630.140    82906491.52708
  22241783.760   119103818.17008  22241785.560    92636345.24607
  22543539.220   120381238.07408  22543540.840    93629855.40105
  22270268.300   118963764.85508  22270271.640    92527383.30807
  21753141.160   116405463.45308  21753141.800    90537591.23208
  20147778.440   107550356.97309  20147780.900    83650339.40608
  22728108.740   121580062.20508  22728109.660    94562280.64408
 15 03 04 02 08  0.0000000  0 17G04G11G16G18G19G21G22G27G32R02R03R04
                                R09R16R17R18R19
  22516610.560   118325732.68408  22516609.360    92201908.06447
  24136422.600   126837770.87808  24136420.420    98834618.94645
  21276253.240   111807478.20809  21276250.260    87122711.58848
  22613779.560   118836396.59409  22613776.200    92599855.45047
  21450173.400   112721456.74109  21450168.620    87834887.76648
  24751187.860   130068367.81307  24751184.640   101351963.39844
  20700999.660   108784644.11709  20700994.820    84767315.48748
  20431879.680   107370323.21409  20431878.980    83665214.06549
  23706090.680   124576433.39808  23706092.520    97072579.21045
  21716298.180   115882393.89008  21716300.440    90130794.67907
  19905278.400   106554642.88608  19905278.620    82875883.42608
  22217739.080   118975059.99508  22217740.800    92536200.09907
  22543792.820   120382590.81308  22543794.600    93630907.50004
  22286844.420   119052311.55808  22286847.740    92596252.88507
  21763145.080   116458996.75708  21763145.980    90579228.20707
  20144986.800   107535455.00709  20144989.300    83638748.98208
  22713867.020   121503878.64708  22713867.220    94503026.79206
 15 03 04 02 08 30.0000000  0 17G04G11G16G18G19G21G22G27G32R02R03R04
                                R09R16R17R18R19
  22503010.380   118254263.36909  22503009.120    92146217.75247
  24120004.820   126751494.62808  24120002.500    98767390.74845
  21288738.520   111873088.34009  21288735.520    87173836.35248
  22626414.060   118902791.16409  22626410.620    92651591.49947
  21439689.140   112666361.38409  21439684.280    87791956.33548
  24764430.000   130137955.34707  24764426.720   101406187.43144
  20702518.000   108792623.18909  20702513.140    84773532.95048
  20428609.920   107353140.60409  20428609.280    83651825.01649
  23683966.900   124460172.96708  23683968.540    96981986.96545
  21731293.220   115962411.05409  21731295.680    90193030.20808
  19898072.240   106516067.59208  19898072.440    82845880.42808
  22193733.260   118846510.04008  22193734.940    92436216.93707
  22544183.200   120384680.73907  22544184.980    93632533.02104
  22303497.000   119141266.57708  22303500.280    92665440.02607
  21773185.820   116512726.77408  21773186.780    90621018.17908
  20142231.720   107520748.52009  20142234.280    83627310.61808
  22699621.140   121427672.69008  22699621.840    94443755.54908
 15 03 04 02 09  0.0000000  0 17G04G11G16G18G19G21G22G27G32R02R03R04
                                R09R16R17R18R19
  22489452.240   118183015.12209  22489450.940    92090699.65846
  24103601.360   126665294.98908  24103599.200    98700222.29645
  21301311.360   111939158.68709  21301308.360    87225319.71748
  22639110.980   118969513.85209  22639107.500    92703583.19446
  21429242.360   112611463.12409  21429237.460    87749178.48648
  24777667.980   130207520.10607  24777664.740   101460393.67945
  20704136.360   108801127.76809  20704131.480    84780159.89448
  20425400.960   107336277.32709  20425400.360    83638684.79249
  23661867.300   124344039.73108  23661868.760    96891493.84345
  21746401.900   116043033.43409  21746404.220    90255736.51307
  19891012.100   106478273.92708  19891012.200    82816485.37408
  22169767.520   118718174.48308  22169769.040    92336400.48107
  22544712.540   120387509.13408  22544714.740    93634732.81304
  22320225.540   119230627.19208  22320228.800    92734942.64507
  21783263.820   116566655.66608  21783264.980    90662962.89807
  20139513.800   107506240.52409  20139516.380    83616026.60908
  22685371.440   121351446.35608  22685371.700    94384468.38906
 15 03 04 02 09 30.0000000  0 17G04G11G16G18G19G21G22G27G32R02R03R04
                                R09R16R17R18R19
  22475935.380   118111983.68008  22475934.040    92035350.52447
  24087211.880   126579168.34208  24087209.860    98633110.66245
  21313970.640   112005683.25609  21313967.600    87277157.02248
  22651869.240   119036559.17709  22651865.880    92755826.28746
  21418832.480   112556759.05809  21418827.560    87706551.95448
  24790900.600   130277057.61807  24790897.720   101514578.72445
  20705853.880   108810153.09109  20705848.900    84787192.62548
  20422252.220   107319730.48409  20422251.620    83625791.14649
  23639791.580   124228032.33208  23639792.720    96801098.76245
  21761622.380   116124253.52809  21761624.900    90318907.69108
  19884097.380   106441259.55908  19884097.560    82787696.43808
  22145841.720   118590053.13808  22145843.180    92236750.68107
  22545379.260   120391070.44408  22545381.880    93637502.70204
  22337028.440   119320384.61908  22337031.680    92804753.90207
  21793378.320   116620780.16109  21793379.160    90705059.68307
  20136832.480   107491927.68609  20136835.060    83604894.41308
  22671117.280   121275195.78608  22671117.660    94325162.39907
 15 03 04 02 10  0.0000000  0 17G04G11G16G18G19G21G22G27G32R02R03R04
                                R09R16R17R18R19
  22462461.360   118041177.51609  22462460.000    91980176.94146
  24070837.880   126493122.89508  24070835.720    98566062.32444
  21326717.440   112072667.73209  21326714.320    87329352.70048
  22664689.940   119103932.45209  22664686.780    92808324.95047
  21408461.320   112502258.58909  21408456.460    87664084.07048
  24804129.440   130346575.82307  24804126.880   101568748.70945
  20707671.940   108819706.52509  20707666.900    84794636.86548
  20419165.560   107303509.52109  20419164.900    83613151.43149
  23617741.800   124112161.37508  23617742.920    96710810.00845
  21776955.900   116206076.03009  21776958.540    90382547.39008
  19877330.120   106405034.39008  19877330.320    82759521.32108
  22121958.160   118462158.45508  22121959.620    92137277.14907
  22546184.440   120395372.01808  22546187.520    93640848.35804
  22353906.220   119410542.34808  22353909.480    92874876.47306
  21803531.100   116675109.05008  21803531.980    90747315.48108
  20134189.580   107477819.68509  20134192.140    83593921.52108
  22656860.320   121198929.82908  22656860.440    94265844.42407
 15 03 04 02 10 30.0000000  0 17G04G11G16G18G19G21G22G27G32R02R03R04
                                R09R16R17R18R19
  22449029.080   117970590.70509  22449027.740    91925174.25947
  24054478.060   126407152.80908  24054476.200    98499072.72245
  21339550.120   112140103.63409  21339546.960    87381900.13548
  22677571.560   119171626.39709  22677568.680    92861073.44846
  21398127.980   112447956.97009  21398123.160    87621771.13548
  24817353.260   130416067.93607  24817350.960   101622898.40444
  20709589.200   108829781.28709  20709584.100    84802487.34148
  20416140.020   107287609.58709  20416139.260    83600761.86349
  23595717.380   123996423.56508  23595718.460    96620624.99045
  21792400.400   116288491.16908  21792403.160    90446648.04808
  19870709.520   106369593.93308  19870709.700    82731956.53608
  22098116.420   118334488.35608  22098118.000    92037978.29707
  22547127.600   120400406.79508  22547130.540    93644764.23804
  22370856.920   119501089.47808  22370860.280    92945301.91406
  21813721.000   116729636.88008  21813721.840    90789725.98307
  20131584.080   107463911.30109  20131586.660    83583103.90808
  22642599.040   121122642.25508  22642599.100    94206509.69807
 15 03 04 02 11  0.0000000  0 17G04G11G16G18G19G21G22G27G32R02R03R04
                                R09R16R17R18R19
  22435638.400   117900222.52208  22435637.120    91870341.94047
  24038132.840   126321257.65708  24038130.580    98432141.44944
  21352468.080   112207987.91909  21352464.940    87434796.95948
  22690513.620   119239637.40509  22690510.600    92914069.04246
  21387832.500   112393854.37009  21387827.720    87579613.27948
  24830572.040   130485533.71907  24830569.900   101677027.54944
  20711605.300   108840375.85909  20711600.240    84810742.85048
  20413175.620   107272031.15509  20413174.780    83588622.82549
  23573718.680   123880820.75908  23573719.700    96530545.15845
  21807955.160   116371494.21809  21807957.960    90511205.95808
  19864235.680   106334939.25008  19864235.920    82705002.91408
  22074317.280   118207046.12108  22074318.960    91938856.65307
  22548208.160   120406172.76808  22548210.820    93649248.90404
  22387879.520   119592020.55608  22387882.740    93016025.99907
  21823948.040   116784363.48408  21823948.760    90832291.10508
  20129016.060   107450202.82209  20129018.660    83572441.75008
  22628333.960   121046332.70908  22628333.760    94147157.86907
 15 03 04 02 11 30.0000000  0 17G04G11G16G18G19G21G22G27G32R02R03R04
                                R09R16R17R18R19
  22422289.780   117830075.52909  22422288.540    91815681.99047
  24021802.100   126235439.96108  24021800.320    98365270.61945
  21365471.420   112276320.88209  21365468.280    87488043.41148
  22703516.020   119307965.60708  22703512.840    92967311.79346
  21377575.680   112339954.73509  21377570.960    87537613.57448
  24843786.140   130554974.47507  24843783.980   101731137.22444
  20713720.520   108851491.67509  20713715.540    84819404.53348
  20410273.020   107256777.91309  20410272.160    83576737.19249
  23551746.660   123765358.09708  23551747.660    96440574.53745
  21823619.940   116455084.49909  21823622.640    90576220.60707
  19857909.380   106301074.13008  19857909.580    82678663.39008
  22050562.020   118079838.54008  22050563.820    91839917.54007
  22549425.780   120412671.19108  22549427.640    93654303.25004
  22404973.540   119683333.45408  22404976.940    93087047.04407
  21834212.560   116839291.49408  21834213.400    90875012.86107
  20126486.160   107436697.80109  20126488.760    83561937.85308
  22614064.960   120970004.01008  22614065.140    94087791.15507
 15 03 04 02 12  0.0000000  0 17G04G11G16G18G19G21G22G27G32R02R03R04
                                R09R16R17R18R19
  22408982.760   117760146.88009  22408981.480    91761192.18147
  24005485.900   126149697.20708  24005483.500    98298458.07444
  21378559.280   112345098.15909  21378556.200    87541636.07148
  22716577.880   119376606.47109  22716574.740    93020798.18646
  21367357.200   112286256.41209  21367352.480    87495770.73548
  24856995.080   130624387.38207  24856992.580   101785225.20445
  20715934.420   108863125.53809  20715929.400    84828469.88548
  20407432.000   107241848.30209  20407431.120    83565103.73549
  23529801.240   123650035.23208  23529802.220    96350712.84746
  21839393.580   116539255.26208  21839396.060    90641686.81608
  19851730.360   106267997.44008  19851730.580    82652937.09508
  22026850.880   117952866.80508  22026852.700    91741161.84107
  22550779.120   120419898.05008  22550779.900    93659924.10504
  22422137.600   119775020.44208  22422141.180    93158359.05107
  21844514.500   116894419.21008  21844515.440    90917889.94007
  20123994.060   107423394.50009  20123996.620    83551590.83508
  22599792.240   120893653.82807  22599792.120    94028407.64207
 15 03 04 02 12 30.0000000  0 17G04G11G16G18G19G21G22G27G32R02R03R04
                                R09R16R17R18R19
  22395718.120   117690440.65209  22395716.840    91706875.67347
  23989184.580   126064033.51608  23989182.620    98231707.27845
  21391731.780   112414320.57809  21391728.840    87595575.59748
  22729699.580   119445561.46208  22729696.460    93074529.35046
  21357178.060   112232764.60809  21357173.300    87454088.81448
  24870199.640   130693775.95307  24870196.400   101839294.16545
  20718247.460   108875280.24409  20718242.360    84837941.09448
  20404653.480   107227247.29309  20404652.640    83553726.33849
  23507883.720   123534858.73908  23507884.580    96260965.16546
  21855276.020   116624006.89009  21855278.540    90707604.68908
  19845699.540   106235714.22908  19845699.840    82627827.94008
  22003185.300   117826138.84808  22003186.960    91642595.74907
  22552269.000   120427855.95008  22552269.660    93666113.58904
  22439371.500   119867080.68308  22439375.080    93229961.38307
  21854854.520   116949750.45708  21854855.520    90960925.33607
  20121540.640   107410297.85509  20121543.160    83541404.56008
  22585515.800   120817285.96408  22585515.920    93969010.45407
 15 03 04 02 13  0.0000000  0 17G04G11G16G18G19G21G22G27G32R02R03R04
                                R09R16R17R18R19
  22382496.000   117620957.73009  22382494.760    91652733.16647
  23972898.380   125978450.39208  23972895.920    98165019.19344
  21404988.740   112483986.67009  21404985.860    87649860.83648
  22742880.640   119514829.56608  22742877.700    93128504.45346
  21347038.700   112179481.64809  21347033.860    87412569.63748
  24883399.600   130763141.13607  24883395.600   101893344.98244
  20720659.560   108887955.74909  20720654.420    84847818.11548
  20401937.880   107212977.17909  20401937.120    83542606.77349
  23485994.740   123419832.25308  23485995.520    96171334.37546
  21871266.800   116709336.37009  21871269.280    90773972.05707
  19839817.500   106204227.53508  19839817.840    82603338.30708
  21979566.180   117699659.69908  21979567.680    91544223.16907
  22553895.920   120436544.68008  22553896.600    93672871.44704
  22456674.600   119959510.61708  22456678.140    93301851.20506
  21865233.020   117005287.53208  21865234.180    91004120.80907
  20119126.380   107397410.23809  20119128.840    83531380.85108
  22571236.320   120740901.99807  22571237.080    93909600.78007
 15 03 04 02 13 30.0000000  0 17G04G11G16G18G19G21G22G27G32R02R03R04
                                R09R16R17R18R19
  22369315.260   117551692.39009  22369314.040    91598760.20547
  23956626.860   125892942.21007  23956624.720    98098389.48845
  21418328.720   112554089.15109  21418325.940    87704486.12148
  22756119.820   119584402.46808  22756116.960    93182717.10046
  21336938.220   112126402.87109  21336933.300    87371209.55548
  24896593.840   130832476.73107  24896589.420   101947372.73245
  20723169.440   108901145.49109  20723164.260    84858095.83248
  20399284.400   107199033.29409  20399283.640    83531741.40849
  23464133.760   123304952.61608  23464134.420    96081818.02545
  21887364.160   116795234.44709  21887366.560    90840781.68708
  19834083.460   106173532.69508  19834083.760    82579464.54908
  21955993.280   117573427.73708  21955994.520    91446042.83807
  22555658.620   120445956.94308  22555659.300    93680192.05204
  22474044.980   120052299.51108  22474048.520    93374020.22007
  21875648.760   117061024.70008  21875649.800    91047471.92707
  20116750.260   107384726.58809  20116752.740    83521515.78008
  22556953.120   120664496.30608  22556953.440    93850174.04507
 15 03 04 02 14  0.0000000  0 17G04G11G16G18G19G21G22G27G32R02R03R04
                                R09R16R17R18R19
  22356177.300   117482652.09609  22356176.000    91544962.60447
  23940370.800   125807516.26408  23940368.120    98031823.83245
  21431752.560   112624632.06109  21431749.820    87759454.60948
  22769418.020   119654285.76609  22769415.320    93237171.60046
  21326878.160   112073536.67009  21326873.200    87330015.12148
  24909783.760   130901789.76407  24909779.540   102001382.85744
  20725778.400   108914855.61909  20725773.140    84868779.05948
  20396694.620   107185424.00009  20396693.820    83521136.76649
  23442302.620   123190229.53208  23442303.040    95992423.64346
  21903568.480   116881704.23009  21903571.000    90908035.92807
  19828498.940   106143638.13008  19828499.120    82556213.23908
  21932468.660   117447454.19208  21932469.760    91348063.49707
  22557558.160   120456098.64808  22557559.120    93688080.02804
  22491483.020   120145449.86408  22491486.560    93446470.38106
  21886103.380   117116969.73708  21886104.380    91090984.71607
  20114413.940   107372255.40909  20114416.500    83511815.97608
  22542666.940   120588076.45108  22542668.160    93790736.51607
 15 03 04 02 14 30.0000000  0 17G04G11G16G18G19G21G22G27G32R02R03R04
                                R09R16R17R18R19
  22343081.580   117413833.50809  22343080.260    91491337.78347
  23924129.560   125722169.48808  23924127.360    97965320.00445
  21445259.180   112695609.92009  21445256.420    87814762.00948
  22782774.360   119724473.52509  22782771.620    93291863.38346
  21316858.160   112020881.22809  21316853.220    87288984.91848
  24922968.520   130971076.19807  24922964.620   102055372.27544
  20728485.560   108929081.81409  20728480.240    84879864.41248
  20394168.140   107172147.22709  20394167.320    83510791.23049
  23420501.200   123075662.43308  23420501.400    95903150.78646
  21919878.760   116968738.78009  21919881.160    90975729.49607
  19823063.540   106114541.74608  19823063.620    82533582.72908
  21908992.480   117321739.87808  21908993.400    91250285.78907
  22559593.300   120466965.06108  22559594.360    93696531.69104
  22508987.140   120238953.32508  22508990.820    93519195.18106
  21896596.300   117173119.86808  21896597.180    91134657.04307
  20112117.060   107359994.51309  20112119.640    83502279.71508
  22528378.160   120511639.72808  22528378.380    93731285.63707
 15 03 04 02 15  0.0000000  0 18G04G11G14G16G18G19G21G22G27G32R02R03
                                R04R09R16R17R18R19
  22330027.560   117345234.09609  22330026.200    91437883.70647
  23907903.280   125636899.68707  23907900.700    97898875.97845
  24683149.900   129710832.29207  24683147.680   101073358.05444
  21458847.660   112767017.87809  21458844.880    87870404.55348
  22796187.680   119794961.00008  22796184.800    93346788.68846
  21306877.860   111968434.71809  21306873.000    87248117.52648
  24936147.540   131040333.25107  24936144.100   102109338.79444
  20731290.300   108943820.71009  20731284.920    84891349.28048
  20391704.680   107159201.43109  20391703.860    83500703.59949
  23398729.420   122961251.16708  23398729.360    95813999.36345
  21936293.480   117056331.50908  21936296.000    91043857.14108
  19817777.020   106086242.25308  19817777.000    82511572.02708
  21885564.880   117196286.20808  21885565.800    91152710.79507
  22561763.360   120478551.84008  22561763.620    93705543.60104
  22526556.020   120332802.65908  22526559.860    93592188.99207
  21907127.100   117229472.82208  21907128.160    91178487.05507
  20109859.360   107347942.13309  20109861.860    83492905.64008
  22514085.580   120435183.41808  22514086.260    93671819.73307
 15 03 04 02 15 30.0000000  0 18G04G11G14G16G18G19G21G22G27G32R02R03
                                R04R09R16R17R18R19
  22317017.040   117276863.28909  22317015.620    91384607.78747
  23891693.600   125551716.37408  23891691.400    97832499.46444
  24669068.260   129636837.37707  24669066.700   101015699.74545
  21472519.360   112838863.12309  21472516.560    87926387.83048
  22809659.360   119865755.77409  22809656.600    93401953.41446
  21296939.480   111916208.44709  21296934.680    87207421.73048
  24949322.620   131109570.33507  24949319.880   102163289.75044
  20734194.280   108959081.08309  20734188.900    84903240.47648
  20389306.240   107146597.61209  20389305.480    83490882.43549
  23376989.580   122847008.07308  23376989.380    95724978.97345
  21952814.200   117144488.73009  21952816.580    91112423.86207
  19812641.340   106058750.79708  19812641.360    82490189.78908
  21862188.560   117071107.41908  21862189.460    91055349.59007
  22564070.180   120490867.74308  22564069.900    93715122.57704
  22544190.620   120427002.86708  22544194.480    93665455.67606
  21917697.840   117286039.23308  21917698.740    91222483.12907
  20107642.820   107336109.51309  20107645.260    83483702.47808
  22499791.460   120358718.04108  22499791.180    93612346.59107
 15 03 04 02 16  0.0000000  0 18G04G11G14G16G18G19G21G22G27G32R02R03
                                R04R09R16R17R18R19
  22304048.760   117208714.38109  22304047.260    91331504.79147
  23875498.700   125466612.97208  23875496.400    97766185.16245
  24654990.300   129562857.70507  24654989.440   100958053.31145
  21486272.480   112911136.20309  21486269.680    87982704.49148
  22823187.880   119936848.43209  22823185.260    93457350.27846
  21287041.900   111864196.58909  21287037.160    87166893.02048
  24962492.480   131178780.26807  24962490.460   102217219.54044
  20737195.940   108974854.43709  20737190.500    84915531.40148
  20386971.740   107134329.69809  20386970.980    83481323.01949
  23355280.820   122732928.59708  23355280.460    95636086.06745
  21969438.460   117233199.07808  21969440.740    91181420.80007
  19807655.480   106032061.00908  19807655.520    82469431.07608
  21838862.860   116946199.80708  21838863.780    90958199.30607
  22566511.320   120503903.32908  22566511.180    93725261.36804
  22561888.720   120521542.00008  22561892.560    93738985.99607
  21928307.260   117342812.37208  21928308.240    91266639.95007
  20105466.180   107324490.30809  20105468.560    83474665.31908
  22485494.040   120282236.44408  22485494.160    93552861.00007
 15 03 04 02 16 30.0000000  0 18G04G11G14G16G18G19G21G22G27G32R02R03
                                R04R09R16R17R18R19
  22291122.380   117140785.92709  22291120.760    91278573.54146
  23859318.900   125381588.58407  23859316.940    97699932.52345
  24640915.360   129488894.91007  24640914.580   100900420.03845
  21500106.360   112983833.61009  21500103.580    88039351.80548
  22836772.500   120008235.54008  22836769.740    93512976.58446
  21277185.180   111812399.34609  21277180.480    87126531.54348
  24975656.860   131247961.65407  24975655.600   102271127.06045
  20740294.760   108991138.67509  20740289.280    84928220.42848
  20384701.180   107122397.77709  20384700.420    83472025.42549
  23333603.400   122619014.22608  23333603.080    95547321.81145
  21986165.560   117322457.72109  21986167.860    91250844.18407
  19802819.520   106006173.43208  19802819.540    82449296.31408
  21815588.360   116821566.77308  21815589.420    90861262.59107
  22569086.840   120517656.51008  22569087.180    93735958.27004
  22579649.060   120616414.02308  22579652.880    93812775.24106
  21938955.320   117399791.53708  21938956.380    91310957.05207
  20103329.420   107313084.63209  20103331.860    83465794.23608
  22471193.460   120205738.12308  22471193.540    93493362.31707
 15 03 04 02 17  0.0000000  0 18G04G11G14G16G18G19G21G22G27G32R02R03
                                R04R09R16R17R18R19
  22278237.540   117073076.36909  22278235.960    91225812.86947
  23843154.240   125296641.64508  23843151.940    97633740.03845
  24626844.080   129414950.05507  24626843.540   100842800.70944
  21514020.180   113056951.06709  21514017.380    88096326.42448
  22850412.560   120079913.38109  22850409.500    93568829.45346
  21267369.200   111760816.08909  21267364.520    87086336.80348
  24988815.680   131317112.43207  24988814.360   102325010.79144
  20743490.240   109007931.10209  20743484.720    84941305.43248
  20382494.440   107110801.30109  20382493.700    83462989.20449
  23311957.560   122505265.80408  23311957.260    95458686.87946
  22002994.460   117412259.16108  22002996.800    91320689.75308
  19798133.120   105981086.67508  19798133.100    82429784.40908
  21792365.420   116697210.28708  21792366.700    90764540.95107
  22571795.640   120532123.53508  22571796.760    93747210.38204
  22597470.440   120711612.42708  22597474.280    93886818.29706
  21949641.660   117456975.53608  21949642.620    91355433.51207
  20101232.500   107301891.76909  20101235.040    83457088.67708
  22456889.720   120129221.71608  22456890.000    93433849.54907
 15 03 04 02 17 30.0000000  0 18G04G11G14G16G18G19G21G22G27G32R02R03
                                R04R09R16R17R18R19
  22265395.880   117005593.86009  22265394.380    91173229.12847
  23827005.520   125211780.71308  23827003.580    97567614.75644
  24612778.120   129341033.76707  24612777.720   100785203.66944
  21528015.040   113130494.49509  21528012.240    88153632.96548
  22864109.100   120151887.70708  22864105.800    93624913.35847
  21257595.740   111709456.25509  21257591.060    87046316.15948
  25001970.380   131386240.33806  25001968.740   102378876.64944
  20746783.780   109025239.00209  20746778.300    84954792.11248
  20380353.360   107099549.66109  20380352.600    83454221.69049
  23290345.360   122391694.33008  23290345.220    95370189.81546
  22019925.640   117502607.44609  22019928.100    91390960.58907
  19793598.120   105956810.48108  19793598.100    82410902.93508
  21769196.420   116573143.00508  21769198.020    90668044.25308
  22574639.560   120547311.23608  22574641.400    93759023.00704
  22615353.500   120807140.83908  22615357.400    93961118.01906
  21960367.940   117514373.21408  21960368.740    91400076.10007
  20099177.260   107290921.35309  20099179.900    83448556.13208
  22442583.880   120052695.76808  22442584.240    93374329.40907
 15 03 04 02 18  0.0000000  0 18G04G11G14G16G18G19G21G22G27G32R02R03
                                R04R09R16R17R18R19
  22252596.480   116938333.24409  22252595.060    91120818.28647
  23810872.140   125127000.55808  23810870.520    97501552.37846
  24598717.200   129267143.62507  24598716.760   100727626.99044
  21542089.400   113204455.62009  21542086.600    88211264.98948
  22877860.460   120224151.16908  22877857.020    93681222.51846
  21247864.060   111658315.98109  21247859.380    87006466.60148
  25015119.740   131455339.76107  25015117.840   102432720.34544
  20750174.220   109043055.97709  20750168.800    84968675.47248
  20378277.060   107088638.53309  20378276.320    83445719.51949
  23268766.300   122278296.89908  23268766.380    95281828.36146
  22036957.680   117593493.58909  22036960.040    91461649.81807
  19789213.640   105933340.21408  19789213.620    82392648.29308
  21746081.220   116449363.34208  21746083.040    90571771.26108
  22577617.140   120563212.36508  22577619.360    93771390.52404
  22633296.420   120902988.78007  22633300.280    94035666.28906
  21971133.140   117571979.44408  21971133.780    91444880.93307
  20097162.860   107280168.95009  20097165.640    83440193.15308
  22428275.220   119976155.32408  22428275.340    93314797.95107
 15 03 04 02 18 30.0000000  0 18G04G11G14G16G18G19G21G22G27G32R02R03
                                R04R09R16R17R18R19
  22239839.120   116871293.39309  22239837.760    91068579.46347
  23794754.520   125042300.65908  23794752.220    97435552.44445
  24584661.580   129193281.22107  24584661.340   100670071.93044
  21556242.680   113278831.54809  21556239.880    88269220.23348
  22891666.200   120296700.18109  22891662.680    93737754.19146
  21238174.200   111607395.52509  21238169.520    86966788.33048
  25028263.500   131524409.84007  25028261.120   102486541.18344
  20753661.080   109061379.57609  20753655.720    84982953.60448
  20376265.560   107078068.12709  20376264.840    83437482.84249
  23247220.680   122165075.09808  23247220.860    95193603.74846
  22054089.660   117684912.64809  22054091.880    91532753.56307
  19784979.720   105910675.97408  19784979.760    82375020.57008
  21723020.520   116325874.64508  21723022.380    90475724.56807
  22580727.620   120579824.00508  22580730.700    93784310.70104
  22651298.140   120999150.50207  22651302.160    94110458.58406
  21981937.000   117629793.72608  21981937.900    91489847.60807
  20095189.440   107269634.75309  20095192.280    83431999.89808
  22413963.880   119899599.96908  22413964.180    93255254.94207
 15 03 04 02 19  0.0000000  0 18G04G11G14G16G18G19G21G22G27G32R02R03
                                R04R09R16R17R18R19
  22227124.520   116804478.19209  22227123.340    91016515.70347
  23778652.740   124957684.94208  23778650.920    97369618.21645
  24570612.660   129119453.53807  24570612.520   100612543.93344
  21570475.160   113353623.54009  21570472.260    88327499.69048
  22905526.720   120369536.73609  22905523.020    93794509.96046
  21228527.120   111556699.92209  21228522.440    86927285.26148
  25041402.360   131593454.15007  25041399.560   102540341.89845
  20757244.920   109080212.78809  20757239.580    84997628.83848
  20374319.860   107067843.62009  20374319.160    83429515.69449
  23225709.760   122052035.58008  23225709.960    95105521.18346
  22071321.520   117776864.83709  22071323.760    91604271.88307
  19780897.280   105888822.63608  19780897.340    82358023.53608
  21700015.740   116202684.86808  21700017.540    90379910.36807
  22583972.020   120597148.85008  22583975.060    93797785.51904
  22669358.460   121095625.23107  22669362.520    94185494.35106
  21992780.780   117687820.87808  21992781.780    91534979.78807
  20093257.940   107259324.04009  20093260.720    83423980.45208
  22399650.940   119823034.23508  22399651.220    93195703.80207
 15 03 04 02 19 30.0000000  0 17G04G11G14G16G18G19G22G27G32R02R03R04
                                R09R16R17R18R19
  22214452.740   116737887.67309  22214451.600    90964627.02847
  23762566.820   124873153.81008  23762564.500    97303749.83045
  24556570.880   129045663.18707  24556570.480   100555045.00945
  21584786.400   113428829.05209  21584783.380    88386101.36048
  22919441.380   120442658.66308  22919437.600    93851488.07346
  21218923.120   111506230.69109  21218918.460    86887958.59348
  20760925.460   109099554.41609  20760920.180    85012700.23448
  20372440.180   107057966.00509  20372439.500    83421818.85449
  23204234.100   121939180.85508  23204234.320    95017582.60146
  22088652.460   117869345.90409  22088654.700    91676201.58107
  19776966.500   105867781.01308  19776966.620    82341657.84108
  21677067.580   116079798.06908  21677069.240    90284331.80807
  22587349.400   120615184.57608  22587352.800    93811813.28704
  22687476.560   121192408.13708  22687480.580    94260769.81006
  22003664.220   117746060.92108  22003665.380    91580277.62307
  20091368.540   107249237.84109  20091371.180    83416135.62408
  22385336.000   119746458.37308  22385335.660    93136144.76507
 15 03 04 02 20  0.0000000  0 17G04G11G14G16G18G19G22G27G32R02R03R04
                                R09R16R17R18R19
  22201823.120   116671518.52709  22201821.920    90912910.83547
  23746496.600   124788704.05808  23746494.780    97237944.92045
  24542536.180   128971909.37107  24542535.620   100497574.53245
  21599175.160   113504441.88609  21599172.080    88445020.42648
  22933409.160   120516060.09409  22933405.320    93908683.98546
  21209361.780   111455985.65909  21209357.120    86848806.61748
  20764701.940   109119400.04409  20764696.680    85028164.36648
  20370626.120   107048433.06109  20370625.440    83414390.58349
  23182793.460   121826510.08908  23182793.680    94929787.35646
  22106081.120   117962348.48609  22106083.320    91748536.90807
  19773186.920   105847548.63608  19773187.060    82325921.56508
  21654176.060   115957214.94108  21654177.560    90188989.44208
  22590859.040   120633926.32508  22590862.600    93826390.19004
  22705650.820   121289491.09308  22705654.760    94336278.62207
  22014587.020   117804511.37008  22014588.320    91625739.05907
  20089520.720   107239373.88409  20089523.300    83408463.66008
  22371018.500   119669869.39709  22371018.260    93076575.61907
 15 03 04 02 20 30.0000000  0 17G04G11G14G16G18G19G22G27G32R02R03R04
                                R09R16R17R18R19
  22189235.860   116605371.96909  22189234.580    90861368.09547
  23730442.320   124704337.58508  23730439.960    97172204.80845
  24528509.060   128898196.05007  24528508.340   100440135.66044
  21613641.320   113580461.32409  21613638.140    88504256.33148
  22947430.140   120589740.33408  22947426.300    93966097.18646
  21199843.640   111405967.58009  21199839.000    86809831.49248
  20768574.360   109139749.82009  20768569.120    85044021.34048
  20368878.140   107039247.35909  20368877.480    83407232.88749
  23161388.680   121714027.37108  23161388.840    94842138.62446
  22123607.120   118055870.17209  22123609.080    91821276.06907
  19769558.820   105828127.44908  19769559.000    82310816.20508
  21631342.220   115834940.98708  21631343.620    90093887.53408
  22594500.900   120653373.27208  22594504.020    93841515.58504
  22723880.580   121386870.37708  22723884.600    94412017.88207
  22025549.400   117863173.80408  22025550.940    91671365.33007
  20087715.020   107229734.98809  20087717.600    83400966.72908
  22356698.860   119593269.36908  22356698.920    93016997.91607
 15 03 04 02 21  0.0000000  0 17G04G11G14G16G18G19G22G27G32R02R03R04
                                R09R16R17R18R19
  22176691.960   116539452.87009  22176690.580    90810002.58647
  23714404.560   124620059.00308  23714402.080    97106533.27545
  24514491.260   128824531.40207  24514489.980   100382734.65044
  21628185.140   113656888.99109  21628181.900    88563810.33548
  22961504.520   120663701.99509  22961500.760    94023729.59646
  21190369.820   111356182.49109  21190365.200    86771037.91648
  20772543.300   109160607.19009  20772538.120    85060273.84248
  20367197.260   107030414.64009  20367196.640    83400350.24749
  23140021.040   121601739.84909  23140021.060    94754642.00946
  22141230.480   118149911.82708  22141232.560    91894419.51307
  19766083.340   105809523.09808  19766083.520    82296346.16908
  21608567.720   115712984.98908  21608569.060    89999032.93108
  22598275.380   120673528.25908  22598278.380    93857191.63404
  22742165.800   121484546.24008  22742169.940    94487987.85407
  22036552.520   117922053.49708  22036554.100    91717160.66107
  20085952.520   107220326.83809  20085955.140    83393649.27908
  22342378.200   119516663.65008  22342378.080    92957415.62507
 15 03 04 02 21 30.0000000  0 17G04G11G14G16G18G19G22G27G32R02R03R04
                                R09R16R17R18R19
  22164190.060   116473754.39309  22164188.580    90758809.00447
  23698382.200   124535861.98608  23698380.100    97040925.30445
  24500481.820   128750910.80907  24500480.300   100325367.99744
  21642804.820   113733715.89909  21642801.660    88623675.43348
  22975630.740   120737935.69209  22975626.960    94081574.03546
  21180939.260   111306624.85309  21180934.700    86732421.57848
  20776607.300   109181964.39209  20776602.240    85076915.81848
  20365582.480   107021929.27409  20365581.900    83393738.27149
  23118689.760   121489643.46308  23118689.600    94667294.32146
  22158949.060   118244462.46608  22158951.500    91967958.81807
  19762759.220   105791728.99508  19762759.540    82282506.31908
  21585852.060   115591343.92608  21585853.360    89904423.28208
  22602180.820   120694382.46108  22602183.180    93873411.56704
  22760504.340   121582506.91408  22760508.740    94564179.31307
  22047595.000   117981144.04608  22047596.380    91763119.97307
  20084232.260   107211143.91209  20084234.880    83386507.00908
  22328055.160   119440045.61108  22328055.060    92897823.84207
 15 03 04 02 22  0.0000000  0 17G04G11G14G16G18G19G22G27G32R02R03R04
                                R09R16R17R18R19
  22151730.840   116408280.20809  22151729.240    90707790.17547
  23682376.420   124451750.57407  23682373.680    96975383.91045
  24486481.940   128677340.79107  24486480.440   100268040.77444
  21657500.740   113810943.83009  21657497.680    88683853.02548
  22989809.040   120812442.92009  22989805.260    94139631.62646
  21171552.960   111257299.67909  21171548.440    86693986.37848
  20780766.880   109203823.81309  20780761.980    85093949.13148
  20364034.820   107013796.11109  20364034.220    83387400.73149
  23097396.000   121377744.45909  23097395.800    94580100.42946
  22176763.060   118339521.87709  22176765.440    92041893.98407
  19759587.400   105774750.09008  19759587.720    82269300.51108
  21563196.840   115470025.96208  21563198.060    89810064.91808
  22606217.700   120715937.78608  22606219.140    93890176.80304
  22778896.000   121680751.21407  22778900.700    94640591.39307
  22058677.760   118040450.00208  22058678.980    91809246.79208
  20082555.180   107202191.02809  20082557.640    83379543.64608
  22313730.620   119363419.42508  22313730.700    92838225.73907
 15 03 04 02 22 30.0000000  0 18G01G04G11G14G16G18G19G22G27G32R02R03
                                R04R09R16R17R18R19
  24588705.200   129214515.65608  24588707.700   100686653.98645
  22139314.660   116343032.60009  22139313.000    90656947.90647
  23666387.440   124367727.14508  23666384.660    96909911.13445
  24472492.620   128603826.78607  24472491.060   100210757.13845
  21672272.800   113888571.77909  21672269.780    88744342.30948
  23004039.380   120887224.05608  23004035.840    94197902.61446
  21162211.580   111208210.59509  21162207.120    86655735.14848
  20785022.240   109226186.25609  20785017.420    85111374.41448
  20362554.860   107006018.55009  20362554.240    83381340.29549
  23076140.720   121266047.80508  23076140.520    94493064.20646
  22194672.260   118435088.28309  22194674.600    92116223.39407
  19756568.480   105758589.01308  19756568.680    82256730.79508
  21540603.120   115349037.34208  21540604.260    89715962.72508
  22610386.020   120738194.57008  22610386.780    93907487.63104
  22797340.320   121779276.76908  22797345.140    94717222.18907
  22069801.220   118099973.83008  22069802.580    91855543.06107
  20080921.900   107193471.94809  20080924.140    83372762.13508
  22299405.240   119286788.33108  22299405.440    92778623.77708
 15 03 04 02 23  0.0000000  0 18G01G04G11G14G16G18G19G22G27G32R02R03
                                R04R09R16R17R18R19
  24573628.680   129135290.88807  24573631.380   100624920.59445
  22126940.640   116278007.16209  22126939.100    90606278.76647
  23650414.220   124283787.61208  23650411.300    96844503.77145
  24458513.380   128530366.53507  24458512.340   100153515.45945
  21687119.760   113966593.19309  21687116.800    88805138.19448
  23018320.600   120962272.52909  23018317.120    94256381.91746
  21152914.560   111159354.47309  21152910.100    86617665.45348
  20789372.320   109249046.17609  20789367.520    85129187.34048
  20361141.980   106998593.26409  20361141.280    83375554.35349
  23054923.580   121154551.54409  23054923.440    94406184.13446
  22212674.840   118531153.62509  22212677.280    92190940.84407
  19753701.560   105743241.79408  19753701.640    82244794.08508
  21518070.840   115228377.86108  21518071.920    89622116.51408
  22614684.360   120761146.05808  22614685.200    93925338.76404
  22815835.540   121878074.28207  22815840.460    94794064.52007
  22080964.620   118159711.48108  22080966.300    91902005.62307
  20079331.840   107184983.32809  20079333.900    83366159.87108
  22285078.200   119210148.37108  22285078.340    92719014.92107
