     2.11           OBSERVATION DATA    M                   RINEX VERSION / TYPE
SPIDER V4,0,0,3554                      2015 03 19 01:04    PGM / RUN BY / DATE 
CNGR                                                        MARKER NAME         
CNGR                                                        MARKER NUMBER       
                                                            OBSERVER / AGENCY   
496521              LEICA GRX1200+GNSS  8.10/4.007          REC # / TYPE / VERS 
10321004            LEIAR25         NONE                    ANT # / TYPE        
  5218738.7445   688113.1521  3590185.5476                  APPROX POSITION XYZ 
        0.0720        0.0000        0.0000                  ANTENNA: DELTA H/E/N
     1     1                                                WAVELENGTH FACT L1/2
     4    C1    L1    P2    L2                              # / TYPES OF OBSERV 
    30.000                                                  INTERVAL            
  2015    03    04    00    00    0.0000000     GPS         TIME OF FIRST OBS   
  2015    03    04    23    59   30.0000000     GPS         TIME OF LAST OBS    
    16                                                      LEAP SECONDS        
    54                                                      # OF SATELLITES     
   G 1   814   814   814   814                              PRN / # OF OBS      
   G 2   924   924   924   924                              PRN / # OF OBS      
   G 3   861   861   861   861                              PRN / # OF OBS      
   G 4   843   843   843   843                              PRN / # OF OBS      
   G 5   609   609   609   609                              PRN / # OF OBS      
   G 6   823   823   823   823                              PRN / # OF OBS      
   G 7   667   666   666   666                              PRN / # OF OBS      
   G 9   817   817   817   817                              PRN / # OF OBS      
   G10   711   710   710   710                              PRN / # OF OBS      
   G11   776   776   776   776                              PRN / # OF OBS      
   G12   819   819   819   819                              PRN / # OF OBS      
   G13   792   792   791   791                              PRN / # OF OBS      
   G14   936   936   936   936                              PRN / # OF OBS      
   G15   697   696   696   696                              PRN / # OF OBS      
   G16   666   666   666   666                              PRN / # OF OBS      
   G17   935   934   934   934                              PRN / # OF OBS      
   G18   902   900   901   900                              PRN / # OF OBS      
   G19   754   754   754   754                              PRN / # OF OBS      
   G20   726   726   726   726                              PRN / # OF OBS      
   G21   735   735   735   735                              PRN / # OF OBS      
   G22   670   669   669   668                              PRN / # OF OBS      
   G23   761   761   761   761                              PRN / # OF OBS      
   G24   826   826   826   826                              PRN / # OF OBS      
   G25   860   860   860   860                              PRN / # OF OBS      
   G27   810   810   810   810                              PRN / # OF OBS      
   G28   855   855   855   855                              PRN / # OF OBS      
   G29   769   769   769   769                              PRN / # OF OBS      
   G30   717   717   717   717                              PRN / # OF OBS      
   G31   864   864   864   864                              PRN / # OF OBS      
   G32   777   777   777   777                              PRN / # OF OBS      
   R 1   675   675   675   675                              PRN / # OF OBS      
   R 2   972   972   971   971                              PRN / # OF OBS      
   R 3   989   989   987   979                              PRN / # OF OBS      
   R 4   834   834   833   829                              PRN / # OF OBS      
   R 5   694   694   694   694                              PRN / # OF OBS      
   R 6   784   784   784   783                              PRN / # OF OBS      
   R 7   746   746   745   737                              PRN / # OF OBS      
   R 8   646   646   646   644                              PRN / # OF OBS      
   R 9   850   850   834   831                              PRN / # OF OBS      
   R10   589   589   589   589                              PRN / # OF OBS      
   R11   685   685   684   683                              PRN / # OF OBS      
   R12   778   778   778   778                              PRN / # OF OBS      
   R13   736   736   736   736                              PRN / # OF OBS      
   R14   717   715   713   713                              PRN / # OF OBS      
   R15   987   987   987   985                              PRN / # OF OBS      
   R16  1010  1010  1010  1010                              PRN / # OF OBS      
   R17   951   951   950   950                              PRN / # OF OBS      
   R18  1003   999   995   991                              PRN / # OF OBS      
   R19   775   775   775   773                              PRN / # OF OBS      
   R20   576   576   576   576                              PRN / # OF OBS      
   R21   779   779   778   778                              PRN / # OF OBS      
   R22   821   821   819   815                              PRN / # OF OBS      
   R23   762   762   757   756                              PRN / # OF OBS      
   R24   638   638   638   638                              PRN / # OF OBS      
BIT 2 OF LLI FLAGS DATA COLLECTED UNDER A/S CONDITION       COMMENT             
SNR is mapped to RINEX snr flag value [2-9]                 COMMENT             
Lx:     = 25dBHz -> 1; 26-27dBHz -> 2; 28-31dBHz -> 3       COMMENT             
       32-35dBHz -> 4; 36-38dBHz -> 5; 39-41dBHz -> 6       COMMENT             
       42-44dBHz -> 7; 45-48dBHz -> 8; >=49dBHz -> 9        COMMENT             
                                                            END OF HEADER       
 15 03 04 00 00  0.0000000  0  7G16G18G21G22G27G29G31
  21445960.600   112699304.26509  21445957.720    87817638.61748
  22009668.780   115661764.79109  22009666.660    90126102.94848
  21537836.400   113182102.25209  21537832.840    88193835.90548
  23158709.700   121699989.07208  23158707.020    94831201.18647
  22730818.360   119451308.67808  22730818.580    93078957.06047
  24227645.360   127317115.26008  24227644.520    99208128.55646
  23530177.580   123651860.90308  23530177.260    96352073.93947
 15 03 04 00 00 30.0000000  0  7G16G18G21G22G27G29G31
  21433689.940   112634822.29209  21433687.140    87767392.93648
  22000573.800   115613970.23309  22000571.660    90088860.47647
  21546928.400   113229881.38608  21546924.960    88231066.39948
  23141084.420   121607367.93409  23141081.620    94759029.07047
  22718802.220   119388163.71508  22718802.320    93029753.21147
  24241267.400   127388699.15108  24241266.520    99263908.23346
  23547748.720   123744196.69508  23547748.360    96424023.59546
 15 03 04 00 01  0.0000000  0  7G16G18G21G22G27G29G31
  21421483.600   112570677.77709  21421480.800    87717410.19848
  21991552.400   115566562.21709  21991550.160    90051919.18747
  21556067.820   113277909.82209  21556064.500    88268491.14448
  23123481.000   121514862.09209  23123478.220    94686946.77747
  22706800.880   119325096.34008  22706800.880    92980609.82647
  24254896.560   127460320.88108  24254895.880    99319717.30646
  23565335.080   123836612.55208  23565334.820    96496035.64146
 15 03 04 00 01 30.0000000  0  7G16G18G21G22G27G29G31
  21409342.240   112506874.22809  21409339.320    87667693.15248
  21982605.160   115519544.03009  21982602.880    90015281.65947
  21565254.600   113326187.36009  21565251.460    88306109.99748
  23105900.360   121422475.69609  23105897.600    94614957.55447
  22694814.700   119262108.24708  22694814.640    92931528.21447
  24268533.300   127531982.56508  24268532.860    99375557.53046
  23582936.420   123929107.09909  23582936.220    96568109.00546
 15 03 04 00 02  0.0000000  0  7G16G18G21G22G27G29G31
  21397266.040   112443412.89109  21397262.960    87618242.75748
  21973732.280   115472916.67109  21973729.920    89978948.68147
  21574488.280   113374711.19909  21574485.280    88343920.79048
  23088342.800   121330210.43509  23088340.000    94543062.72547
  22682843.420   119199198.39109  22682843.340    92882507.57447
  24282177.500   127603683.07308  24282176.860    99431428.07846
  23600551.900   124021675.82808  23600551.680    96640240.17346
 15 03 04 00 02 30.0000000  0  7G16G18G21G22G27G29G31
  21385255.460   112380296.42009  21385252.300    87569061.09348
  21964934.160   115426682.31709  21964931.720    89942921.93647
  21583768.560   113423479.38909  21583765.520    88381921.96748
  23070808.840   121238069.30709  23070806.020    94471264.60647
  22670887.120   119136367.39309  22670887.000    92833548.38347
  24295829.160   127675422.97208  24295828.380    99487329.25146
  23618181.160   124114316.82809  23618180.940    96712427.62346
 15 03 04 00 03  0.0000000  0  7G16G18G21G22G27G29G31
  21373311.260   112317529.03709  21373308.040    87520151.45448
  21956211.500   115380844.56809  21956209.060    89907204.24347
  21593095.540   113472492.79009  21593092.440    88420114.22348
  23053299.340   121146057.09409  23053296.540    94399566.95647
  22658946.140   119073617.18808  22658946.100    92784652.15648
  24309488.540   127747204.04508  24309487.800    99543262.51246
  23635823.880   124207028.64908  23635823.820    96784670.26247
 15 03 04 00 03 30.0000000  0  7G16G18G21G22G27G29G31
  21361433.740   112255112.35009  21361430.540    87471515.08348
  21947564.600   115335404.76809  21947562.080    89871796.62947
  21602468.720   113521748.78909  21602465.560    88458495.51948
  23035814.700   121054175.85009  23035811.860    94327971.34747
  22647020.440   119010947.44208  22647020.540    92735818.60448
  24323155.760   127819026.18908  24323155.080    99599227.75946
  23653479.440   124299808.01108  23653479.500    96856965.51346
 15 03 04 00 04  0.0000000  0  7G16G18G21G22G27G29G31
  21349622.880   112193045.92809  21349619.680    87423151.64348
  21938993.300   115290362.12509  21938990.680    89836698.49447
  21611887.180   113571242.87809  21611883.940    88497062.33648
  23018354.860   120962425.30809  23018352.080    94256477.58247
  22635109.580   118948355.32708  22635109.640    92687045.54848
  24336830.240   127890886.67308  24336829.540    99655222.91546
  23671146.700   124392648.91908  23671146.860    96929308.73446
 15 03 04 00 04 30.0000000  0  7G16G18G21G22G27G29G31
  21337879.640   112131334.70109  21337876.420    87375064.97348
  21930498.460   115245721.25809  21930495.700    89801913.42147
  21621351.220   113620976.48409  21621347.900    88535815.79348
  23000920.960   120870810.96409  23000918.200    94185089.95047
  22623214.060   118885843.92608  22623214.060    92638335.39747
  24350512.500   127962788.44108  24350511.720    99711250.24045
  23688825.680   124485551.46208  23688825.900    97001699.94746
 15 03 04 00 05  0.0000000  0  7G16G18G21G22G27G29G31
  21326203.800   112069977.85809  21326200.560    87327254.45648
  21922079.800   115201480.76709  21922076.900    89767440.34447
  21630859.840   113670944.31709  21630856.460    88574751.77548
  22983512.980   120779332.53909  22983510.180    94113808.21547
  22611333.320   118823410.12708  22611333.240    92589685.71647
  24364202.180   128034728.04808  24364201.340    99767307.08746
  23706515.160   124578509.13508  23706515.540    97074134.11846
 15 03 04 00 05 30.0000000  0  7G16G18G21G22G27G29G31
  21314596.380   112008980.62209  21314593.180    87279724.16148
  21913738.220   115157645.41309  21913735.340    89733282.97047
  21640413.260   113721147.54109  21640409.800    88613871.17748
  22966131.900   120687995.31409  22966129.040    94042636.51447
  22599467.940   118761057.05508  22599467.780    92541098.93947
  24377899.820   128106708.83308  24377898.980    99823395.95546
  23724215.160   124671522.03608  23724215.720    97146611.34346
 15 03 04 00 06  0.0000000  0  7G16G18G21G22G27G29G31
  21303057.720   111948344.82309  21303054.580    87232475.48848
  21905474.080   115114216.72809  21905471.020    89699442.45748
  21650011.100   113771584.17909  21650007.600    88653172.43948
  22948778.240   120596802.14809  22948775.380    93971577.03747
  22587617.820   118698784.60408  22587617.680    92492574.96148
  24391605.280   128178730.60808  24391604.280    99879516.82146
  23741925.080   124764587.10008  23741925.640    97219129.18646
 15 03 04 00 06 30.0000000  0  7G16G18G21G22G27G29G31
  21291588.640   111888074.54509  21291585.520    87185511.64848
  21897288.060   115071198.28809  21897284.800    89665921.61547
  21659653.220   113822253.54409  21659649.660    88692655.06048
  22931452.840   120505756.92409  22931449.780    93900632.83447
  22575783.400   118636594.65108  22575783.280    92444115.28948
  24405318.840   128250795.06608  24405317.720    99935670.91146
  23759644.720   124857703.13108  23759645.460    97291686.71946
 15 03 04 00 07  0.0000000  0  7G16G18G21G22G27G29G31
  21280188.900   111828168.70109  21280185.780    87138831.78448
  21889179.700   115028588.46609  21889176.300    89632719.18148
  21669338.680   113873150.77409  21669335.100    88732315.24448
  22914155.620   120414859.65909  22914152.480    93829803.94147
  22563964.020   118574484.05808  22563964.020    92395717.45448
  24419039.760   128322898.92508  24419038.560    99991855.72246
  23777372.900   124950863.77708  23777373.720    97364279.02746
 15 03 04 00 07 30.0000000  0  7G16G18G21G22G27G29G31
  21268859.560   111768632.61009  21268856.420    87092440.03248
  21881149.920   114986392.02409  21881146.520    89599838.85747
  21679067.900   113924278.08909  21679064.320    88772154.70048
  22896887.580   120324115.73309  22896884.380    93759094.51347
  22552160.340   118512456.00008  22552160.540    92347383.92548
  24432768.740   128395045.71608  24432767.740   100048073.95246
  23795109.600   125044069.04408  23795110.520    97436906.08146
 15 03 04 00 08  0.0000000  0  7G16G18G21G22G27G29G31
  21257600.320   111709464.76009  21257597.160    87046335.22748
  21873198.340   114944606.97709  21873195.060    89567279.11147
  21688839.680   113975629.06609  21688836.080    88812168.44248
  22879648.500   120233524.22909  22879645.320    93688503.84747
  22540371.760   118450506.95608  22540372.100    92299111.97048
  24446505.220   128467231.93208  24446504.360   100104322.92046
  23812853.560   125137312.23108  23812854.500    97509562.67046
 15 03 04 00 08 30.0000000  0  7G16G18G21G22G27G29G31
  21246412.160   111650670.35909  21246408.940    87000521.40648
  21865325.920   114903238.11109  21865322.780    89535043.65347
  21698654.300   114027205.16609  21698650.660    88852357.60748
  22862439.460   120143090.82009  22862436.280    93618036.37347
  22528598.880   118388640.18308  22528599.280    92250904.13348
  24460249.700   128539460.48408  24460249.060   100160604.88646
  23830604.840   125230593.81908  23830605.860    97582249.16546
 15 03 04 00 09  0.0000000  0  7G16G18G21G22G27G29G31
  21235295.260   111592250.57409  21235292.000    86954999.50548
  21857532.840   114862285.93209  21857529.820    89503132.89547
  21708511.160   114079003.34409  21708507.500    88892719.81948
  22845260.780   120052816.77309  22845257.560    93547693.08247
  22516841.520   118326854.62909  22516841.920    92202759.57248
  24474002.040   128611729.70008  24474001.320   100216918.57745
  23848362.580   125323909.43308  23848363.580    97654962.17046
 15 03 04 00 09 30.0000000  0  7G16G18G21G22G27G29G31
  21224250.120   111534208.07609  21224246.880    86909771.60048
  21849819.580   114821752.89209  21849816.740    89471548.73347
  21718410.140   114131023.06409  21718406.540    88933254.67248
  22828113.140   119962705.76109  22828109.940    93477476.82047
  22505099.820   118265151.15309  22505100.140    92154678.98548
  24487762.480   128684041.22108  24487761.720   100273265.17846
  23866126.280   125417256.51208  23866127.280    97727699.67246
 15 03 04 00 10  0.0000000  0  7G16G18G21G22G27G29G31
  21213277.040   111476544.33309  21213273.840    86864838.82148
  21842186.280   114781639.78209  21842183.500    89440291.80147
  21728350.660   114183261.18209  21728347.140    88973959.71048
  22810996.780   119872759.19709  22810993.520    93407388.72347
  22493373.640   118203529.18309  22493373.820    92106661.89248
  24501530.800   128756394.08108  24501529.780   100329643.98145
  23883895.440   125510632.10008  23883896.600    97800459.40246
 15 03 04 00 10 30.0000000  0  7G16G18G21G22G27G29G31
  21202376.480   111419261.58209  21202373.320    86820202.92348
  21834633.220   114741948.09009  21834630.400    89409363.23247
  21738332.380   114235716.08509  21738329.060    89014833.65648
  22793912.340   119782980.21809  22793908.980    93337431.18647
  22481662.960   118141988.87608  22481663.020    92058708.42948
  24515307.120   128828788.26408  24515305.660   100386055.03145
  23901669.380   125604032.87508  23901670.640    97873238.72146
 15 03 04 00 11  0.0000000  0  7G16G18G21G22G27G29G31
  21191549.400   111362364.93509  21191546.240    86775867.87848
  21827161.280   114702682.68809  21827158.360    89378766.82948
  21748355.620   114288388.99709  21748352.400    89055877.47548
  22776860.900   119693374.68009  22776857.540    93267608.80647
  22469968.280   118080533.45408  22469968.320    92010821.10348
  24529091.980   128901226.97908  24529090.240   100442500.74646
  23919448.120   125697458.72408  23919449.640    97946037.56846
 15 03 04 00 11 30.0000000  0  7G16G18G21G22G27G29G31
  21180795.780   111305854.17809  21180792.600    86731833.52848
  21819770.260   114663842.34809  21819767.340    89348501.65648
  21758419.580   114341275.65609  21758416.380    89097087.85948
  22759842.400   119603942.24009  22759839.020    93197921.29047
  22458289.260   118019160.51808  22458289.380    91962998.06048
  24542884.800   128973707.90708  24542882.860   100498979.36445
  23937230.580   125790904.44308  23937232.360    98018851.89346
 15 03 04 00 12  0.0000000  0  7G16G18G21G22G27G29G31
  21170115.940   111249731.00609  21170112.700    86688101.19848
  21812460.340   114625428.42709  21812457.400    89318568.75348
  21768523.780   114394373.61909  21768520.600    89138462.88748
  22742857.280   119514685.30509  22742853.820    93128370.53047
  22446626.000   117957869.94309  22446626.120    91915239.18248
  24556685.460   129046230.56008  24556683.400   100555490.49045
  23955016.240   125884366.75408  23955018.180    98091679.12646
 15 03 04 00 12 30.0000000  0  6G16G18G21G22G27G31
  21159516.700   111194031.41409  21159513.380    86644698.93148
  21805238.220   114587476.12809  21805235.260    89288995.55348
  21778674.340   114447715.14309  21778671.220    89180027.70948
  22725912.480   119425640.22109  22725909.040    93058984.85547
  22434984.960   117896695.46909  22434985.060    91867570.76848
  23972810.900   125977876.18208  23972813.000    98164543.06046
 15 03 04 00 13  0.0000000  0  6G16G18G21G22G27G31
  21148985.860   111138691.42909  21148982.460    86601576.86948
  21798091.800   114549921.57909  21798088.780    89259732.28347
  21788858.420   114501232.62209  21788855.360    89221729.63848
  22708995.920   119336743.71309  22708992.520    92989714.95747
  22423353.660   117835571.73409  22423353.600    91819941.90048
  23990601.440   126071363.85108  23990603.800    98237390.02246
 15 03 04 00 13 30.0000000  0  6G16G18G21G22G27G31
  21138530.100   111083746.28909  21138526.640    86558762.49448
  21791027.600   114512799.08609  21791024.540    89230805.68147
  21799081.960   114554957.40009  21799078.900    89263593.11048
  22692114.460   119248031.66009  22692111.160    92920588.79247
  22411738.260   117774531.90909  22411738.160    91772378.42648
  24008393.700   126164860.41008  24008396.240    98310243.91246
 15 03 04 00 14  0.0000000  0  6G16G18G21G22G27G31
  21128150.200   111029199.62509  21128146.700    86516258.60748
  21784046.060   114476110.99309  21784042.960    89202217.57948
  21809344.760   114608888.36909  21809341.660    89305617.24348
  22675268.880   119159507.84709  22675265.500    92851609.28447
  22400138.960   117713577.32509  22400138.880    91724881.37748
  24026187.360   126258363.96808  24026189.920    98383103.25246
 15 03 04 00 14 30.0000000  0  6G16G18G21G22G27G31
  21117846.700   110975054.55109  21117843.220    86474067.64648
  21777147.760   114439860.17909  21777144.580    89173970.21947
  21819646.760   114663025.31309  21819643.560    89347801.87148
  22658459.800   119071175.93509  22658456.500    92782779.32347
  22388556.020   117652709.20608  22388556.080    91677451.69448
  24043981.920   126351872.38708  24043984.380    98455966.35746
 15 03 04 00 15  0.0000000  0 14G16G18G21G22G27G31R01R02R14R15R16R17
                                R18R24
  21107619.720   110921311.36109  21107616.240    86432189.83848
  21770332.580   114404046.38709  21770329.400    89146063.37847
  21829987.340   114717364.89709  21829983.960    89390144.39648
  22641687.520   118983037.16609  22641684.200    92714099.84947
  22376989.260   117591926.38608  22376989.400    91630088.49148
  24061776.540   126445381.47908  24061779.240    98528829.93146
  22419782.800   119846601.75808  22419787.000    93214051.05306
  21693769.820   115762179.54609  21693772.760    90037305.70508
  22574392.200   120334120.81107  22574401.640    93593203.75905
  20304916.440   108503319.03908  20304920.720    84391485.02708
  21777156.140   116329661.78808  21777158.560    90478638.50107
  20259176.680   108410964.44609  20259177.360    84319650.12808
  21619945.220   115408844.22409  21619948.540    89762497.55608
  22847439.380   122175518.21007  22847439.380    95025401.51105
 15 03 04 00 15 30.0000000  0 14G16G18G21G22G27G31R01R02R14R15R16R17
                                R18R24
  21097469.620   110867972.31509  21097466.240    86390626.95748
  21763600.900   114368671.40909  21763597.780    89118498.49547
  21840366.040   114771904.97109  21840362.480    89432643.15148
  22624952.480   118895094.01309  22624949.140    92645572.80147
  22365438.780   117531229.00309  22365438.960    91582791.85148
  24079570.680   126538888.31608  24079573.580    98601691.77746
  22424196.160   119870192.51508  22424200.200    93232399.39306
  21679013.640   115683437.72109  21679016.760    89976062.10708
  22599273.060   120466748.37807  22599282.360    93696357.73105
  20316538.320   108565422.94908  20316542.580    84439788.04508
  21764141.320   116260139.03108  21764143.660    90424565.26807
  20262391.620   108428168.06309  20262392.220    84333030.72708
  21610689.360   115359435.74509  21610692.560    89724068.77508
  22861029.940   122248193.80106  22861030.660    95081926.94205
 15 03 04 00 16  0.0000000  0 14G16G18G21G22G27G31R01R02R14R15R16R17
                                R18R24
  21087396.440   110815037.25009  21087393.120    86349378.86648
  21756952.500   114333734.09409  21756949.420    89091274.63347
  21850782.120   114826641.63609  21850778.480    89475295.10448
  22608254.660   118807346.52709  22608251.300    92577198.23247
  22353904.260   117470615.12809  22353904.460    91535560.29148
  24097363.420   126632387.68308  24097366.600    98674547.80146
  22428748.100   119894522.84108  22428751.160    93251323.01906
  21664351.420   115605197.49009  21664354.740    89915208.64108
  22624178.580   120599506.75406  22624188.040    93799613.59005
  20328291.660   108628229.02408  20328295.860    84488637.19108
  21751253.900   116191296.78608  21751256.260    90371021.30607
  20265634.380   108445521.38208  20265634.980    84346527.76008
  21601462.520   115310182.31609  21601465.600    89685760.57908
  22874617.900   122320855.33108  22874619.040    95138441.46106
 15 03 04 00 16 30.0000000  0 15G16G18G19G21G22G27G31R01R02R14R15R16
                                R17R18R24
  21077391.980   110762463.30809  21077388.700    86308412.16448
  21750379.140   114299191.19809  21750376.060    89064358.11647
  24517764.800   128841725.57105  24517760.300   100396133.18943
  21861226.620   114881528.19309  21861223.060    89518063.84348
  22591586.060   118719752.87909  22591582.820    92508943.53447
  22342377.200   117410039.96609  22342377.380    91488358.90348
  24115145.720   126725831.98608  24115149.260    98747360.85146
  22433429.500   119919546.29408  22433431.660    93270785.72105
  21649775.500   115527417.16909  21649778.780    89854712.88008
  22649099.300   120732346.04006  22649108.720    93902932.47804
  20340167.260   108691688.43208  20340171.400    84537994.47608
  21738485.820   116123092.33108  21738488.340    90317973.41407
  20268896.280   108462977.42308  20268896.940    84360104.67408
  21592256.040   115261037.63909  21592259.080    89647536.96008
  22888194.820   122393457.11108  22888196.440    95194909.45005
 15 03 04 00 17  0.0000000  0 15G16G18G19G21G22G27G31R01R02R14R15R16
                                R17R18R24
  21067480.320   110710376.92009  21067477.000    86267825.37748
  21743904.720   114265168.18109  21743901.720    89037846.70847
  24503015.980   128764220.15304  24503012.500   100335744.39843
  21871722.920   114936687.14209  21871719.460    89561044.84948
  22574970.920   118632440.15209  22574967.720    92440907.73247
  22330881.280   117349628.04109  22330881.280    91441284.70248
  24132940.620   126819342.18608  24132944.220    98820225.28946
  22438263.600   119945388.49708  22438265.660    93290885.20205
  21635310.180   115450227.05709  21635313.600    89794676.17808
  22674057.920   120865387.44506  22674067.580    94006408.59505
  20352188.280   108755924.77108  20352192.340    84587956.06208
  21725861.320   116055654.97208  21725863.980    90265522.12807
  20272200.820   108480661.48708  20272201.640    84373858.95208
  21583093.420   115212126.93809  21583096.500    89609495.31608
  22901784.020   122466125.62507  22901785.240    95251429.41405
 15 03 04 00 17 30.0000000  0 15G16G18G19G21G22G27G31R01R02R14R15R16
                                R17R18R24
  21057640.680   110658669.20009  21057637.320    86227533.66148
  21737508.480   114231555.65709  21737505.520    89011655.15247
  24488268.660   128686722.82905  24488265.100   100275356.95844
  21882249.720   114992006.06709  21882246.280    89604150.50348
  22558388.540   118545299.65909  22558385.480    92373006.13347
  22319395.340   117289268.66409  22319395.260    91394251.45348
  24150726.460   126912804.71608  24150730.060    98893052.54846
  22443229.940   119971935.98708  22443232.580    93311533.28706
  21620935.140   115373518.60609  21620938.440    89735014.09308
  22699032.540   120998514.12806  22699042.360    94109950.97205
  20364332.860   108820821.29608  20364336.860    84638431.10608
  21713359.860   115988874.61708  21713362.480    90213581.85807
  20275526.980   108498460.46508  20275527.840    84387702.61608
  21573953.440   115163336.99009  21573956.480    89571547.61608
  22915364.460   122538747.48307  22915365.740    95307913.04904
 15 03 04 00 18  0.0000000  0 15G16G18G19G21G22G27G31R01R02R14R15R16
                                R17R18R24
  21047880.760   110607380.71609  21047877.400    86187568.60548
  21731197.920   114198393.25209  21731195.040    88985814.34548
  24473530.420   128609272.14605  24473527.100   100215005.85843
  21892813.980   115047521.52809  21892810.480    89647409.28748
  22541846.660   118458372.48809  22541843.640    92305270.76447
  22307926.740   117229000.55209  22307926.620    91347289.29748
  24168509.980   127006254.90408  24168513.700    98965870.19146
  22448335.540   119999227.25508  22448338.540    93332759.84506
  21606658.580   115297334.95909  21606661.820    89675760.17308
  22724029.640   121131760.53406  22724039.640    94213586.43505
  20376607.700   108886413.97008  20376611.660    84689447.60108
  21700989.240   115922793.37608  21700991.900    90162185.34907
  20278881.860   108516412.51409  20278882.580    84401665.30708
  21564843.200   115114706.00609  21564846.200    89533723.54208
  22928943.940   122611361.93908  22928945.100    95364390.96405
 15 03 04 00 18 30.0000000  0 15G16G18G19G21G22G27G31R01R02R14R15R16
                                R17R18R24
  21038200.300   110556509.97309  21038196.940    86147929.07748
  21724972.600   114165678.94009  21724969.780    88960322.69648
  24458800.420   128531864.24106  24458797.080   100154688.05843
  21903414.680   115103228.02109  21903411.020    89690816.94848
  22525345.160   118371657.56109  22525342.180    92237700.77547
  22296474.780   117168820.29609  22296474.700    91300395.62848
  24186290.020   127099686.72808  24186293.840    99038673.54846
  22453578.940   120027257.63308  22453581.640    93354561.26705
  21592480.240   115221676.25509  21592483.340    89616914.54908
  22749047.700   121265118.82506  22749057.960    94317308.92404
  20389011.420   108952695.52808  20389015.380    84740999.90208
  21688749.320   115857410.29708  21688751.880    90111331.84607
  20282264.500   108534513.03209  20282265.100    84415743.49008
  21555761.860   115066229.37809  21555764.860    89496019.51108
  22942521.340   122683965.40707  22942522.260    95420860.28205
 15 03 04 00 19  0.0000000  0 15G16G18G19G21G22G27G31R01R02R14R15R16
                                R17R18R24
  21028599.180   110506056.18509  21028595.860    86108614.44848
  21718832.300   114133411.24609  21718829.480    88935179.06348
  24444077.980   128454496.51905  24444074.960   100094401.59544
  21914050.920   115159121.26909  21914047.100    89734370.12848
  22508884.100   118285154.92909  22508881.220    92170296.21747
  22285039.140   117108725.60409  22285039.120    91253568.62448
  24204065.480   127193094.45808  24204069.360    99111458.13746
  22458960.220   120056023.56508  22458962.860    93376934.85106
  21578400.360   115146543.96309  21578403.620    89558478.39408
  22774085.260   121398581.57606  22774095.800    94421112.71205
  20401542.560   109019658.42408  20401546.620    84793082.13508
  21676640.160   115792725.38308  21676642.720    90061021.35507
  20285674.220   108552758.59209  20285674.780    84429934.50208
  21546708.800   115017903.84109  21546711.780    89458433.02308
  22956096.160   122756554.81107  22956096.720    95477318.72805
 15 03 04 00 19 30.0000000  0 15G16G18G19G21G22G27G31R01R02R14R15R16
                                R17R18R24
  21019078.940   110456027.13109  21019075.620    86069630.76348
  21712778.360   114101597.35609  21712775.500    88910389.04048
  24429364.240   128377174.84905  24429360.880   100034150.99644
  21924723.380   115215205.15409  21924719.460    89778071.85948
  22492465.120   118198873.13509  22492462.180    92103063.72647
  22273620.940   117048722.50909  22273620.920    91206812.98848
  24221836.860   127286481.05008  24221840.940    99184226.19346
  22464480.140   120085529.99008  22464483.480    93399884.28006
  21564421.040   115071947.72609  21564424.120    89500459.11208
  22799142.880   121532151.09806  22799153.640    94524999.74106
  20414202.200   109087308.26608  20414206.440    84845698.64608
  21664663.320   115728747.30408  21664666.020    90011260.63108
  20289111.820   108571154.22108  20289112.420    84444242.21808
  21537684.900   114969734.48308  21537688.020    89420968.00208
  22969669.380   122829136.21708  22969670.640    95533770.84606
 15 03 04 00 20  0.0000000  0 15G16G18G19G21G22G27G31R01R02R14R15R16
                                R17R18R24
  21009639.140   110406420.26609  21009635.820    86030976.06348
  21706810.040   114070233.39109  21706807.100    88885949.61148
  24414658.360   128299894.43705  24414654.960    99973932.51844
  21935430.720   115271472.52409  21935426.780    89821916.55048
  22476087.820   118112809.84809  22476084.720    92036001.50248
  22262219.340   116988806.56509  22262219.280    91160125.26648
  24239602.800   127379838.75208  24239607.200    99256971.75846
  22470137.440   120115771.15608  22470140.980    93423405.13906
  21550541.840   114997886.86709  21550545.360    89442856.28508
  22824218.600   121665817.10206  22824229.540    94628961.70906
  20426988.360   109155634.11508  20426992.720    84898840.93508
  21652818.480   115665474.08408  21652821.260    89962048.11208
  20292576.320   108589694.53608  20292577.160    84458662.46908
  21528689.220   114921715.85309  21528692.520    89383620.20808
  22983240.340   122901704.94006  22983241.220    95590213.26305
 15 03 04 00 20 30.0000000  0 15G16G18G19G21G22G27G31R01R02R14R15R16
                                R17R18R24
  21000280.660   110357240.65709  21000277.320    85992654.28348
  21700928.260   114039324.16609  21700925.220    88861864.51948
  24399960.860   128222658.48205  24399957.380    99913748.70044
  21946173.480   115327926.21109  21946169.600    89865906.43148
  22459753.320   118026971.07409  22459749.980    91969114.20947
  22250834.960   116928981.26509  22250834.860    91113508.16848
  24257363.260   127473168.02408  24257367.780    99329695.16646
  22475932.720   120146749.20408  22475935.880    93447499.22406
  21536764.400   114924368.64009  21536768.020    89385675.46308
  22849312.340   121799578.99306  22849323.320    94732998.28605
  20439901.220   109224636.72608  20439905.700    84952509.58908
  21641106.620   115602911.33908  21641109.500    89913388.20408
  20296068.300   108608381.73908  20296069.320    84473196.96208
  21519722.260   114873850.16909  21519725.680    89346391.37808
  22996809.220   122974264.04008  22996809.920    95646648.03105
 15 03 04 00 21  0.0000000  0 15G16G18G19G21G22G27G31R01R02R14R15R16
                                R17R18R24
  20991003.660   110308489.40609  20991000.380    85954666.30048
  21695133.020   114008870.04309  21695129.900    88838134.05248
  24385271.580   128145465.59706  24385267.980    99853598.50243
  21956951.100   115384562.91909  21956947.240    89910038.91948
  22443461.820   117941358.28609  22443458.240    91902403.00947
  22239467.620   116869245.80309  22239467.560    91066961.08948
  24275117.600   127566465.05108  24275122.500    99402393.40846
  22481865.540   120178462.59708  22481868.020    93472165.26106
  21523089.180   114851395.75009  21523092.920    89328918.81008
  22874423.000   121933431.02206  22874434.060    94837104.88705
  20452939.860   109294311.17208  20452944.380    85006700.80808
  21629528.060   115541060.79308  21629530.880    89865282.21107
  20299587.580   108627214.27209  20299588.620    84487844.48608
  21510783.720   114826135.88909  21510787.080    89309280.30508
  23010376.200   123046811.92307  23010377.100    95703074.12306
 15 03 04 00 21 30.0000000  0 15G16G18G19G21G22G27G31R01R02R14R15R16
                                R17R18R24
  20981807.960   110260165.81309  20981804.800    85917011.56748
  21689424.020   113978869.42609  21689420.960    88814756.98148
  24370589.880   128068312.85106  24370586.060    99793479.53244
  21967762.480   115441377.17009  21967758.660    89954309.76248
  22427213.260   117855971.09309  22427209.500    91835867.61247
  22228116.880   116809597.49009  22228116.800    91020481.90948
  24292864.700   127659723.70608  24292869.700    99475061.77346
  22487934.520   120210906.72908  22487937.740    93497399.56406
  21509516.420   114778969.05909  21509520.280    89272586.95608
  22899549.280   122067365.72107  22899560.400    94941275.74705
  20466103.060   109364651.00908  20466107.560    85061409.53908
  21618082.780   115479922.26508  21618085.580    89817730.03107
  20303133.400   108646188.24609  20303134.340    84502602.03508
  21501872.860   114778568.87309  21501876.080    89272283.76208
  23023940.360   123119346.11207  23023941.080    95759489.61105
 15 03 04 00 22  0.0000000  0 15G16G18G19G21G22G27G31R01R02R14R15R16
                                R17R18R24
  20972695.240   110212278.80609  20972692.200    85879697.02048
  21683802.680   113949329.78709  21683799.660    88791739.10048
  24355917.180   127991207.32106  24355913.500    99733397.38543
  21978608.780   115498375.06609  21978605.000    89998723.69948
  22411009.380   117770819.08209  22411005.560    91769515.47747
  22216784.100   116750043.65509  22216784.000    90974076.34648
  24310605.300   127752948.48708  24310610.420    99547703.72946
  22494141.060   120244087.79208  22494144.980    93523207.01706
  21496047.880   114707099.72609  21496052.160    89216688.64808
  22924691.600   122201385.88906  22924702.900    95045513.11905
  20479391.280   109435658.78108  20479395.680    85116637.79208
  21606772.560   115419505.12208  21606775.240    89770738.92507
  20306706.900   108665310.12709  20306707.660    84517474.60908
  21492990.840   114731155.80209  21492993.980    89235406.97408
  23037503.160   123191873.55208  23037504.340    95815899.77806
 15 03 04 00 22 30.0000000  0 16G16G18G19G21G22G27G31R01R02R03R14R15
                                R16R17R18R24
  20963664.660   110164823.57909  20963661.760    85842718.93748
  21678268.240   113920246.68409  21678265.160    88769076.97147
  24341252.160   127914142.83806  24341248.660    99673347.21544
  21989488.520   115555548.84509  21989484.780    90043274.70048
  22394849.480   117685898.46209  22394845.560    91703343.64447
  22205468.200   116690578.32309  22205468.060    90927739.73748
  24328337.700   127846130.21908  24328342.920    99620312.10945
  22500484.440   120277998.28008  22500488.380    93549581.92205
  21482683.360   114635784.96709  21482687.580    89161221.64008
  23586347.040   126259562.31007  23586353.780    98201907.12806
  22949847.900   122335480.88006  22949859.220    95149808.68805
  20492802.740   109507325.06608  20492807.060    85172378.22508
  21595596.820   115359805.63508  21595599.380    89724306.00407
  20310306.620   108684572.68609  20310307.280    84532456.60308
  21484136.280   114683889.42009  21484139.440    89198644.25608
  23051063.740   123264387.96008  23051065.200    95872299.82305
 15 03 04 00 23  0.0000000  0 16G16G18G19G21G22G27G31R01R02R03R14R15
                                R16R17R18R24
  20954717.400   110117805.98309  20954714.600    85806081.85348
  21672821.620   113891624.82509  21672818.480    88746774.24247
  24326595.560   127837122.78606  24326592.400    99613331.60644
  22000401.800   115612899.11809  22000398.140    90087963.22048
  22378734.780   117601215.37909  22378730.820    91637356.89147
  22194169.880   116631205.36109  22194169.700    90881475.10048
  24346062.060   127939269.67208  24346067.440    99692887.55845
  22506964.800   120312640.49608  22506969.140    93576525.87506
  21469424.260   114565032.31909  21469428.580    89106191.84908
  23563443.520   126136960.57107  23563450.940    98106551.01006
  22975018.180   122469650.07406  22975029.480    95254161.94605
  20506337.520   109579650.43908  20506341.740    85228631.27008
  21584556.540   115300829.98508  21584559.100    89678436.05608
  20313933.140   108703978.75008  20313933.800    84547550.21708
  21475309.800   114636772.70809  21475312.940    89161997.95508
  23064622.500   123336892.69507  23064624.020    95928692.47606
 15 03 04 00 23 30.0000000  0 16G16G18G19G21G22G27G31R01R02R03R14R15
                                R16R17R18R24
  20945853.300   110071225.00709  20945850.520    85769784.99148
  21667462.320   113863461.87409  21667459.180    88724829.10048
  24311947.020   127760144.23407  24311943.820    99553348.37045
  22011347.920   115670421.99209  22011344.380    90132786.24148
  22362665.140   117516769.30509  22362661.200    91571554.82947
  22182888.520   116571922.03709  22182888.440    90835280.32848
  24363777.320   128032360.94108  24363782.720    99765425.42945
  22513581.500   120348010.41308  22513586.240    93604035.80606
  21456270.700   114494842.59509  21456274.900    89051599.85908
  23540531.620   126014314.91207  23540539.460    98011160.69806
  23000200.880   122603886.01306  23000212.160    95358567.21205
  20519994.180   109652627.14708  20519998.280    85285390.90108
  21573651.660   115242577.52308  21573654.080    89633128.57707
  20317585.860   108723524.70309  20317586.460    84562752.61708
  21466510.600   114589801.75409  21466513.700    89125465.02608
  23078178.560   123409384.69808  23078180.800    95985075.07205
 15 03 04 00 24  0.0000000  0 16G16G18G19G21G22G27G31R01R02R03R14R15
                                R16R17R18R24
  20937072.720   110025082.98709  20937069.960    85733830.17048
  21662190.760   113835759.92009  21662187.640    88703243.18247
  24297306.540   127683207.74007  24297303.240    99493397.89444
  22022326.700   115728116.36409  22022323.260    90177742.88948
  22346641.180   117432563.50809  22346637.220    91505939.97947
  22171624.400   116512729.32509  22171624.480    90789156.17048
  24381482.980   128125401.60908  24381488.620    99837923.86145
  22520333.800   120384107.14408  22520338.480    93632111.02406
  21443223.520   114425220.27009  21443227.480    88997449.19808
  23517612.320   125891630.02607  23517620.500    97915739.94806
  23025395.300   122738184.75406  23025406.900    95463021.22705
  20533772.100   109726251.76008  20533776.120    85342654.45808
  21562882.580   115185051.46608  21562885.180    89588386.11108
  20321264.720   108743210.28809  20321265.320    84578063.63308
  21457738.660   114542976.39309  21457741.680    89089045.33208
  23091732.780   123481864.68008  23091734.900    96041448.39906
 15 03 04 00 24 30.0000000  0 16G16G18G19G21G22G27G31R01R02R03R14R15
                                R16R17R18R24
  20928376.980   109979386.67509  20928374.200    85698222.65848
  21657008.060   113808524.54509  21657004.960    88682020.83748
  24282674.820   127606317.48206  24282671.700    99433483.45744
  22033338.600   115785984.46809  22033335.240    90222834.92248
  22330664.300   117348605.23009  22330660.460    91440518.01147
  22160378.520   116453631.96309  22160378.620    90743106.31548
  24399179.360   128218393.39308  24399184.980    99910384.20145
  22527223.080   120420934.18408  22527227.400    93660754.32806
  21430284.220   114356173.37109  21430288.000    88943746.10208
  23494687.460   125768914.41307  23494695.360    97820295.20206
  23050601.560   122872546.51306  23050613.420    95567524.30905
  20547671.480   109800525.43208  20547675.420    85400422.85008
  21552250.780   115128258.50908  21552253.340    89544213.80807
  20324970.420   108763039.48209  20324970.940    84593486.34908
  21448994.720   114496300.42609  21448997.820    89052741.83108
  23105285.500   123554337.19307  23105287.600    96097815.88504
 15 03 04 00 25  0.0000000  0 16G16G18G19G21G22G27G31R01R02R03R14R15
                                R16R17R18R24
  20919765.620   109934133.88009  20919762.860    85662960.74548
  21651913.640   113781753.12509  21651910.560    88661160.01448
  24268051.120   127529469.93306  24268047.900    99373602.30044
  22044382.580   115844021.31408  22044379.340    90268058.43048
  22314734.180   117264892.81709  22314730.460    91375287.63147
  22149150.220   116394626.50409  22149150.260    90697128.04848
  24416865.200   128311329.98008  24416870.940    99982801.56745
  22534248.080   120458486.01208  22534252.200    93689961.31106
  21417452.820   114287702.01309  21417456.380    88890490.63408
  23471756.820   125646167.85907  23471764.460    97724826.48906
  23075818.160   123006962.94706  23075830.140    95672069.87305
  20561690.880   109875440.84708  20561694.860    85458690.37308
  21541756.020   115072197.33708  21541758.540    89500610.66508
  20328701.960   108783007.68508  20328702.500    84609017.17708
  21440277.820   114449769.22409  21440281.060    89016550.94208
  23118836.460   123626798.11908  23118838.480    96154174.36406
 15 03 04 00 25 30.0000000  0 16G16G18G19G21G22G27G31R01R02R03R14R15
                                R16R17R18R24
  20911239.240   109889327.53809  20911236.500    85628046.71548
  21646907.840   113755447.28109  21646904.740    88640661.97348
  24253435.500   127452665.35806  24253432.120    99313754.62344
  22055458.380   115902225.38208  22055455.300    90313412.24348
  22298851.500   117181429.80009  22298847.900    91310251.57948
  22137939.600   116335713.87009  22137939.580    90651222.11148
  24434540.140   128404209.22908  24434546.220   100055174.24945
  22541408.380   120496761.95408  22541412.420    93719731.50105
  21404729.940   114219810.35409  21404733.360    88837686.04408
  23448821.220   125523394.93907  23448828.640    97629337.22706
  23101044.360   123141430.72306  23101056.480    95776655.50005
  20575829.800   109950995.00508  20575833.820    85517454.67608
  21531398.800   115016870.84908  21531401.240    89457578.95508
  20332459.340   108803114.82108  20332459.880    84624656.05508
  21431588.060   114403382.80509  21431591.260    88980472.63708
  23132385.540   123699248.76706  23132386.840    96210524.85804
 15 03 04 00 26  0.0000000  0 16G16G18G19G21G22G27G31R01R02R03R14R15
                                R16R17R18R24
  20902798.140   109844969.49709  20902795.460    85593482.02148
  21641990.880   113729608.25909  21641987.860    88620527.68248
  24238828.220   127375904.50907  24238824.960    99253941.03145
  22066565.880   115960595.89408  22066562.900    90358895.75648
  22283016.880   117098219.25409  22283013.400    91245412.27247
  22126746.740   116276894.80709  22126746.620    90605389.10248
  24452203.700   128497028.31408  24452209.820   100127500.08345
  22548703.840   120535761.04208  22548707.820    93750064.16406
  21392116.540   114152502.69009  21392119.980    88785335.67208
  23425881.420   125400600.28507  23425888.820    97533831.12106
  23126279.480   123275945.72507  23126291.720    95881277.83306
  20590087.500   110027183.94008  20590091.580    85576712.69508
  21521179.580   114962281.77608  21521182.040    89415120.79708
  20336242.560   108823360.61009  20336243.260    84640402.79008
  21422925.360   114357140.72409  21422928.500    88944506.60508
  23145932.060   123771689.12208  23145933.180    96266867.34306
 15 03 04 00 26 30.0000000  0 16G16G18G19G21G22G27G31R01R02R03R14R15
                                R16R17R18R24
  20894443.060   109801063.24209  20894440.380    85559269.35648
  21637163.280   113704239.00809  21637160.320    88600759.45948
  24224229.580   127299189.01507  24224226.640    99194162.77845
  22077704.840   116019131.70508  22077701.900    90404508.07748
  22267231.060   117015264.88309  22267227.600    91180772.56448
  22115572.020   116218171.24209  22115571.820    90559630.49048
  24469855.540   128589786.08008  24469862.060   100199778.11945
  22556134.620   120575483.34708  22556139.320    93780959.27306
  21379613.420   114085784.06509  21379616.800    88733443.43708
  23402938.660   125277789.20807  23402945.760    97438312.12906
  23151522.860   123410505.32507  23151535.240    95985934.87706
  20604463.600   110104005.20308  20604467.640    85636462.54008
  21511099.100   114908433.91008  21511101.700    89373239.13108
  20340051.960   108843746.02409  20340052.740    84656258.10008
  21414289.740   114311043.69209  21414292.980    88908653.38908
  23159477.080   123844120.71407  23159478.380    96323202.97405
 15 03 04 00 27  0.0000000  0 16G16G18G19G21G22G27G31R01R02R03R14R15
                                R16R17R18R24
  20886173.860   109757608.13509  20886171.140    85525408.24448
  21632424.620   113679337.57509  21632421.760    88581355.76848
  24209639.080   127222515.65707  24209636.260    99134417.37344
  22088874.620   116077829.13209  22088871.680    90450246.33048
  22251494.100   116932566.53709  22251490.580    91116332.36048
  22104415.000   116159540.67409  22104414.620    90513944.35048
  24487494.660   128682477.18108  24487501.200   100272004.24845
  22563699.980   120615924.71308  22563704.780    93812413.68606
  21367220.800   114019655.25209  21367224.240    88682009.95708
  23379993.160   125154962.81307  23379999.960    97342781.27607
  23176773.060   123545101.85706  23176785.540    96090620.64805
  20618956.800   110181452.25108  20618960.840    85696699.10308
  21501157.280   114855326.56108  21501159.880    89331933.41808
  20343886.920   108864267.48809  20343887.580    84672219.25108
  21405680.600   114265088.32909  21405683.940    88872910.35608
  23173020.080   123916540.94606  23173021.400    96379529.88206
 15 03 04 00 27 30.0000000  0 16G16G18G19G21G22G27G31R01R02R03R14R15
                                R16R17R18R24
  20877991.160   109714607.34309  20877988.340    85491901.13248
  21627775.280   113654905.92509  21627772.540    88562318.13248
  24195056.960   127145886.03907  24195054.000    99074706.02644
  22100075.260   116136688.22509  22100072.220    90496110.54448
  22235806.700   116850128.41209  22235803.000    91052094.91148
  22093276.060   116101005.06009  22093275.520    90468332.18748
  24505120.740   128775100.08908  24505127.400   100344177.18445
  22571399.960   120657085.04408  22571404.620    93844427.29706
  21354939.780   113954121.73109  21354943.220    88631039.47208
  23357046.100   125032126.77707  23357052.380    97247242.90306
  23202030.000   123679733.86506  23202042.700    96195334.28505
  20633566.660   110259522.68908  20633570.720    85757420.53608
  21491354.860   114802963.45408  21491357.500    89291206.56108
  20347747.480   108884926.02608  20347748.100    84688286.99808
  21397098.240   114219275.35409  21397101.620    88837278.04808
  23186560.940   123988951.59308  23186562.080    96435849.19505
 15 03 04 00 28  0.0000000  0 16G16G18G19G21G22G27G31R01R02R03R14R15
                                R16R17R18R24
  20869895.380   109672063.36409  20869892.440    85458749.98248
  21623215.780   113630946.39209  21623213.200    88543648.38748
  24180483.200   127069300.76507  24180480.080    99015029.25544
  22111306.320   116195707.14009  22111303.200    90542099.30648
  22220169.340   116767953.22109  22220165.420    90988062.35448
  22082155.300   116042565.22409  22082154.780    90422794.68948
  24522733.480   128867652.73308  24522740.620   100416295.41945
  22579234.160   120698963.17708  22579238.740    93876999.18906
  21342771.040   113889187.43209  21342774.520    88580535.03608
  23334098.080   124909285.48007  23334103.960    97151700.39806
  23227292.640   123814396.29405  23227305.260    96300071.45804
  20648292.420   110338212.67708  20648296.460    85818623.82908
  21481692.340   114751347.49608  21481694.900    89251060.81808
  20351633.620   108905721.56408  20351634.180    84704461.30408
  21388542.580   114173604.71609  21388545.840    88801756.44708
  23200100.340   124061352.81207  23200101.300    96492161.28305
 15 03 04 00 28 30.0000000  0 16G16G18G19G21G22G27G31R01R02R03R14R15
                                R16R17R18R24
  20861887.020   109629979.01509  20861884.020    85425956.98848
  21618746.420   113607460.59809  21618743.960    88525347.78948
  24165918.040   126992760.71907  24165914.840    98955387.72844
  22122567.600   116254885.05009  22122564.420    90588211.96248
  22204582.680   116686044.45909  22204578.460    90924237.40448
  22071052.920   115984222.31209  22071052.500    90377332.70248
  24540332.580   128960133.34308  24540339.620   100488357.58946
  22587202.660   120741558.25408  22587207.140    93910128.70606
  21330715.360   113824856.54209  21330719.120    88530499.96108
  23311149.820   124786443.65208  23311155.480    97056157.41406
  23252560.400   123949086.11206  23252573.440    96405010.87505
  20663133.620   110417519.39308  20663137.640    85880306.79708
  21472170.120   114700481.43408  21472172.680    89211498.32908
  20355545.420   108926654.24109  20355545.920    84720742.27908
  21380013.520   114128076.23109  21380016.740    88766345.42408
  23213638.200   124133745.72908  23213639.720    96548466.82306
 15 03 04 00 29  0.0000000  0 16G16G18G19G21G22G27G31R01R02R03R14R15
                                R16R17R18R24
  20853966.020   109588353.74209  20853962.940    85393521.72548
  21614367.000   113584447.31609  21614364.560    88507415.38248
  24151361.060   126916263.68507  24151357.860    98895779.69545
  22133858.320   116314218.05809  22133855.120    90634445.48348
  22189046.760   116604402.37309  22189042.380    90860620.23747
  22059968.620   115925974.66608  22059968.420    90331944.96348
  24557916.880   129052536.78608  24557924.360   100560359.62745
  22595304.640   120784866.88708  22595309.360    93943813.20106
  21318773.180   113761130.86409  21318776.720    88480935.56608
  23288201.680   124663603.33408  23288206.940    96960615.62907
  23277831.940   124083796.99606  23277844.880    96509785.95505
  20678089.000   110497436.08808  20678093.000    85942464.20408
  21462788.220   114650365.10408  21462790.920    89172518.97208
  20359482.340   108947721.31909  20359482.880    84737127.79008
  21371510.640   114082687.34109  21371513.920    88731043.00208
  23227174.120   124206128.07408  23227175.540    96604764.21305
 15 03 04 00 29 30.0000000  0 16G16G18G19G21G22G27G31R01R02R03R14R15
                                R16R17R18R24
  20846133.380   109547192.71209  20846130.240    85361448.19148
  21610078.260   113561910.45809  21610075.940    88489854.20247
  24136812.880   126839813.11107  24136809.700    98836207.89044
  22145178.840   116373708.04709  22145175.700    90680801.30847
  22173562.700   116523032.95709  22173558.180    90797215.55347
  22048903.140   115867825.92508  22048903.120    90286634.26048
  24575486.600   129144863.89408  24575494.280   100632302.32246
  22603540.320   120828890.62208  22603544.800    93978053.91006
  21306945.660   113698017.06009  21306949.120    88431847.08308
  23265255.220   124540772.04607  23265260.400    96865080.82906
  23303107.200   124218527.88806  23303120.140    96614576.43006
  20693158.480   110577962.58808  20693162.460    86005095.88208
  21453547.700   114601004.20408  21453550.340    89134127.17808
  20363444.900   108968925.58209  20363445.400    84753619.97608
  21363034.240   114037440.61008  21363037.700    88695851.12308
  23240708.960   124278503.61207  23240710.400    96661056.32905
 15 03 04 00 30  0.0000000  0 16G16G18G19G21G22G27G31R01R02R03R14R15
                                R16R17R18R24
  20838389.120   109506495.88609  20838385.980    85329736.38348
  21605880.160   113539849.63209  21605877.880    88472663.97348
  24122273.260   126763407.47107  24122269.940    98776671.06845
  22156528.680   116433351.86409  22156525.500    90727276.99548
  22158130.720   116441937.38909  22158126.180    90734024.24648
  22037856.300   115809774.97509  22037856.360    90241399.76248
  24593040.880   129237110.18508  24593048.500   100704182.08245
  22611909.020   120873626.05308  22611913.340    94012848.14406
  21295233.280   113635516.97209  21295236.660    88383235.93008
  23242310.880   124417952.04507  23242315.920    96769554.75106
  23328385.080   124353272.94106  23328398.260    96719377.90505
  20708341.020   110659093.44108  20708345.000    86068197.62408
  21444448.700   114552399.10808  21444451.340    89096323.21408
  20367432.660   108990264.63509  20367433.200    84770217.02708
  21354584.060   113992333.69809  21354587.660    88660768.00508
  23254242.060   124350870.74108  23254243.540    96717341.79705
 15 03 04 00 30 30.0000000  0 16G16G18G19G21G22G27G31R01R02R03R14R15
                                R16R17R18R24
  20830733.420   109466264.24909  20830730.220    85298387.06948
  21601772.520   113518264.21709  21601770.280    88455844.18948
  24107741.900   126687045.10507  24107738.600    98717167.97845
  22167907.240   116493146.32209  22167904.000    90773870.08047
  22142750.920   116361116.44409  22142746.480    90671046.95248
  22026827.940   115751820.72609  22026828.040    90196240.63948
  24610578.920   129329271.72307  24610586.940   100775995.91145
  22620410.180   120919069.94608  22620414.680    94048193.39006
  21283636.340   113573632.75809  21283639.380    88335103.80108
  23219369.080   124295145.94907  23219374.100    96674039.49107
  23353664.460   124488025.78405  23353678.440    96824146.23203
  20723635.400   110740822.27808  20723639.460    86131764.46308
  21435491.220   114504549.95608  21435493.860    89059107.23408
  20371445.320   109011736.80909  20371445.860    84786917.60708
  21346159.760   113947364.33009  21346163.320    88625791.85908
  23267773.460   124423227.77107  23267774.520    96773619.51405
 15 03 04 00 31  0.0000000  0 16G16G18G19G21G22G27G31R01R02R03R14R15
                                R16R17R18R24
  20823167.040   109426502.19709  20823163.800    85267403.66448
  21597756.140   113497158.09509  21597753.860    88439397.88448
  24093219.340   126610729.17007  24093216.100    98657701.07945
  22179314.740   116553092.81109  22179311.360    90820581.61747
  22127424.420   116280575.55309  22127420.100    90608287.86748
  22015818.700   115693966.63209  22015818.780    90151159.54748
  24628100.740   129421348.54208  24628109.040   100847743.82147
  22629044.020   120965223.72308  22629048.840    94084090.78706
  21272155.960   113512370.94609  21272158.940    88287455.76508
  23196431.140   124172360.89908  23196436.320    96578540.61806
  23378945.420   124622786.54405  23378959.080    96928959.94205
  20739041.620   110823148.69008  20739045.760    86195796.08608
  21426676.240   114457462.19308  21426678.780    89022483.43307
  20375483.360   109033344.50809  20375483.800    84803723.58708
  21337761.800   113902534.99009  21337765.180    88590924.62108
  23281303.280   124495578.42208  23281304.360    96829892.17204
 15 03 04 00 31 30.0000000  0 16G16G18G19G21G22G27G31R01R02R03R14R15
                                R16R17R18R24
  20815689.740   109387208.48409  20815686.460    85236785.19348
  21593830.520   113476528.40709  21593828.160    88423322.82048
  24078704.880   126534456.09307  24078701.920    98598267.56246
  22190750.180   116613186.13609  22190746.680    90867407.57447
  22112151.060   116200313.92409  22112146.840    90545746.41448
  22004827.960   115636209.46209  22004828.020    90106153.97348
  24645605.320   129513334.50907  24645613.560   100919420.98144
  22637809.800   121012081.58908  22637814.420    94120535.81505
  21260792.240   113451731.27009  21260794.980    88240291.59908
  23173497.140   124049597.34907  23173502.660    96483058.42107
  23404226.280   124757546.06906  23404240.020    97033772.38605
  20754558.200   110906064.92008  20754562.440    86260286.45208
  21418003.460   114411133.85508  21418005.920    88986450.28507
  20379545.940   109055083.44509  20379546.200    84820631.66308
  21329389.240   113857841.27209  21329392.540    88556162.88208
  23294831.160   124567918.59207  23294832.420    96886156.74206
 15 03 04 00 32  0.0000000  0 16G16G18G19G21G22G27G31R01R02R03R14R15
                                R16R17R18R24
  20808301.780   109348384.37909  20808298.440    85206532.64948
  21589995.780   113456375.73509  21589993.240    88407619.45548
  24064198.840   126458226.27007  24064196.060    98538867.74745
  22202213.280   116673424.53909  22202209.640    90914346.59048
  22096931.320   116120333.92409  22096927.100    90483424.39548
  21993855.780   115578549.68909  21993855.800    90061224.29148
  24663092.060   129605227.15708  24663100.400   100991025.60546
  22646706.900   121059641.93408  22646711.500    94157527.19205
  21249545.620   113391717.19909  21249548.400    88193614.02608
  23150568.140   123926859.31207  23150573.480    96387596.01306
  23429506.280   124892301.10305  23429519.980    97138581.47603
  20770184.440   110989566.82508  20770188.680    86325232.33608
  21409473.220   114365566.89508  21409475.660    88951009.31607
  20383632.800   109076953.12009  20383633.020    84837641.41308
  21321042.040   113813282.70809  21321045.180    88521506.25008
  23308357.220   124640248.77508  23308358.900    96942413.55105
 15 03 04 00 32 30.0000000  0 16G16G18G19G21G22G27G31R01R02R03R14R15
                                R16R17R18R24
  20801004.100   109310035.04309  20801000.720    85176650.05848
  21586252.800   113436705.13609  21586250.060    88392291.73848
  24049701.700   126382042.75707  24049698.880    98479504.03245
  22213704.220   116733809.41309  22213700.540    90961399.74247
  22081766.280   116040641.35109  22081762.060    90421326.34448
  21982902.880   115520991.29909  21982902.860    90016373.61648
  24680561.060   129697026.50208  24680569.420   101062557.37445
  22655735.860   121107906.38308  22655740.180    94195066.28306
  21238417.460   113332335.42409  21238420.420    88147428.23808
  23127645.540   123804154.69707  23127650.840    96292159.60907
  23454785.320   125027050.92505  23454799.120    97243386.55205
  20785920.200   111073653.89108  20785924.500    86390633.37108
  21401086.520   114320766.63808  21401088.920    88916164.67807
  20387744.620   109098956.62009  20387744.880    84854755.25708
  21312720.620   113768861.92609  21312723.600    88486956.77708
  23321882.020   124712572.89707  23321884.040    96998665.63605
 15 03 04 00 33  0.0000000  0 15G16G18G19G21G22G27R01R02R03R14R15R16
                                R17R18R24
  20793794.820   109272150.28309  20793791.380    85147129.47348
  21582599.320   113417505.06009  21582596.420    88377330.64848
  24035211.100   126305893.55708  24035208.140    98420167.05045
  22225220.440   116794327.44509  22225216.780    91008556.64847
  22066654.180   115961226.81109  22066649.920    90359444.93148
  21971966.920   115463522.59309  21971966.920    89971592.83548
  22664893.460   121156860.61808  22664898.320    94233141.76206
  21227406.040   113273577.26009  21227409.220    88101727.48508
  23104727.700   123681475.19608  23104732.720    96196742.69206
  23480060.180   125161778.37306  23480073.840    97348173.97104
  20801762.240   111158308.79708  20801766.560    86456476.03908
  21392841.360   114276722.52408  21392843.680    88881908.14708
  20391879.000   109121081.05009  20391879.260    84871963.15508
  21304422.580   113724566.17109  21304425.500    88452504.53408
  23335403.400   124784878.44808  23335405.700    97054903.22805
 15 03 04 00 33 30.0000000  0 15G16G18G19G21G22G27R01R02R03R14R15R16
                                R17R18R24
  20786679.120   109234757.40609  20786675.640    85117992.17248
  21579040.280   113398801.67109  21579037.280    88362756.60248
  24020731.900   126229804.49008  24020728.880    98360876.92346
  22236766.500   116855002.49409  22236762.920    91055835.90747
  22051600.320   115882117.99309  22051595.940    90297801.74948
  21961052.940   115406169.68809  21961053.000    89926902.28948
  22674184.980   121206529.21608  22674189.760    94271772.92506
  21216516.920   113215472.17609  21216520.400    88056534.66308
  23081820.140   123558850.80507  23081825.160    96101368.67506
  23505335.040   125296506.03206  23505348.940    97452961.61105
  20817714.820   111243554.18508  20817719.060    86522777.97308
  21384742.960   114233462.45008  21384745.320    88848261.43208
  20396040.820   109143352.28208  20396041.140    84889285.22208
  21296152.640   113680420.78709  21296155.620    88418169.27108
  23348926.440   124857192.00907  23348928.300    97111147.14004
 15 03 04 00 34  0.0000000  0 15G16G18G19G21G22G27R01R02R03R14R15R16
                                R17R18R24
  20779654.060   109197840.92409  20779650.580    85089226.08648
  21575572.460   113380578.22509  21575569.480    88348556.54548
  24006260.760   126153758.18107  24006257.640    98301620.12846
  22248338.860   116915815.67209  22248335.340    91103222.81048
  22036601.900   115803300.38309  22036597.400    90236385.47148
  21950157.780   115348915.70309  21950157.900    89882288.81748
  22683606.500   121256892.19408  22683611.000    94310944.13405
  21205747.480   113158005.67809  21205751.000    88011838.53708
  23058920.440   123436268.21908  23058925.340    96006027.09307
  23530606.020   125431212.23606  23530619.900    97557732.58505
  20833773.860   111329367.95708  20833778.000    86589521.99408
  21376788.400   114190970.55208  21376790.780    88815212.17708
  20400226.660   109165751.98009  20400227.060    84906707.20708
  21287907.400   113636407.43009  21287910.480    88383936.68908
  23362447.740   124929495.48208  23362449.700    97167383.16606
 15 03 04 00 34 30.0000000  0 15G16G18G19G21G22G27R01R02R03R14R15R16
                                R17R18R24
  20772720.680   109161406.27009  20772717.200    85060835.44548
  21572196.940   113362839.86109  21572193.980    88334734.45148
  23991798.440   126077758.63307  23991795.140    98242399.74946
  22259937.920   116976769.17609  22259934.340    91150719.04647
  22021660.020   115724780.05009  22021655.420    90175200.83948
  21939282.240   115291764.69909  21939282.460    89837755.58348
  22693158.240   121307951.26908  22693162.300    94350656.76905
  21195099.100   113101184.57809  21195102.760    87967644.37308
  23036029.960   123313735.26407  23036034.760    95910724.11806
  23555872.800   125565896.17705  23555886.880    97662486.18404
  20849939.040   111415749.07208  20849943.080    86656707.25608
  21368978.600   114149252.11408  21368981.020    88782764.51008
  20404437.140   109188283.31809  20404437.500    84924231.57308
  21279687.460   113592529.01609  21279690.560    88349809.06008
  23375967.760   125001793.31607  23375969.720    97223614.70904
 15 03 04 00 35  0.0000000  0 14G16G18G19G21G22G27R01R02R03R15R16R17
                                R18R24
  20765879.400   109125455.52209  20765876.020    85032821.87448
  21568913.860   113345587.21409  21568910.900    88321290.84448
  23977345.000   126001806.04708  23977341.720    98183215.98346
  22271563.360   117037861.60109  22271559.780    91198323.52947
  22006775.260   115646560.06109  22006770.620    90114250.23948
  21928426.560   115234717.77909  21928426.820    89793303.45248
  22702840.020   121359705.10108  22702843.820    94390909.75306
  21184572.600   113045012.86609  21184576.060    87923955.28308
  23013149.500   123191256.63207  23013154.320    95815463.39707
  20866209.820   111502694.79708  20866213.820    86724331.67708
  21361314.060   114108309.49308  21361316.540    88750920.25908
  20408672.200   109210946.44708  20408672.620    84941858.45808
  21271492.820   113548785.74909  21271495.940    88315786.54208
  23389487.120   125074085.81008  23389488.420    97279842.27705
 15 03 04 00 35 30.0000000  0 14G16G18G19G21G22G27R01R02R03R15R16R17
                                R18R24
  20759130.220   109089988.73809  20759127.000    85005185.42248
  21565722.980   113328819.28209  21565720.020    88308224.94348
  23962900.360   125925899.02308  23962896.960    98124067.69546
  22283214.680   117099089.92109  22283211.060    91246033.90347
  21991947.760   115568641.22009  21991943.120    90053534.30848
  21917590.440   115177773.69909  21917590.740    89748931.45448
  22712650.900   121412149.82608  22712654.800    94431700.09305
  21174168.200   112989492.30309  21174171.540    87880772.65008
  22990279.720   123068834.70707  22990284.300    95720246.71306
  20882584.920   111590198.31108  20882589.020    86792389.93808
  21353794.700   114068142.31008  21353797.140    88719679.10608
  20412931.480   109233739.24509  20412932.100    84959586.18708
  21263323.060   113505175.19909  21263326.120    88281867.26108
  23403004.980   125146371.93408  23403006.160    97336064.73004
 15 03 04 00 36  0.0000000  0 14G16G18G19G21G22G27R01R02R03R15R16R17
                                R18R24
  20752473.480   109055007.50109  20752470.360    84977927.31548
  21562624.540   113312536.98009  21562621.580    88295537.44548
  23948464.400   125850037.23108  23948460.940    98064954.66246
  22294891.460   117160452.04009  22294887.800    91293848.54147
  21977177.840   115491025.32609  21977173.320    89993054.44248
  21906774.020   115120932.74009  21906774.240    89704639.81348
  22722590.600   121465283.15808  22722594.360    94473026.05505
  21163886.180   112934625.34609  21163889.480    87838098.39308
  22967421.320   122946473.53807  22967425.680    95625077.32107
  20899063.620   111678255.54608  20899067.800    86860878.85408
  21346420.780   114028752.18708  21346423.220    88689042.35708
  20417214.900   109256660.90709  20417215.720    84977414.14708
  21255178.020   113461696.53509  21255181.000    88248050.53408
  23416521.720   125218651.02807  23416522.400    97392281.89905
 15 03 04 00 36 30.0000000  0 14G16G18G19G21G22G27R01R02R03R15R16R17
                                R18R24
  20745909.340   109020512.95709  20745906.360    84951048.45648
  21559618.500   113296740.35609  21559615.520    88283228.40548
  23934037.060   125774220.53808  23934033.480    98005876.76246
  22306593.460   117221946.48709  22306589.700    91341766.29347
  21962466.060   115413714.95509  21962461.640    89932812.63948
  21895977.280   115064195.01009  21895977.280    89660428.61448
  22732658.580   121519102.43308  22732662.580    94514885.49406
  21153727.300   112880415.02109  21153730.440    87795934.84408
  22944575.080   122824177.02807  22944578.960    95529958.16506
  20915644.920   111766861.07408  20915649.160    86929794.20208
  21339192.400   113990140.05808  21339194.960    88659010.69508
  20421522.340   109279710.93408  20421523.200    84995341.95408
  21247057.500   113418348.65809  21247060.400    88214335.52608
  23430037.120   125290923.51708  23430037.760    97448493.74405
 15 03 04 00 37  0.0000000  0 14G16G18G19G21G22G27R01R02R03R15R16R17
                                R18R24
  20739438.900   108986510.91809  20739436.100    84924553.36048
  21556705.780   113281434.02009  21556702.760    88271301.40848
  23919619.080   125698453.23908  23919615.460    97946837.34646
  22318321.060   117283575.47209  22318317.180    91389788.88147
  21947813.660   115336716.60409  21947809.340    89872813.97548
  21885201.060   115007565.11109  21885200.880    89616301.42248
  22742855.500   121573609.88408  22742859.340    94557280.16305
  21143692.820   112826868.70209  21143695.680    87754287.73008
  22921742.460   122701953.32607  22921746.020    95434895.63906
  20932329.060   111856016.23108  20932333.380    86999137.03708
  21332110.720   113952311.52708  21332113.440    88629588.49708
  20425854.500   109302892.89009  20425855.240    85013372.35908
  21238962.200   113375135.06909  21238964.980    88180724.95008
  23443551.960   125363193.55806  23443552.640    97504703.81705
 15 03 04 00 37 30.0000000  0 14G16G18G19G21G22G27R01R02R03R15R16R17
                                R18R24
  20733062.340   108953001.96309  20733059.580    84898442.49048
  21553886.340   113266618.00209  21553883.340    88259756.47948
  23905210.180   125622734.43408  23905206.680    97887835.74346
  22330073.680   117345336.16208  22330069.800    91437914.08847
  21933220.860   115260031.31309  21933216.640    89813059.24348
  21874445.260   114951042.66409  21874444.920    89572257.97148
  22753180.480   121628801.91408  22753183.940    94600207.31805
  21133783.160   112773988.30509  21133785.920    87713158.56008
  22898924.100   122579805.85408  22898927.460    95339892.38506
  20949114.820   111945714.48308  20949119.180    87068902.30708
  21325175.880   113915267.38208  21325178.820    88600776.38308
  20430211.120   109326205.59409  20430211.720    85031504.45808
  21230891.740   113332054.30609  21230894.520    88147217.71908
  23457066.000   125435460.25407  23457067.080    97560911.20005
 15 03 04 00 38  0.0000000  0 14G16G18G19G21G22G27R01R02R03R15R16R17
                                R18R24
  20726779.980   108919987.71009  20726777.200    84872717.10048
  21551160.240   113252292.54909  21551157.280    88248593.81148
  23890810.460   125547064.19608  23890807.180    97828871.97546
  22341851.060   117407227.22908  22341847.220    91486140.88347
  21918688.200   115183661.92209  21918684.040    89753550.67548
  21863710.000   114894628.22109  21863709.620    89528298.68148
  22763632.960   121684676.67208  22763636.160    94643665.48205
  21123998.880   112721777.25909  21124001.640    87672549.99908
  22876120.820   122457738.96707  22876123.920    95244951.78306
  20966001.500   112035951.88808  20966005.900    87139086.91008
  21318388.160   113879008.74408  21318391.140    88572575.22008
  20434592.120   109349648.43709  20434592.560    85049737.77608
  21222845.820   113289105.76509  21222848.860    88113813.33808
  23470579.420   125507724.00106  23470580.720    97617116.37604
 15 03 04 00 38 30.0000000  0 14G16G18G19G21G22G27R01R02R03R15R16R17
                                R18R24
  20720591.800   108887468.28909  20720588.980    84847377.29648
  21548527.300   113238456.61909  21548524.440    88237812.58148
  23876419.680   125471441.11208  23876416.620    97769944.94546
  22353652.680   117469245.62309  22353648.980    91534466.90547
  21904215.840   115107609.01009  21904211.600    89694288.69848
  21852995.080   114838320.73209  21852994.700    89484422.73248
  22774212.260   121741230.19708  22774215.360    94687651.59205
  21114340.240   112670236.63009  21114343.060    87632462.86708
  22853332.960   122335755.06408  22853335.940    95150075.72207
  20982987.960   112126722.18008  20982992.320    87209685.99408
  21311747.500   113843535.64008  21311750.500    88544985.01508
  20438997.100   109373219.70009  20438997.500    85068070.96908
  21214824.220   113246287.37409  21214827.560    88080510.18008
  23484091.840   125579983.43507  23484093.800    97673318.16405
 15 03 04 00 39  0.0000000  0 14G16G18G19G21G22G27R01R02R03R15R16R17
                                R18R24
  20714498.020   108855444.89909  20714495.140    84822424.00348
  21545987.680   113225110.82009  21545984.800    88227413.27648
  23862037.840   125395864.79508  23862034.780    97711054.36346
  22365478.140   117531389.31609  22365474.600    91582890.54947
  21889804.160   115031874.89909  21889799.800    89635275.13348
  21842300.500   114782120.35809  21842300.160    89440630.24348
  22784918.100   121798460.03108  22784921.400    94732163.70805
  21104807.700   112619369.29309  21104810.540    87592899.40508
  22830561.340   122213858.14807  22830564.280    95055267.31007
  21000073.440   112218021.51908  21000077.820    87280696.55608
  21305254.100   113808848.90308  21305256.960    88518006.44608
  20443425.840   109396918.44308  20443426.200    85086503.33008
  21206826.940   113203598.07909  21206830.360    88047307.40808
  23497603.460   125652238.35306  23497606.300    97729516.32305
 15 03 04 00 39 30.0000000  0 14G16G18G19G21G22G27R01R02R03R15R16R17
                                R18R24
  20708498.720   108823918.03109  20708495.780    84797857.62349
  21543541.260   113212254.66209  21543538.340    88217395.50748
  23847664.880   125320334.59808  23847661.780    97652199.70846
  22377327.040   117593655.73709  22377323.600    91631409.84447
  21875453.400   114956460.94209  21875448.940    89576511.05348
  21831626.160   114726026.69809  21831625.880    89396920.92548
  22795749.660   121856362.50408  22795753.380    94777198.95205
  21095401.760   112569177.44309  21095404.640    87553861.33908
  22807806.640   122092051.65608  22807809.500    94960529.22107
  21017256.840   112309843.77908  21017261.100    87352113.84208
  21298908.060   113774948.86608  21298910.800    88491639.76308
  20447877.980   109420743.44109  20447878.540    85105033.89708
  21198853.680   113161036.24909  21198856.920    88014203.78108
  23511114.380   125724488.19608  23511116.940    97785710.73304
 15 03 04 00 40  0.0000000  0 14G16G18G19G21G22G27R01R02R03R15R16R17
                                R18R24
  20702594.800   108792892.25709  20702591.800    84773681.69749
  21541188.600   113199891.24009  21541185.680    88207761.69648
  23833301.240   125244853.23408  23833297.940    97593383.12246
  22389199.540   117656046.10909  22389196.200    91680025.71047
  21861164.460   114881372.31509  21861159.960    89518000.48048
  21820972.720   114670043.06609  21820972.500    89353297.32348
  22806707.380   121914938.25908  22806711.540    94822757.84405
  21086123.460   112519666.62909  21086126.420    87515352.96108
  22785070.080   121970342.13808  22785072.860    94865866.56207
  21034537.680   112402186.61308  21034541.780    87423936.00908
  21292710.080   113741839.49008  21292712.620    88465888.03908
  20452354.120   109444697.04309  20452354.920    85123664.48308
  21190904.860   113118604.27609  21190907.880    87981201.13908
  23524625.240   125796735.80206  23524627.880    97841903.30906
 15 03 04 00 40 30.0000000  0 14G16G18G19G21G22G27R01R02R03R15R16R17
                                R18R24
  20696786.680   108762369.87609  20696783.620    84749898.02349
  21538929.940   113188021.89909  21538927.000    88198512.87348
  23818947.040   125169421.53008  23818943.620    97534605.20146
  22401095.560   117718559.80909  22401092.260    91728737.67247
  21846937.900   114806611.88409  21846933.420    89459745.63348
  21810340.460   114614170.75409  21810340.240    89309760.47348
  22817791.020   121974185.61108  22817794.880    94868839.19705
  21076973.380   112470840.38809  21076976.340    87477377.02108
  22762352.700   121848734.97408  22762355.320    94771283.45607
  21051915.480   112495047.69608  21051919.520    87496161.24808
  21286660.460   113709522.63808  21286662.800    88440752.71408
  20456854.520   109468779.94309  20456855.520    85142395.62708
  21182980.380   113076302.20709  21182983.260    87948299.53808
  23538135.880   125868982.51408  23538138.500    97898095.10504
 15 03 04 00 41  0.0000000  0 14G16G18G19G21G22G27R01R02R03R15R16R17
                                R18R24
  20691074.340   108732350.92009  20691071.240    84726506.63549
  21536765.080   113176645.58809  21536762.200    88189648.23448
  23804602.020   125094038.38008  23804598.580    97475865.14046
  22413014.520   117781193.83809  22413011.240    91777543.40347
  21832773.960   114732180.43709  21832769.520    89401747.14448
  21799729.240   114558408.85309  21799729.100    89266309.66548
  22828999.260   122034100.66008  22829003.180    94915439.76805
  21067951.800   112422700.14409  21067954.940    87439934.63508
  22739655.100   121727233.11008  22739657.580    94676782.25207
  21069388.840   112588419.71308  21069392.880    87568783.89908
  21280759.060   113677998.09308  21280761.300    88416233.63108
  20461378.840   109492990.07009  20461379.820    85161225.73008
  21175079.760   113034127.93909  21175082.720    87915497.36908
  23551646.200   125941226.68907  23551648.180    97954285.09805
 15 03 04 00 41 30.0000000  0 14G16G18G19G21G22G27R01R02R03R15R16R17
                                R18R24
  20685457.720   108702834.94609  20685454.560    84703507.18349
  21534693.820   113165761.30609  21534691.000    88181166.98748
  23790265.980   125018701.97908  23790262.500    97417161.49746
  22424955.720   117843944.76608  22424952.480    91826440.24047
  21818672.800   114658078.91109  21818668.440    89344005.73048
  21789138.780   114502756.15409  21789138.660    89222943.94848
  22840331.920   122094678.91308  22840336.180    94962556.17905
  21059058.920   112375247.16909  21059062.220    87403026.78908
  22716977.500   121605838.60208  22716979.980    94582364.55907
  21086956.840   112682297.88608  21086960.960    87641800.20308
  21275005.740   113647265.17308  21275008.060    88392330.24308
  20465926.560   109517325.52808  20465927.500    85180153.31508
  21167202.680   112992079.28109  21167205.760    87882792.89108
  23565155.760   126013466.75808  23565157.720    98010471.70306
 15 03 04 00 42  0.0000000  0 14G16G18G19G21G22G27R01R02R03R15R16R17
                                R18R24
  20679937.580   108673826.21509  20679934.380    84680902.97348
  21532716.680   113155371.77009  21532713.960    88173071.26148
  23775939.460   124943415.22408  23775935.920    97358496.53346
  22436919.400   117906813.97909  22436916.120    91875429.23347
  21804635.440   114584312.44609  21804631.160    89286525.40548
  21778569.820   114447216.07009  21778569.760    89179665.98448
  22851788.340   122155921.03307  22851792.380    95010188.95105
  21050295.800   112328486.68709  21050299.320    87366657.55008
  22694321.360   121484558.79708  22694323.640    94488036.05307
  21104619.060   112776679.71708  21104623.380    87715208.24508
  21269401.320   113617327.75508  21269403.740    88369045.57808
  20470498.060   109541788.61208  20470499.060    85199180.16008
  21159349.560   112950158.47309  21159352.700    87850187.84108
  23578665.120   126085705.98407  23578666.780    98066657.74104
 15 03 04 00 42 30.0000000  0 14G16G18G19G21G22G27R01R02R03R15R16R17
                                R18R24
  20674513.980   108645325.09909  20674510.760    84658694.31348
  21530833.660   113145476.47809  21530830.980    88165360.65848
  23761622.160   124868177.05508  23761618.540    97299869.42946
  22448905.040   117969798.39809  22448901.720    91924507.99747
  21790662.120   114510882.23809  21790657.880    89229307.09348
  21768022.180   114391787.94709  21768022.120    89136475.26548
  22863368.420   122217823.24008  22863372.000    95058335.18005
  21041662.860   112282420.70809  21041666.580    87330828.48508
  22671687.220   121363396.64507  22671689.460    94393799.01707
  21122374.400   112871559.28508  21122378.880    87789003.41408
  21263945.820   113588185.43208  21263948.340    88346379.32608
  20475093.160   109566378.01209  20475094.080    85218305.25108
  21151519.980   112908363.65209  21151523.100    87817680.76308
  23592173.960   126157943.54108  23592175.060    98122842.51405
 15 03 04 00 43  0.0000000  0 14G16G18G19G21G22G27R01R02R03R15R16R17
                                R18R24
  20669187.180   108617333.03109  20669184.020    84636882.32249
  21529044.820   113136075.78209  21529042.040    88158035.46348
  23747314.120   124792987.82708  23747310.600    97241280.47746
  22460912.340   118032896.73909  22460909.020    91973675.53847
  21776753.220   114437790.29709  21776748.980    89172352.37948
  21757496.040   114336472.45409  21757495.920    89093372.30448
  22875071.420   122280382.96307  22875075.660    95106992.70306
  21033160.620   112237051.67109  21033164.480    87295541.50308
  22649075.840   121242356.79708  22649078.060    94299657.17107
  21140222.080   112966932.19408  21140226.680    87863182.29808
  21258639.400   113559839.52308  21258641.980    88324332.50508
  20479711.820   109591093.23709  20479712.580    85237528.21208
  21143713.860   112866694.44009  21143717.000    87785271.41608
  23605682.560   126230179.30507  23605683.620    98179025.86505
 15 03 04 00 43 30.0000000  0 14G16G18G19G21G22G27R01R02R03R15R16R17
                                R18R24
  20663958.080   108589854.63409  20663955.020    84615470.58949
  21527350.760   113127173.07609  21527347.860    88151098.30848
  23733015.900   124717850.42308  23733012.540    97182731.89047
  22472941.540   118096110.45908  22472938.200    92022932.97247
  21762909.740   114365041.85109  21762905.460    89115665.31948
  21746992.040   114281273.02009  21746991.800    89050359.76248
  22886897.520   122343600.57608  22886902.240    95156161.94405
  21024790.180   112192385.54009  21024793.940    87260801.20908
  22626488.440   121121446.17807  22626490.780    94205615.78707
  21158162.020   113062797.58308  21158166.700    87937744.21108
  21253482.740   113532293.92108  21253485.440    88302908.14708
  20484354.580   109615937.19009  20484355.100    85256851.28708
  21135931.700   112825153.14709  21135934.760    87752961.55108
  23619191.420   126302417.33307  23619192.480    98235210.88005
 15 03 04 00 44  0.0000000  0 14G16G18G19G21G22G27R01R02R03R15R16R17
                                R18R24
  20658826.120   108562886.66209  20658823.160    84594456.59349
  21525750.660   113118764.13409  21525747.640    88144545.89848
  23718726.800   124642760.49308  23718723.420    97124220.29347
  22484991.500   118159433.55308  22484988.200    92072275.63247
  21749131.340   114292635.25009  21749126.920    89059244.62848
  21736509.400   114226185.90709  21736509.020    89007434.74748
  22898845.760   122407468.81608  22898849.960    95205837.36306
  21016551.300   112148420.47109  21016554.740    87226606.17108
  22603924.980   121000664.57908  22603927.660    94111674.75507
  21176192.300   113159145.63608  21176197.020    88012681.52308
  21248475.200   113505544.73108  21248478.000    88282103.21508
  20489020.500   109640905.04509  20489020.820    85276270.72908
  21128172.600   112783734.79809  21128175.660    87720747.28908
  23632699.880   126374652.57207  23632700.420    98291393.88104
 15 03 04 00 44 30.0000000  0 14G16G18G19G21G22G27R01R02R03R15R16R17
                                R18R24
  20653792.560   108536435.38309  20653789.600    84573845.20248
  21524245.500   113110854.31309  21524242.340    88138382.40748
  23704447.720   124567723.38708  23704444.300    97065749.85646
  22497062.880   118222869.28809  22497059.540    92121706.06847
  21735419.340   114220577.61509  21735414.780    89003095.85648
  21726049.100   114171216.61509  21726048.640    88964601.54348
  22910915.420   122471990.27308  22910920.260    95256020.61105
  21008445.220   112105163.89309  21008448.360    87192962.19508
  22581387.400   120880021.54107  22581390.220    94017841.46507
  21194313.080   113255976.86108  21194317.680    88087994.64608
  21243617.940   113479597.99908  21243620.600    88261922.42008
  20493710.440   109666001.57709  20493710.660    85295790.24808
  21120437.380   112742443.97809  21120440.500    87688632.21808
  23646208.920   126446890.66007  23646209.100    98347578.99805
 15 03 04 00 45  0.0000000  0 13G16G18G19G21G22G27R01R02R03R15R16R17
                                R18
  20648857.160   108510499.56009  20648854.160    84553635.47449
  21522834.880   113103441.38909  21522831.640    88132606.12148
  23690178.120   124492736.61908  23690174.680    97007318.65946
  22509154.880   118286413.53608  22509151.560    92171221.07247
  21721773.580   114148868.26509  21721768.900    88947218.48248
  21715610.780   114116363.06509  21715610.260    88921858.53348
  22923106.740   122537158.98108  22923111.340    95306707.44805
  21000471.900   112062615.72109  21000474.760    87159869.19808
  22558876.060   120759518.56407  22558878.900    93924117.12107
  21212522.980   113353284.37708  21212527.440    88163678.22208
  21238910.560   113454451.71108  21238913.160    88242364.20008
  20498423.880   109691223.86309  20498424.040    85315407.58608
  21112725.480   112701277.32409  21112728.640    87656613.72808
 15 03 04 00 45 30.0000000  0 13G16G18G19G21G22G27R01R02R03R15R16R17
                                R18
  20644020.900   108485084.43209  20644017.800    84533831.48348
  21521519.440   113096528.97609  21521516.220    88127219.84448
  23675918.720   124417803.67908  23675915.180    96948929.38346
  22521267.920   118350068.82208  22521264.740    92220822.59547
  21708195.140   114077513.18709  21708190.460    88891617.16548
  21705195.260   114061629.63409  21705194.740    88879209.12948
  22935419.300   122602976.92708  22935423.360    95357899.21105
  20992632.460   112020782.33509  20992634.980    87127332.14808
  22536392.520   120639163.94007  22536395.360    93830508.15407
  21230821.900   113451067.43408  21230826.220    88239731.67608
  21234353.880   113430110.47408  21234356.420    88223432.11908
  20503161.440   109716575.34609  20503161.580    85335125.41008
  21105037.400   112660238.05809  21105040.500    87624694.32508
 15 03 04 00 46  0.0000000  0 13G16G18G19G21G22G27R01R02R03R15R16R17
                                R18
  20639283.120   108460186.56809  20639279.900    84514430.55449
  21520298.360   113090112.47509  21520295.180    88122219.98948
  23661668.820   124342920.30308  23661665.120    96890578.75547
  22533400.800   118413828.55808  22533397.780    92270505.50447
  21694683.620   114006510.28509  21694679.020    88836290.26548
  21694801.800   114007012.24309  21694801.360    88836650.15848
  22947851.940   122669435.97608  22947856.000    95409589.55305
  20984926.480   111979661.54409  20984928.800    87095349.34408
  22513936.640   120518956.84407  22513939.420    93737013.91707
  21249207.860   113549315.57508  21249212.060    88316146.85708
  21229947.080   113406570.09708  21229949.580    88205122.93608
  20507922.220   109742051.14809  20507922.400    85354939.93508
  21097372.100   112619320.91009  21097375.240    87592869.90408
 15 03 04 00 46 30.0000000  0 13G16G18G19G21G22G27R01R02R03R15R16R17
                                R18
  20634644.520   108435810.09809  20634641.160    84495435.89649
  21519172.400   113084195.93509  21519169.280    88117609.70948
  23647429.020   124268089.57808  23647425.240    96832269.14046
  22545553.920   118477694.50708  22545551.060    92320271.15447
  21681240.020   113935864.53309  21681235.520    88781241.65448
  21684431.160   113952514.59809  21684430.780    88794184.47348
  22960404.680   122736536.73108  22960408.440    95461779.03405
  20977354.980   111939258.92109  20977357.460    87063925.09008
  22491509.880   120398905.19807  22491512.580    93643640.56407
  21267680.580   113648027.69008  21267684.700    88392922.88608
  21225690.900   113383834.50508  21225693.460    88187439.68608
  20512706.820   109767654.38609  20512706.940    85374853.54808
  21089730.180   112578528.63109  21089733.500    87561142.59308
 15 03 04 00 47  0.0000000  0 13G16G18G19G21G22G27R01R02R03R15R16R17
                                R18
  20630104.920   108411954.23409  20630101.540    84476846.91548
  21518141.180   113078777.14509  21518138.080    88113387.28348
  23633198.800   124193309.29408  23633195.000    96773998.82946
  22557726.560   118541662.76109  22557723.740    92370116.55547
  21667864.300   113865575.49909  21667859.960    88726471.02948
  21674082.980   113898134.75309  21674082.700    88751810.59048
  22973076.280   122804273.92008  22973079.980    95514463.53305
  20969917.920   111899574.26409  20969920.600    87033059.29208
  22469112.380   120279010.31508  22469115.040    93550389.17207
  21286238.940   113747197.47208  21286242.940    88470054.88608
  21221584.920   113361901.69508  21221587.520    88170380.83808
  20517514.640   109793381.67509  20517514.640    85394863.66608
  21082111.100   112537857.94009  21082114.620    87529509.85608
 15 03 04 00 47 30.0000000  0 13G16G18G19G21G22G27R01R02R03R15R16R17
                                R18
  20625664.360   108388619.28909  20625661.040    84458663.83849
  21517204.540   113073855.03209  21517201.380    88109551.88148
  23618978.060   124118578.67708  23618974.320    96715767.21146
  22569918.300   118605730.78008  22569915.520    92420039.66847
  21654556.860   113795644.75809  21654552.500    88671979.57248
  21663757.260   113843872.55709  21663756.980    88709528.37048
  22985866.220   122872643.74608  22985870.100    95567640.10005
  20962615.700   111860609.19609  20962618.440    87002753.15008
  22446744.920   120159275.86108  22446747.280    93457262.54707
  21304881.720   113846818.88908  21304885.760    88547538.14708
  21217629.140   113340771.11408  21217631.820    88153945.92908
  20522345.460   109819232.48109  20522345.460    85414969.83608
  21074514.660   112497307.59209  21074518.300    87497970.70308
 15 03 04 00 48  0.0000000  0 13G16G18G19G21G22G27R01R02R03R15R16R17
                                R18
  20621323.680   108365809.40309  20621320.460    84440889.90549
  21516363.040   113069433.01909  21516359.860    88106106.18148
  23604767.420   124043901.24908  23604763.700    96657577.02347
  22582129.460   118669900.53308  22582126.600    92470042.07347
  21641318.720   113726078.06009  21641314.320    88617771.79048
  21653454.660   113789731.93209  21653454.420    88667340.90048
  22998774.640   122941646.66508  22998778.980    95621309.05105
  20955449.440   111822369.40109  20955452.340    86973011.10608
  22424409.020   120039709.96208  22424411.140    93364266.99507
  21323608.760   113946890.50508  21323612.880    88625371.58608
  21213824.360   113320446.92708  21213827.020    88138138.23208
  20527199.800   109845209.60509  20527200.020    85435174.27208
  21066941.320   112456880.60009  21066944.940    87466527.52008
 15 03 04 00 48 30.0000000  0 13G16G18G19G21G22G27R01R02R03R15R16R17
                                R18
  20617083.060   108343525.17009  20617079.940    84423525.57049
  21515616.440   113065509.70709  21515613.180    88103049.07548
  23590566.680   123969275.86008  23590562.960    96599427.40046
  22594359.520   118734169.39809  22594356.620    92520121.71347
  21628149.980   113656875.91409  21628145.520    88563848.07548
  21643175.020   113735712.24309  21643174.780    88625247.65048
  23011800.800   123011278.76308  23011804.840    95675467.38905
  20948419.400   111784856.04609  20948422.420    86943834.07908
  22402105.060   119920315.09108  22402107.000    93271404.46807
  21342419.040   114047406.88508  21342423.180    88703550.93407
  21210170.340   113300928.27508  21210173.000    88122957.03608
  20532077.580   109871312.01109  20532077.960    85455476.15408
  21059390.760   112416575.04009  21059394.160    87435178.75708
 15 03 04 00 49  0.0000000  0 13G16G18G19G21G22G27R01R02R03R15R16R17
                                R18
  20612943.000   108321769.32009  20612940.000    84406572.95649
  21514965.100   113062087.25809  21514961.860    88100382.24448
  23576376.200   123894704.43408  23576372.460    96541319.82847
  22606608.380   118798537.14809  22606605.420    92570278.38647
  21615051.480   113588042.83209  21615046.920    88510211.94048
  21632918.800   113681815.85009  21632918.620    88583250.47448
  23024944.320   123081538.44508  23024948.640    95730113.76205
  20941526.200   111748073.16009  20941529.360    86915225.19108
  22379834.140   119801097.34808  22379835.900    93178679.68007
  21361311.860   114148364.62708  21361316.100    88782073.56708
  21206667.520   113282217.27008  21206670.300    88108404.02508
  20536979.060   109897541.01909  20536979.580    85475876.48508
  21051863.200   112376392.00009  21051866.380    87403925.29008
 15 03 04 00 49 30.0000000  0 13G16G18G19G21G22G27R01R02R03R15R16R17
                                R18
  20608903.740   108300542.72109  20608900.780    84390032.74949
  21514409.040   113059165.61609  21514405.840    88098105.65448
  23562195.940   123820186.85608  23562192.020    96483254.21046
  22618875.740   118863001.92708  22618872.720    92620510.69247
  21602023.440   113519580.35409  21602018.860    88456864.58648
  21622686.080   113628043.00909  21622685.900    88541349.57748
  23038204.680   123152422.64208  23038208.760    95785245.96805
  20934770.280   111712022.49209  20934773.460    86887185.81808
  22357597.080   119682061.14408  22357598.760    93086096.11707
  21380286.460   114249759.12608  21380290.760    88860935.89908
  21203315.940   113264313.86708  21203318.760    88094479.15208
  20541904.100   109923895.77708  20541904.560    85496374.62408
  21044358.440   112336330.89209  21044361.580    87372766.67708
 15 03 04 00 50  0.0000000  0 13G16G18G19G21G22G27R01R02R03R15R16R17
                                R18
  20604965.580   108279847.37209  20604962.660    84373906.49949
  21513948.460   113056745.69809  21513945.360    88096220.01848
  23548026.140   123745724.34108  23548022.280    96425231.50247
  22631161.480   118927563.38009  22631158.380    92670818.30947
  21589066.460   113451491.29009  21589061.880    88403808.20048
  21612477.260   113574395.51309  21612477.100    88499546.35648
  23051581.420   123223929.18108  23051585.260    95840862.18605
  20928152.280   111676707.38109  20928155.620    86859718.52608
  22335394.820   119563211.51608  22335396.680    92993657.66807
  21399341.940   114351585.70208  21399346.200    88940134.29307
  21200115.960   113247219.41908  21200118.600    88081183.46808
  20546852.780   109950377.51409  20546853.200    85516971.52808
  21036876.620   112296392.37009  21036879.800    87341703.39708
 15 03 04 00 50 30.0000000  0 13G16G18G19G21G22G27R01R02R03R15R16R17
                                R18
  20601128.020   108259680.66109  20601125.100    84358192.18949
  21513582.640   113054823.80009  21513579.700    88094722.45648
  23533866.220   123671313.02308  23533862.400    96367248.70547
  22643464.700   118992216.72209  22643461.520    92721197.54347
  21576180.240   113383774.21409  21576175.760    88351041.69548
  21602291.700   113520870.03109  21602291.520    88457838.20948
  23065073.260   123296051.10808  23065077.140    95896956.99305
  20921671.760   111642125.94309  20921675.000    86832821.88308
  22313227.520   119444548.82808  22313229.240    92901364.59507
  21418476.820   114453836.43508  21418481.040    89019662.58207
  21197066.740   113230930.26708  21197069.400    88068514.14408
  20551824.420   109976982.24009  20551824.940    85537664.09308
  21029416.920   112256571.81409  21029420.080    87310731.88708
 15 03 04 00 51  0.0000000  0 13G16G18G19G21G22G27R01R02R03R15R16R17
                                R18
  20597392.120   108240048.11709  20597389.160    84342894.11249
  21513312.300   113053403.76609  21513309.540    88093615.96048
  23519716.860   123596957.68708  23519712.980    96309309.51547
  22655785.960   119056964.50609  22655782.580    92771650.35747
  21563366.000   113316435.19909  21563361.540    88298569.76348
  21592130.300   113467471.51909  21592130.140    88416229.00148
  23078680.600   123368790.11507  23078684.260    95953531.83605
  20915330.000   111608284.61409  20915333.240    86806500.87208
  22291096.940   119326082.00208  22291098.600    92809223.85707
  21437691.020   114556511.00008  21437695.260    89099520.52408
  21194169.140   113215450.89708  21194171.620    88056474.63208
  20556819.720   110003713.65608  20556820.300    85558455.20708
  21021980.120   112216873.05409  21021983.080    87279855.08608
 15 03 04 00 51 30.0000000  0 13G16G18G19G21G22G27R01R02R03R15R16R17
                                R18
  20593757.900   108220950.09609  20593754.860    84328012.53849
  21513137.380   113052485.16709  21513134.820    88092900.18348
  23505577.880   123522657.57408  23505574.020    96251413.36647
  22668124.760   119121804.58309  22668121.160    92822175.08147
  21550624.100   113249475.98409  21550619.640    88246393.77648
  21581993.180   113414200.13109  21581992.960    88374718.84348
  23092402.600   123442142.46508  23092406.420    96010583.64305
  20909127.200   111575185.18009  20909130.460    86780756.89508
  22269003.680   119207814.69008  22269005.240    92717238.27907
  21456983.500   114659603.92608  21456987.720    89179703.85008
  21191423.040   113200781.08508  21191425.500    88045064.76208
  20561838.740   110030571.47308  20561839.380    85579344.61508
  21014565.960   112177295.16109  21014568.660    87249072.29308
 15 03 04 00 52  0.0000000  0 13G16G18G19G21G22G27R01R02R03R15R16R17
                                R18
  20590225.140   108202385.29909  20590222.000    84313546.46049
  21513057.560   113052066.08609  21513055.120    88092573.63748
  23491449.180   123448410.67808  23491445.460    96193558.66847
  22680480.340   119186732.95109  22680476.620    92872768.59547
  21537954.420   113182896.05409  21537949.880    88194513.33148
  21571879.940   113361054.07609  21571879.600    88333306.34748
  23106238.360   123516102.40008  23106242.320    96068108.01205
  20903063.220   111542826.85109  20903066.420    86755589.32208
  22246948.120   119089748.80408  22246949.560    92625409.36007
  21476352.820   114763107.72108  21476357.120    89260206.72708
  21188827.980   113186918.29408  21188830.400    88034282.58308
  20566881.000   110057552.96309  20566881.600    85600330.20708
  21007173.820   112137835.17809  21007176.460    87218381.19708
 15 03 04 00 52 30.0000000  0 13G16G18G19G21G22G27R01R02R03R15R16R17
                                R18
  20586794.720   108184358.34909  20586791.480    84299499.48649
  21513073.460   113052149.57309  21513071.040    88092638.70648
  23477331.260   123374220.54708  23477327.480    96135748.22447
  22692853.060   119251751.70208  22692849.260    92923432.54947
  21525358.020   113116701.40709  21525353.420    88142933.11548
  21561791.360   113308037.56309  21561790.880    88291994.78048
  23120187.980   123590670.71308  23120191.600    96126105.62205
  20897139.200   111511215.46509  20897142.380    86731002.71608
  22224931.500   118971892.30808  22224933.020    92533743.32007
  21495798.920   114867022.01308  21495803.380    89341028.88608
  21186384.680   113173866.37908  21186387.040    88024131.09308
  20571947.000   110084661.63409  20571947.580    85621414.72808
  20999804.360   112098496.35909  20999807.040    87187784.34408
 15 03 04 00 53  0.0000000  0 13G16G18G19G21G22G27R01R02R03R15R16R17
                                R18
  20583466.740   108166869.73509  20583463.420    84285871.99148
  21513184.960   113052735.02309  21513182.460    88093094.91548
  23463224.080   123300086.84208  23463220.160    96077981.72747
  22705242.560   119316859.15809  22705238.820    92974165.64247
  21512835.180   113050893.55909  21512830.560    88091654.30048
  21551727.460   113255150.75809  21551726.840    88250784.28948
  23134250.720   123665843.34208  23134254.220    96184573.23505
  20891355.440   111480352.30109  20891358.540    86706998.06208
  22202954.540   118854248.84208  22202956.380    92442242.96807
  21515320.820   114971341.38708  21515325.440    89422166.09508
  21184092.980   113161624.77408  21184095.380    88014609.83708
  20577036.540   110111896.61908  20577037.200    85642597.48808
  20992457.360   112059277.59809  20992460.000    87157280.88608
 15 03 04 00 53 30.0000000  0 13G16G18G19G21G22G27R01R02R03R15R16R17
                                R18
  20580240.920   108149918.03609  20580237.580    84272662.87149
  21513391.600   113053820.15709  21513388.980    88093940.49248
  23449127.240   123226007.59708  23449123.360    96020257.67747
  22717648.080   119382051.36809  22717644.520    93024964.76347
  21500385.820   112985472.17509  21500381.260    88040676.62248
  21541687.840   113202392.08309  21541687.180    88209673.65148
  23148425.600   123741615.14908  23148429.100    96243506.87505
  20885711.900   111450237.00809  20885714.840    86683575.07408
  22181017.780   118736820.88708  22181019.920    92350910.21707
  21534917.060   115076057.65608  21534921.700    89503612.02007
  21181952.480   113150191.13108  21181954.960    88005717.00308
  20582149.280   110139255.89908  20582149.900    85663876.93508
  20985132.160   112020176.10909  20985134.880    87126868.63708
 15 03 04 00 54  0.0000000  0 13G16G18G19G21G22G27R01R02R03R15R16R17
                                R18
  20577118.100   108133507.81909  20577114.840    84259875.68849
  21513693.800   113055407.58509  21513691.020    88095177.46348
  23435041.400   123151986.22908  23435037.500    95962578.73047
  22730070.080   119447330.12508  22730066.780    93075831.32947
  21488011.000   112920442.35909  21488006.500    87990004.06548
  21531673.240   113149765.38309  21531672.640    88168665.85448
  23162712.340   123817985.89008  23162715.980    96302906.32805
  20880209.500   111420874.75009  20880212.420    86660737.78308
  22159122.700   118619615.89308  22159124.820    92259750.89607
  21554587.420   115181169.69208  21554592.040    89585365.76207
  21179963.800   113139568.55808  21179966.360    87997454.99608
  20587285.700   110166742.12909  20587286.160    85685255.10508
  20977829.400   111981194.75109  20977832.440    87096549.82808
 15 03 04 00 54 30.0000000  0 13G16G18G19G21G22G27R01R02R03R15R16R17
                                R18
  20574097.760   108117636.07009  20574094.580    84247508.09148
  21514090.980   113057494.26509  21514088.100    88096803.45648
  23420966.000   123078019.34808  23420962.000    95904942.23047
  22742507.580   119512690.19908  22742504.460    93126761.24047
  21475710.320   112855802.22209  21475705.900    87939635.15248
  21521683.160   113097267.54709  21521682.660    88127758.46348
  23177109.780   123894948.75208  23177113.180    96362766.36704
  20874847.840   111392263.39509  20874850.800    86638484.53608
  22137269.240   118502634.08808  22137271.460    92168765.15607
  21574330.160   115286668.59908  21574334.800    89667420.39407
  21178126.260   113129753.21308  21178128.880    87989820.85408
  20592445.200   110194351.57809  20592445.520    85706729.12308
  20970548.360   111942329.27409  20970551.860    87066321.15508
 15 03 04 00 55  0.0000000  0 13G16G18G19G21G22G27R01R02R03R15R16R17
                                R18
  20571181.120   108102309.31509  20571178.020    84235565.16549
  21514584.140   113060085.44609  21514581.120    88098822.57348
  23406901.940   123004112.59008  23406898.080    95847352.59347
  22754961.440   119578135.95608  22754958.440    93177757.92047
  21463485.340   112791559.69209  21463480.960    87889576.06448
  21511718.840   113044905.06309  21511718.460    88086956.54849
  23191618.500   123972506.25008  23191621.820    96423088.88205
  20869628.260   111364410.58009  20869631.200    86616821.26308
  22115459.440   118385885.86508  22115461.740    92077961.07407
  21594145.660   115392556.10808  21594150.280    89749777.28107
  21176440.840   113120750.51508  21176443.460    87982818.75508
  20597628.840   110222090.10909  20597629.160    85728303.52008
  20963290.200   111903585.06709  20963293.920    87036186.78408
 15 03 04 00 55 30.0000000  0 13G16G18G19G21G22G27R01R02R03R15R16R17
                                R18
  20568367.620   108087524.39309  20568364.600    84224044.45249
  21515172.380   113063176.26409  21515169.240    88101231.01248
  23392848.540   122930261.68708  23392844.700    95789806.47847
  22767430.520   119643661.49309  22767427.560    93228816.76147
  21451335.540   112727712.22509  21451331.220    87839824.83248
  21501779.640   112992674.25109  21501779.320    88046257.22048
  23206236.940   124050650.43108  23206240.420    96483867.71405
  20864550.360   111337313.71909  20864553.300    86595745.94908
  22093693.460   118269371.47208  22093695.820    91987338.87407
  21614032.220   115498823.54708  21614036.860    89832429.67607
  21174906.760   113112556.00808  21174909.460    87976445.24708
  20602835.780   110249953.03709  20602836.200    85749974.69408
  20956054.040   111864957.31909  20956057.580    87006142.98808
 15 03 04 00 56  0.0000000  0 13G16G18G19G21G22G27R01R02R03R15R16R17
                                R18
  20565658.440   108073287.63509  20565655.460    84212950.86249
  21515856.640   113066771.80609  21515853.380    88104032.74248
  23378806.700   122856472.36008  23378802.940    95732308.36346
  22779915.560   119709270.76608  22779912.620    93279940.86147
  21439262.380   112664267.35709  21439258.020    87790387.29148
  21491866.640   112940581.08709  21491866.360    88005665.15748
  23220965.500   124129383.67708  23220969.120    96545104.67305
  20859615.400   111310979.99209  20859618.460    86575264.19108
  22071973.080   118153100.07408  22071975.280    91896905.65007
  21633989.780   115605470.32308  21633994.380    89915377.09507
  21173525.020   113105174.83808  21173527.680    87970704.32408
  20608066.900   110277945.63209  20608067.420    85771746.70808
  20948840.640   111826450.97109  20948843.900    86976193.61908
 15 03 04 00 56 30.0000000  0 13G16G18G19G21G22G27R01R02R03R15R16R17
                                R18
  20563052.320   108059592.45009  20563049.400    84202279.29548
  21516635.560   113070865.09509  21516632.320    88107222.33248
  23364775.260   122782737.64708  23364771.740    95674852.78947
  22792414.960   119774955.21408  22792411.920    93331123.55147
  21427264.800   112601219.60709  21427260.340    87741259.20748
  21481978.540   112888619.16509  21481978.340    87965175.37848
  23235802.060   124208695.31408  23235805.780    96606791.52104
  20854822.340   111285403.51109  20854825.240    86555371.39308
  22050297.620   118037069.14208  22050299.600    91806659.45507
  21654016.260   115712485.38608  21654020.760    89998610.95607
  21172294.080   113098599.24608  21172296.680    87965589.95908
  20613320.940   110306060.71609  20613321.400    85793613.99008
  20941648.440   111788058.16609  20941651.500    86946332.57608
 15 03 04 00 57  0.0000000  0 13G16G18G19G21G22G27R01R02R03R15R16R17
                                R18
  20560550.220   108046444.00009  20560547.340    84192033.74549
  21517509.860   113075459.99609  21517506.680    88110802.78948
  23350755.140   122709061.93908  23350751.740    95617443.20847
  22804929.120   119840717.26708  22804926.020    93382366.71347
  21415344.020   112538575.28509  21415339.420    87692445.48048
  21472116.280   112836793.34309  21472116.140    87924791.64748
  23250746.900   124288586.36108  23250751.120    96668928.99805
  20850172.260   111260590.03609  20850174.820    86536072.03208
  22028668.640   117921287.15208  22028670.600    91716606.89207
  21674111.400   115819867.37408  21674115.820    90082130.20507
  21171214.780   113092833.33908  21171217.340    87961105.36008
  20618598.560   110334302.19609  20618598.900    85815579.59108
  20934478.260   111749783.01809  20934481.220    86916563.04308
 15 03 04 00 57 30.0000000  0 13G16G18G19G21G22G27R01R02R03R15R16R17
                                R18
  20558151.840   108033840.95309  20558149.080    84182213.19349
  21518479.040   113080553.80709  21518475.980    88114772.00648
  23336746.040   122635443.50608  23336742.380    95560078.22447
  22817457.480   119906553.98809  22817454.300    93433668.05247
  21403500.000   112476334.20909  21403495.260    87643945.97348
  21462279.760   112785102.33909  21462279.560    87884512.95748
  23265799.280   124369051.17708  23265803.620    96731512.74805
  20845665.140   111236539.35309  20845667.560    86517365.96008
  22007086.540   117805756.41708  22007088.360    91626749.72407
  21694273.860   115927609.08708  21694278.240    90165929.23207
  21170286.640   113087874.57208  21170289.040    87957248.53708
  20623899.440   110362668.36309  20623899.840    85837642.15408
  20927329.600   111711622.99709  20927332.580    86886883.04508
 15 03 04 00 58  0.0000000  0 13G16G18G19G21G22G27R01R02R03R15R16R17
                                R18
  20555857.620   108021785.07409  20555854.920    84172819.00049
  21519543.380   113086147.69509  21519540.420    88119130.88848
  23322748.260   122561883.61408  23322744.440    95502758.86747
  22829999.960   119972464.96309  22829996.660    93485027.23147
  21391733.220   112414499.12409  21391728.360    87595762.81648
  21452469.340   112733547.95509  21452469.000    87844340.71848
  23280958.760   124450087.70308  23280963.020    96794541.17905
  20841301.460   111213254.18209  20841303.880    86499255.29408
  21985552.280   117690482.42808  21985554.060    91537092.27107
  21714503.040   116035707.31208  21714507.340    90250005.55907
  21169509.620   113083723.52308  21169511.980    87954019.93608
  20629223.740   110391159.86509  20629224.280    85859802.20808
  20920202.580   111673578.78909  20920205.640    86857293.13108
 15 03 04 00 58 30.0000000  0 13G16G18G19G21G22G27R01R02R03R15R16R17
                                R18
  20553668.560   108010281.55209  20553665.860    84163855.22249
  21520703.560   113092245.05009  21520700.640    88123882.09648
  23308762.340   122488386.48608  23308758.320    95445488.41047
  22842556.980   120038452.48608  22842553.600    93536446.08147
  21380044.900   112353076.36709  21380039.940    87547900.96148
  21442685.820   112682134.82209  21442685.400    87804278.55149
  23296225.380   124531696.51708  23296229.760    96858014.66605
  20837082.220   111190739.71709  20837084.720    86481744.07008
  21964067.500   117575473.47108  21964069.140    91447640.94507
  21734798.700   116144160.98608  21734803.020    90334358.31707
  21168884.400   113080383.63308  21168886.700    87951422.23908
  20634572.260   110419780.73609  20634572.820    85882062.88808
  20913097.940   111635654.05409  20913101.040    86827796.13108
 15 03 04 00 59  0.0000000  0 13G16G18G19G21G22G27R01R02R03R15R16R17
                                R18
  20551584.680   107999330.31809  20551581.900    84155321.78748
  21521959.400   113098844.94109  21521956.500    88129024.87748
  23294788.220   122414951.50608  23294784.120    95388266.36847
  22855128.220   120104514.80509  22855124.940    93587923.21647
  21368435.240   112292067.12309  21368430.220    87500361.31948
  21432929.260   112630863.09909  21432928.720    87764326.56949
  23311598.240   124613873.21408  23311602.620    96921929.94705
  20833007.580   111168996.91109  20833010.120    86464833.00908
  21942632.940   117460733.44708  21942634.560    91358398.77107
  21755159.780   116252964.15208  21755164.160    90418982.92007
  21168410.760   113077853.72308  21168413.040    87949454.50408
  20639944.880   110448530.53509  20639945.380    85904423.81908
  20906015.540   111597847.71309  20906018.520    86798391.21408
 15 03 04 00 59 30.0000000  0 13G16G18G19G21G22G27R01R02R03R15R16R17
                                R18
  20549606.320   107988933.34609  20549603.420    84147220.25749
  21523311.100   113105948.32409  21523308.240    88134560.00348
  23280826.000   122341580.15408  23280822.120    95331093.93647
  22867713.460   120170651.07408  22867710.280    93639457.96947
  21356904.800   112231474.25509  21356899.740    87453146.12448
  21423199.900   112579734.65709  21423199.320    87724486.24348
  23327076.980   124696615.71208  23327081.300    96986285.18005
  20829077.940   111148028.18909  20829080.740    86448524.03208
  21921249.660   117346267.72808  21921251.340    91269369.95807
  21775585.760   116362114.25408  21775590.260    90503877.36307
  21168088.880   113076134.51108  21168091.260    87948117.33708
  20645341.820   110477410.37809  20645342.140    85926885.93008
  20898955.380   111560160.63109  20898958.420    86769079.07008
 15 03 04 01 00  0.0000000  0 13G16G18G19G21G22G27R01R02R03R15R16R17
                                R18
  20547732.560   107979086.13709  20547729.500    84139547.10749
  21524757.580   113113549.57609  21524754.720    88140483.06448
  23266875.000   122268267.60908  23266871.160    95273967.31047
  22880311.620   120236855.28308  22880308.560    93691045.64947
  21345452.920   112171294.39009  21345447.960    87406252.75548
  21413496.920   112528745.06609  21413496.360    87684754.10549
  23342660.020   124779915.46808  23342664.200    97051073.93104
  20825292.700   111127829.91409  20825295.800    86432814.27908
  21899917.440   117232075.41208  21899919.220    91180553.78507
  21796074.640   116471600.39808  21796079.300    90589033.17107
  21167917.640   113075219.95108  21167920.200    87947406.00308
  20650761.940   110506414.76208  20650762.260    85949444.89808
  20891916.560   111522587.18309  20891919.720    86739855.28708
 15 03 04 01 00 30.0000000  0 13G16G18G19G21G22G27R01R02R03R15R16R17
                                R18
  20545963.780   107969790.64709  20545960.620    84132303.87049
  21526298.960   113121649.30109  21526296.080    88146794.55548
  23252935.580   122195015.39408  23252931.640    95216887.70147
  22892922.760   120303127.40508  22892919.800    93742686.27247
  21334080.060   112111530.19609  21334075.300    87359683.28448
  21403820.700   112477896.39409  21403820.200    87645131.78448
  23358346.940   124863769.88008  23358351.260    97116294.06705
  20821652.380   111108404.53509  20821655.540    86417705.67908
  21878637.340   117118162.41408  21878639.340    91091954.87807
  21816625.820   116581419.41908  21816630.620    90674447.86207
  21167897.200   113075110.67908  21167899.780    87947321.00308
  20656205.540   110535545.09808  20656205.920    85972101.82108
  20884899.260   111485128.42009  20884902.400    86710720.71708
 15 03 04 01 01  0.0000000  0 13G16G18G19G21G22G27R01R02R03R15R16R17
                                R18
  20544300.620   107961050.24309  20544297.340    84125493.16249
  21527935.680   113130249.98909  21527932.720    88153496.39648
  23239008.200   122121826.51008  23239004.200    95159857.44147
  22905547.200   120369468.92209  22905544.160    93794380.94047
  21322787.280   112052187.00109  21322782.740    87313441.86248
  21394171.900   112427192.02809  21394171.460    87605621.91148
  23374137.420   124948178.33707  23374141.820    97181945.02905
  20818157.680   111089755.99209  20818160.760    86403201.26408
  21857410.800   117004535.42408  21857412.780    91003578.39207
  21837238.880   116691568.87808  21837243.720    90760119.57007
  21168027.900   113075808.84708  21168030.520    87947864.01808
  20661673.060   110564803.99309  20661673.580    85994858.73008
  20877903.840   111447786.55609  20877906.940    86681677.05108
 15 03 04 01 01 30.0000000  0 13G16G18G19G21G22G27R01R02R03R15R16R17
                                R18
  20542742.900   107952864.08609  20542739.560    84119114.33849
  21529667.460   113139349.87909  21529664.360    88160587.23448
  23225092.620   122048699.55708  23225088.500    95102875.44047
  22918184.240   120435876.56408  22918181.100    93846127.16147
  21311574.600   111993264.67409  21311570.260    87267528.38748
  21384550.480   112376631.33809  21384550.000    87566223.98048
  23390030.540   125033136.05908  23390034.860    97248023.29005
  20814808.520   111071883.98409  20814811.600    86389300.83008
  21836238.260   116891197.51808  21836240.100    90915426.76708
  21857912.380   116802041.64208  21857917.340    90846042.73307
  21168309.300   113077311.94508  21168311.900    87949033.09608
  20667164.400   110594189.91909  20667164.980    86017714.44108
  20870929.980   111410559.81009  20870933.180    86652722.93208
 15 03 04 01 02  0.0000000  0 13G16G18G19G21G22G27R01R02R03R15R16R17
                                R18
  20541291.160   107945234.84909  20541287.800    84113169.48249
  21531494.500   113148950.15609  21531491.240    88168067.98648
  23211189.140   121975636.70008  23211185.020    95045943.37847
  22930833.940   120502350.75508  22930830.680    93897925.24047
  21300442.800   111934767.03509  21300438.500    87221945.84948
  21374956.940   112326216.90809  21374956.380    87526940.02748
  23406026.160   125118641.13907  23406030.160    97314527.24105
  20811605.460   111054791.69509  20811608.620    86376006.85108
  21815121.020   116778154.86408  21815122.620    90827504.76107
  21878646.260   116912836.73408  21878651.240    90932216.60407
  21168741.520   113079621.16008  21168744.240    87950829.15108
  20672679.980   110623705.23808  20672680.700    86040670.79908
  20863978.040   111373449.85309  20863981.260    86623859.65308
 15 03 04 01 02 30.0000000  0 13G16G18G19G21G22G27R01R02R03R15R16R17
                                R18
  20539945.520   107938163.31609  20539942.180    84107659.20149
  21533416.720   113159050.72809  21533413.320    88175938.56348
  23197297.980   121902638.78408  23197293.940    94989061.91847
  22943496.040   120568890.57108  22943492.740    93949774.42747
  21289392.280   111876696.19809  21289387.960    87176695.86648
  21365391.420   112275949.88209  21365390.860    87487770.92449
  23422123.460   125204690.36608  23422127.180    97381454.43905
  20808548.720   111038480.46509  20808551.760    86363320.36308
  21794059.860   116665412.51808  21794061.300    90739816.33607
  21899439.500   117023948.87408  21899444.440    91018637.04907
  21169324.480   113082735.79408  21169327.360    87953251.62308
  20678219.820   110653350.08709  20678220.600    86063727.89708
  20857048.020   111336456.66309  20857051.100    86595087.18008
 15 03 04 01 03  0.0000000  0 13G16G18G19G21G22G27R01R02R03R15R16R17
                                R18
  20538705.680   107931647.76009  20538702.360    84102582.14049
  21535433.600   113169648.87609  21535430.080    88184196.87348
  23183418.820   121829703.78708  23183414.820    94932229.48147
  22956169.960   120635492.67808  22956166.560    94001672.18347
  21278422.880   111819051.47809  21278418.440    87131777.92048
  21355853.640   112225828.68309  21355853.120    87448715.45548
  23438321.680   125291278.02108  23438325.280    97448800.42605
  20805638.060   111022949.17509  20805641.240    86351240.48408
  21773055.120   116552972.29108  21773056.520    90652362.89107
  21920290.480   117135369.34208  21920295.400    91105297.31607
  21170057.720   113086652.91908  21170060.640    87956298.26108
  20683783.400   110683121.99908  20683784.280    86086883.83108
  20850139.380   111299577.70809  20850142.420    86566403.56508
 15 03 04 01 03 30.0000000  0 13G16G18G19G21G22G27R01R02R03R15R16R17
                                R18
  20537572.160   107925690.88909  20537568.840    84097940.41849
  21537545.280   113180745.82209  21537541.780    88192843.85248
  23169552.020   121756833.71808  23169548.160    94875447.64247
  22968855.780   120702157.62909  22968852.520    94053618.87847
  21267535.280   111761836.55609  21267530.820    87087194.88948
  21346344.120   112175856.25209  21346343.720    87409775.91149
  23454620.120   125378402.32308  23454624.080    97516563.72605
  20802874.160   111008201.04609  20802877.520    86339769.74608
  21752107.980   116440840.46908  21752109.380    90565149.31608
  21941198.980   117247097.30008  21941204.000    91192196.72007
  21170941.480   113091373.53408  21170944.380    87959969.84808
  20689371.160   110713023.25308  20689372.140    86110140.36208
  20843252.380   111262814.60009  20843255.520    86537810.05308
 15 03 04 01 04  0.0000000  0 13G16G18G19G21G22G27R01R02R03R15R16R17
                                R18
  20536544.840   107920292.13609  20536541.520    84093733.59949
  21539751.500   113192339.86509  21539748.040    88201878.18348
  23155697.520   121684027.77108  23155693.560    94818715.75847
  22981553.100   120768882.91409  22981549.800    94105612.59647
  21256729.520   111705051.96209  21256725.080    87042947.17648
  21336862.840   112126032.23109  21336862.560    87370952.01849
  23471018.080   125466058.50908  23471021.960    97584740.81004
  20800257.020   110994235.74709  20800260.560    86328907.86508
  21731218.960   116329020.26008  21731220.460    90478178.11808
  21962163.680   117359125.59308  21962168.640    91279329.71807
  21171975.220   113096895.21308  21171978.020    87964264.47308
  20694982.960   110743052.72709  20694983.860    86133496.61908
  20836386.800   111226165.96109  20836390.040    86509305.57508
 15 03 04 01 04 30.0000000  0 13G16G18G19G21G22G27R01R02R03R15R16R17
                                R18
  20535624.460   107915455.32509  20535621.080    84089964.65049
  21542052.860   113204434.22409  21542049.560    88211302.36948
  23141855.860   121611289.79108  23141851.940    94762036.85947
  22994262.400   120835670.69708  22994259.160    94157655.02647
  21246006.700   111648703.28109  21246002.280    86999039.13748
  21327410.620   112076360.70309  21327410.440    87332246.95248
  23487515.380   125554246.51908  23487519.340    97653331.47605
  20797787.360   110981057.66709  20797791.100    86318658.27808
  21710389.560   116217519.71608  21710390.940    90391455.53208
  21983184.160   117471452.20508  21983189.040    91366694.75107
  21173159.420   113103220.58908  21173162.160    87969184.19508
  20700619.380   110773213.88109  20700620.220    86156955.29608
  20829543.220   111189634.95509  20829546.600    86480892.60108
 15 03 04 01 05  0.0000000  0 13G16G18G19G21G22G27R01R02R03R15R16R17
                                R18
  20534810.400   107911177.47709  20534807.000    84086631.25948
  21544448.600   113217024.51609  21544445.400    88221112.99748
  23128026.440   121538616.37108  23128022.600    94705408.27247
  23006982.640   120902515.94908  23006979.420    94209742.22746
  21235366.420   111592788.24009  21235361.980    86955469.00948
  21317986.960   112026838.98309  21317986.780    87293658.62148
  23504110.920   125642958.99108  23504114.820    97722330.08404
  20795464.820   110968664.41509  20795468.640    86309019.10108
  21689620.000   116106339.41908  21689621.400    90304982.03908
  22004259.160   117584070.43108  22004264.020    91454286.58807
  21174493.100   113110344.75008  21174495.860    87974725.21208
  20706279.780   110803503.15909  20706280.560    86180513.62108
  20822721.000   111153217.76909  20822724.360    86452568.14908
 15 03 04 01 05 30.0000000  0 13G16G18G19G21G22G27R01R02R03R15R16R17
                                R18
  20534102.840   107907459.54909  20534099.480    84083734.18249
  21546938.720   113230110.96609  21546935.640    88231310.24048
  23114209.620   121466008.67008  23114205.840    94648830.87147
  23019713.760   120969418.27608  23019710.580    94261873.90047
  21224809.180   111537309.44109  21224804.600    86912238.80648
  21308592.120   111977468.55509  21308591.860    87255188.17548
  23520803.700   125732192.96107  23520807.400    97791734.32605
  20793289.700   110957057.23509  20793293.240    86299991.31108
  21668911.140   115995484.53108  21668912.780    90218761.63308
  22025387.720   117696974.85708  22025392.660    91542101.01507
  21175976.200   113118267.39108  21175979.020    87980887.26408
  20711964.220   110833921.24208  20711964.820    86204172.11608
  20815920.240   111116914.62409  20815923.500    86424332.39408
 15 03 04 01 06  0.0000000  0 13G16G18G19G21G22G27R01R02R03R15R16R17
                                R18
  20533502.200   107904303.45909  20533498.840    84081274.88448
  21549523.360   113243694.20509  21549520.400    88241894.59348
  23100405.620   121393468.43608  23100401.940    94592306.07747
  23032455.700   121036377.28108  23032452.480    94314049.75047
  21214335.540   111482269.82609  21214330.820    86869350.82348
  21299226.500   111928251.70109  21299226.100    87216837.38348
  23537593.820   125821946.33308  23537597.960    97861542.46906
  20791262.300   110946238.36809  20791265.600    86291576.65608
  21648264.260   115884960.52708  21648265.920    90132798.58108
  22046569.060   117810161.52408  22046574.180    91630134.97307
  21177608.820   113126988.61608  21177611.640    87987670.41408
  20717672.960   110864469.96508  20717673.620    86227932.23608
  20809141.180   111080726.90609  20809144.260    86396186.39508
 15 03 04 01 06 30.0000000  0 13G16G18G19G21G22G27R01R02R03R15R16R17
                                R18
  20533008.240   107901708.07109  20533004.900    84079252.50849
  21552202.040   113257771.56709  21552199.180    88252863.98748
  23086614.260   121320994.02208  23086610.420    94535832.55547
  23045207.900   121103390.21808  23045204.700    94366267.62247
  21203945.480   111427669.36909  21203940.620    86826805.04148
  21289889.900   111879187.41609  21289889.300    87178605.48748
  23554480.060   125912213.51707  23554484.420    97931750.26604
  20789382.520   110936206.98509  20789385.680    86283774.48108
  21627679.740   115774770.16708  21627681.220    90047095.03208
  22067802.340   117923625.48808  22067807.580    91718384.59807
  21179390.320   113136505.31708  21179393.180    87995072.29308
  20723405.640   110895147.46408  20723406.540    86251792.50308
  20802383.360   111044652.54209  20802386.220    86368128.56708
 15 03 04 01 07  0.0000000  0 13G16G18G19G21G22G27R01R02R03R15R16R17
                                R18
  20532621.940   107899678.47109  20532618.660    84077670.99349
  21554975.600   113272347.34609  21554972.820    88264221.73848
  23072836.400   121248590.42708  23072832.380    94479414.19447
  23057971.020   121170460.54108  23057967.760    94418530.20347
  21193640.000   111373513.87409  21193635.120    86784605.97948
  21280583.400   111830281.07109  21280582.640    87140496.64748
  23571462.500   126002995.25708  23571466.840    98002358.38605
  20787651.300   110926968.33509  20787654.220    86276588.87208
  21607159.260   115664922.47108  21607160.620    89961657.98708
  22089087.140   118037364.69608  22089092.460    91806848.30007
  21181321.420   113146821.07808  21181324.260    88003095.64108
  20729163.260   110925958.42808  20729164.160    86275756.58508
  20795647.480   111008695.75409  20795650.220    86340162.18008
 15 03 04 01 07 30.0000000  0 15G04G16G18G19G21G22G27R01R02R03R09R15
                                R16R17R18
  24561200.140   129069979.82306  24561203.000   100574008.27843
  20532342.580   107898210.76609  20532339.400    84076527.32749
  21557843.080   113287416.63909  21557840.420    88275964.06148
  23059071.400   121176254.23608  23059067.240    94423048.37147
  23070744.060   121237582.90108  23070740.780    94470833.31846
  21183418.720   111319801.21609  21183413.920    86742751.98648
  21271306.360   111781529.63609  21271305.580    87102508.52248
  23588539.700   126094283.53307  23588544.360    98073360.37506
  20786067.960   110918519.18209  20786070.820    86270017.33608
  21586702.940   115555417.76508  21586704.000    89876487.69808
  23599381.960   126019381.20208  23599382.980                  
  22110422.080   118151371.52708  22110427.420    91895520.16107
  21183401.060   113157930.27508  21183403.940    88011736.13008
  20734945.160   110956898.82308  20734945.920    86299821.32108
  20788932.760   110972852.53609  20788935.480    86312284.13908
 15 03 04 01 08  0.0000000  0 15G04G16G18G19G21G22G27R01R02R03R09R15
                                R16R17R18
  24543345.060   128976153.10406  24543349.580   100500897.57844
  20532174.580   107897328.26909  20532171.520    84075839.66549
  21560808.780   113303001.72309  21560806.180    88288108.29148
  23045323.500   121104008.38708  23045319.060    94366752.92947
  23083531.000   121304778.76708  23083527.580    94523193.73547
  21173286.480   111266556.24809  21173281.740    86701262.42348
  21262063.200   111732956.66809  21262062.520    87064659.47449
  23605715.400   126186098.46407  23605720.420    98144771.92105
  20784637.000   110910883.13209  20784639.800    86264078.19508
  21566315.900   115446283.60308  21566316.800    89791605.63208
  23584339.840   125939060.87107  23584339.340                  
  22131810.380   118265663.15808  22131815.640    91984413.53107
  21185633.340   113169854.78308  21185636.260    88021010.75608
  20740755.620   110987991.99108  20740756.360    86324004.91608
  20782243.600   110937145.75209  20782246.460    86284512.22408
 15 03 04 01 08 30.0000000  0 15G04G16G18G19G21G22G27R01R02R03R09R15
                                R16R17R18
  24525514.360   128882454.78306  24525519.580   100427886.99244
  20532110.220   107896990.37109  20532107.260    84075576.36349
  21563864.720   113319060.83109  21563862.160    88300621.89548
  23031585.040   121031812.35809  23031580.600    94310496.30447
  23096323.820   121372005.88908  23096320.400    94575578.47446
  21163235.680   111213738.83209  21163230.880    86660106.01048
  21252846.280   111684522.20409  21252845.840    87026918.35249
  23622981.120   126278394.36707  23622986.220    98216557.73604
  20783350.740   110904019.52009  20783353.600    86258739.85408
  21545991.000   115337482.40708  21545992.040    89706982.54208
  23569399.920   125859288.26207  23569402.120    97890561.73004
  22153243.500   118380194.52908  22153248.720    92073493.33907
  21188010.280   113182551.93808  21188013.220    88030886.31008
  20746586.900   111019196.57808  20746587.660    86348275.12608
  20775572.180   110901533.75809  20775575.160    86256814.01308
 15 03 04 01 09  0.0000000  0 15G04G16G18G19G21G22G27R01R02R03R09R15
                                R16R17R18
  24507712.580   128788909.86006  24507718.480   100354996.11943
  20532154.200   107897221.55509  20532151.280    84075756.50949
  21567015.380   113335617.43509  21567012.800    88313523.15548
  23017860.640   120959690.52709  23017856.280    94254297.51047
  23109126.980   121439287.26708  23109123.400    94628005.54147
  21153271.340   111161375.45409  21153266.440    86619303.40248
  21243660.420   111636251.35909  21243660.280    86989304.73349
  23640340.540   126371192.31107  23640345.920    98288733.85805
  20782213.900   110897953.43309  20782217.000    86254021.80308
  21525733.780   115229043.69708  21525734.800    89622641.37208
  23554568.460   125780091.00708  23554571.140    97828963.86704
  22174725.060   118494984.78908  22174730.200    92162774.51107
  21190536.200   113196044.60808  21190539.000    88041380.60708
  20752443.680   111050537.27609  20752444.340    86372651.22208
  20768923.080   110866041.11009  20768926.200    86229208.64708
 15 03 04 01 09 30.0000000  0 15G04G16G18G19G21G22G27R01R02R03R09R15
                                R16R17R18
  24489938.840   128695512.47706  24489944.260   100282220.12543
  20532305.440   107898016.30609  20532302.540    84076375.78749
  21570259.520   113352665.14809  21570256.900    88326807.09648
  23004149.340   120887637.60608  23004144.980    94198152.38947
  23121939.140   121506615.78709  23121935.380    94680469.29246
  21143392.560   111109461.75009  21143387.540    86578851.18348
  21234504.800   111588139.11509  21234504.840    86951814.68849
  23657792.380   126464481.92708  23657797.500    98361292.47104
  20781225.580   110892679.53409  20781228.680    86249919.89208
  21505543.760   115120965.22008  21505544.900    89538580.38808
  23539844.700   125701466.08307  23539847.220    97767811.11904
  22196253.100   118610023.23608  22196258.160    92252248.71707
  21193209.620   113210325.22008  21193212.400    88052487.73308
  20758324.860   111082008.45709  20758325.500    86397128.79908
  20762295.200   110830661.26009  20762298.320    86201691.00108
 15 03 04 01 10  0.0000000  0 14G04G16G18G19G21G22G27R02R03R09R15R16
                                R17R18
  24472193.520   128602264.55606  24472198.880   100209560.47643
  20532564.240   107899376.19609  20532561.320    84077435.44049
  21573597.140   113370204.03409  21573594.480    88340473.77548
  22990451.360   120815655.04708  22990447.120    94142062.11447
  23134760.320   121573991.63808  23134756.460    94732969.94746
  21133599.740   111058000.06209  21133594.620    86538751.17948
  21225379.860   111540187.51809  21225379.880    86914449.81548
  20780385.980   110888199.22709  20780388.820    86246435.23608
  21485422.040   115013252.92608  21485423.200    89454804.20108
  23525228.900   125623417.54907  23525230.980    97707106.69503
  22217826.680   118725305.39908  22217831.740    92341912.46007
  21196030.480   113225393.60308  21196033.240    88064207.57208
  20764230.600   111113611.62108  20764231.400    86421709.05008
  20755688.840   110795395.53609  20755691.800    86174262.10408
 15 03 04 01 10 30.0000000  0 14G04G16G18G19G21G22G27R02R03R09R15R16
                                R17R18
  24454477.420   128509170.54907  24454482.920   100137020.66643
  20532931.400   107901305.65309  20532928.480    84078938.90949
  21577028.800   113388237.39509  21577026.100    88354525.74248
  22976767.600   120743747.26508  22976763.680    94086030.10247
  23147591.100   121641417.43408  23147587.060    94785509.52646
  21123893.880   111006995.97809  21123888.760    86499007.75848
  21216286.480   111492401.40009  21216286.360    86877213.89148
  20779695.980   110884517.10009  20779698.660    86243571.37408
  21465370.160   114905914.99708  21465371.760    89371319.21608
  23510722.340   125545952.31108  23510724.300    97646855.93204
  22239446.020   118840831.86808  22239451.140    92431766.24107
  21198999.280   113241252.14108  21199002.020    88076541.98008
  20770161.760   111145350.67309  20770162.680    86446394.95908
  20749104.580   110760247.75209  20749107.500    86146924.95508
 15 03 04 01 11  0.0000000  0 14G04G16G18G19G21G22G27R02R03R09R15R16
                                R17R18
  24436789.820   128416226.01307  24436795.020   100064597.28044
  20533405.920   107903799.38609  20533403.000    84080882.07149
  21580553.460   113406759.29009  21580550.680    88368958.40248
  22963097.180   120671909.53208  22963093.320    94030052.67147
  23160430.160   121708886.78008  23160426.160    94838083.01846
  21114274.420   110956446.06809  21114269.380    86459618.23848
  21207223.800   111444776.50309  21207223.560    86840103.59249
  20779154.640   110881628.40309  20779157.400    86241324.62508
  21445388.260   114798950.82808  21445390.000    89288124.90608
  23496324.480   125469068.18107  23496326.320    97587057.13904
  22261108.920   118956591.32408  22261114.120    92521801.21107
  21202114.720   113257893.92608  21202117.420    88089485.58208
  20776117.340   111177220.51608  20776118.400    86471182.61508
  20742541.340   110725212.32509  20742544.320    86119675.18908
 15 03 04 01 11 30.0000000  0 14G04G16G18G19G21G22G27R02R03R09R15R16
                                R17R18
  24419131.860   128323436.85607  24419136.860    99992294.89944
  20533988.940   107906863.13209  20533986.000    84083269.40249
  21584171.960   113425774.46009  21584169.080    88383775.42048
  22949441.240   120600147.77408  22949437.520    93974134.44647
  23173278.200   121776403.78308  23173274.200    94890693.66746
  21104742.680   110906357.01709  21104737.720    86420587.83948
  21198193.000   111397319.23409  21198192.720    86803123.92249
  20778763.040   110879538.90609  20778766.000    86239699.48408
  21425478.040   114692370.16608  21425479.860    89205228.88608
  23482037.040   125392773.58708  23482038.820    97527716.88504
  22282815.580   119072584.68208  22282820.900    92612018.10607
  21205377.440   113275322.86808  21205380.220    88103041.41508
  20782098.460   111209227.08308  20782099.680    86496076.61108
  20736000.220   110690295.14509  20736003.120    86092517.39908
 15 03 04 01 12  0.0000000  0 14G04G16G18G19G21G22G27R02R03R09R15R16
                                R17R18
  24401502.940   128230799.93507  24401507.700    99920111.09144
  20534679.820   107910493.47609  20534676.820    84086098.22749
  21587883.420   113445278.00409  21587880.440    88398972.99048
  22935799.160   120528458.43108  22935795.400    93918272.64347
  23186134.340   121843963.54108  23186130.640    94943337.61047
  21095298.260   110856726.48409  21095293.340    86381914.71948
  21189193.520   111350026.72909  21189193.300    86766272.62649
  20778520.520   110878245.33309  20778523.560    86238693.37008
  21405639.660   114586173.27808  21405641.280    89122631.34708
  23467859.840   125317067.53207  23467861.780    97468834.38304
  22304564.540   119188804.24708  22304569.920    92702410.92007
  21208786.480   113293533.46208  21208789.300    88117205.20508
  20788104.500   111241366.59408  20788105.800    86521073.98208
  20729480.420   110655491.83909  20729483.220    86065448.16508
 15 03 04 01 12 30.0000000  0 14G04G16G18G19G21G22G27R02R03R09R15R16
                                R17R18
  24383903.640   128138318.39507  24383908.340    99848048.31144
  20535479.000   107914692.82509  20535475.940    84089370.45149
  21591688.120   113465271.73209  21591685.000    88414552.53148
  22922171.520   120456844.72808  22922167.600    93862469.78247
  23198998.840   121911567.63308  23198995.340    94996016.10746
  21085941.940   110807558.80109  21085937.020    86343602.26148
  21180226.020   111302902.39009  21180225.920    86729552.38449
  20778427.640   110877750.38809  20778430.740    86238308.42908
  21385874.260   114480367.23108  21385875.700    89040337.80508
  23453793.760   125241955.21108  23453795.920    97410413.74104
  22326355.120   119305246.17408  22326360.560    92792976.69807
  21212341.920   113312526.34008  21212344.780    88131977.43708
  20794135.880   111273641.64409  20794137.160    86546176.79408
  20722982.260   110620804.96909  20722985.040    86038469.51808
 15 03 04 01 13  0.0000000  0 14G04G16G18G19G21G22G27R02R03R09R15R16
                                R17R18
  24366333.700   128045991.18107  24366338.180    99776105.73644
  20536386.180   107919459.74309  20536383.060    84093084.92749
  21595585.620   113485753.18609  21595582.380    88430512.10748
  22908558.020   120385305.06909  22908553.880    93806724.62047
  23211871.300   121979213.05108  23211868.020    95048726.80647
  21076673.620   110758853.63709  21076668.740    86305650.20448
  21171290.460   111255945.45609  21171290.380    86692962.58249
  20778484.200   110878052.49609  20778487.320    86238543.39608
  21366182.380   114374954.55508  21366183.640    88958350.20608
  23439839.300   125167438.02808  23439841.140    97352455.89104
  22348186.440   119421905.36208  22348191.900    92883711.44407
  21216043.180   113332298.13208  21216046.120    88147355.48908
  20800192.440   111306051.19908  20800193.600    86571384.23808
  20716505.460   110586232.84709  20716508.320    86011580.09808
 15 03 04 01 13 30.0000000  0 14G04G16G18G19G21G22G27R02R03R09R15R16
                                R17R18
  24348793.900   127953821.89507  24348798.200    99704286.18544
  20537402.020   107924797.71709  20537398.820    84097244.38249
  21599576.300   113506724.56909  21599573.040    88446853.44948
  22894959.320   120313842.95608  22894955.020    93751039.86647
  23224751.940   122046901.54408  23224748.760    95101471.08246
  21067494.160   110710615.46409  21067489.340    86268062.04048
  21162387.620   111209160.03609  21162387.380    86656506.41449
  20778690.880   110879155.07109  20778693.820    86239400.95908
  21346565.420   114269942.85708  21346566.480    88876674.48808
  23425997.220   125093521.59907  23425998.740    97294965.31804
  22370057.820   119538778.66708  22370063.440    92974612.71007
  21219890.480   113352850.13508  21219893.460    88163340.35308
  20806274.560   111338598.26108  20806275.760    86596698.60508
  20710050.800   110551778.47209  20710053.760    85984782.27708
 15 03 04 01 14  0.0000000  0 14G04G16G18G19G21G22G27R02R03R09R15R16
                                R17R18
  24331283.860   127861808.72507  24331288.100    99632588.27244
  20538526.000   107930704.35009  20538522.820    84101846.95649
  21603659.540   113528182.39209  21603656.360    88463573.85148
  22881375.080   120242456.66509  22881370.560    93695414.20347
  23237640.180   122114629.81008  23237637.120    95154246.34647
  21058403.360   110662843.01209  21058398.600    86230836.77948
  21153517.200   111162544.59709  21153516.680    86620182.71649
  20779047.140   110881055.61709  20779049.820    86240879.18408
  21327023.620   114165333.83808  21327024.420    88795311.96708
  23412267.560   125020206.45907  23412269.280    97237942.45804
  22391968.180   119655860.22908  22391973.820    93065675.95807
  21223883.120   113374178.08808  21223886.080    88179928.75508
  20812382.040   111371280.78908  20812383.200    86622118.35308
  20703617.920   110517439.36709  20703620.900    85958074.09108
 15 03 04 01 14 30.0000000  0 14G04G16G18G19G21G22G27R02R03R09R15R16
                                R17R18
  24313803.460   127769951.00007  24313807.460    99561011.43244
  20539757.920   107937178.25209  20539754.760    84106891.54849
  21607834.920   113550124.27209  21607831.820    88480671.41448
  22867805.100   120171145.26309  22867800.480    93639846.88847
  23250535.500   122182395.06908  23250532.500    95207050.43846
  21049401.340   110615536.80409  21049396.540    86193974.82348
  21144679.000   111116098.74409  21144678.280    86583991.14849
  20779552.700   110883753.05909  20779555.240    86242977.21508
  21307557.540   114061130.23508  21307558.300    88714264.76408
  23398650.720   124947493.92307  23398652.640    97181388.27204
  22413916.260   119773143.38708  22413922.000    93156896.01107
  21228020.420   113396278.45708  21228023.240    88197117.91408
  20818514.700   111404097.83808  20818515.720    86647642.71608
  20697206.460   110483213.92009  20697209.460    85931454.31108
 15 03 04 01 15  0.0000000  0 14G04G16G18G19G21G22G27R02R03R09R15R16
                                R17R18
  24296353.500   127678252.93808  24296357.220    99489558.96144
  20541098.500   107944223.23109  20541095.380    84112381.14149
  21612103.000   113572553.21309  21612099.940    88498148.53348
  22854250.180   120099913.27309  22854245.540    93584341.46147
  23263438.440   122250200.51608  23263435.420    95259885.84346
  21040489.020   110568701.93109  21040484.140    86157480.13148
  21135873.940   111069827.49209  21135873.100    86547935.64049
  20780208.380   110887251.55909  20780210.800    86245698.28008
  21288168.760   113957340.73608  21288169.480    88633539.64108
  23385148.080   124875390.76307  23385150.000    97125308.02404
  22435901.820   119890626.90708  22435907.760    93248271.85407
  21232302.780   113419153.55608  21232305.520    88214909.64808
  20824673.320   111437053.43209  20824674.220    86673274.82908
  20690817.140   110449106.51709  20690820.120    85904926.35008
 15 03 04 01 15 30.0000000  0 14G04G16G18G19G21G22G27R02R03R09R15R16
                                R17R18
  24278933.780   127586713.84808  24278937.300    99418230.34844
  20542547.600   107951838.36109  20542544.500    84118315.00249
  21616463.320   113595467.22509  21616460.340    88516003.61048
  22840710.100   120028759.51708  22840705.500    93528897.00147
  23276348.480   122318043.41508  23276345.600    95312750.43246
  21031666.360   110522338.40609  21031661.420    86121352.73448
  21127101.940   111023730.31009  21127100.980    86512015.76049
  20781013.780   110891549.57109  20781015.940    86249041.19208
  21268857.740   113853968.11308  21268858.540    88553138.75108
  23371759.760   124803898.23107  23371761.760    97069702.75404
  22457923.840   120008305.29308  22457929.840    93339799.29607
  21236729.580   113442799.93108  21236732.240    88233301.25208
  20830857.840   111470146.64608  20830858.560    86699013.99508
  20684449.520   110415115.35809  20684452.440    85878488.79808
 15 03 04 01 16  0.0000000  0 14G04G16G18G19G21G22G27R02R03R09R15R16
                                R17R18
  24261544.600   127495334.98808  24261547.940    99347026.58544
  20544105.260   107960023.98009  20544102.140    84124693.39849
  21620915.800   113618865.57809  21620912.840    88534236.10748
  22827185.040   119957685.24708  22827180.680    93473514.49647
  23289265.500   122385922.97608  23289262.720    95365643.59646
  21022933.660   110476447.86509  21022928.680    86085593.89348
  21118363.280   110977808.77309  21118362.280    86476232.75648
  20781969.100   110896647.56609  20781971.420    86253006.31308
  21249625.380   113751017.09308  21249626.280    88473065.79008
  23358486.360   124733019.54907  23358488.420    97014574.89704
  22479981.440   120126173.72508  22479987.480    93431474.50807
  21241300.420   113467215.98008  21241303.060    88252291.49308
  20837068.100   111503378.03008  20837068.720    86724860.61508
  20678103.740   110381241.29209  20678106.680    85852142.31708
 15 03 04 01 16 30.0000000  0 14G04G16G18G19G21G22G27R02R03R09R15R16
                                R17R18
  24244185.980   127404116.78407  24244189.020    99275947.95744
  20545771.520   107968780.38209  20545768.380    84131516.56749
  21625460.320   113642747.43609  21625457.320    88552845.35348
  22813675.160   119886690.76308  22813670.960    93418194.13347
  23302189.340   122453838.24008  23302186.560    95418564.54847
  21014291.200   110431031.84109  21014286.220    86050204.81748
  21109658.220   110932063.91009  21109657.240    86440587.42049
  20783074.280   110902545.59409  20783076.660    86257593.69208
  21230472.720   113648492.34608  21230473.700    88393324.35808
  23345328.500   124662757.43708  23345330.660    96959926.57704
  22502073.800   120244227.64208  22502079.920    93523293.98507
  21246014.960   113492399.68308  21246017.540    88271878.79508
  20843304.260   111536748.05409  20843304.740    86750815.07308
  20671779.840   110347484.04409  20671782.700    85825886.69908
 15 03 04 01 17  0.0000000  0 14G04G16G18G19G21G22G27R02R03R09R15R16
                                R17R18
  24226857.840   127313058.55208  24226860.840    99204993.96744
  20547546.100   107978106.05809  20547542.980    84138783.32549
  21630096.400   113667110.40609  21630093.340    88571829.48948
  22800180.340   119815775.62308  22800176.360    93362935.63148
  23315119.580   122521787.06508  23315116.760    95471511.66246
  21005739.080   110386090.74909  21005734.180    86015185.80048
  21100986.700   110886495.46109  21100985.880    86405079.55349
  20784329.220   110909242.20509  20784331.500    86262802.17708
  21211400.300   113546396.49408  21211401.140    88313916.50408
  23332286.380   124593113.32107  23332288.600    96905758.93104
  22524199.640   120362460.61308  22524205.820    93615252.74007
  21250872.480   113518347.60008  21250875.060    88292060.49608
  20849566.000   111570255.71509  20849566.460    86776876.58608
  20665477.560   110313842.46509  20665480.440    85799721.03208
 15 03 04 01 17 30.0000000  0 14G04G16G18G19G21G22G27R02R03R09R15R16
                                R17R18
  24209560.460   127222162.10908  24209563.160    99134166.04144
  20549429.240   107988002.14609  20549426.120    84146494.56248
  21634824.060   113691954.64209  21634821.060    88591188.65548
  22786700.960   119744941.14508  22786697.080    93307739.96347
  23328056.360   122589769.26008  23328053.320    95524484.81146
  20997277.760   110341626.79809  20997272.940    85980538.59948
  21092349.200   110841105.47009  21092348.600    86369710.74549
  20785734.120   110916738.61509  20785736.400    86268632.73508
  21192409.080   113444734.78708  21192409.940    88234846.34208
  23319360.460   124524090.74007  23319362.780    96852074.73704
  22546358.400   120480869.48208  22546364.580    93707348.30507
  21255872.820   113545058.72408  21255875.420    88312835.80908
  20855853.720   111603902.37709  20855854.160    86803046.19708
  20659197.080   110280317.60509  20659200.120    85773646.17408
 15 03 04 01 18  0.0000000  0 14G04G16G18G19G21G22G27R02R03R09R15R16
                                R17R18
  24192294.480   127131430.65508  24192297.100    99063466.64544
  20551421.460   107998471.25909  20551418.320    84154652.30548
  21639643.680   113717282.06109  21639640.760    88610924.30248
  22773237.640   119674191.00209  22773233.720    93252610.01047
  23340999.820   122657786.67408  23340996.720    95577485.36546
  20988907.900   110297643.48109  20988903.180    85946265.90248
  21083746.480   110795897.94809  21083746.020    86334484.11949
  20787289.420   110925037.31409  20787291.620    86275087.29108
  21173500.300   113343514.71208  21173501.140    88156119.65808
  23306552.120   124455695.49007  23306554.300    96798878.41504
  22568549.680   120599452.18808  22568555.960    93799579.02107
  21261016.140   113572533.91608  21261018.820    88334205.39208
  20862168.080   111637691.44509  20862168.480    86829326.58308
  20652939.120   110246912.66709  20652942.260    85747664.55808
 15 03 04 01 18 30.0000000  0 14G04G16G18G19G21G22G27R02R03R09R15R16
                                R17R18
  24175060.020   127040864.73308  24175062.660    98992896.23344
  20553522.760   108009513.30509  20553519.560    84163256.48848
  21644555.060   113743091.49009  21644552.260    88631035.55748
  22759790.400   119603525.12908  22759786.420    93197545.72047
  23353949.720   122725837.79908  23353946.420    95630512.20547
  20980629.960   110254143.19309  20980625.360    85912369.59548
  21075178.600   110750873.55509  21075178.240    86299400.18349
  20788994.920   110934137.65709  20788997.160    86282165.33408
  21154674.780   113242740.32808  21154675.540    88077739.61508
  23293861.860   124387929.62808  23293864.140    96746171.62304
  22590772.580   120718203.79608  22590778.920    93891941.14107
  21266302.000   113600770.60308  21266304.740    88356167.24908
  20868509.120   111671623.06909  20868509.300    86855717.83008
  20646703.660   110213627.26709  20646706.840    85721775.92608
 15 03 04 01 19  0.0000000  0 14G04G16G18G19G21G22G27R02R03R09R15R16
                                R17R18
  24157855.760   126950457.23908  24157858.160    98922449.20844
  20555731.740   108021120.98709  20555728.460    84172301.42949
  21649556.600   113769374.35809  21649553.780    88651515.72248
  22746357.920   119532936.99709  22746353.880    93142542.01147
  23366904.420   122793914.83408  23366901.100    95683559.20846
  20972442.680   110211119.09909  20972438.100    85878844.34648
  21066644.420   110706026.16809  21066644.040    86264454.18149
  20790849.280   110944032.30109  20790851.760    86289861.20808
  21135931.900   113142408.45408  21135932.720    87999703.75708
  23281288.520   124320788.35507  23281291.060    96693950.66604
  22613024.940   120837112.79308  22613031.340    93984425.65807
  21271728.600   113629758.99908  21271731.400    88378713.76208
  20874875.480   111705690.24209  20874875.420    86882214.50708
  20640489.360   110180454.34909  20640492.480    85695974.76508
 15 03 04 01 19 30.0000000  0 14G04G16G18G19G21G22G27R02R03R09R15R16
                                R17R18
  24140683.620   126860218.71608  24140685.840    98852133.88144
  20558050.180   108033303.92309  20558046.860    84181794.62649
  21654649.880   113796139.21509  21654646.960    88672371.47048
  22732942.240   119462437.04609  22732938.020    93087607.01647
  23379865.580   122862026.17908  23379861.980    95736632.99446
  20964348.140   110168582.09609  20964343.520    85845698.65548
  21058145.960   110661366.51009  21058145.480    86229654.46149
  20792854.200   110954730.68809  20792856.860    86298182.18108
  21117274.320   113042533.32408  21117275.300    87922023.13508
  23268834.440   124254284.19808  23268836.680    96642225.20004
  22635307.700   120956184.15507  22635314.160    94077036.44707
  21277297.380   113659506.66008  21277300.240    88401850.81808
  20881268.980   111739902.87908  20881268.820    86908824.33408
  20634298.020   110147403.70109  20634300.920    85670268.72908
 15 03 04 01 20  0.0000000  0 14G04G16G18G19G21G22G27R02R03R09R15R16
                                R17R18
  24123542.620   126770143.87908  24123544.760    98781946.08544
  20560476.860   108046055.78109  20560473.520    84191731.14348
  21659833.660   113823379.59509  21659830.640    88693597.74648
  22719542.340   119392019.85509  22719538.100    93032736.50647
  23392831.900   122930165.24408  23392828.780    95789728.33146
  20956345.580   110126527.95509  20956340.840    85812929.22048
  21049682.300   110616889.97309  21049681.780    86194997.43449
  20795008.600   110966226.76609  20795011.340    86307123.59808
  21098701.760   112943113.32508  21098702.760    87844696.51308
  23256499.300   124188413.85608  23256500.980    96590992.68104
  22657618.680   121075406.20508  22657625.160    94169764.43207
  21283006.840   113690005.64808  21283009.740    88425572.24408
  20887688.500   111774255.66708  20887688.460    86935543.17108
  20628128.480   110114469.54909  20628131.200    85644653.28608
 15 03 04 01 20 30.0000000  0 14G04G16G18G19G21G22G27R02R03R09R15R16
                                R17R18
  24106433.500   126680236.45008  24106435.580    98711888.68844
  20563012.400   108059380.11609  20563009.080    84202113.72948
  21665108.240   113851097.31709  21665105.160    88715195.97548
  22706158.940   119321689.36609  22706154.580    92977933.54847
  23405803.860   122998333.65908  23405800.560    95842846.56646
  20948435.800   110084960.96609  20948430.880    85780539.37948
  21041254.260   110572600.60809  21041253.760    86160486.25149
  20797312.840   110978523.10709  20797315.740    86316687.43108
  21080215.560   112844155.54408  21080216.600    87767729.39008
  23244283.680   124123182.84308  23244285.160    96540257.48604
  22679957.760   121194778.10208  22679964.280    94262608.95207
  21288857.100   113721256.74008  21288860.020    88449878.62408
  20894134.860   111808752.18008  20894135.040    86962373.77808
  20621981.340   110081655.22909  20621983.820    85619131.04708
 15 03 04 01 21  0.0000000  0 14G04G16G18G19G21G22G27R02R03R09R15R16
                                R17R18
  24089355.780   126590493.92108  24089357.760    98641959.77645
  20565656.200   108073273.60709  20565652.940    84212939.81848
  21670472.780   113879287.93309  21670469.660    88737162.68948
  22692791.460   119251443.12109  22692787.120    92923196.24747
  23418780.680   123066527.51608  23418777.540    95895984.63046
  20940618.440   110043879.43109  20940613.300    85748527.80948
  21032861.520   110528496.61909  21032861.100    86126119.50049
  20799766.400   110991616.33109  20799769.260    86326871.04808
  21061816.040   112745661.48608  21061816.880    87691122.94208
  23232187.800   124058590.62508  23232188.980    96490019.08104
  22702323.740   121314293.54608  22702330.340    94355565.09107
  21294847.140   113753254.49108  21294850.080    88474765.74307
  20900607.600   111843389.93008  20900607.900    86989314.25008
  20615856.000   110048957.94309  20615858.380    85593699.82608
 15 03 04 01 21 30.0000000  0 14G04G16G18G19G21G22G27R02R03R09R15R16
                                R17R18
  24072310.000   126500919.14008  24072311.840    98572161.58744
  20568408.660   108087738.26809  20568405.480    84224210.97649
  21675927.620   113907953.20109  21675924.400    88759499.27548
  22679440.460   119181283.71808  22679436.180    92868526.60747
  23431762.800   123134748.66208  23431759.460    95949143.96746
  20932893.980   110003286.29509  20932888.660    85716896.81248
  21024504.680   110484581.32509  21024504.340    86091899.80549
  20802369.480   111005508.14809  20802372.420    86337675.79808
  21043504.340   112647637.51408  21043505.000    87614882.11208
  23220212.160   123994641.97607  23220213.220    96440281.23704
  22724715.760   121433947.96208  22724722.360    94448629.33907
  21300976.980   113785998.72308  21300979.820    88500233.46908
  20907107.280   111878171.86208  20907107.700    87016366.86608
  20609752.820   110016379.86409  20609755.460    85568361.34108
 15 03 04 01 22  0.0000000  0 14G04G16G18G19G21G22G27R02R03R09R15R16
                                R17R18
  24055296.280   126411512.74108  24055298.120    98502494.57745
  20571269.760   108102773.98309  20571266.660    84235927.11448
  21681472.500   113937091.80209  21681469.260    88782204.67948
  22666106.120   119111211.88709  22666101.840    92813925.20547
  23444749.860   123202995.75508  23444746.620    96002323.49146
  20925262.780   109963183.51109  20925257.360    85685647.91048
  21016184.020   110440855.94109  21016183.740    86057828.08749
  20805122.240   111020198.35809  20805125.140    86349101.53808
  21025281.460   112550088.37608  21025282.020    87539010.60008
  23208357.460   123931339.32708  23208359.020    96391045.86704
  22747133.100   121553737.91308  22747139.700    94541798.98307
  21307246.180   113819486.91708  21307248.780    88526279.84208
  20913633.880   111913097.64308  20913634.420    87043531.36008
  20603672.080   109983921.53909  20603675.060    85543115.99208
 15 03 04 01 22 30.0000000  0 14G04G16G18G19G21G22G27R02R03R09R15R16
                                R17R18
  24038314.840   126322276.09808  24038316.640    98432959.83045
  20574239.660   108118381.23609  20574236.640    84248088.60049
  21687107.280   113966703.28609  21687104.040    88805278.57348
  22652788.840   119041229.39509  22652784.600    92759393.42147
  23457741.880   123271268.90808  23457738.720    96055523.33046
  20917725.120   109923572.98509  20917719.760    85654782.58348
  21007899.960   110397322.43909  21007899.560    86023905.88049
  20808024.700   111035687.03509  20808027.580    86361148.27508
  21007148.180   112453018.89608  21007148.600    87463512.16308
  23196624.720   123868686.13508  23196626.380    96342315.59204
  22769575.080   121673659.48908  22769581.660    94635070.98306
  21313654.340   113853717.67908  21313656.860    88552903.76007
  20920187.840   111948169.13509  20920188.380    87070809.17308
  20597614.080   109951583.98509  20597617.240    85517964.57808
 15 03 04 01 23  0.0000000  0 14G04G16G18G19G21G22G27R02R03R09R15R16
                                R17R18
  24021365.680   126233208.87308  24021367.320    98363557.07145
  20577318.160   108134559.04709  20577315.160    84260694.67549
  21692831.640   113996785.75709  21692828.520    88828719.47448
  22639488.560   118971335.99909  22639484.260    92704931.04748
  23470738.540   123339566.46208  23470735.320    96108742.20646
  20910281.100   109884454.89809  20910275.900    85624300.97548
  20999652.520   110353981.16909  20999651.960    85990133.47249
  20811076.660   111051973.09209  20811079.300    86373815.22408
  20989105.060   112356432.39108  20989105.400    87388389.37008
  23185013.720   123806683.65308  23185015.040    96294091.40004
  22792040.540   121793706.76508  22792047.160    94728440.76106
  21320200.820   113888687.37308  21320203.300    88580102.39608
  20926768.980   111983386.09909  20926769.560    87098200.12808
  20591578.720   109919366.53509  20591581.880    85492906.57208
 15 03 04 01 23 30.0000000  0 14G04G16G18G19G21G22G27R02R03R09R15R16
                                R17R18
  24004449.100   126144312.72208  24004450.620    98294287.63245
  20580505.480   108151308.30909  20580502.420    84273746.03449
  21698645.620   114027339.31909  21698642.680    88852527.44448
  22626205.560   118901533.42609  22626201.340    92650539.45048
  23483739.760   123407888.19008  23483736.560    96161979.89546
  20902931.160   109845831.19709  20902926.140    85594204.60348
  20991442.040   110310834.20309  20991441.340    85956512.46449
  20814278.140   111069056.79509  20814280.660    86387102.57208
  20971153.080   112260334.06108  20971153.480    87313646.26608
  23173525.200   123745335.40808  23173526.660    96246376.13104
  22814528.920   121913876.42008  22814535.640    94821905.67406
  21326885.360   113924394.75908  21326887.880    88607874.78808
  20933377.560   112018749.71809  20933378.280    87125705.14408
  20585566.100   109887270.46309  20585569.120    85467942.96808
 15 03 04 01 24  0.0000000  0 14G04G16G18G19G21G22G27R02R03R09R15R16
                                R17R18
  23987564.760   126055586.02308  23987566.080    98225150.21645
  20583801.040   108168626.34109  20583797.940    84287240.60249
  21704548.580   114058360.28509  21704545.800    88876699.63248
  22612939.520   118831820.10509  22612935.380    92596217.41848
  23496745.000   123476230.99608  23496741.680    96215234.03146
  20895675.180   109807701.22909  20895670.320    85564492.96948
  20983268.280   110267880.53109  20983267.520    85923042.07849
  20817628.640   111086935.28109  20817631.220    86401008.06908
  20953292.620   112164726.03508  20953293.160    87239284.50608
  23162159.380   123684641.45508  23162160.840    96199169.71704
  22837039.020   122034161.91108  22837045.800    94915460.73306
  21333707.040   113960834.77008  21333709.580    88636217.00708
  20940013.240   112054258.33309  20940013.960    87153322.96708
  20579575.860   109855293.76209  20579578.820    85443072.22208
 15 03 04 01 24 30.0000000  0 14G04G16G18G19G21G22G27R02R03R09R15R16
                                R17R18
  23970713.360   125967032.28208  23970714.540    98156147.55445
  20587205.320   108186515.67209  20587202.200    84301180.33349
  21710540.940   114089850.79909  21710538.280    88901237.71148
  22599691.140   118762199.82608  22599687.100    92541967.88748
  23509754.620   123544597.06608  23509751.280    96268506.27746
  20888513.900   109770068.95609  20888509.180    85535169.14248
  20975132.060   110225124.40709  20975131.260    85889725.61949
  20821128.500   111105610.87309  20821131.180    86415533.52808
  20935525.140   112069615.60708  20935525.740    87165309.76608
  23150916.780   123624607.25808  23150918.120    96152476.45704
  22859570.420   122154561.47008  22859577.260    95009104.45706
  21340665.880   113998007.99608  21340668.560    88665129.49608
  20946676.760   112089915.64209  20946677.300    87181056.40608
  20573608.600   109823439.81409  20573611.500    85418296.94108
 15 03 04 01 25  0.0000000  0 14G04G16G18G19G21G22G27R02R03R09R15R16
                                R17R18
  23953894.220   125878648.16908  23953895.380    98087277.06445
  20590717.700   108204973.12209  20590714.580    84315562.74749
  21716621.700   114121805.46309  21716619.080    88926137.44148
  22586460.000   118692669.43009  22586455.840    92487788.36247
  23522767.700   123612981.89608  23522764.440    96321793.12746
  20881446.840   109732931.74709  20881442.200    85506231.06948
  20967032.880   110182563.22009  20967032.100    85856561.05249
  20824776.840   111125078.98109  20824779.620    86430675.40008
  20917850.740   111975003.23508  20917851.340    87091722.39908
  23139797.660   123565231.31308  23139798.700    96106295.11004
  22882121.640   122275066.97108  22882128.480    95102830.56906
  21347760.760   114035907.81508  21347763.480    88694607.10708
  20953367.340   112125718.18808  20953367.700    87208902.80608
  20567663.720   109791705.16809  20567666.480    85393614.43408
 15 03 04 01 25 30.0000000  0 14G04G16G18G19G21G22G27R02R03R09R15R16
                                R17R18
  23937108.220   125790438.01908  23937109.380    98018542.12745
  20594338.680   108224001.26409  20594335.540    84330389.86749
  21722791.420   114154227.13209  21722788.800    88951401.09048
  22573246.780   118623233.21709  22573242.420    92433682.24647
  23535784.880   123681387.78008  23535781.560    96375096.41446
  20874474.880   109696293.82609  20874470.200    85477682.06248
  20958971.620   110140201.58009  20958970.900    85823551.98249
  20828574.260   111145342.52309  20828577.180    86446435.94708
  20900270.800   111880896.40508  20900271.480    87018528.24108
  23128802.780   123506519.16308  23128804.060    96060630.13204
  22904692.380   122395676.99508  22904699.320    95196637.94506
  21354991.880   114074535.13908  21354994.640    88724650.57308
  20960085.900   112161670.06009  20960086.160    87236865.35408
  20561741.840   109760093.47709  20561744.520    85369027.56608
 15 03 04 01 26  0.0000000  0 14G04G16G18G19G21G22G27R02R03R09R15R16
                                R17R18
  23920355.300   125702401.82308  23920356.520    97949942.71645
  20598068.160   108243599.58309  20598064.980    84345661.27949
  21729049.680   114187114.11409  21729047.000    88977027.31948
  22560051.520   118553891.38409  22560047.100    92379649.68047
  23548805.780   123749813.88308  23548802.460    96428415.40246
  20867598.220   109660156.49209  20867593.420    85449523.11948
  20950948.540   110098040.49409  20950947.920    85790699.20249
  20832520.540   111166400.35709  20832523.440    86462814.28308
  20882786.040   111787299.11608  20882786.660    86945730.38908
  23117932.500   123448472.88308  23117934.040    96015483.04304
  22927281.740   122516386.36508  22927288.800    95290522.62506
  21362358.660   114113887.08608  21362361.440    88755257.62808
  20966832.340   112197771.50509  20966832.700    87264944.24608
  20555842.980   109728604.85209  20555845.600    85344536.42108
 15 03 04 01 26 30.0000000  0 14G04G16G18G19G21G22G27R02R03R09R15R16
                                R17R18
  23903635.240   125614538.05308  23903636.360    97881477.65745
  20601905.680   108263765.55809  20601902.440    84361375.01449
  21735395.820   114220462.82109  21735393.120    89003013.32348
  22546873.820   118484642.73108  22546869.360    92325689.71647
  23561830.100   123818257.00808  23561826.860    96481747.72146
  20860816.640   109624518.74109  20860811.720    85421753.45648
  20942963.460   110056078.95709  20942962.940    85758001.90749
  20836615.060   111188249.45009  20836617.940    86479808.00708
  20865396.900   111694213.45508  20865397.520    86873330.45608
  23107186.860   123391092.60308  23107188.380    95970853.90604
  22949888.660   122637189.60107  22949895.800    95384480.29007
  21369860.100   114153958.40808  21369862.900    88786424.18708
  20973606.380   112234021.03708  20973606.940    87293138.31308
  20549966.820   109697237.41509  20549969.300    85320139.52608
 15 03 04 01 27  0.0000000  0 14G04G16G18G19G21G22G27R02R03R09R15R16
                                R17R18
  23886948.920   125526851.66208  23886949.960    97813150.81045
  20605851.900   108284502.71409  20605848.580    84377533.83349
  21741830.420   114254276.63609  21741827.760    89029361.75648
  22533714.780   118415492.14809  22533710.420    92271806.15648
  23574858.280   123886721.06308  23574855.100    96535096.29246
  20854131.180   109589385.90509  20854126.100    85394377.23448
  20935017.500   110014322.58409  20935017.020    85725464.48249
  20840858.460   111210893.21109  20840861.100    86497419.84608
  20848104.920   111601648.00608  20848105.460    86801335.13608
  23096567.100   123334384.95907  23096568.840    95926747.92104
  22972513.020   122758085.93208  22972520.240    95478510.30206
  21377496.580   114194751.03308  21377499.400    88818151.76208
  20980408.960   112270423.13508  20980409.620    87321451.04108
  20544114.340   109665996.07909  20544116.740    85295840.70908
 15 03 04 01 27 30.0000000  0 14G04G16G18G19G21G22G27R02R03R09R15R16
                                R17R18
  23870295.520   125439338.11308  23870296.380    97744958.65045
  20609905.780   108305805.77309  20609902.420    84394133.60949
  21748352.260   114288549.10809  21748349.580    89056067.58048
  22520573.780   118346435.89209  22520569.480    92217996.11248
  23587889.340   123955199.83508  23587886.200    96588456.37246
  20847540.940   109554753.58409  20847535.720    85367391.02648
  20927109.920   109972767.55609  20927109.360    85693083.95049
  20845249.720   111234325.86109  20845252.400    86515645.24708
  20830909.840   111509601.51508  20830910.420    86729743.45808
  23086072.740   123278346.82008  23086075.040    95883162.74204
  22995153.000   122879065.65108  22995160.380    95572605.18407
  21385266.520   114236256.81608  21385269.420    88850434.00608
  20987239.200   112306973.88308  20987240.100    87349879.38908
  20538284.540   109634875.91709  20538286.880    85271636.14108
 15 03 04 01 28  0.0000000  0 14G04G16G18G19G21G22G27R02R03R09R15R16
                                R17R18
  23853675.460   125351999.62608  23853676.240    97676902.89045
  20614067.660   108327676.47709  20614064.280    84411175.71449
  21754961.460   114323280.68809  21754958.820    89083131.16248
  22507451.280   118277476.17409  22507446.900    92164261.28548
  23600923.380   124023694.09608  23600919.880    96641828.52446
  20841046.480   109520624.98509  20841041.200    85340797.33348
  20919241.220   109931416.83309  20919240.560    85660862.61249
  20849788.860   111258548.11509  20849791.660    86534484.79908
  20813812.820   111418079.89808  20813813.400    86658560.01908
  23075704.780   123222982.05508  23075706.860    95840101.23404
  23017808.140   123000125.94807  23017815.600    95666762.73106
  21393169.840   114278474.85008  21393172.740    88883270.22608
  20994097.660   112343675.25208  20994098.600    87378424.88508
  20532477.740   109603879.12609  20532480.120    85247527.53308
 15 03 04 01 28 30.0000000  0 14G04G16G18G19G21G22G27R02R03R09R15R16
                                R17R18
  23837089.240   125264839.18008  23837089.940    97608985.85246
  20618337.880   108350116.70509  20618334.520    84428661.59648
  21761658.260   114358472.52809  21761655.560    89110553.38148
  22494347.720   118208616.02909  22494343.320    92110604.05148
  23613960.680   124092205.63308  23613957.380    96695214.10646
  20834648.440   109487003.25209  20834643.120    85314598.59048
  20911412.020   109890274.04609  20911411.300    85628803.29949
  20854476.200   111283561.25009  20854478.900    86553939.45908
  20796814.940   111327089.99908  20796815.660    86587790.13408
  23065463.640   123168295.15708  23065465.600    95797567.01004
  23040478.040   123121264.99007  23040485.680    95760981.47506
  21401206.420   114321404.46208  21401209.240    88916659.90808
  21000984.820   112380530.31008  21000985.820    87407089.89908
  20526694.500   109573008.55309  20526697.080    85223517.09908
 15 03 04 01 29  0.0000000  0 14G04G16G18G19G21G22G27R02R03R09R15R16
                                R17R18
  23820536.140   125177852.85108  23820536.820    97541204.48746
  20622715.460   108373121.29609  20622712.140    84446587.24349
  21768441.600   114394118.88909  21768438.760    89138329.78048
  22481262.340   118139851.64309  22481257.940    92057021.43348
  23627000.240   124160729.13008  23626996.680    96748609.03746
  20828346.100   109453884.74709  20828340.820    85288791.98548
  20903621.660   109849335.85309  20903620.960    85596903.41749
  20859310.760   111309359.72709  20859313.380    86574004.95608
  20779916.400   111236631.23308  20779917.100    86517433.35308
  23055349.040   123114283.73608  23055350.900    95755558.13304
  23063160.920   123242473.25408  23063168.620    95855254.07406
  21409374.820   114365038.30608  21409377.560    88950597.32107
  21007900.040   112417534.92008  21007901.060    87435871.25708
  20520934.040   109542259.89909  20520936.900    85199601.49808
 15 03 04 01 29 30.0000000  0 14G04G16G18G19G21G22G27R02R03R09R15R16
                                R17R18
  23804016.900   125091044.42108  23804017.520    97473561.73746
  20627200.940   108396692.96009  20627197.700    84464954.76549
  21775311.860   114430221.91809  21775308.860    89166462.00548
  22468195.980   118071187.60209  22468191.620    92003517.00548
  23640042.700   124229267.39708  23640039.220    96802015.48546
  20822140.400   109421273.97009  20822135.120    85263381.00148
  20895871.100   109808607.02909  20895870.480    85565166.67949
  20864293.020   111335945.94409  20864295.820    86594683.13308
  20763118.540   111146711.24908  20763119.260    86447495.61108
  23045362.040   123060953.26508  23045363.800    95714078.84804
  23085856.640   123363750.32007  23085864.580    95949580.11406
  21417675.080   114409376.77308  21417677.720    88985082.77407
  21014844.020   112454693.28408  21014844.900    87464772.18608
  20515197.200   109511637.08509  20515200.220    85175783.75808
 15 03 04 01 30  0.0000000  0 14G04G16G18G19G21G22G27R02R03R09R15R16
                                R17R18
  23787532.020   125004416.63008  23787532.580    97406059.73645
  20631794.700   108420833.66009  20631791.520    84483765.68848
  21782269.160   114466782.47209  21782266.080    89194950.75847
  22455149.260   118002627.03609  22455144.920    91950093.20748
  23653088.320   124297821.62808  23653084.640    96855434.33045
  20816031.980   109389174.24809  20816026.700    85238368.24948
  20888161.020   109768091.05509  20888160.580    85533595.79949
  20869423.100   111363321.08909  20869425.900    86615974.90008
  20746422.560   111057336.25408  20746423.160    86377981.75708
  23035503.320   123008308.06108  23035505.100    95673132.58904
  23108564.800   123485093.58507  23108572.780    96043957.66606
  21426107.180   114454419.37708  21426109.700    89020115.89007
  21021817.220   112492008.16609  21021818.140    87493794.85908
  20509484.560   109481142.91609  20509487.640    85152066.09108
 15 03 04 01 30 30.0000000  0 14G04G16G18G19G21G22G27R02R03R09R15R16
                                R17R18
  23771080.860   124917966.01008  23771081.380    97338695.79346
  20636495.900   108445538.86909  20636492.760    84503016.49048
  21789312.500   114503795.21609  21789309.360    89223791.85148
  22442121.500   117934166.18109  22442117.320    91896747.13848
  23666135.880   124366387.27908  23666132.480    96908862.07346
  20810020.120   109357581.99109  20810014.880    85213750.91848
  20880490.940   109727785.12009  20880490.660    85502188.58749
  20874699.980   111391479.69009  20874702.660    86637876.06308
  20729828.380   110968506.22308  20729828.960    86308891.76008
  23025772.520   122956345.83508  23025774.120    95632717.52704
  23131283.960   123606495.75207  23131292.080    96138380.99306
  21434669.660   114500158.74708  21434672.220    89055690.92707
  21028819.100   112529476.41508  21028819.980    87522936.81608
  20503795.420   109450773.59109  20503798.500    85128445.50908
 15 03 04 01 31  0.0000000  0 14G04G16G18G19G21G22G27R02R03R09R15R16
                                R17R18
  23754663.700   124831693.81908  23754664.200    97271470.87145
  20641304.540   108470808.36109  20641301.360    84522706.99948
  21796441.740   114541259.38109  21796438.560    89252984.71547
  22429113.060   117865806.87209  22429108.880    91843480.16048
  23679185.720   124434964.13408  23679182.260    96962298.55846
  20804105.200   109326499.16609  20804100.020    85189530.55848
  20872861.300   109687691.16209  20872861.020    85470946.54849
  20880123.660   111420421.64809  20880126.480    86660386.47108
  20713336.940   110880226.04008  20713337.460    86240229.41808
  23016170.280   122905069.33908  23016171.660    95592835.82404
  23154013.220   123727951.93407  23154021.320    96232846.32806
  21443362.140   114546592.52208  21443364.760    89091806.05207
  21035849.900   112567098.96408  21035850.760    87552198.78408
  20498129.920   109420530.25209  20498132.960    85104922.91408
 15 03 04 01 31 30.0000000  0 14G04G16G18G19G21G22G27R02R03R09R15R16
                                R17R18
  23738281.260   124745604.18108  23738281.800    97204388.19945
  20646221.100   108496644.80409  20646217.860    84542839.28248
  21803657.240   114579176.97109  21803654.100    89282530.88547
  22416124.680   117797553.12609  22416120.620    91790295.45848
  23692238.140   124503554.73808  23692234.740    97015745.76046
  20798288.080   109295930.28309  20798282.940    85165710.67148
  20865272.980   109647813.91109  20865272.600    85439873.36549
  20885694.620   111450148.79509  20885697.240    86683507.59608
  20696949.500   110792502.83308  20696949.940    86172000.29908
  23006697.280   122854483.86608  23006698.740    95553491.57904
  23176752.200   123849460.27907  23176760.500    96327352.16606
  21452184.740   114593721.34508  21452187.400    89128461.76407
  21042910.280   112604879.95409  21042911.020    87581583.99608
  20492488.780   109390416.97809  20492491.700    85081501.48508
 15 03 04 01 32  0.0000000  0 14G04G16G18G19G21G22G27R02R03R09R15R16
                                R17R18
  23721932.760   124659692.93808  23721933.320    97137444.53546
  20651244.820   108523044.12109  20651241.480    84563410.17048
  21810957.800   114617542.04609  21810954.740    89312425.75348
  22403155.880   117729401.85109  22403151.780    91737190.57248
  23705292.320   124572154.13908  23705288.900    97069199.80246
  20792568.100   109265871.62209  20792562.980    85142288.36348
  20857725.420   109608150.37009  20857724.820    85408966.70749
  20891411.660   111480655.68309  20891414.240    86707235.19508
  20680666.100   110705336.75609  20680666.620    86104204.49708
  22997353.260   122804586.89308  22997354.560    95514682.82304
  23199499.740   123971014.14607  23199508.200    96421893.43306
  21461136.060   114641537.47908  21461138.780    89165652.05907
  21049999.600   112642815.72409  21050000.140    87611089.58508
  20486871.260   109360429.69509  20486873.980    85058178.04508
 15 03 04 01 32 30.0000000  0 14G04G16G18G19G21G22G27R02R03R09R15R16
                                R17R18
  23705619.040   124573964.41208  23705619.540    97070643.24746
  20656376.140   108550009.07109  20656372.740    84584421.80748
  21818344.020   114656357.38809  21818341.080    89342671.47848
  22390207.460   117661357.46309  22390203.380    91684168.98348
  23718348.660   124640765.44508  23718345.140    97122663.13346
  20786946.100   109236327.67909  20786940.940    85119267.11848
  20850219.440   109568705.48509  20850218.700    85378230.42749
  20897275.240   111511944.73009  20897277.760    86731571.13008
  20664488.220   110618735.48809  20664488.840    86036847.98408
  22988139.280   122755383.96608  22988140.500    95476413.86904
  23222255.520   124092611.93407  23222264.220    96516468.84506
  21470216.160   114690041.49508  21470218.800    89203377.37107
  21057118.580   112680910.52509  21057119.220    87640718.84108
  20481278.100   109330572.70409  20481280.760    85034955.92808
 15 03 04 01 33  0.0000000  0 14G04G16G18G19G21G22G27R02R03R09R15R16
                                R17R18
  23689339.520   124488415.56708  23689339.960    97003981.95846
  20661614.280   108577535.28609  20661610.820    84605870.80048
  21825815.020   114695618.20709  21825812.160    89373264.34048
  22377278.980   117593417.28209  22377274.740    91631228.60348
  23731406.540   124709384.17508  23731403.100    97176132.26246
  20781421.540   109207295.77309  20781416.340    85096644.88148
  20842754.640   109529477.03409  20842753.820    85347662.81449
  20903284.400   111544010.81809  20903286.940    86756511.42408
  20648415.940   110532699.13808  20648416.500    85969930.84208
  22979054.920   122706873.47808  22979056.120    95438683.52104
  23245017.960   124214245.14207  23245026.920    96611071.75506
  21479423.820   114739226.90508  21479426.420    89241632.67007
  21064266.780   112719161.49509  21064267.300    87670469.57608
  20475708.680   109300843.01309  20475711.460    85011832.85608
 15 03 04 01 33 30.0000000  0 14G04G16G18G19G21G22G27R02R03R09R15R16
                                R17R18
  23673094.960   124403050.29008  23673095.260    96937463.69646
  20666959.680   108605625.31409  20666956.180    84627759.11748
  21833371.160   114735326.31909  21833368.360    89404205.70647
  22364371.200   117525585.53909  22364366.820    91578372.71448
  23744466.280   124778013.10908  23744463.000    97229609.33346
  20775995.160   109178780.02209  20775990.000    85074424.82948
  20835331.840   109490469.77309  20835331.080    85317267.54949
  20909439.580   111576856.19009  20909442.120    86782057.80608
  20632450.560   110447235.20908  20632451.080    85903458.92208
  22970101.120   122659060.54408  22970102.240    95401495.70604
  23267786.980   124335913.06207  23267796.060    96705701.68106
  21488759.000   114789093.50808  21488761.640    89280417.78407
  21071444.860   112757572.77308  21071445.360    87700344.99808
  20470163.740   109271244.54809  20470166.640    84988811.82908
 15 03 04 01 34  0.0000000  0 14G04G16G18G19G21G22G27R02R03R09R15R16
                                R17R18
  23656884.220   124317862.68608  23656884.440    96871083.87445
  20672411.020   108634272.24109  20672407.500    84650081.38348
  21841010.900   114775473.71609  21841008.200    89435489.39347
  22351482.980   117457856.84209  22351478.440    91525597.12048
  23757526.520   124846645.13308  23757523.040    97283088.82145
  20770665.860   109150774.67909  20770660.740    85052602.49548
  20827950.020   109451678.45709  20827949.380    85287040.56449
  20915739.360   111610472.79909  20915741.680    86808204.06208
  20616591.580   110362341.00208  20616592.100    85837430.11908
  22961277.100   122611940.52608  22961278.000    95364846.77504
  23290560.420   124457604.64707  23290569.680    96800349.95806
  21498219.960   114839632.03108  21498222.600    89319725.49307
  21078651.780   112796138.32909  21078652.400    87730340.40008
  20464642.280   109241771.33409  20464645.240    84965888.22508
 15 03 04 01 34 30.0000000  0 14G04G16G18G19G21G22G27R02R03R09R15R16
                                R17R18
  23640708.780   124232860.53808  23640708.900    96804848.58546
  20677969.660   108663483.15409  20677966.180    84672843.12848
  21848735.440   114816066.58609  21848732.800    89467120.20848
  22338615.820   117390239.41009  22338611.200    91472908.22848
  23770588.700   124915287.24008  23770585.560    97336576.15246
  20765435.400   109123288.60209  20765430.320    85031184.78748
  20820610.920   109413111.98809  20820610.420    85256988.77649
  20922184.840   111644866.81709  20922187.440    86834954.98508
  20600841.180   110278028.36308  20600841.720    85771853.66708
  22952584.460   122565522.57508  22952585.560    95328743.93604
  23313339.040   124579323.38407  23313348.400    96895019.32606
  21507807.480   114890846.55308  21507810.140    89359558.99807
  21085889.080   112834866.53009  21085889.760    87760462.33808
  20459145.780   109212431.38909  20459148.820    84943068.26608
 15 03 04 01 35  0.0000000  0 14G04G16G18G19G21G22G27R02R03R09R15R16
                                R17R18
  23624568.540   124148043.30908  23624568.520    96738757.36946
  20683635.160   108693255.77109  20683631.780    84696042.56348
  21856544.280   114857102.11009  21856541.640    89499095.94548
  22325769.700   117322732.80709  22325765.120    91420305.70348
  23783652.320   124983937.05008  23783648.960    97390069.51246
  20760303.540   109096320.90109  20760298.520    85010171.01448
  20813314.640   109374770.36109  20813314.200    85227112.18849
  20928775.500   111680035.28909  20928778.340    86862308.24808
  20585199.820   110194299.62308  20585200.360    85706731.34808
  22944023.260   122519807.02208  22944024.660    95293187.39704
  23336121.660   124701063.55707  23336130.980    96989705.38506
  21517520.620   114942732.36408  21517523.300    89399914.59107
  21093156.700   112873756.78909  21093157.400    87790710.30108
  20453674.160   109183223.97909  20453677.240    84920351.40208
 15 03 04 01 35 30.0000000  0 14G04G16G18G19G21G22G27R02R03R09R15R16
                                R17R18
  23608463.200   124063409.45508  23608463.080    96672809.04646
  20689407.000   108723587.36809  20689403.720    84719677.55748
  21864436.740   114898577.18309  21864434.020    89531414.18648
  22312944.460   117255336.24609  22312940.020    91367788.92748
  23796716.880   125052591.98108  23796713.640    97443566.80646
  20755270.100   109069870.42909  20755265.120    84989560.27048
  20806061.060   109336652.98009  20806060.600    85197410.33249
  20935510.640   111715974.91609  20935513.480    86890261.29108
  20569667.940   110111156.69208  20569668.520    85642064.65708
  22935593.660   122474793.55408  22935595.000    95258176.91904
  23358907.480   124822820.89607  23358916.880    97084404.75906
  21527358.420   114995284.29908  21527361.180    89440788.28807
  21100454.340   112912807.84908  21100455.000    87821083.31808
  20448227.200   109154147.86509  20448230.300    84897736.64608
 15 03 04 01 36  0.0000000  0 14G04G16G18G19G21G22G27R02R03R09R15R16
                                R17R18
  23592393.080   123978960.87708  23592392.940    96607005.10546
  20695285.380   108754478.67609  20695282.180    84743748.69248
  21872412.760   114940491.50409  21872410.060    89564074.70148
  22300140.540   117188051.91509  22300136.240    91315359.60348
  23809782.580   125121253.08108  23809779.560    97497068.91546
  20750335.480   109043939.23309  20750330.540    84969354.15248
  20798850.760   109298762.69709  20798850.260    85167885.43549
  20942390.300   111752685.54709  20942393.000    86918814.00608
  20554246.660   110028605.47508  20554247.220    85577858.19008
  22927296.160   122430485.64208  22927297.380    95223715.22304
  23381695.500   124944590.27007  23381705.040    97179113.45006
  21537320.540   115048500.57008  21537323.460    89482178.67507
  21107782.380   112952021.69009  21107783.140    87851582.96608
  20442805.320   109125205.12509  20442808.320    84875225.62008
 15 03 04 01 36 30.0000000  0 14G04G16G18G19G21G22G27R02R03R09R15R16
                                R17R18
  23576357.920   123894696.08908  23576357.780    96541344.37046
  20701269.660   108785926.58709  20701266.580    84768253.55649
  21880471.580   114982841.58009  21880468.940    89597074.75448
  22287357.800   117120878.86509  22287353.660    91263016.98648
  23822849.020   125189917.87608  23822845.740    97550573.97446
  20745499.420   109018525.86509  20745494.520    84949551.53648
  20791683.540   109261098.67109  20791683.020    85138536.83749
  20949413.660   111790163.33409  20949416.040    86947963.39208
  20538936.140   109946647.04408  20538936.540    85514112.76708
  22919130.540   122386882.26108  22919131.700    95189801.48604
  23404484.700   125066365.91407  23404494.400    97273827.03806
  21547406.020   115102375.56508  21547409.040    89524081.43207
  21115140.640   112991396.90209  21115141.460    87882208.11208
  20437408.080   109096394.02209  20437411.000    84852816.99108
 15 03 04 01 37  0.0000000  0 14G04G16G18G19G21G22G27R02R03R09R15R16
                                R17R18
  23560358.620   123810619.97208  23560358.560    96475830.64446
  20707360.660   108817935.13109  20707357.660    84793195.26749
  21888613.900   115025630.42509  21888611.340    89630416.71848
  22274597.260   117053822.29409  22274593.120    91210765.12848
  23835916.700   125258589.62408  23835914.040    97604084.36146
  20740762.880   108993635.68409  20740758.080    84930156.60448
  20784560.520   109223666.84809  20784560.000    85109369.19349
  20956581.320   111828410.95709  20956583.580    86977711.54308
  20523738.060   109865290.36608  20523738.360    85450835.37508
  22911098.080   122343989.76508  22911099.580    95156440.65604
  23427275.080   125188147.53807  23427284.940    97368545.29306
  21557615.080   115156910.42108  21557618.100    89566497.40407
  21122530.060   113030938.87608  21122530.740    87912962.97108
  20432036.340   109067719.92809  20432039.380    84830514.92408
 15 03 04 01 37 30.0000000  0 14G04G16G18G19G21G22G27R02R03R09R15R16
                                R17R18
  23544393.820   123726725.17008  23544393.740    96410458.20346
  20713556.740   108850495.57809  20713553.780    84818567.03348
  21896837.980   115068848.77509  21896835.540    89664093.36848
  22261857.640   116986875.43609  22261853.500    91158598.76848
  23848984.380   125327260.30408  23848980.780    97657594.02646
  20736124.560   108969261.82609  20736119.920    84911164.00448
  20777480.440   109186460.78209  20777479.940    85080377.46149
  20963891.560   111867419.31809  20963893.580    87008051.38308
  20508651.540   109784531.08608  20508651.740    85388022.62708
  22903197.520   122301801.69008  22903199.200    95123627.70904
  23450064.580   125309924.11407  23450074.500    97463259.62506
  21567945.580   115212094.02608  21567948.640    89609417.95507
  21129949.160   113070640.15809  21129949.900    87943841.72708
  20426688.920   109039175.55809  20426692.140    84808313.75508
 15 03 04 01 38  0.0000000  0 14G04G16G18G19G21G22G27R02R03R09R15R16
                                R17R18
  23528465.140   123643020.28508  23528465.060    96345233.74446
  20719859.140   108883614.60109  20719856.200    84844374.06048
  21905145.040   115112503.21609  21905142.740    89698109.81048
  22249140.760   116920047.36309  22249136.400    91106524.93848
  23862053.180   125395937.18308  23862049.420    97711108.44645
  20731586.100   108945412.67009  20731581.600    84892580.26648
  20770445.140   109149489.90709  20770444.640    85051568.99849
  20971345.480   111907194.86409  20971347.360    87038987.92908
  20493678.820   109704381.16808  20493679.020    85325683.84008
  22895430.720   122260327.81808  22895432.300    95091370.27304
  23472853.680   125431698.60407  23472863.740    97557972.34006
  21578398.440   115267930.99908  21578401.520    89652846.68307
  21137399.720   113110509.87508  21137400.240    87974851.49208
  20421367.500   109010769.66209  20421370.840    84786220.29308
 15 03 04 01 38 30.0000000  0 14G04G16G18G19G21G22G27R02R03R09R15R16
                                R17R18
  23512571.720   123559500.52708  23512571.660    96280153.52746
  20726266.780   108917286.64809  20726263.820    84870612.00649
  21913533.880   115156587.10409  21913531.620    89732460.90048
  22236445.680   116853333.86009  22236441.140    91054540.39948
  23875122.200   125464614.09808  23875118.880    97764622.88045
  20727146.720   108922083.65209  20727142.260    84874401.82748
  20763453.860   109112750.29909  20763453.300    85022940.72949
  20978941.760   111947730.06909  20978943.720    87070515.30708
  20478819.560   109624838.85708  20478819.880    85263817.63108
  22887797.000   122219564.21308  22887798.220    95059665.23504
  23495640.700   125553461.99007  23495650.920    97652676.46206
  21588971.960   115324412.31408  21588975.020    89696776.55407
  21144880.760   113150543.45809  21144881.440    88005988.71508
  20416071.280   108982497.77309  20416074.620    84764231.05608
 15 03 04 01 39  0.0000000  0 14G04G16G18G19G21G22G27R02R03R09R15R16
                                R17R18
  23496714.120   123476169.01008  23496714.060    96215219.99646
  20732779.940   108951513.25109  20732776.940    84897282.07448
  21922004.640   115201101.37509  21922002.240    89767147.33447
  22223773.120   116786738.65309  22223768.460    91002648.02848
  23888191.460   125533293.99608  23888187.960    97818139.68246
  20722807.040   108899277.87009  20722802.480    84856631.09248
  20756507.420   109076246.10609  20756506.720    84994495.89749
  20986680.560   111989026.15409  20986682.420    87102634.47408
  20464075.100   109545911.20808  20464075.640    85202429.49008
  22880296.980   122179515.03208  22880298.440    95028515.88704
  23518425.420   125675213.39207  23518435.800    97747371.28906
  21599665.980   115381537.47308  21599669.040    89741207.19407
  21152393.020   113190744.30208  21152393.940    88037256.01108
  20410800.840   108954362.96809  20410803.920    84742348.42808
 15 03 04 01 39 30.0000000  0 14G04G16G18G19G21G22G27R02R03R09R15R16
                                R17R18
  23480892.360   123393025.68908  23480892.300    96150433.11346
  20739398.420   108986293.55909  20739395.420    84924383.60448
  21930557.060   115246044.20409  21930554.500    89802167.72748
  22211123.080   116720262.05309  22211118.360    90950848.08148
  23901261.140   125601975.48408  23901257.900    97871657.69346
  20718567.020   108876995.55309  20718562.300    84839268.27449
  20749605.940   109039978.11009  20749605.140    84966235.12849
  20994561.420   112031080.57409  20994563.200    87135343.48108
  20449446.040   109467600.98008  20449446.680    85141521.56708
  22872930.900   122140181.07008  22872932.640    94997922.81304
  23541206.740   125796946.54907  23541217.260    97842051.98606
  21610479.800   115439302.32008  21610482.820    89786135.38307
  21159936.760   113231112.59209  21159937.720    88068653.56008
  20405556.160   108926365.61309  20405558.980    84720572.71008
 15 03 04 01 40  0.0000000  0 16G04G16G18G19G21G22G27R02R03R04R09R15
                                R16R17R18R19
  23465106.560   123310071.28308  23465106.580    96085793.43446
  20746122.040   109021626.70209  20746119.080    84951915.91348
  21939190.800   115291414.12009  21939187.980    89837520.90847
  22198495.820   116653905.57209  22198491.120    90899141.75148
  23914330.860   125670657.93808  23914327.600    97925176.43445
  20714426.820   108855237.84609  20714421.980    84822314.23148
  20742749.740   109003948.16309  20742748.860    84938159.84449
  21002584.100   112073892.17209  21002586.180    87168641.38708
  20434933.160   109389912.41508  20434933.780    85081097.15308
  23554610.180   126133868.19107  23554616.720    98104139.92106
  22865699.320   122101564.31008  22865701.060    94967887.53504
  23563984.140   125918659.28507  23563995.000    97936716.74306
  21621412.720   115497703.48708  21621415.700    89831558.46407
  21167512.140   113271649.42409  21167512.960    88100182.18808
  20400337.340   108898506.79709  20400339.940    84698904.74008
  23651194.880   126517951.98107  23651196.360    98402854.01006
 15 03 04 01 40 30.0000000  0 16G04G16G18G19G21G22G27R02R03R04R09R15
                                R16R17R18R19
  23449356.040   123227302.11808  23449356.000    96021298.08246
  20752949.760   109057506.96709  20752946.800    84979874.53948
  21947904.740   115337205.30309  21947901.740    89873202.34847
  22185890.720   116587665.68109  22185886.080    90847526.27848
  23927400.160   125739336.53808  23927396.340    97978692.28745
  20710385.600   108834000.46909  20710380.680    84805765.63448
  20735938.200   108968153.08709  20735937.320    84910267.58149
  21010747.460   112117454.22809  21010749.760    87202522.98208
  20420536.280   109312844.78408  20420536.880    85021155.68308
  23529542.520   125999632.08207  23529548.840    97999734.97905
  22858601.440   122063661.17008  22858603.180    94938407.33504
  23586755.860   126040341.88407  23586766.940    98031358.14206
  21632463.260   115556733.02108  21632466.200    89877470.29207
  21175118.360   113312350.68809  21175119.000    88131838.70608
  20395143.660   108870782.64709  20395146.180    84677341.50808
  23637063.560   126442355.21907  23637064.620    98344056.56606
 15 03 04 01 41  0.0000000  0 16G04G16G18G19G21G22G27R02R03R04R09R15
                                R16R17R18R19
  23433642.320   123144726.14808  23433642.140    95956953.26946
  20759882.900   109093941.14009  20759879.920    85008264.79548
  21956700.040   115383424.17909  21956696.940    89909217.04147
  22173309.500   116521551.27909  22173305.020    90796008.56648
  23940469.880   125808018.59508  23940466.680    98032210.65945
  20706445.020   108813291.98709  20706440.020    84789629.16948
  20729173.040   108932602.04709  20729172.220    84882565.47849
  21019052.560   112161772.55409  21019055.100    87236992.82008
  20406257.480   109236409.50408  20406258.060    84961706.05008
  23504474.780   125865396.99907  23504480.980    97895330.87606
  22851638.780   122026480.85808  22851640.540    94909489.31704
  23609522.420   126161997.58707  23609533.900    98125978.52806
  21643632.240   115616395.21808  21643635.160    89923874.19507
  21182756.940   113353225.45408  21182757.240    88163630.16508
  20389976.760   108843201.67509  20389979.420    84655889.64908
  23622925.140   126366721.79007  23622925.980    98285230.61606
 15 03 04 01 41 30.0000000  0 16G04G16G18G19G21G22G27R02R03R04R09R15
                                R16R17R18R19
  23417964.260   123062337.81308  23417964.100    95892754.67946
  20766920.200   109130922.58509  20766917.200    85037081.49748
  21965575.260   115430062.87109  21965572.000    89945558.89247
  22160751.200   116455557.26409  22160746.820    90744584.67948
  23953539.060   125876697.41608  23953535.760    98085726.62745
  20702604.000   108793106.78909  20702598.920    84773900.45748
  20722453.440   108897290.46609  20722452.640    84855049.96749
  21027497.960   112206839.35509  21027500.500    87272044.77208
  20392096.380   109160604.12108  20392096.900    84902746.33208
  23479406.600   125731160.44007  23479412.660    97790925.48406
  22844810.660   121990018.60608  22844812.320    94881129.78304
  23632282.180   126283617.06407  23632294.060    98220570.75306
  21654917.720   115676680.23008  21654920.640    89970762.49907
  21190426.900   113394268.28208  21190427.140    88195552.36308
  20384835.640   108815758.49709  20384838.460    84634544.97208
  23608778.560   126291045.34808  23608779.080    98226371.18106
 15 03 04 01 42  0.0000000  0 16G04G16G18G19G21G22G27R02R03R04R09R15
                                R16R17R18R19
  23402322.680   122980140.89908  23402322.440    95828705.23646
  20774062.040   109168453.39609  20774059.060    85066326.27648
  21974530.660   115477123.04809  21974527.080    89982229.15647
  22148216.700   116389688.20009  22148212.460    90693258.15648
  23966608.060   125945375.79507  23966604.480    98139242.24945
  20698863.260   108773448.73109  20698858.080    84758582.50548
  20715780.340   108862223.20109  20715779.560    84827724.82649
  21036083.960   112252655.91709  21036086.340    87307679.89908
  20378054.380   109085435.91408  20378054.780    84844282.20308
  23454339.340   125596929.56307  23454345.260    97686524.54105
  22838117.940   121954279.15508  22838119.460    94853332.40104
  23655035.040   126405199.58207  23655047.180    98315134.23106
  21666319.700   115737587.77908  21666322.680    90018134.99407
  21198128.960   113435483.27508  21198129.260    88227608.42508
  20379721.140   108788457.61109  20379724.160    84613310.96008
  23594624.300   126215329.24008  23594624.860    98167480.92306
 15 03 04 01 42 30.0000000  0 15G04G16G18G19G21G22G27R02R03R04R09R16
                                R17R18R19
  23386717.400   122898135.07008  23386717.160    95764804.67646
  20781308.120   109206531.79809  20781305.120    85095997.73748
  21983565.780   115524602.41709  21983562.100    90019226.05847
  22135706.000   116323944.14109  22135701.780    90642029.02748
  23979676.840   126014052.44808  23979674.000    98192756.44045
  20695222.680   108754317.39109  20695217.420    84743674.96548
  20709153.860   108827400.77509  20709153.020    84800590.46749
  21044809.880   112299219.39409  21044812.500    87343895.93508
  20364131.880   109010907.43008  20364132.180    84786315.62008
  23429273.680   125462707.31007  23429279.240    97582130.08006
  22831560.540   121919262.67308  22831562.100    94826097.34004
  21677837.380   115799113.63408  21677840.460    90065988.39508
  21205863.180   113476870.55508  21205863.560    88259798.49608
  20374633.260   108761298.49809  20374636.320    84592187.21408
  23580462.520   126139572.67508  23580463.020    98108559.17306
 15 03 04 01 43  0.0000000  0 15G04G16G18G19G21G22G27R02R03R04R09R16
                                R17R18R19
  23371148.100   122816318.20108  23371147.900    95701051.37046
  20788657.700   109245153.91509  20788654.680    85126092.87948
  21992679.900   115572496.83709  21992676.100    90056546.39147
  22123218.860   116258323.65909  22123214.600    90590896.20548
  23992744.700   126082724.27108  23992740.780    98246267.04846
  20691681.860   108735710.76609  20691676.600    84729176.31048
  20702573.740   108792821.82709  20702572.820    84773645.83249
  21053674.920   112346525.06909  21053677.620    87380689.22908
  20350329.040   108937019.47408  20350329.200    84728847.24308
  23404209.700   125328494.49307  23404215.420    97477742.54504
  22825138.220   121884967.60308  22825139.780    94799423.39404
  21689469.600   115861251.07908  21689472.800    90114317.48807
  21213629.140   113518427.63108  21213629.660    88292120.66008
  20369571.720   108734279.52309  20369574.720    84571172.45508
  23566292.500   126063772.49708  23566292.880    98049603.51906
 15 03 04 01 43 30.0000000  0 15G04G16G18G19G21G22G27R02R03R04R09R16
                                R17R18R19
  23355616.340   122734698.45308  23355616.020    95637451.65346
  20796111.960   109284326.11609  20796108.900    85156616.66048
  22001874.000   115620812.10009  22001870.260    90094194.63447
  22110756.940   116192835.43909  22110752.600    90539866.43148
  24005812.640   126151398.48608  24005809.300    98299779.29245
  20688242.460   108717637.35109  20688237.260    84715093.14248
  20696041.700   108758495.81209  20696040.860    84746898.28449
  21062680.100   112394578.55809  21062682.780    87418064.15908
  20336648.040   108863783.65108  20336648.000    84671886.07108
  23379150.020   125194303.98408  23379154.300    97373341.51405
  22818852.720   121851403.21008  22818854.240    94773317.74804
  21701217.160   115924004.47308  21701220.400    90163125.64408
  21221428.560   113560163.73708  21221428.740    88324582.06908
  20364538.180   108707409.39209  20364540.960    84550273.46008
  23552115.640   125987936.77308  23552116.160    97990620.19706
 15 03 04 01 44  0.0000000  0 15G04G16G18G19G21G22G27R02R03R04R09R16
                                R17R18R19
  23340119.720   122653263.44208  23340119.280    95573995.90246
  20803668.440   109324035.41409  20803665.340    85187558.95548
  22011145.440   115669534.10409  22011141.820    90132159.83847
  22098317.940   116127467.75009  22098313.420    90488930.57848
  24018878.660   126220061.36207  24018875.720    98353282.84546
  20684902.080   108700084.34809  20684896.960    84701415.48748
  20689555.560   108724411.21009  20689554.840    84720338.86449
  21071822.680   112443364.88209  21071825.380    87456009.09008
  20323087.140   108791190.70908  20323087.000    84615424.92308
  23354093.000   125060126.72608  23354097.380                  
  22812701.680   121818557.30108  22812703.200    94747770.96404
  21713076.860   115987356.98508  21713080.120    90212399.78408
  21229259.140   113602066.38008  21229259.440    88357172.99808
  20359530.240   108680675.77709  20359532.920    84529480.65508
  23537929.700   125912052.32708  23537930.400    97931598.99406
 15 03 04 01 44 30.0000000  0 15G04G16G18G19G21G22G27R02R03R04R09R16
                                R17R18R19
  23324660.820   122572026.86008  23324660.400    95510694.75346
  20811329.440   109364293.81509  20811326.300    85218929.13648
  22020496.500   115718674.71309  22020493.000    90170451.21248
  22085904.640   116062235.59209  22085900.120    90438100.34548
  24031944.920   126288726.46507  24031941.660    98406788.13346
  20681663.340   108683065.34209  20681658.320    84688153.93948
  20683118.140   108690582.82809  20683117.560    84693979.10149
  21081104.660   112492895.24709  21081107.220    87494532.71908
  20309649.440   108719257.31708  20309649.160    84559476.75008
  23329041.500   124925979.41608  23329046.040    97164653.72908
  22806687.960   121786444.70808  22806689.560    94722794.48604
  21725050.560   116051318.42908  21725053.860    90262147.54508
  21237123.500   113644149.97509  21237123.360    88389904.67008
  20354550.520   108654093.18909  20354553.200    84508805.31908
  23523737.220   125836132.61308  23523738.040    97872550.35506
 15 03 04 01 45  0.0000000  0 15G04G16G18G19G21G22G27R02R03R04R09R16
                                R17R18R19
  23309237.240   122490975.88908  23309236.900    95447538.25346
  20819092.080   109405086.39309  20819088.900    85250715.55048
  22029924.320   115768218.71709  22029920.980    90209056.93347
  22073514.560   115997126.03109  22073510.160    90387365.63748
  24045009.280   126357379.64608  24045006.120    98460284.12745
  20678523.760   108666567.30309  20678518.820    84675298.33648
  20676727.160   108656998.71409  20676726.700    84667809.66949
  21090523.140   112543153.98109  21090525.560    87533622.81908
  20296333.000   108647973.38208  20296332.720    84504033.71608
  23303994.560   124791828.14908  23303998.820                  
  22800809.080   121755052.45508  22800810.720    94698378.28504
  21737135.040   116115871.33008  21737138.340    90312355.32208
  21245019.260   113686401.59908  21245019.300    88422767.03008
  20349596.600   108627648.68109  20349599.280    84488237.36808
  23509535.600   125760163.87308  23509536.340    97813463.59006
 15 03 04 01 45 30.0000000  0 15G04G16G18G19G21G22G27R02R03R04R09R16
                                R17R18R19
  23293851.780   122410125.12608  23293851.380    95384537.74946
  20826958.780   109446425.96509  20826955.560    85282928.19748
  22039431.340   115818178.94409  22039428.120    90247986.98047
  22061150.700   115932154.62509  22061146.640    90336738.60448
  24058073.660   126426034.69508  24058070.820    98513781.47845
  20675486.220   108650605.05709  20675481.260    84662860.23948
  20670385.720   108623674.70009  20670385.320    84641842.92449
  21100080.420   112594153.41609  21100082.800    87573289.06008
  20283141.220   108577357.12508  20283141.080    84449109.99208
  23278954.460   124657739.41407  23278958.460    96956041.36204
  22795068.060   121724396.23308  22795069.800    94674534.58204
  21749332.240   116181026.39108  21749335.560    90363031.45408
  21252949.340   113728836.85608  21252949.220    88455772.22508
  20344671.400   108601357.77509  20344674.160    84467788.91308
  23495327.540   125684160.50908  23495328.180    97754349.92306
 15 03 04 01 46  0.0000000  0 15G04G16G18G19G21G22G27R02R03R04R09R16
                                R17R18R19
  23278502.020   122329462.09508  23278501.620    95321683.52246
  20834927.020   109488299.17309  20834923.780    85315556.65848
  22049014.680   115868540.46009  22049011.680    90287229.72647
  22048810.920   115867309.49509  22048807.060    90286209.96448
  24071136.280   126494678.08608  24071133.460    98567269.84345
  20672548.340   108635166.42709  20672543.360    84650830.15448
  20664091.660   108590599.11509  20664091.220    84616069.74549
  21109773.580   112645877.84709  21109775.720    87613519.18008
  20270072.320   108507398.77808  20270072.340    84394697.97408
  23253920.140   124523680.75708  23253924.500    96851775.60307
  22789462.600   121694463.60808  22789464.160    94651253.64904
  21761639.040   116246766.54408  21761642.320    90414162.63208
  21260911.420   113771443.11809  21260911.160    88488910.40008
  20339772.640   108575208.08609  20339775.400    84447450.27608
  23481110.440   125608109.29508  23481110.880    97695199.00006
 15 03 04 01 46 30.0000000  0 15G04G16G18G19G21G22G27R02R03R04R09R16
                                R17R18R19
  23263189.680   122248995.55208  23263189.240    95258982.40046
  20842998.020   109530712.59009  20842994.760    85348606.06448
  22058675.780   115919310.09909  22058672.800    90326790.48647
  22036497.060   115802600.01809  22036493.320    90235787.00348
  24084198.200   126563317.93808  24084195.180    98620755.45846
  20669711.680   108620259.49709  20669706.660    84639214.37048
  20657846.820   108557781.78409  20657846.300    84590497.79649
  21119603.880   112698333.77109  21119605.860    87654318.22108
  20257128.580   108438110.18708  20257128.740    84340806.86408
  23228893.540   124389664.14506                                
  22783994.500   121665264.27308  22783995.980    94628543.06104
  21774056.220   116313096.50108  21774059.460    90465752.56508
  21268907.080   113814229.64708  21268907.420    88522188.78608
  20334902.140   108549209.03709  20334904.900    84427228.80008
  23466886.000   125532018.63608  23466886.500    97636017.39206
 15 03 04 01 47  0.0000000  0 15G04G16G18G19G21G22G27R02R03R04R09R16
                                R17R18R19
  23247914.920   122168726.41408  23247914.340    95196435.10046
  20851171.660   109573665.48409  20851168.440    85382075.83848
  22068414.380   115970486.61909  22068411.440    90366668.28847
  22024209.400   115738027.81609  22024205.620    90185471.00548
  24097259.180   126631953.84908  24097256.400    98674237.86345
  20666976.300   108605884.83909  20666971.260    84628013.35749
  20651651.540   108525224.61109  20651650.900    84565128.57149
  21129570.860   112751518.98709  21129572.800    87695684.49708
  20244310.760   108369495.30208  20244310.960    84287439.75608
  23203875.700   124255694.29805  23203880.680    96643341.37804
  22778664.020   121636799.39308  22778665.440    94606403.71504
  21786583.160   116380012.71208  21786586.340    90517798.46307
  21276936.620   113857197.60708  21276937.340    88555608.32808
  20330060.100   108523361.80009  20330062.800    84407125.39108
  23452654.160   125455888.88108  23452654.880    97576805.41706
 15 03 04 01 47 30.0000000  0 15G04G16G18G19G21G22G27R02R03R04R09R16
                                R17R18R19
  23232675.620   122088643.53908  23232675.020    95134032.92946
  20859445.580   109617145.47709  20859442.420    85415956.33948
  22078227.980   116022056.85509  22078224.860    90406852.88747
  22011945.980   115673582.63609  22011942.060    90135253.99248
  24110317.820   126700575.07908  24110314.860    98727708.98046
  20664340.180   108592031.81709  20664335.160    84617218.80449
  20645503.880   108492917.64909  20645503.100    84539954.32249
  21139671.920   112805419.44509  21139673.640    87737607.06508
  20231617.140   108301545.42408  20231617.440    84234589.88208
  23178863.980   124121764.95408  23178869.720    96539164.70108
  22773469.000   121609058.04408  22773470.400    94584827.11604
  21799216.980   116447499.85708  21799220.040    90570288.42307
  21284997.920   113900336.30608  21284999.100    88589160.64308
  20325244.480   108497655.80309  20325247.100    84387131.84208
  23438413.040   125379708.49408  23438413.720    97517553.99706
 15 03 04 01 48  0.0000000  0 15G04G16G18G19G21G22G27R02R03R04R09R16
                                R17R18R19
  23217474.480   122008761.27208  23217473.860    95071787.08645
  20867822.240   109661165.25409  20867819.080    85450257.44848
  22088118.920   116074033.41709  22088115.800    90447354.11947
  21999709.740   115609280.20909  21999705.580    90085148.21148
  24123375.760   126769194.15008  24123371.660    98781178.46645
  20661806.000   108578714.53509  20661801.020    84606841.70948
  20639406.800   108460876.31309  20639405.820    84514987.05249
  21149909.220   112860047.17509  21149910.960    87780095.29708
  20219051.120   108234278.34008  20219051.460    84182271.05608
  23153864.540   123987892.51007  23153869.460    96435046.05305
  22768412.300   121582055.15608  22768413.800    94563824.89604
  21811959.560   116515567.97308  21811962.580    90623230.25107
  21293093.980   113943660.76908  21293095.520    88622857.41808
  20320458.160   108472106.01609  20320460.660    84367259.79208
  23424165.200   125303491.75908  23424165.720    97458274.32006
 15 03 04 01 48 30.0000000  0 15G04G16G18G19G21G22G27R02R03R04R09R16
                                R17R18R19
  23202310.140   121929072.29008  23202309.520    95009691.84645
  20876299.880   109705715.52909  20876296.720    85484971.92748
  22098085.240   116126406.30909  22098082.100    90488164.15847
  21987499.340   115545113.37209  21987494.920    90035148.07748
  24136431.840   126837802.60808  24136428.680    98834639.46545
  20659372.320   108565925.35209  20659367.360    84596876.11748
  20633358.980   108429094.27309  20633357.880    84490221.81649
  21160280.740   112915391.67009  21160282.700    87823141.00908
  20206611.820   108167689.64908  20206612.100    84130479.86808
  23128874.760   123854074.41507  23128879.920    96330966.25904
  22763492.460   121555783.76208  22763494.000    94543391.60104
  21824808.680   116584205.28908  21824811.700    90676614.78507
  21301223.540   113987163.85308  21301225.140    88656693.12108
  20315699.840   108446705.46609  20315702.240    84347503.81708
  23409908.840   125227230.33807  23409909.220    97398959.88206
 15 03 04 01 49  0.0000000  0 15G04G16G18G19G21G22G27R02R03R04R09R16
                                R17R18R19
  23187183.640   121849582.00708  23187182.940    94947751.43046
  20884879.260   109750800.42009  20884876.100    85520102.99748
  22108127.580   116179178.95009  22108124.400    90529285.69047
  21975315.920   115481088.26909  21975311.280    89985258.39648
  24149486.660   126906405.77508  24149483.100    98888096.53346
  20657040.200   108553669.77609  20657035.220    84587326.32449
  20627361.660   108397578.07109  20627360.540    84465663.74449
  21170787.120   112971455.69809  21170789.100    87866746.36208
  20194300.700   108101787.38808  20194300.960    84079222.57908
  23103896.560   123720318.47707  23103901.500    96226934.44806
  22758710.620   121530249.51908  22758712.340    94523531.61904
  21837764.560   116653413.10308  21837767.580    90730443.02307
  21309387.780   114030851.50509  21309389.120    88690672.39308
  20310970.620   108421460.24309  20310972.940    84327868.64908
  23395645.120   125150929.80008  23395645.900    97339615.07106
 15 03 04 01 49 30.0000000  0 15G04G16G18G19G21G22G27R02R03R04R09R16
                                R17R18R19
  23172094.640   121770288.66408  23172093.820    94885964.47546
  20893559.600   109796415.81709  20893556.440    85555647.44448
  22118245.220   116232347.64309  22118242.120    90570715.83547
  21963159.280   115417204.18509  21963154.520    89935478.60548
  24162539.660   126975001.00608  24162535.540    98941547.35745
  20654809.100   108541945.27509  20654804.180    84578190.36049
  20621414.720   108366326.91309  20621413.620    84441312.19949
  21181427.360   113028234.46609  21181429.420    87910907.63608
  20182118.020   108036572.78908  20182118.300    84028500.14208
  23078930.080   123586626.99407  23078934.960    96122953.00206
  22754066.580   121505450.94908  22754068.420    94504243.83204
  21850826.020   116723185.04308  21850829.080    90784710.04607
  21317586.320   114074722.54209  21317587.240    88724794.27608
  20306270.160   108396369.02609  20306272.520    84308353.26008
  23381373.800   125074587.54608  23381374.500    97280237.77606
 15 03 04 01 50  0.0000000  0 15G04G16G18G19G21G22G27R02R03R04R09R16
                                R17R18R19
  23157042.200   121691187.69908  23157041.300    94824327.43646
  20902339.660   109842555.34709  20902336.520    85591600.31448
  22128436.860   116285905.23309  22128433.840    90612449.03647
  21951028.620   115353456.95809  21951023.800    89885805.46348
  24175590.220   127043582.51607  24175586.860    98994987.45245
  20652678.260   108530747.56909  20652673.320    84569464.88649
  20615517.540   108335337.21509  20615516.460    84417164.38849
  21192200.080   113085720.23609  21192202.200    87955618.78308
  20170063.380   107972043.77508  20170063.620    83978310.93208
  23053975.380   123452998.33507  23053980.240    96019020.32505
  22749559.600   121481383.28308  22749561.260    94485524.56604
  21863991.360   116793511.86508  21863994.460    90839408.63907
  21325818.160   114118772.11208  21325818.940    88759055.03808
  20301597.700   108371427.50909  20301600.160    84288954.30908
  23367093.680   124998198.65608  23367094.400    97220824.22206
 15 03 04 01 50 30.0000000  0 16G04G16G18G19G21G22G27G32R02R03R04R09
                                R16R17R18R19
  23142028.140   121612288.45508  23142027.200    94762847.57946
  20911221.040   109889227.45609  20911217.980    85627968.17948
  22138703.940   116339859.40209  22138700.980    90654491.23547
  21938925.940   115289856.85309  21938921.120    89836246.95648
  24188639.720   127112159.10308  24188635.840    99048423.74744
  20650649.340   108520085.54909  20650644.360    84561156.82849
  20609672.100   108304619.59609  20609671.120    84393228.58449
  24500946.820   128753335.89508  24500953.540   100327296.11145
  21203106.600   113143919.87109  21203108.840    88000885.16808
  20158139.120   107908212.92808  20158139.420    83928664.73808
  23029035.020   123319446.85208  23029039.760    95915147.84306
  22745191.300   121458056.69008  22745192.880    94467381.65804
  21877261.540   116864398.92108  21877264.700    90894542.96807
  21334085.260   114163010.71809  21334085.800    88793462.83008
  20296955.260   108346646.13509  20296957.780    84269679.90908
  23352806.580   124921772.21408  23352807.260    97161381.46506
 15 03 04 01 51  0.0000000  0 16G04G16G18G19G21G22G27G32R02R03R04R09
                                R16R17R18R19
  23127049.800   121533577.07308  23127048.920    94701514.10446
  20920200.700   109936415.83509  20920197.680    85664738.32248
  22149043.460   116394193.97009  22149040.540    90696829.85647
  21926848.720   115226390.61809  21926843.940    89786792.75948
  24201685.640   127180715.91208  24201681.600    99101844.68645
  20648719.600   108509945.08009  20648714.680    84553255.17348
  20603876.000   108274161.26909  20603875.120    84369494.82249
  24478311.640   128634389.90908  24478318.700   100234611.47645
  21214143.680   113202816.19509  21214146.180    88046693.41508
  20146343.140   107845068.58608  20146343.440    83879552.48708
  23004106.740   123185960.60808  23004111.420    95811325.96706
  22740959.000   121435457.05308  22740960.680    94449804.17704
  21890633.180   116935827.73108  21890636.300    90950098.64707
  21342385.120   114207424.53409  21342385.720    88828006.90308
  20292340.280   108322011.28809  20292342.840    84250519.47008
  23338509.680   124845294.04608  23338510.460    97101898.49407
 15 03 04 01 51 30.0000000  0 16G04G16G18G19G21G22G27G32R02R03R04R09
                                R16R17R18R19
  23112111.160   121455074.14208  23112110.300    94640343.06146
  20929282.280   109984139.77309  20929279.300    85701925.79448
  22159458.940   116448927.68209  22159456.120    90739479.49947
  21914801.120   115163079.91909  21914796.280    89737459.75348
  24214731.200   127249272.94708  24214728.140    99155265.64645
  20646892.860   108500346.24109  20646888.080    84545775.57249
  20598133.340   108243983.96009  20598132.580    84345980.04249
  24455685.800   128515492.13608  24455692.700   100141964.41345
  21225314.800   113262427.17009  21225317.600    88093057.50508
  20134679.840   107782634.64408  20134680.160    83830992.78108
  22979195.500   123052565.44408  22979200.020    95707575.04106
  22736866.840   121413605.49108  22736868.740    94432808.50304
  21904109.220   117007814.64108  21904112.440    91006088.40107
  21350721.400   114252034.84008  21350722.340    88862703.77808
  20287756.760   108297544.46209  20287759.440    84231489.72108
  23324207.040   124768784.70608  23324207.960    97042391.25807
 15 03 04 01 52  0.0000000  0 16G04G16G18G19G21G22G27G32R02R03R04R09
                                R16R17R18R19
  23097209.260   121376764.25008  23097208.360    94579322.43746
  20938462.460   110032381.84009  20938459.480    85739516.99448
  22169947.100   116504042.99809  22169944.180    90782426.49147
  21902780.420   115099910.94809  21902775.560    89688237.18248
  24227774.300   127317813.64408  24227770.800    99208674.03645
  20645166.320   108491273.74009  20645161.660    84538706.10348
  20592441.460   108214073.40709  20592440.780    84322673.11949
  24433066.580   128396629.48408  24433073.640   100049344.83045
  21236616.340   113322733.85409  21236619.000    88139962.71608
  20123146.840   107720898.30608  20123147.220    83782975.64708
  22954298.980   122919248.80008  22954303.260    95603885.11506
  22732911.880   121392486.45308  22732913.940    94416382.60504
  21917686.040   117080339.57408  21917689.360    91062496.63507
  21359091.620   114296826.48508  21359092.640    88897541.73708
  20283201.960   108273230.77109  20283204.820    84212579.07108
  23309895.620   124692228.06908  23309896.500    96982847.22406
 15 03 04 01 52 30.0000000  0 16G04G16G18G19G21G22G27G32R02R03R04R09
                                R16R17R18R19
  23082345.680   121298655.96208  23082344.800    94518458.89646
  20947742.420   110081148.44009  20947739.440    85777516.93848
  22180509.040   116559546.02109  22180506.100    90825675.58947
  21890788.300   115036892.21309  21890783.460    89639131.69748
  24240815.420   127386346.80008  24240811.480    99262076.45345
  20643541.540   108482735.78909  20643536.920    84532053.17149
  20586802.200   108184439.12109  20586801.580    84299581.47749
  24410456.120   128277812.80908  24410463.040    99956761.08045
  21248049.380   113383742.28709  21248051.700    88187413.71808
  20111746.200   107659870.69008  20111746.680    83735509.75408
  22929419.420   122786022.98308  22929423.400    95500265.83106
  22729095.740   121372108.45908  22729097.620    94400533.05004
  21931364.360   117153406.78708  21931367.740    91119326.63707
  21367497.560   114341808.66709  21367498.800    88932527.84608
  20278677.600   108249079.30509  20278680.500    84193794.60908
  23295576.960   124615632.43808  23295577.700    96923272.88407
 15 03 04 01 53  0.0000000  0 16G04G16G18G19G21G22G27G32R02R03R04R09
                                R16R17R18R19
  23067518.560   121220739.47708  23067517.720    94457744.82046
  20957120.020   110130428.11609  20957117.060    85815916.66348
  22191142.440   116615424.74709  22191139.480    90869217.44947
  21878823.000   114974014.55509  21878818.320    89590136.13248
  24253853.800   127454861.59308  24253850.720    99315464.60345
  20642016.660   108474722.21509  20642011.940    84525808.83549
  20581213.840   108155072.46709  20581213.300    84276698.37649
  24387852.880   128159034.43508  24387859.620    99864207.21945
  21259611.380   113445438.85709  21259613.660    88235399.94108
  20100476.700   107599544.62908  20100477.280    83688589.50508
  22904555.640   122652881.64408  22904559.420    95396712.26406
  22725416.560   121352461.67808  22725418.320    94385252.22204
  21945141.500   117227001.74008  21945144.920    91176567.09807
  21375937.260   114386971.74708  21375938.620    88967654.68108
  20274181.940   108225080.83009  20274184.760    84175129.13708
  23281249.020   124538987.56708  23281249.420    96863660.23206
 15 03 04 01 53 30.0000000  0 16G04G16G18G19G21G22G27G32R02R03R04R09
                                R16R17R18R19
  23052730.320   121143027.20108  23052729.480    94397189.86246
  20966597.320   110180231.57409  20966594.360    85854724.53848
  22201849.340   116671689.76009  22201846.400    90913060.31047
  21866887.240   114911292.20109  21866882.660    89541261.57748
  24266890.460   127523369.34108  24266886.660    99368847.28645
  20640593.900   108467244.91709  20640589.000    84519982.37349
  20575679.020   108125987.04609  20575678.580    84254034.41849
  24365259.800   128040309.27408  24365266.240    99771694.84845
  21271304.120   113507833.66009  21271306.440    88283929.21308
  20089341.160   107539935.27008  20089341.840    83642226.68908
  22879710.740   122519841.44408  22879714.320    95293237.19506
  22721876.680   121333558.66508  22721878.360    94370549.86904
  21959018.920   117301132.43208  21959022.380    91234224.25507
  21384413.460   114432328.94808  21384414.700    89002932.49308
  20269717.480   108201248.68709  20269720.100    84156593.01608
  23266914.180   124462305.80508  23266914.560    96804018.91306
 15 03 04 01 54  0.0000000  0 16G04G16G18G19G21G22G27G32R02R03R04R09
                                R16R17R18R19
  23037980.000   121065514.14008  23037979.120    94336790.13846
  20976172.980   110230551.85509  20976170.020    85893935.14448
  22212628.300   116728333.68509  22212625.400    90957198.43647
  21854980.220   114848720.43409  21854975.700    89492504.37448
  24279924.780   127591864.86808  24279921.000    99422220.41445
  20639272.200   108460298.74809  20639267.140    84514569.78649
  20570197.000   108097178.97309  20570196.620    84231586.58949
  24342676.280   127921634.59008  24342682.640    99679221.88545
  21283126.080   113570918.22609  21283128.500    88332994.98908
  20078339.140   107481040.18408  20078339.760    83596419.42308
  22854884.420   122386900.55108  22854887.920    95189839.27206
  22718475.120   121315394.36708  22718476.780    94356422.07304
  21972994.880   117375789.36008  21972998.340    91292290.70507
  21392925.040   114477875.58809  21392926.240    89038357.62108
  20265283.220   108177578.37509  20265285.820    84138182.78208
  23252571.360   124385581.94808  23252571.820    96744344.83906
 15 03 04 01 54 30.0000000  0 16G04G16G18G19G21G22G27G32R02R03R04R09
                                R16R17R18R19
  23023267.020   120988197.44708  23023266.180    94276543.41646
  20985846.060   110281384.11509  20985843.120    85933544.66748
  22223478.320   116785351.29009  22223475.380    91001627.71247
  21843101.560   114786297.45209  21843097.020    89443863.08748
  24292956.280   127660344.09508  24292953.020    99475580.79146
  20638050.920   108453880.53609  20638045.760    84509568.58149
  20564767.520   108068646.53509  20564767.040    84209353.51049
  24320102.240   127803010.20208  24320108.340    99586788.21845
  21295076.140   113634686.50809  21295078.460    88382592.54808
  20067470.560   107422859.09608  20067471.040    83551167.47808
  22830076.960   122254059.90608  22830080.320    95086519.25406
  22715211.240   121297965.76408  22715212.960    94342866.49704
  21987068.040   117450965.37408  21987071.500    91350760.87607
  21401471.480   114523609.09608  21401472.900    89073928.10408
  20260878.800   108154067.79509  20260881.440    84119896.77208
  23238220.120   124308812.71608  23238220.660    96684635.48806
 15 03 04 01 55  0.0000000  0 16G04G16G18G19G21G22G27G32R02R03R04R09
                                R16R17R18R19
  23008592.980   120911085.09608  23008592.100    94216455.93146
  20995617.800   110332734.74009  20995614.820    85973558.13348
  22234400.660   116842748.91809  22234397.660    91046353.13947
  21831252.880   114724032.03109  21831248.300    89395344.59648
  24305985.720   127728815.05208  24305982.000    99528934.76545
  20636931.500   108447997.75809  20636926.300    84504984.61449
  20559392.200   108040398.89609  20559391.660    84187342.36349
  24297539.580   127684446.24108  24297545.380    99494401.79145
  21307155.300   113699143.48209  21307157.820    88432725.72908
  20056737.280   107365402.49908  20056737.640    83506479.03508
  22805290.520   122121331.80108  22805293.800    94983286.71207
  22712086.680   121281280.88108  22712088.380    94329889.35104
  22001239.020   117526663.67408  22001242.420    91409637.27807
  21410054.600   114569538.48109  21410055.920    89109650.94508
  20256505.940   108130725.91809  20256508.660    84101741.97108
  23223861.960   124232006.06508  23223862.520    96624897.00906
 15 03 04 01 55 30.0000000  0 16G04G16G18G19G21G22G27G32R02R03R04R09
                                R16R17R18R19
  22993955.920   120834167.25508  22993955.080    94156520.00646
  21005485.960   110384592.12109  21005482.980    86013966.46548
  22245392.980   116900514.39909  22245389.920    91091365.19547
  21819432.420   114661915.21309  21819427.880    89346941.88948
  24319011.960   127797266.53508  24319007.780    99582273.60345
  20635911.980   108442640.18109  20635906.820    84500809.88349
  20554069.340   108012427.32709  20554068.820    84165546.34349
  24274986.880   127565934.97608  24274992.480    99402056.37444
  21319361.040   113764275.95609  21319363.580    88483384.31008
  20046137.920   107308663.12908  20046138.120    83462348.43508
  22780523.960   121988709.61708  22780527.220    94880136.52006
  22709099.540   121265329.48208  22709101.180    94317482.70004
  22015505.080   117602869.86108  22015508.380    91468908.70307
  21418672.300   114615653.82608  21418673.660    89145518.42308
  20252162.960   108107543.22609  20252165.820    84083710.98808
  23209494.980   124155151.96308  23209495.540    96565121.60706
 15 03 04 01 56  0.0000000  0 16G04G16G18G19G21G22G27G32R02R03R04R09
                                R16R17R18R19
  22979358.500   120757457.52608  22979357.660    94096746.25346
  21015452.760   110436967.98509  21015449.820    86054778.80848
  22256457.580   116958659.61109  22256454.500    91136673.15147
  21807643.040   114599962.02909  21807638.620    89298666.69048
  24332036.360   127865711.98707  24332033.140    99635607.65546
  20634994.960   108437821.42109  20634989.900    84497055.02549
  20548801.800   107984746.72509  20548801.340    84143977.04149
  24252447.200   127447492.40708  24252452.680    99309764.40745
  21331695.400   113830094.62509  21331697.900    88534576.60708
  20035675.520   107252657.11208  20035675.720    83418788.22208
  22755780.460   121856211.37008  22755783.800    94777082.69007
  22706252.260   121250125.38508  22706253.840    94305657.28004
  22029867.920   117679593.15808  22029871.200    91528582.31507
  21427327.500   114661969.79608  21427328.640    89181541.94208
  20247852.660   108084534.54909  20247855.620    84065815.36108
  23195121.620   124078263.94308  23195122.260    96505319.85606
 15 03 04 01 56 30.0000000  0 16G04G16G18G19G21G22G27G32R02R03R04R09
                                R16R17R18R19
  22964798.160   120680942.54709  22964797.260    94037124.25846
  21025515.160   110489846.49009  21025512.300    86095982.82848
  22267591.400   117017168.24609  22267588.180    91182264.29147
  21795882.400   114538159.71909  21795878.000    89250509.06148
  24345057.320   127934137.35208  24345054.300    99688926.12344
  20634177.740   108433527.26609  20634172.800    84493708.94149
  20543587.320   107957344.69209  20543586.900    84122624.81549
  24229918.520   127329107.39308  24229923.660    99217517.21945
  21344155.140   113896582.36609  21344157.700    88586289.30208
  20025348.000   107197373.25208  20025348.300    83375789.69108
  22731058.260   121723826.68308  22731061.500    94674117.15807
  22703542.320   121235654.54208  22703543.920    94294402.19904
  22044324.160   117756815.59908  22044327.480    91588644.16707
  21436017.800   114708473.13008  21436018.640    89217711.19408
  20243572.520   108061686.69509  20243575.500    84048044.81808
  23180739.240   124001327.88208  23180739.900    96445480.71307
 15 03 04 01 57  0.0000000  0 16G04G16G18G19G21G22G27G32R02R03R04R09
                                R16R17R18R19
  22950276.560   120604631.13108  22950275.580    93977660.86146
  21035674.560   110543234.83909  21035671.800    86137584.12348
  22278795.680   117076047.19509  22278792.420    91228144.00047
  21784152.260   114476517.77509  21784147.860    89202476.39148
  24358075.880   128002550.08108  24358072.740    99742234.78045
  20633461.920   108429765.98809  20633457.060    84490778.08949
  20538427.820   107930231.21309  20538427.360    84101497.42549
  24207402.940   127210791.13208  24207407.880    99125323.54245
  21356741.400   113963745.06909  21356744.060    88638526.95108
  20015157.460   107142822.74008  20015157.760    83333361.53608
  22706359.780   121591568.71907  22706363.000    94571250.16707
  22700971.420   121221925.69208  22700973.160    94283724.19204
  22058874.600   117834541.28908  22058877.960    91649097.42007
  21444744.740   114755172.88308  21444745.780    89254033.19808
  20239324.360   108039009.48809  20239327.320    84030406.99108
  23166349.640   123924352.94908  23166350.020    96385611.33206
 15 03 04 01 57 30.0000000  0 16G04G16G18G19G21G22G27G32R02R03R04R09
                                R16R17R18R19
  22935793.620   120528522.76809  22935792.520    93918355.68646
  21045930.440   110597130.21709  21045927.780    86179580.50748
  22290069.900   117135294.00709  22290066.700    91274310.32047
  21772452.840   114415037.14409  21772448.400    89154569.41548
  24371091.760   128070949.87508  24371089.080    99795533.24745
  20632847.340   108426536.97909  20632842.560    84488261.98649
  20533323.440   107903407.16609  20533322.880    84080595.56849
  24184900.840   127092545.73108  24184905.760    99033185.09844
  21369453.440   114031579.09509  21369455.940    88691286.75308
  20005104.400   107089008.03308  20005104.800    83291505.66508
  22681685.660   121459440.89108  22681688.760    94468484.36607
  22698539.440   121208938.24608  22698541.180    94273622.84304
  22073518.360   117912765.40708  22073521.780    91709938.34707
  21453508.480   114802069.70408  21453509.480    89290508.49108
  20235108.240   108016503.36109  20235111.100    84012902.22508
  23151952.560   123847338.49308  23151952.700    96325711.21006
 15 03 04 01 58  0.0000000  0 17G04G11G16G18G19G21G22G27G32R02R03R04
                                R09R16R17R18R19
  22921348.020   120452610.78509  22921346.900    93859203.54346
  24612545.360   129339801.42706  24612543.080   100784267.95043
  21056281.240   110651524.40909  21056278.680    86221965.57548
  22301412.420   117194899.46009  22301409.200    91320756.13047
  21760783.040   114353712.02009  21760778.640    89106783.62248
  24384104.300   128139329.82608  24384101.520    99848816.36845
  20632332.600   108423832.65609  20632327.900    84486154.73649
  20528273.040   107876866.73809  20528272.400    84059914.71549
  24162411.440   126974366.68608  24162416.260    98941098.27644
  21382289.300   114100073.92509  21382291.700    88744560.50908
  19995187.840   107035924.20508  19995188.340    83250218.26208
  22657035.200   121327439.99108  22657038.240    94365817.28207
  22696244.840   121196684.78808  22696246.520    94264092.36704
  22088253.200   117991476.06108  22088256.600    91771157.68307
  21462307.600   114849156.88908  21462308.680    89327131.83208
  20230922.980   107994162.17009  20230925.840    83995525.74308
  23137546.780   123770277.29208  23137546.760    96265774.75306
 15 03 04 01 58 30.0000000  0 17G04G11G16G18G19G21G22G27G32R02R03R04
                                R09R16R17R18R19
  22906941.960   120376906.56608  22906940.860    93800213.29946
  24595877.900   129252214.95706  24595879.080   100716006.77843
  21066728.680   110706426.24009  21066726.200    86264746.19848
  22312824.920   117254872.76509  22312821.760    91367488.57947
  21749145.200   114292554.63009  21749140.740    89059128.52748
  24397114.500   128207699.68208  24397111.040    99902091.54845
  20631919.840   108421664.07909  20631915.180    84484464.95049
  20523279.040   107850622.58609  20523278.300    84039464.72749
  24139937.320   126856267.79108  24139941.900    98849073.89245
  21395250.560   114169237.91009  21395253.080    88798354.71408
  19985410.400   106983585.21508  19985411.060    83209510.18808
  22632411.420   121195581.44208  22632414.260    94263260.89307
  22694089.640   121185176.41508  22694091.480    94255141.40904
  22103080.460   118070680.38008  22103083.840    91832760.97507
  21471144.680   114896446.79608  21471145.860    89363912.88208
  20226770.860   107971998.26609  20226773.820    83978287.16608
  23123134.300   123693180.57708  23123134.440    96205810.66207
 15 03 04 01 59  0.0000000  0 17G04G11G16G18G19G21G22G27G32R02R03R04
                                R09R16R17R18R19
  22892574.320   120301404.32608  22892573.260    93741380.43046
  24579221.140   129164685.49105  24579222.340   100647802.11443
  21077271.340   110761828.52809  21077268.940    86307916.79648
  22324306.000   117315206.29009  22324302.940    91414501.70547
  21737538.340   114231560.17709  21737533.880    89011600.39248
  24410121.940   128276053.30807  24410118.800    99955354.09546
  20631607.960   108420025.08109  20631603.280    84483187.81549
  20518340.500   107824670.11509  20518339.740    84019242.02849
  24117477.900   126738245.63508  24117482.260    98757109.25845
  21408335.560   114239062.00209  21408338.380    88852662.33008
  19975771.380   106931987.26008  19975772.160    83169378.45408
  22607813.860   121063863.03408  22607816.620    94160813.47407
  22692072.820   121174407.15208  22692074.660    94246765.30104
  22117998.180   118150368.05608  22118001.580    91894740.21207
  21480018.600   114943933.66508  21480020.480    89400847.09208
  20222651.060   107950006.66809  20222654.160    83961182.60208
  23108714.220   123616042.70608  23108714.580    96145814.56407
 15 03 04 01 59 30.0000000  0 17G04G11G16G18G19G21G22G27G32R02R03R04
                                R09R16R17R18R19
  22878245.060   120226103.68008  22878244.000    93682704.63546
  24562575.460   129077213.15605  24562575.860   100579641.95142
  21087908.780   110817728.59509  21087906.400    86351475.26748
  22335855.160   117375897.61709  22335852.100    91461793.63247
  21725962.660   114170729.67309  21725958.200    88964200.00648
  24423126.020   128344390.18308  24423122.600   100008603.58845
  20631396.700   108418914.43209  20631391.940    84482322.37649
  20513457.660   107799010.37909  20513456.900    83999247.42049
  24095033.560   126620302.47908  24095037.520    98665206.14645
  21421543.500   114309542.42609  21421546.400    88907480.42608
  19966271.240   106881132.59908  19966272.140    83129824.84508
  22583243.220   120932288.64108  22583245.780    94058478.04507
  22690194.260   121164376.09608  22690196.060    94238963.35804
  22133005.540   118230534.11508  22133008.820    91957091.51707
  21488929.600   114991618.12408  21488931.560    89437934.98408
  20218563.700   107928188.11009  20218566.880    83944212.62708
  23094286.380   123538863.53108  23094286.800    96085786.36407
 15 03 04 02 00  0.0000000  0 17G04G11G16G18G19G21G22G27G32R02R03R04
                                R09R16R17R18R19
  22863954.120   120151004.34108  22863953.060    93624185.71846
  24545940.700   128989796.99106  24545940.100   100511525.54543
  21098640.620   110874124.37709  21098638.180    86395420.01248
  22347471.880   117436943.86609  22347468.720    91509362.14647
  21714418.220   114110063.48609  21714413.840    88916927.67548
  24436126.460   128412709.98008  24436123.240   100061839.69745
  20631285.960   108418331.74009  20631281.040    84481868.33948
  20508630.600   107773644.04909  20508629.840    83979481.45549
  24072604.640   126502440.33608  24072608.400    98573366.14845
  21434873.820   114380675.50909  21434876.760    88962806.13808
  19956910.280   106831023.28408  19956911.240    83090850.96008
  22558700.040   120800861.61508  22558702.540    93956257.25907
  22688453.840   121155082.32708  22688455.580    94231734.87504
  22148101.460   118311173.58308  22148104.740    92019811.03007
  21497877.620   115039499.99508  21497879.260    89475176.44708
  20214508.740   107906542.76009  20214511.980    83927377.37408
  23079850.600   123461642.23808  23079850.960    96025725.40007
 15 03 04 02 00 30.0000000  0 17G04G11G16G18G19G21G22G27G32R02R03R04
                                R09R16R17R18R19
  22849700.900   120076103.36708  22849699.860    93565821.36046
  24529316.240   128902434.56006  24529314.180   100443451.07241
  21109465.880   110931010.71909  21109463.320    86439747.01148
  22359155.040   117498339.44409  22359151.940    91557202.83747
  21702904.740   114049559.86609  21702900.380    88869782.00748
  24449123.100   128481007.58708  24449119.700   100115058.65845
  20631274.980   108418273.38809  20631269.940    84481822.87649
  20503859.060   107748569.34509  20503858.260    83959942.72349
  24050191.080   126384658.60908  24050194.720    98481588.77445
  21448325.280   114452454.55709  21448328.140    89018634.29908
  19947688.460   106781658.35508  19947689.340    83052456.02608
  22534184.420   120669582.82808  22534186.720    93854151.72507
  22686850.940   121146522.38008  22686852.420    94225077.12004
  22163284.520   118392278.46008  22163287.920    92082892.53507
  21506862.120   115087576.86808  21506863.500    89512569.54208
  20210485.880   107885068.59909  20210489.020    83910675.24808
  23065406.400   123384375.93808  23065406.660    95965629.40607
 15 03 04 02 01  0.0000000  0 17G04G11G16G18G19G21G22G27G32R02R03R04
                                R09R16R17R18R19
  22835486.880   120001408.43708  22835485.740    93507617.56646
  24512703.500   128815133.70106  24512701.680   100375424.48744
  21120385.560   110988393.20309  21120382.860    86484460.61848
  22370905.960   117560090.65909  22370902.880    91605320.65947
  21691423.940   113989227.69209  21691419.500    88822769.93648
  24462117.240   128549291.57507  24462113.900   100168266.94545
  20631365.120   108418746.38909  20631359.900    84482191.45449
  20499144.700   107723795.27709  20499143.900    83940638.25249
  24027794.800   126266967.57808  24027798.400    98389882.03945
  21461898.620   114524884.14009  21461901.660    89074968.39808
  19938607.520   106733047.52208  19938608.320    83014647.62508
  22509698.740   120538463.83908  22509700.920    93752170.47607
  22685386.780   121138703.68708  22685388.260    94218995.90404
  22178555.420   118473852.52508  22178558.840    92146338.95907
  21515884.760   115135857.38209  21515885.320    89550121.05108
  20206496.760   107863774.48309  20206499.760    83894113.16208
  23050955.240   123307072.12108  23050955.500    95905504.25807
 15 03 04 02 01 30.0000000  0 17G04G11G16G18G19G21G22G27G32R02R03R04
                                R09R16R17R18R19
  22821312.260   119926920.63208  22821311.120    93449575.18446
  24496102.420   128727895.47006  24496100.620   100307446.76343
  21131399.360   111046270.67109  21131396.560    86529559.92848
  22382724.340   117622196.31809  22382721.160    91653714.69047
  21679976.140   113929068.87609  21679971.600    88775892.94548
  24475108.460   128617561.73308  24475105.020   100221464.42944
  20631556.420   108419751.10209  20631551.020    84482974.36349
  20494487.980   107699324.03809  20494487.160    83921569.76049
  24005416.420   126149370.60408  24005419.940    98298248.57845
  21475593.340   114597961.85609  21475596.240    89131806.61208
  19929668.220   106685194.39308  19929668.860    82977428.54408
  22485243.800   120407509.77608  22485246.000    93650317.50607
  22684061.540   121131626.53108  22684062.880    94213491.45704
  22193913.400   118555891.64908  22193916.760    92210147.10407
  21524945.560   115184342.98309  21524945.900    89587832.04308
  20202541.780   107842662.12809  20202544.640    83877692.45008
  23036497.220   123229732.13508  23036497.700    95845350.98507
 15 03 04 02 02  0.0000000  0 17G04G11G16G18G19G21G22G27G32R02R03R04
                                R09R16R17R18R19
  22807175.580   119852632.37408  22807174.560    93391688.27646
  24479511.800   128640712.39506  24479510.200   100239511.95342
  21142505.480   111104633.51809  21142502.640    86575037.45048
  22394608.340   117684646.70009  22394605.020    91702377.30647
  21668560.060   113869076.84809  21668555.440    88729145.92048
  24488095.900   128685810.57308  24488092.740   100274645.32746
  20631847.340   108421279.24509  20631841.780    84484165.12849
  20489887.640   107675149.29809  20489886.880    83902732.29449
  23983055.000   126031862.63508  23983058.360    98206684.44345
  21489407.600   114671676.60809  21489410.120    89189140.33408
  19920869.380   106638093.03808  19920869.780    82940794.18108
  22460818.920   120276716.43208  22460821.080    93548589.53207
  22682873.600   121125282.79508  22682874.780    94208557.41104
  22209356.120   118638383.62308  22209359.540    92274307.45807
  21534043.160   115233026.35108  21534043.660    89625696.86608
  20198619.680   107821724.93709  20198622.300    83861407.96808
  23022031.120   123152348.11508  23022031.440    95785163.43507
 15 03 04 02 02 30.0000000  0 17G04G11G16G18G19G21G22G27G32R02R03R04
                                R09R16R17R18R19
  22793078.180   119778550.60708  22793077.300    93333962.27746
  24462933.160   128553591.49806  24462932.120   100171625.58243
  21153704.800   111163486.21309  21153701.900    86620896.67548
  22406558.700   117747445.73209  22406555.340    91751311.61347
  21657177.220   113809259.82209  21657172.680    88682535.26148
  24501080.180   128754044.00807  24501077.440   100327814.15045
  20632239.100   108423337.48509  20632233.440    84485768.95849
  20485345.260   107651279.16409  20485344.540    83884132.18849
  23960712.360   125914453.01408  23960715.520    98115196.91445
  21503341.780   114746031.89909  21503344.240    89246972.20108
  19912212.720   106591752.83608  19912212.900    82904751.81508
  22436426.200   120146095.38308  22436428.220    93446995.55407
  22681824.060   121119678.58708  22681825.060    94204198.56004
  22224884.100   118721330.90408  22224887.540    92338821.95607
  21543179.160   115281915.39308  21543179.620    89663721.67208
  20194731.880   107800970.83009  20194734.340    83845265.89508
  23007558.100   123074927.25508  23007558.340    95724947.22507
 15 03 04 02 03  0.0000000  0 17G04G11G16G18G19G21G22G27G32R02R03R04
                                R09R16R17R18R19
  22779019.600   119704672.80908  22779018.780    93276395.21546
  24446365.900   128466529.93506  24446365.080   100103785.55943
  21164996.560   111222824.87309  21164993.640    86667134.57548
  22418574.600   117810589.62909  22418571.260    91800514.63947
  21645827.400   113749616.38909  21645822.980    88636059.87048
  24514061.300   128822259.70008  24514058.360   100380969.28645
  20632731.000   108425922.49409  20632725.340    84487783.25549
  20480860.660   107627712.44509  20480859.980    83865768.51549
  23938388.480   125797141.79108  23938391.300    98023786.05845
  21517394.760   114821021.62409  21517397.120    89305297.52808
  19903698.200   106546173.09808  19903698.120    82869300.93008
  22412065.900   120015647.57808  22412067.780    93345536.30707
  22680912.600   121114811.04708  22680913.380    94200412.67404
  22240495.920   118804726.06208  22240499.340    92403684.80707
  21552353.200   115331007.87908  21552353.460    89701904.69808
  20190878.080   107780398.19909  20190880.360    83829264.95408
  22993077.640   122997466.65108  22993077.820    95664700.13907
 15 03 04 02 03 30.0000000  0 17G04G11G16G18G19G21G22G27G32R02R03R04
                                R09R16R17R18R19
  22764999.560   119630997.44808  22764998.720    93218985.89047
  24429809.700   128379526.53006  24429808.420   100035990.73142
  21176380.060   111282645.71309  21176377.160    86713748.20748
  22430655.400   117874074.19909  22430651.980    91849983.13347
  21634510.460   113690145.82509  21634506.140    88589719.19448
  24527038.780   128890454.87308  24527036.120   100434108.28345
  20633322.620   108429032.02009  20633317.100    84490206.27049
  20476433.720   107604448.65809  20476433.040    83847640.88049
  23916083.440   125679929.67608  23916085.960    97932452.37045
  21531565.700   114896640.65909  21531568.500    89364112.33108
  19895325.760   106501354.22208  19895325.480    82834441.81308
  22387738.420   119885375.41608  22387740.040    93244213.66807
  22680138.500   121110677.40608  22680139.340    94197197.62504
  22256190.380   118888562.90708  22256193.800    92468891.16807
  21561564.900   115380302.54208  21561565.720    89740244.94408
  20187058.100   107760006.32609  20187060.280    83813404.60608
  22978589.500   122919965.02408  22978589.820    95604421.11707
 15 03 04 02 04  0.0000000  0 17G04G11G16G18G19G21G22G27G32R02R03R04
                                R09R16R17R18R19
  22751018.640   119557527.64408  22751017.800    93161736.75146
  24413265.140   128292584.74006  24413263.740    99968243.95143
  21187855.460   111342949.50209  21187852.600    86760738.15248
  22442801.180   117937900.56409  22442797.940    91899717.96347
  21623227.280   113630852.75009  21623223.020    88543516.81848
  24540012.560   128958632.73907  24540009.220   100487233.95744
  20634014.500   108432668.64609  20634009.140    84493040.01549
  20472065.280   107581492.25309  20472064.580    83829752.77349
  23893798.400   125562822.49508  23893800.840    97841200.47646
  21545854.620   114972888.80509  21545857.220    89423416.46908
  19887096.360   106457301.38309  19887096.140    82800178.51408
  22363445.140   119755286.38208  22363446.760    93143033.46007
  22679502.360   121107280.42208  22679503.320    94194555.52004
  22271967.240   118972839.96708  22271970.720    92534439.92507
  21570815.140   115429803.57408  21570816.220    89778745.75408
  20183272.760   107739799.52709  20183274.880    83797688.20608
  22964094.300   122842425.70008  22964094.660    95544112.77007
 15 03 04 02 04 30.0000000  0 17G04G11G16G18G19G21G22G27G32R02R03R04
                                R09R16R17R18R19
  22737076.620   119484261.86608  22737075.780    93104646.58046
  24396732.060   128205703.15206  24396730.440    99900544.09043
  21199422.040   111403732.44309  21199419.240    86808101.46848
  22455011.240   118002064.75509  22455008.160    91949716.00747
  21611977.780   113571736.74309  21611973.580    88497452.41848
  24552983.060   129026791.38708  24552980.060   100540344.53845
  20634806.260   108436830.17709  20634801.040    84496282.77949
  20467755.240   107558842.93509  20467754.560    83812103.95349
  23871533.460   125445821.08508  23871535.820    97750030.96846
  21560260.300   115049760.71709  21560263.160    89483205.68608
  19879010.080   106414014.95508  19879009.920    82766511.30508
  22339186.400   119625382.40208  22339187.800    93041997.16907
  22679003.760   121104617.60008  22679004.760    94192484.44304
  22287825.340   119057550.97608  22287828.920    92600326.20307
  21580103.740   115479509.67708  21580105.340    89817406.04708
  20179521.900   107719777.12209  20179524.080    83782115.21908
  22949591.620   122764847.02208  22949592.060    95483773.84207
 15 03 04 02 05  0.0000000  0 17G04G11G16G18G19G21G22G27G32R02R03R04
                                R09R16R17R18R19
  22723174.100   119411203.52508  22723173.220    93047718.04346
  24380211.020   128118884.84006  24380209.320    99832893.52143
  21211080.000   111464995.48109  21211077.240    86855838.88448
  22467285.780   118066567.73209  22467282.600    91999978.07447
  21600762.840   113512801.87509  21600758.620    88451529.15648
  24565949.740   129094932.93606  24565946.960   100593441.76545
  20635698.400   108441518.93809  20635693.280    84499936.35749
  20463504.440   107536505.11909  20463503.840    83794697.85949
  23849289.800   125328931.15308  23849292.040    97658948.29546
  21574782.960   115127256.23709  21574785.620    89543479.97408
  19871067.900   106371500.02308  19871067.780    82733444.15208
  22314963.620   119495670.82008  22314964.860    92941110.51807
  22678643.060   121102691.34108  22678644.140    94190986.21804
  22303764.360   119142694.42208  22303768.040    92666548.80607
  21589431.400   115529424.91608  21589433.120    89856229.00408
  20175806.320   107699943.52009  20175808.600    83766689.09508
  22935082.320   122687232.36008  22935082.740    95423406.90807
 15 03 04 02 05 30.0000000  0 17G04G11G16G18G19G21G22G27G32R02R03R04
                                R09R16R17R18R19
  22709310.500   119338349.57108  22709309.480    92990948.76946
  24363701.500   128032127.02606  24363699.660    99765290.13443
  21222828.480   111526734.17609  21222825.780    86903946.92548
  22479623.880   118131404.96409  22479620.820    92050500.56247
  21589582.120   113454046.74009  21589577.860    88405745.94248
  24578912.740   129163054.74108  24578909.760   100646523.73045
  20636690.240   108446731.50209  20636685.200    84503998.09749
  20459312.660   107514477.34009  20459312.120    83777533.35849
  23827067.280   125212152.50208  23827069.420    97567952.34346
  21589421.380   115205368.90409  21589424.060    89604234.27208
  19863269.660   106329755.67408  19863269.600    82700976.33808
  22290776.880   119366152.75008  22290778.060    92840374.37107
  22678419.600   121101498.13308  22678420.820    94190058.15304
  22319783.040   119228263.17208  22319786.780    92733102.19507
  21598797.920   115579546.93108  21598799.880    89895212.75808
  20172125.680   107680296.82809  20172128.140    83751408.34208
  22920565.760   122609579.05308  22920566.300    95363009.93707
 15 03 04 02 06  0.0000000  0 17G04G11G16G18G19G21G22G27G32R02R03R04
                                R09R16R17R18R19
  22695486.420   119265703.32208  22695485.280    92934341.33346
  24347204.140   127945433.23506  24347202.200    99697736.58343
  21234667.580   111588948.89009  21234664.840    86952425.90148
  22492025.760   118196577.13909  22492022.800    92101284.08347
  21578436.460   113395475.63309  21578432.120    88360106.11748
  24591872.360   129231159.20707  24591869.880   100699592.13546
  20637782.240   108452470.40009  20637777.300    84508469.97249
  20455180.740   107492763.91409  20455180.240    83760613.80749
  23804867.040   125095490.74308  23804869.020    97477047.45545
  21604175.340   115284098.32509  21604177.760    89665468.25608
  19855616.280   106288786.98708  19855616.240    82669111.81608
  22266627.520   119236835.28808  22266628.820    92739794.27007
  22678333.780   121101040.08108  22678335.220    94189701.86304
  22335880.920   119314255.27008  22335884.780    92799984.85507
  21608203.740   115629879.33608  21608206.080    89934360.16108
  20168480.840   107660841.22009  20168483.420    83736276.20308
  22906042.640   122531890.45908  22906043.140    95302585.48307
 15 03 04 02 06 30.0000000  0 17G04G11G16G18G19G21G22G27G32R02R03R04
                                R09R16R17R18R19
  22681701.420   119193262.42408  22681700.180    92877893.92846
  24330718.600   127858801.45306  24330716.980    99630231.35843
  21246596.480   111651635.54109  21246593.720    87001272.62948
  22504490.500   118262079.76609  22504487.400    92152325.07447
  21567325.620   113337087.51009  21567321.200    88314608.89048
  24604827.940   129299243.81707  24604826.220   100752644.94545
  20638973.860   108458732.55309  20638968.960    84513349.58349
  20451108.480   107471363.84109  20451107.960    83743938.43049
  23782689.060   124978946.09608  23782690.880    97386233.80445
  21619043.700   115363438.37009  21619046.080    89727177.15508
  19848107.720   106248593.37708  19848107.600    82637850.13808
  22242515.980   119107720.39508  22242517.340    92639371.70107
  22678385.000   121101313.91808  22678386.660    94189914.82504
  22352056.720   119400663.72508  22352060.740    92867191.35407
  21617648.860   115680420.69308  21617650.900    89973670.08008
  20164871.660   107641575.50609  20164874.320    83721291.75008
  22891512.560   122454164.42208  22891512.900    95242131.93607
 15 03 04 02 07  0.0000000  0 17G04G11G16G18G19G21G22G27G32R02R03R04
                                R09R16R17R18R19
  22667955.080   119121024.90708  22667953.840    92821604.98846
  24314244.340   127772229.44406  24314243.020    99562772.73842
  21258614.300   111714789.57709  21258611.540    87050483.55048
  22517017.340   118327908.57309  22517014.360    92203620.27147
  21556249.380   113278881.32109  21556244.940    88269253.43048
  24617779.940   129367305.98308  24617777.540   100805680.51144
  20640264.580   108465515.08809  20640259.700    84518634.68649
  20447095.700   107450276.40109  20447095.160    83727506.66849
  23760533.420   124862519.02408  23760535.200    97295511.76846
  21634025.480   115443383.59209  21634027.860    89789356.78608
  19840743.880   106209174.48608  19840743.760    82607191.01908
  22218442.560   118978809.65508  22218443.980    92539107.92307
  22678572.740   121102316.81308  22678574.540    94190694.83404
  22368309.320   119487481.85508  22368313.300    92934716.49607
  21627132.760   115731169.42908  21627134.480    90013141.28908
  20161297.880   107622498.53009  20161300.600    83706454.11008
  22876975.300   122376399.10808  22876975.420    95181647.84507
 15 03 04 02 07 30.0000000  0 17G04G11G16G18G19G21G22G27G32R02R03R04
                                R09R16R17R18R19
  22654248.440   119048995.96708  22654247.160    92765478.57046
  24297782.520   127685722.56606  24297780.860    99495364.83044
  21270721.700   111778414.52009  21270718.960    87100061.40548
  22529606.720   118394066.66409  22529603.880    92255171.99747
  21545208.940   113220863.50909  21545204.520    88224044.76048
  24630728.300   129435351.07507  24630726.360   100858702.50945
  20641655.200   108472822.45409  20641650.320    84524328.74549
  20443143.620   107429507.84609  20443142.980    83711323.37749
  23738401.600   124746217.18108  23738403.280    97204887.28046
  21649120.960   115523935.61309  21649123.320    89852008.33408
  19833526.180   106170537.46608  19833525.980    82577140.02208
  22194409.040   118850112.35808  22194410.600    92439010.15807
  22678897.720   121104052.81608  22678899.480    94192045.04704
  22384638.700   119574709.95408  22384642.620    93002560.49207
  21636656.440   115782131.09108  21636657.840    90052778.11308
  20157760.700   107603616.86309  20157763.460    83691768.36308
  22862431.700   122298599.56608  22862431.700    95121137.09407
 15 03 04 02 08  0.0000000  0 17G04G11G16G18G19G21G22G27G32R02R03R04
                                R09R16R17R18R19
  22640580.460   118977170.25808  22640579.140    92709510.53446
  24281332.100   127599275.70306  24281330.240    99428003.71744
  21282917.140   111842502.16509  21282914.400    87149999.81248
  22542257.360   118460546.21809  22542254.400    92306974.27647
  21534203.540   113163029.86809  21534199.100    88178979.59748
  24643672.480   129503372.73007  24643669.820   100911706.41244
  20643144.500   108480648.36509  20643139.560    84530426.87149
  20439251.400   107409054.06309  20439250.700    83695385.37349
  23716293.100   124630037.67108  23716294.740    97114358.09746
  21664328.340   115605085.02109  21664330.840    89915124.51908
  19826453.740   106132678.16808  19826453.620    82547693.92008
  22170415.260   118721627.13608  22170416.660    92339077.32007
  22679358.840   121106515.30208  22679360.520    94193960.31604
  22401042.900   119662337.94107  22401046.920    93070715.50607
  21646219.000   115833300.92408  21646220.040    90092576.84008
  20154259.200   107584925.79409  20154261.920    83677230.86908
  22847880.640   122220760.71508  22847880.700    95060595.78807
 15 03 04 02 08 30.0000000  0 17G04G11G16G18G19G21G22G27G32R02R03R04
                                R09R16R17R18R19
  22626952.080   118905552.96308  22626950.760    92653704.87546
  24264894.160   127512894.14806  24264892.300    99360693.48343
  21295201.260   111907055.65409  21295198.500    87200301.20748
  22554969.760   118527350.60409  22554966.880    92359029.61147
  21523234.380   113105386.94709  21523230.000    88134063.04848
  24656613.220   129571376.19108  24656609.980   100964696.11945
  20644733.340   108488997.39009  20644728.320    84536932.60649
  20435420.280   107388921.65709  20435419.640    83679697.78349
  23694209.300   124513988.36408  23694210.940    97023930.39145
  21679648.120   115686833.80909  21679650.620    89978706.91008
  19819527.860   106095603.86608  19819527.940    82518858.36308
  22146462.860   118593363.22808  22146464.100    92239316.60507
  22679956.900   121109708.86108  22679958.740    94196444.19604
  22417522.180   119750366.46107  22417526.140    93139182.05107
  21655821.440   115884685.04708  21655822.240    90132542.23908
  20150794.640   107566432.00409  20150797.260    83662846.79808
  22833323.140   122142888.18208  22833323.420    95000028.28907
 15 03 04 02 09  0.0000000  0 17G04G11G16G18G19G21G22G27G32R02R03R04
                                R09R16R17R18R19
  22613362.760   118834140.90408  22613361.480    92598059.15946
  24248468.160   127426574.88507  24248466.240    99293431.80244
  21307573.000   111972069.41309  21307570.180    87250961.26548
  22567742.800   118594473.64809  22567739.860    92411333.29047
  21512301.140   113047932.73009  21512296.860    88089293.53948
  24669549.880   129639357.73707  24669546.740   101017668.70545
  20646420.880   108497865.23609  20646415.800    84543842.62249
  20431649.860   107369108.49209  20431649.360    83664258.96249
  23672150.180   124398068.39808  23672151.700    96933603.45046
  21695078.740   115769174.51409  21695081.380    90042749.66208
  19812748.260   106059312.59208  19812748.500    82490631.83708
  22122551.940   118465321.33708  22122553.140    92139728.58907
  22680691.020   121113628.81208  22680692.900    94199493.02404
  22434074.920   119838787.35408  22434078.820    93207953.77107
  21665463.400   115936280.27708  21665464.000    90172671.85408
  20147366.600   107548133.14009  20147369.220    83648614.35808
  22818758.660   122064978.48908  22818758.940    94939431.90107
 15 03 04 02 09 30.0000000  0 17G04G11G16G18G19G21G22G27G32R02R03R04
                                R09R16R17R18R19
  22599812.900   118762936.29808  22599811.660    92542575.10047
  24232054.500   127340320.63507  24232052.580    99226220.74944
  21320032.500   112037543.96509  21320029.600    87301980.38048
  22580576.640   118661916.45509  22580573.660    92463886.12047
  21501404.560   112990670.85809  21501400.300    88044673.91648
  24682482.880   129707319.40308  24682479.520   101070625.85944
  20648207.460   108507253.63309  20648202.300    84551158.26049
  20427940.880   107349618.26409  20427940.520    83649071.77549
  23650116.660   124282282.82208  23650118.040    96843381.20445
  21710620.040   115852106.08309  21710622.680    90107251.97608
  19806115.740   106023808.51708  19806116.020    82463017.56008
  22098683.700   118337507.88408  22098684.780    92040318.23107
  22681561.420   121118276.43508  22681563.260    94203107.81504
  22450700.660   119927598.44508  22450704.480    93277028.98807
  21675145.340   115988089.98108  21675146.100    90212968.28208
  20143975.760   107530032.63209  20143978.380    83634536.18608
  22804187.780   121987034.48908  22804187.840    94878808.81307
 15 03 04 02 10  0.0000000  0 17G04G11G16G18G19G21G22G27G32R02R03R04
                                R09R16R17R18R19
  22586302.840   118691940.80608  22586301.660    92487253.97447
  24215653.540   127254132.89307  24215651.600    99159061.53944
  21332579.500   112103478.18909  21332576.500    87353357.68048
  22593471.020   118729677.55409  22593468.200    92516686.97947
  21490545.200   112933604.07309  21490540.860    88000206.29248
  24695412.240   129775262.52908  24695409.100   101123568.50844
  20650093.160   108517163.10809  20650087.960    84558879.93849
  20424293.960   107330453.76509  20424293.640    83634138.40349
  23628109.440   124166635.59308  23628110.800    96753266.76245
  21726271.620   115935626.32309  21726274.340    90172212.15308
  19799630.880   105989094.51608  19799631.100    82436017.79908
  22074859.120   118209928.38208  22074860.080    91941089.83607
  22682568.240   121123652.06108  22682569.860    94207288.82204
  22467398.780   120016796.37208  22467402.580    93346405.04907
  21684867.560   116040116.19108  21684868.360    90253433.07707
  20140622.620   107512133.41209  20140625.260    83620614.57008
  22789610.920   121909058.17608  22789610.940    94818160.59207
 15 03 04 02 10 30.0000000  0 18G04G11G14G16G18G19G21G22G27G32R02R03
                                R04R09R16R17R18R19
  22572831.460   118621148.47808  22572830.380    92432091.15047
  24199264.080   127168005.83307  24199262.120    99091949.60043
  24674899.980   129667477.34507  24674900.140   101039590.51944
  21345212.300   112169863.59609  21345209.260    87405086.55148
  22606424.600   118797749.63109  22606421.820    92569730.14647
  21479722.100   112876727.67909  21479717.660    87955887.03648
  24708336.820   129843180.14407  24708333.600   101176491.39744
  20652076.700   108527586.87309  20652071.440    84567002.34849
  20420708.140   107311610.20909  20420707.800    83619455.11549
  23606127.900   124051123.27908  23606129.200    96663257.42145
  21742031.640   116019725.39709  21742034.360    90237622.53308
  19793292.800   105955166.02808  19793292.880    82409628.98608
  22051077.880   118082580.75308  22051078.660    91842041.76107
  22683709.940   121129748.45608  22683711.360    94212030.46704
  22484167.300   120106370.29408  22484171.100    93416073.54907
  21694629.260   116092353.36808  21694629.940    90294061.98408
  20137306.240   107494430.41709  20137308.940    83606845.56208
  22775026.900   121831043.42208  22775026.900    94757482.46807
 15 03 04 02 11  0.0000000  0 18G04G11G14G16G18G19G21G22G27G32R02R03
                                R04R09R16R17R18R19
  22559401.280   118550572.78208  22559400.260    92377097.15647
  24182888.700   127081953.09307  24182887.080    99024895.57444
  24660686.960   129592787.82007  24660687.080   100981390.96745
  21357933.040   112236711.28609  21357929.960    87457175.64048
  22619439.440   118866143.21909  22619436.560    92623023.87147
  21468937.940   112820056.06809  21468933.380    87911727.35348
  24721258.760   129911086.54007  24721256.020   101229405.33845
  20654160.480   108538537.48109  20654155.140    84575535.30249
  20417186.180   107293102.32109  20417185.840    83605033.39449
  23584175.080   123935761.84508  23584176.220    96573365.64846
  21757902.020   116104412.88409  21757904.600    90303490.57908
  19787104.280   105922038.38308  19787104.360    82383863.05208
  22027343.180   117955482.65408  22027343.920    91743187.78007
  22684988.940   121136578.02108  22684990.180    94217342.33104
  22501007.900   120196329.12607  22501011.600    93486041.44507
  21704432.980   116144815.96608  21704433.920    90334866.20608
  20134029.360   107476938.38809  20134032.040    83593240.65408
  22760438.220   121753004.19308  22760438.360    94696785.31207
 15 03 04 02 11 30.0000000  0 18G04G11G14G16G18G19G21G22G27G32R02R03
                                R04R09R16R17R18R19
  22546009.060   118480196.58508  22546008.040    92322258.60647
  24166524.240   126995957.77707  24166522.580    98957886.30544
  24646472.920   129518091.26708  24646472.400   100923185.96944
  21370738.060   112304002.00509  21370734.960    87509609.95248
  22632511.880   118934838.96609  22632509.080    92676553.01247
  21458189.780   112763573.74309  21458185.080    87867715.15048
  24734175.300   129978963.27207  24734172.160   101282296.35744
  20656341.060   108549996.78509  20656335.660    84584464.63749
  20413725.160   107274914.33509  20413724.780    83590860.94249
  23562248.280   123820536.85208  23562249.260    96483580.18945
  21773878.860   116189668.16909  21773881.580    90369800.22808
  19781062.360   105889695.37608  19781062.380    82358707.39408
  22003652.600   117828620.97908  22003653.340    91644517.67607
  22686401.840   121144122.08608  22686403.120    94223209.90404
  22517916.420   120286650.95607  22517920.100    93556291.65507
  21714275.620   116197486.75308  21714276.660    90375832.34307
  20130788.940   107459641.22509  20130791.620    83579787.31808
  22745841.820   121674923.65208  22745842.040    94636056.02107
 15 03 04 02 12  0.0000000  0 18G04G11G14G16G18G19G21G22G27G32R02R03
                                R04R09R16R17R18R19
  22532656.000   118410026.06208  22532654.980    92267580.31747
  24150172.000   126910026.07107  24150170.240    98890926.59344
  24632259.480   129443396.01907  24632258.400   100864981.91945
  21383628.260   112371740.27409  21383625.160    87562393.00248
  22645642.680   119003841.26009  22645639.720    92730321.03347
  21447478.960   112707288.04109  21447474.240    87823856.16848
  24747087.440   130046816.64207  24747084.280   101335169.11144
  20658619.520   108561970.53309  20658614.120    84593794.83948
  20410326.440   107257053.72609  20410326.040    83576943.58049
  23540349.140   123705457.01208  23540349.940    96393907.82446
  21789962.440   116275493.61009  21789965.240    90436553.33908
  19775168.440   105858144.82708  19775168.420    82334168.09108
  21980008.100   117702005.99708  21980008.740    91546039.42907
  22687949.320   121152385.63308  22687950.940    94229637.09804
  22534893.120   120377337.12008  22534896.880    93626825.22607
  21724158.660   116250373.12908  21724159.660    90416966.17408
  20127586.520   107442546.39909  20127589.160    83566491.33608
  22731238.920   121596808.36808  22731239.240    94575299.71007
 15 03 04 02 12 30.0000000  0 18G04G11G14G16G18G19G21G22G27G32R02R03
                                R04R09R16R17R18R19
  22519343.060   118340066.36109  22519342.060    92213066.30147
  24133832.920   126824163.49507  24133831.440    98824020.77144
  24618047.880   129368709.98908  24618046.300   100806785.10245
  21396603.960   112439928.06909  21396600.920    87615526.32648
  22658832.340   119073152.67709  22658829.200    92784329.91547
  21436806.780   112651205.37509  21436802.100    87780155.39948
  24759995.900   130114651.32007  24759993.300   101388027.23444
  20660996.640   108574462.53809  20660991.260    84603528.87349
  20406991.240   107239526.69309  20406990.740    83563286.15349
  23518479.120   123590529.92508  23518479.720    96304354.48745
  21806153.100   116361890.60509  21806155.920    90503750.99308
  19769423.640   105827392.84808  19769423.640    82310249.90408
  21956411.300   117575646.73408  21956412.000    91447760.09807
  22689632.100   121161372.40708  22689633.820    94236626.81304
  22551938.000   120468387.93507  22551941.900    93697642.42107
  21734083.000   116303480.28808  21734084.000    90458271.71707
  20124423.220   107425660.05709  20124425.860    83553357.52408
  22716630.540   121518663.66408  22716630.900    94514520.54107
 15 03 04 02 13  0.0000000  0 18G04G11G14G16G18G19G21G22G27G32R02R03
                                R04R09R16R17R18R19
  22506069.900   118270315.31909  22506068.860    92158714.87147
  24117506.660   126738368.35907  24117505.140    98757167.46844
  24603838.100   129294034.13808  24603836.360   100748596.20345
  21409664.340   112508560.83509  21409661.340    87669006.38148
  22672080.020   119142769.12409  22672076.620    92838576.48946
  21426173.080   112595325.15109  21426168.520    87736612.37448
  24772900.420   130182465.44508  24772897.880   101440869.41845
  20663471.840   108587469.74709  20663466.520    84613664.36049
  20403719.360   107222332.59009  20403718.780    83549888.14549
  23496638.220   123475756.13208  23496638.820    96214920.57445
  21822449.740   116448853.06809  21822452.900    90571388.44208
  19763827.940   105797439.25508  19763828.040    82286952.67308
  21932862.620   117449545.17408  21932863.420    91349681.18207
  22691449.740   121171078.92808  22691451.200    94244176.29304
  22569049.960   120559796.81808  22569053.940    93768738.10407
  21744048.460   116356807.32208  21744049.340    90499748.28507
  20121298.960   107408981.72209  20121301.540    83540385.47808
  22702016.380   121440487.85908  22702016.640    94453717.15407
 15 03 04 02 13 30.0000000  0 18G04G11G14G16G18G19G21G22G27G32R02R03
                                R04R09R16R17R18R19
  22492836.400   118200772.50509  22492835.300    92104525.68947
  24101193.040   126652640.25107  24101191.400    98690366.40244
  24589630.340   129219370.36308  24589628.400   100690416.65445
  21422809.020   112577636.61509  21422806.080    87722831.64448
  22685385.160   119212687.67109  22685381.700    92893058.45147
  21415578.000   112539648.04809  21415573.620    87693227.62248
  24785800.820   130250258.00707  24785798.680   101493694.76645
  20666044.880   108600990.82709  20666039.560    84624200.26949
  20400510.920   107205472.14209  20400510.320    83536750.13249
  23474826.920   123361137.77908  23474827.420    96125607.79245
  21838851.620   116536377.04009  21838854.620    90639462.65508
  19758381.500   105768284.67508  19758381.780    82264276.89808
  21909362.820   117323705.03108  21909363.740    91251805.59007
  22693401.860   121181503.28108  22693403.240    94252284.11804
  22586228.000   120651558.47407  22586232.020    93840108.15207
  21754055.000   116410354.01808  21754055.940    90541395.68807
  20118213.720   107392511.75209  20118216.240    83527575.50508
  22687396.360   121362280.83208  22687396.680    94392889.49107
 15 03 04 02 14  0.0000000  0 18G04G11G14G16G18G19G21G22G27G32R02R03
                                R04R09R16R17R18R19
  22479642.380   118131437.08309  22479641.200    92050498.12547
  24084891.980   126566978.35708  24084890.260    98623616.97444
  24575424.980   129144720.47108  24575422.860   100632247.96945
  21436037.200   112647151.14909  21436034.340    87776998.79148
  22698747.280   119282905.57309  22698743.640    92947773.70647
  21405021.560   112484174.29309  21405017.320    87650001.34048
  24798697.160   130318027.73708  24798695.220   101546502.32445
  20668715.280   108615023.65809  20668709.960    84635134.94949
  20397366.000   107188945.52609  20397365.380    83523872.25949
  23453045.420   123246676.25908  23453045.760    96036417.20245
  21855357.720   116624457.13709  21855360.980    90707969.35708
  19753084.460   105739928.98508  19753084.760    82242222.49408
  21885912.320   117198129.05908  21885913.320    91154135.46507
  22695488.020   121192642.94707  22695489.600    94260948.26904
  22603470.940   120743666.94607  22603475.040    93911747.96907
  21764102.480   116464119.79708  21764103.460    90583213.49308
  20115167.460   107376250.49209  20115170.020    83514927.85808
  22672770.360   121284041.88308  22672770.660    94332037.00107
 15 03 04 02 14 30.0000000  0 18G04G11G14G16G18G19G21G22G27G32R02R03
                                R04R09R16R17R18R19
  22466488.540   118062313.08209  22466487.340    91996635.29847
  24068604.400   126481386.95307  24068602.720    98556922.41944
  24561223.320   129070091.08208  24561221.220   100574095.28144
  21449349.240   112717106.32609  21449346.440    87831509.29448
  22712166.560   119353424.39709  22712162.980    93002723.42246
  21394504.920   112428909.53209  21394500.760    87606937.89448
  24811589.800   130385778.25107  24811587.600   101599294.90545
  20671483.640   108629571.24409  20671478.320    84646470.72849
  20394285.660   107172758.18509  20394284.980    83511258.74149
  23431295.060   123132378.38608  23431295.260    95947354.11745
  21871968.200   116713093.97709  21871971.320    90776909.11908
  19747937.680   105712377.50508  19747937.940    82220793.57608
  21862512.720   117072825.65708  21862513.820    91056677.33207
  22697708.480   121204500.63707  22697710.300    94270170.88604
  22620778.700   120836121.47608  22620782.780    93983656.92807
  21774191.720   116518109.51608  21774192.920    90625205.46108
  20112161.260   107360203.30409  20112163.860    83502446.71008
  22658139.220   121205775.61508  22658139.520    94271163.23707
 15 03 04 02 15  0.0000000  0 18G04G11G14G16G18G19G21G22G27G32R02R03
                                R04R09R16R17R18R19
  22453374.240   117993396.98109  22453373.020    91942934.46747
  24052329.640   126395862.70908  24052327.980    98490280.21745
  24547025.280   128995481.34507  24547023.020   100515957.84744
  21462744.040   112787496.31809  21462741.280    87886358.61148
  22725641.940   119424238.31409  22725638.360    93057903.09447
  21384027.580   112373851.02709  21384023.380    87564035.16748
  24824477.940   130453505.75707  24824475.260   101652069.62045
  20674349.060   108644629.21709  20674343.800    84658204.20949
  20391269.420   107156907.65609  20391268.680    83498907.67549
  23409575.660   123018242.98908  23409575.820    95858417.64945
  21888681.600   116802279.82909  21888684.940    90846275.86608
  19742940.700   105685627.85108  19742940.980    82199988.30608
  21839164.080   116947795.17908  21839165.320    90959431.48807
  22700062.380   121217070.93808  22700064.200    94279947.78004
  22638149.740   120928913.91208  22638153.880    94055828.68507
  21784322.220   116572319.93808  21784323.440    90667369.10608
  20109194.660   107344367.61909  20109197.260    83490130.06808
  22643502.360   121127478.62108  22643502.840    94210265.59507
 15 03 04 02 15 30.0000000  0 18G04G11G14G16G18G19G21G22G27G32R02R03
                                R04R09R16R17R18R19
  22440299.900   117924690.99209  22440298.680    91889397.37547
  24036068.160   126310408.11608  24036066.480    98423692.28345
  24532831.800   128920896.77908  24532829.480   100457840.05544
  21476221.580   112858321.03209  21476218.780    87941546.68448
  22739173.540   119495347.67809  22739170.020    93113312.98647
  21373590.340   112319002.96909  21373586.060    87521296.43148
  24837362.080   130521212.57007  24837359.800   101704828.07745
  20677311.880   108660199.07209  20677306.720    84670336.57849
  20388318.020   107141397.78609  20388317.240    83486822.06449
  23387888.160   122904275.14808  23387888.360    95769611.74046
  21905497.680   116892013.73109  21905500.740    90916068.92608
  19738094.200   105659683.65408  19738094.340    82179809.50708
  21815867.680   116823044.43508  21815869.000    90862403.21308
  22702550.160   121230355.12808  22702551.820    94290279.93004
  22655583.600   121022041.85908  22655587.800    94128261.41607
  21794494.600   116626754.41408  21794496.080    90709707.01708
  20106268.380   107328747.43909  20106271.020    83477981.05008
  22628860.380   121049154.05908  22628860.960    94149346.52307
 15 03 04 02 16  0.0000000  0 18G04G11G14G16G18G19G21G22G27G32R02R03
                                R04R09R16R17R18R19
  22427264.860   117856191.53409  22427263.640    91836021.18847
  24019819.300   126225019.68808  24019817.480    98357155.88945
  24518642.740   128846335.98107  24518640.880   100399740.80445
  21489780.620   112929574.21809  21489777.800    87997068.62048
  22752760.120   119566746.36309  22752756.520    93168948.30046
  21363192.600   112264362.78909  21363188.300    87478719.66548
  24850241.540   130588894.60507  24850238.920   101757567.36844
  20680371.100   108676275.51309  20680366.040    84682863.66549
  20385430.900   107126225.82109  20385430.120    83474999.74649
  23366232.260   122790473.50308  23366232.640    95680935.32845
  21922414.880   116982287.40509  21922418.040    90986281.74608
  19733397.580   105634541.69908  19733397.620    82160254.66308
  21792623.440   116698573.02708  21792624.820    90765592.18208
  22705170.340   121244347.09007  22705172.060    94301162.54604
  22673078.620   121115496.65908  22673082.860    94200948.35607
  21804708.360   116681409.47508  21804709.760    90752216.48008
  20103381.960   107313339.83209  20103384.640    83465997.34908
  22614212.540   120970798.11508  22614213.140    94088403.04007
 15 03 04 02 16 30.0000000  0 18G04G11G14G16G18G19G21G22G27G32R02R03
                                R04R09R16R17R18R19
  22414270.180   117787904.40509  22414269.020    91782810.48047
  24003584.220   126139703.75408  24003582.300    98290676.00245
  24504459.820   128771807.98107  24504458.640   100341667.13944
  21503421.900   113001259.60209  21503419.060    88052927.34148
  22766402.540   119638438.11609  22766398.960    93224812.00046
  21352835.860   112209938.00509  21352831.540    87436310.75348
  24863117.240   130656557.95507  24863114.820   101810291.99945
  20683527.700   108692863.61609  20683522.760    84695789.46949
  20382609.480   107111399.18509  20382608.740    83463446.52949
  23344609.660   122676846.76108  23344610.080    95592395.16345
  21939433.620   117073103.45808  21939436.860    91056916.44008
  19728852.280   105610209.80608  19728852.140    82141329.87608
  21769433.320   116574391.66508  21769434.820    90669006.75708
  22707924.080   121259051.91608  22707925.840    94312599.61504
  22690635.100   121209279.65208  22690639.360    94273890.54107
  21814964.620   116736291.88908  21814965.840    90794902.77508
  20100536.800   107298152.37209  20100539.520    83454184.89308
  22599560.180   120892417.68208  22599560.660    94027440.49907
 15 03 04 02 17  0.0000000  0 18G04G11G14G16G18G19G21G22G27G32R02R03
                                R04R09R16R17R18R19
  22401315.320   117719826.39009  22401314.160    91729762.70147
  23987362.220   126054456.95708  23987360.440    98224249.97144
  24490283.180   128697311.93807  24490282.680   100283618.30645
  21517144.260   113073371.18209  21517141.440    88109118.15248
  22780099.720   119710417.53809  22780096.060    93280899.85146
  21342519.720   112155726.40209  21342515.400    87394067.95248
  24875988.840   130724198.79108  24875986.460   101862999.11544
  20686780.820   108709958.96109  20686775.980    84709110.51649
  20379853.380   107096915.70609  20379852.680    83452160.69349
  23323020.100   122563393.97208  23323020.560    95503990.56646
  21956552.760   117164454.54109  21956555.740    91127967.28808
  19724457.640   105586684.72708  19724457.380    82123032.60508
  21746297.440   116450500.57308  21746299.120    90572647.08608
  22710810.420   121274464.18308  22710812.060    94324586.91504
  22708251.460   121303382.70108  22708255.800    94347081.65307
  21825262.680   116791398.79808  21825263.880    90837763.67908
  20097732.480   107283182.79909  20097735.160    83442541.87908
  22584902.700   120814009.61708  22584903.040    93966456.46307
 15 03 04 02 17 30.0000000  0 18G04G11G14G16G18G19G21G22G27G32R02R03
                                R04R09R16R17R18R19
  22388399.620   117651954.24409  22388398.380    91676875.33847
  23971152.920   125969276.85508  23971150.980    98157875.91945
  24476112.980   128622847.43908  24476112.820   100225594.07445
  21530946.700   113145903.58909  21530943.900    88165636.89048
  22793850.700   119782679.10809  22793847.120    93337207.56546
  21332243.840   112101726.19709  21332239.540    87351989.87748
  24888855.580   130791813.70606  24888853.180   101915686.04444
  20690129.640   108727557.51309  20690124.880    84722823.67749
  20377162.220   107082773.58809  20377161.520    83441140.86149
  23301463.620   122450114.88208  23301464.080    95415721.31146
  21973770.820   117256333.14509  21973773.840    91199428.39508
  19720213.280   105563964.58408  19720213.020    82105361.39108
  21723215.980   116326900.89608  21723217.700    90476514.08508
  22713828.340   121290579.08008  22713829.880    94337120.70504
  22725926.320   121397797.92208  22725930.640    94420515.57207
  21835602.260   116846727.64208  21835603.460    90880797.21408
  20094968.620   107268429.38309  20094971.360    83431067.01308
  22570239.540   120735571.22108  22570239.660    93905448.83707
 15 03 04 02 18  0.0000000  0 18G04G11G14G16G18G19G21G22G27G32R02R03
                                R04R09R16R17R18R19
  22375523.600   117584290.64908  22375522.300    91624150.48647
  23954956.780   125884165.77808  23954954.740    98091555.64245
  24461950.100   128548419.78308  24461949.740   100167598.56444
  21544829.160   113218856.31109  21544826.360    88222483.13648
  22807655.400   119855223.26209  22807651.760    93393735.46346
  21322008.960   112047941.40309  21322004.640    87310079.65248
  24901717.760   130859404.88607  24901715.700   101968354.44345
  20693574.460   108745660.62109  20693569.760    84736929.99349
  20374536.680   107068976.37909  20374536.000    83430389.77949
  23279941.100   122337014.30908  23279941.560    95327591.16845
  21991087.540   117348738.29609  21991090.800    91271299.04608
  19716119.800   105542052.54208  19716119.680    82088318.70008
  21700190.120   116203598.90008  21700191.760    90380612.58708
  22716977.980   121307397.32808  22716979.500    94350201.54504
  22743659.160   121492522.81008  22743663.520    94494190.32607
  21845983.780   116902281.20408  21845985.140    90924005.50908
  20092245.940   107253895.76209  20092248.720    83419763.08108
  22555571.300   120657105.41308  22555571.300    93844419.89807
 15 03 04 02 18 30.0000000  0 18G04G11G14G16G18G19G21G22G27G32R02R03
                                R04R09R16R17R18R19
  22362688.100   117516840.13008  22362686.880    91571591.67347
  23938774.720   125799128.77008  23938772.620    98025293.09445
  24447795.940   128474036.34108  24447795.020   100109637.46244
  21558792.080   113292232.06409  21558789.340    88279659.03348
  22821514.300   119928052.04909  22821510.620    93450485.17647
  21311816.140   111994377.98509  21311811.860    87268341.94548
  24914576.180   130926977.28507  24914573.960   102021008.27944
  20697115.960   108764271.47109  20697111.240    84751431.96449
  20371977.920   107055530.06309  20371977.240    83419912.13449
  23258453.940   122224099.50408  23258454.400    95239605.73945
  22008503.120   117441670.66109  22008506.300    91343579.77908
  19712178.400   105520954.37208  19712178.400    82071909.02908
  21677221.580   116080603.75108  21677223.180    90284949.76008
  22720259.900   121324921.73008  22720261.420    94363831.61304
  22761449.940   121587557.41508  22761454.360    94568105.97707
  21856408.280   116958064.90308  21856409.360    90967392.82207
  20089565.600   107239587.96709  20089568.320    83408634.79808
  22540898.840   120578617.63708  22540898.760    93783373.89807
 15 03 04 02 19  0.0000000  0 18G04G11G14G16G18G19G21G22G27G32R02R03
                                R04R09R16R17R18R19
  22349891.880   117449595.94508  22349890.720    91519193.65147
  23922605.540   125714159.46608  23922603.500    97959083.29845
  24433649.460   128399693.43008  24433647.940   100051707.97745
  21572833.740   113366021.62709  21572831.000    88337157.37148
  22835425.800   120001157.03109  22835422.100    93507450.08146
  21301664.380   111941030.55409  21301660.160    87226772.53548
  24927429.940   130994523.89807  24927427.640   102073641.97644
  20700752.680   108783382.49009  20700747.880    84766323.67349
  20369484.920   107042429.33009  20369484.240    83409703.77149
  23237001.380   122111366.54908  23237001.900    95151762.03846
  22026015.520   117535119.69809  22026018.580    91416262.38307
  19708387.960   105500664.06908  19708388.060    82056127.69308
  21654309.860   115957912.56908  21654311.380    90189523.34108
  22723672.480   121343144.05508  22723674.200    94378004.49104
  22779296.560   121682890.26308  22779301.020    94642253.59107
  21866874.720   117014072.76108  21866875.620    91010954.48307
  20086926.640   107225500.78209  20086929.300    83397678.10308
  22526221.100   120500101.70808  22526220.960    93722305.96207
 15 03 04 02 19 30.0000000  0 18G04G11G14G16G18G19G21G22G27G32R02R03
                                R04R09R16R17R18R19
  22337135.860   117382562.85908  22337134.760    91466960.10346
  23906450.260   125629262.82508  23906448.380    97892930.12545
  24419512.040   128325398.48708  24419510.080    99993815.88745
  21586954.520   113440227.06609  21586951.840    88394979.76148
  22849390.320   120074540.57709  22849386.680    93564632.04846
  21291554.980   111887905.38309  21291550.740    87185376.30748
  24940279.620   131062049.18807  24940277.440   102126258.99745
  20704485.320   108802997.09909  20704480.360    84781607.78649
  20367058.820   107029679.96509  20367058.160    83399769.20049
  23215584.820   121998822.56808  23215585.320    95064065.60346
  22043624.700   117629085.96609  22043627.820    91489347.19808
  19704749.500   105481187.10308  19704749.560    82040978.95108
  21631456.500   115835534.18508  21631458.000    90094340.23208
  22727215.920   121362066.75008  22727217.760    94392722.13504
  22797199.020   121778521.34708  22797203.500    94716633.16407
  21877383.980   117070309.70108  21877384.820    91054694.30708
  20084330.100   107211640.04009  20084332.720    83386897.52808
  22511539.020   120421562.68608  22511539.040    93661220.07407
 15 03 04 02 20  0.0000000  0 18G04G11G14G16G18G19G21G22G27G32R02R03
                                R04R09R16R17R18R19
  22324419.940   117315740.29108  22324418.740    91414890.61047
  23890308.660   125544438.27608  23890306.780    97826833.12945
  24405384.000   128251153.55208  24405381.420    99935962.77344
  21601153.800   113514844.91009  21601151.120    88453123.51248
  22863407.220   120148199.65309  22863403.540    93622028.73246
  21281488.100   111835003.13809  21281483.760    87144153.78948
  24953125.160   131129552.10508  24953122.340   102178858.73044
  20708313.460   108823113.62709  20708308.360    84797283.00148
  20364699.700   107017282.59609  20364699.060    83390108.91049
  23194204.640   121886469.48408  23194205.120    94976517.89346
  22061329.880   117723564.79109  22061332.920    91562830.72108
  19701263.000   105462523.68408  19701263.040    82026462.97108
  21608662.200   115713472.03808  21608663.740    89999403.05508
  22730890.300   121381687.62808  22730891.820    94407982.79604
  22815156.320   121874445.28908  22815160.780    94791240.52607
  21887936.100   117126776.06608  21887937.060    91098612.57608
  20081776.080   107198006.46509  20081778.720    83376293.63708
  22496852.600   120343000.59008  22496852.980    93600116.26107
 15 03 04 02 20 30.0000000  0 18G04G11G14G16G18G19G21G22G27G32R02R03
                                R04R09R16R17R18R19
  22311744.060   117249128.28108  22311742.780    91362985.17647
  23874180.880   125459686.74808  23874179.020    97760793.01245
  24391265.820   128176961.40008  24391262.720    99878150.77244
  21615431.260   113589873.30009  21615428.540    88511587.17748
  22877476.160   120222132.50209  22877472.700    93679638.73146
  21271463.940   111782325.49309  21271459.560    87103106.28248
  24965966.580   131197033.25307  24965963.880   102231441.40645
  20712236.840   108843731.03109  20712231.660    84813348.51348
  20362407.860   107005238.73509  20362407.200    83380724.08049
  23172861.360   121774310.14008  23172861.760    94889121.14546
  22079130.580   117818552.57508  22079133.440    91636710.09707
  19697928.600   105444674.49708  19697928.540    82012580.27508
  21585927.740   115591730.44908  21585929.300    89904715.20908
  22734695.340   121402004.87108  22734696.620    94423785.03704
  22833167.580   121970657.29408  22833171.960    94866071.91707
  21898531.120   117183472.30308  21898532.380    91142709.62408
  20079264.960   107184601.82409  20079267.620    83365867.80208
  22482162.000   120264416.25708  22482162.420    93538995.13007
 15 03 04 02 21  0.0000000  0 18G04G11G14G16G18G19G21G22G27G32R02R03
                                R04R09R16R17R18R19
  22299108.000   117182725.48708  22299106.600    91311242.76246
  23858066.700   125375006.63908  23858064.740    97694808.55445
  24377157.940   128102823.95108  24377154.500    99820381.36044
  21629786.000   113665307.65009  21629783.220    88570367.15948
  22891596.460   120296335.37409  22891593.060    93737459.13646
  21261482.480   111729872.34609  21261478.120    87062233.70848
  24978803.260   131264490.50407  24978800.740   102284005.37144
  20716254.980   108864846.53609  20716249.740    84829802.15149
  20360183.200   106993547.99909  20360182.500    83371614.41449
  23151555.220   121662345.54508  23151555.420    94801876.10246
  22097025.760   117914043.81709  22097028.200    91710981.09307
  19694746.120   105427638.72108  19694746.040    81999330.24008
  21563253.620   115470311.84408  21563255.240    89810278.57108
  22738629.900   121423014.70808  22738631.500    94440126.01504
  22851231.640   122067151.34408  22851235.980    94941122.66207
  21909169.000   117240397.50708  21909170.380    91186984.76408
  20076796.700   107171425.65009  20076799.360    83355619.65808
  22467467.100   120185808.74808  22467467.380    93477855.96007
 15 03 04 02 21 30.0000000  0 18G04G11G14G16G18G19G21G22G27G32R02R03
                                R04R09R16R17R18R19
  22286512.020   117116533.20809  22286510.560    91259664.38946
  23841966.460   125290399.62808  23841964.340    97628881.06045
  24363060.920   128028744.79107  24363057.360    99762657.36344
  21644217.860   113741147.06609  21644215.000    88629462.78948
  22905767.900   120370807.17509  22905764.620    93795489.08446
  21251544.200   111677646.40609  21251539.940    87021538.18648
  24991635.880   131331925.45007  24991632.860   102336552.13744
  20720367.980   108886460.46009  20720362.620    84846644.17848
  20358026.260   106982212.97709  20358025.460    83362781.93349
  23130286.900   121550579.65308  23130286.920    94714785.94346
  22115014.700   118010035.81009  22115017.040    91785641.47207
  19691715.840   105411417.91508  19691715.860    81986714.07308
  21540640.820   115349221.49608  21540642.300    89716097.24308
  22742693.820   121444716.73508  22742695.680    94457005.36504
  22869347.840   122163923.93008  22869352.180    95016390.06107
  21919849.900   117297553.51908  21919851.360    91231439.44207
  20074371.800   107158480.79209  20074374.380    83345551.43808
  22452768.200   120107179.84108  22452768.460    93416700.16707
 15 03 04 02 22  0.0000000  0 18G04G11G14G16G18G19G21G22G27G32R02R03
                                R04R09R16R17R18R19
  22273956.360   117050552.78008  22273954.920    91208251.08947
  23825880.460   125205867.46308  23825878.280    97563011.89645
  24348975.700   127954728.23408  24348972.500    99704982.18545
  21658726.680   113817390.95909  21658723.780    88688873.59948
  22919990.400   120445547.00909  22919987.340    93853727.91646
  21241649.600   111625650.41209  21241645.460    86981021.83448
  25004464.280   131399338.95807  25004461.120   102389082.06744
  20724575.880   108908572.85309  20724570.380    84863874.61648
  20355937.460   106971236.28009  20355936.600    83354228.65649
  23109057.180   121439016.45109  23109057.020    94627853.71646
  22133097.060   118106525.91808  22133099.260    91860689.36008
  19688838.260   105396014.55808  19688838.460    81974733.69708
  21518090.340   115228465.09608  21518091.800    89622175.66508
  22746887.360   121467110.33908  22746888.900    94474422.59504
  22887515.500   122260971.57908  22887519.860    95091871.39107
  21930574.400   117354942.56508  21930576.120    91276075.33208
  20071990.720   107145769.84909  20071993.220    83335665.14908
  22438065.620   120028531.42508  22438065.940    93355529.18907
 15 03 04 02 22 30.0000000  0 18G04G11G14G16G18G19G21G22G27G32R02R03
                                R04R09R16R17R18R19
  22261440.520   116984781.81708  22261439.120    91157000.99947
  23809808.260   125121407.90808  23809806.120    97497199.28845
  24334902.420   127880774.98907  24334899.880    99647356.30344
  21673311.380   113894033.72609  21673308.440    88748595.20948
  22934263.020   120520550.64809  22934260.080    93912172.29846
  21231798.640   111573883.46309  21231794.540    86940683.95548
  25017288.260   131466728.77008  25017285.040   102441593.56944
  20728877.900   108931179.85009  20728872.340    84881490.45049
  20353916.640   106960616.79709  20353915.760    83345953.71849
  23087866.040   121327656.15108  23087865.640    94541079.57546
  22151271.560   118203507.69209  22151273.680    91936119.59607
  19686113.080   105381426.44208  19686113.380    81963387.39108
  21495602.520   115108044.15908  21495603.960    89528514.97608
  22751209.760   121490191.14708  22751210.940    94492374.29204
  22905733.360   122358287.22008  22905737.700    95167561.14507
  21941341.980   117412562.53108  21941343.860    91320890.83808
  20069653.280   107133292.03009  20069655.700    83325960.17008
  22423359.120   119949862.04608  22423359.480    93294341.91007
 15 03 04 02 23  0.0000000  0 17G04G11G14G16G18G19G22G27G32R02R03R04
                                R09R16R17R18R19
  22248964.640   116919220.85908  22248963.280    91105914.56847
  23793750.020   125037021.87308  23793747.980    97431444.00845
  24320841.840   127806887.85308  24320840.060    99589781.95044
  21687971.600   113971073.68109  21687968.680    88808626.32648
  22948585.520   120595816.43209  22948583.040    93970820.93246
  21221991.680   111522347.42709  21221987.620    86900526.02248
  20733273.900   108954280.80209  20733268.340    84899491.19848
  20351964.080   106950356.18509  20351963.220    83337958.43249
  23066714.040   121216501.75108  23066713.520    94454465.87246
  22169537.460   118300977.96809  22169539.640    92011929.78908
  19683540.320   105367654.48908  19683540.700    81952675.88108
  21473178.340   114987963.51208  21473179.740    89435118.97508
  22755660.300   121513957.28508  22755661.840    94510859.07204
  22924000.560   122455866.55708  22924004.940    95243456.00007
  21952152.820   117470414.38708  21952154.780    91365886.69007
  20067359.760   107121049.13409  20067362.200    83316437.91808
  22408648.940   119871172.91108  22408649.420    93233139.29007
