     2.11           OBSERVATION DATA    M                   RINEX VERSION / TYPE
SPIDER V4,0,0,3554                      2015 03 19 03:15    PGM / RUN BY / DATE 
OBHM                                                        MARKER NAME         
OBHM                                                        MARKER NUMBER       
                                                            OBSERVER / AGENCY   
496638              LEICA GRX1200+GNSS  8.20/4.007          REC # / TYPE / VERS 
10321015            LEIAR25         NONE                    ANT # / TYPE        
  5268006.0133   -44062.8765  3585543.8986                  APPROX POSITION XYZ 
        0.1200        0.0000        0.0000                  ANTENNA: DELTA H/E/N
     1     1                                                WAVELENGTH FACT L1/2
     4    C1    L1    P2    L2                              # / TYPES OF OBSERV 
    30.000                                                  INTERVAL            
  2015    03    04    00    00    0.0000000     GPS         TIME OF FIRST OBS   
  2015    03    04    23    59   30.0000000     GPS         TIME OF LAST OBS    
    16                                                      LEAP SECONDS        
    54                                                      # OF SATELLITES     
   G 1   845   845   845   845                              PRN / # OF OBS      
   G 2   920   920   918   918                              PRN / # OF OBS      
   G 3   842   842   842   842                              PRN / # OF OBS      
   G 4   853   853   853   853                              PRN / # OF OBS      
   G 5   682   682   682   682                              PRN / # OF OBS      
   G 6   645   645   645   645                              PRN / # OF OBS      
   G 7   740   740   740   740                              PRN / # OF OBS      
   G 9   780   780   780   780                              PRN / # OF OBS      
   G10   796   796   795   795                              PRN / # OF OBS      
   G11   809   809   809   809                              PRN / # OF OBS      
   G12   812   812   812   812                              PRN / # OF OBS      
   G13   833   833   833   833                              PRN / # OF OBS      
   G14   929   929   929   929                              PRN / # OF OBS      
   G15   743   743   743   743                              PRN / # OF OBS      
   G16   702   702   702   702                              PRN / # OF OBS      
   G17   925   924   924   924                              PRN / # OF OBS      
   G18   945   943   943   943                              PRN / # OF OBS      
   G19   803   803   802   802                              PRN / # OF OBS      
   G20   806   806   806   806                              PRN / # OF OBS      
   G21   695   679   669   662                              PRN / # OF OBS      
   G22   817   817   817   817                              PRN / # OF OBS      
   G23   723   722   722   722                              PRN / # OF OBS      
   G24   853   853   853   853                              PRN / # OF OBS      
   G25   862   861   861   861                              PRN / # OF OBS      
   G27   843   843   843   843                              PRN / # OF OBS      
   G28   917   917   917   917                              PRN / # OF OBS      
   G29   738   738   738   738                              PRN / # OF OBS      
   G30   688   688   688   688                              PRN / # OF OBS      
   G31   747   744   738   736                              PRN / # OF OBS      
   G32   735   735   735   735                              PRN / # OF OBS      
   R 1   694   694   694   694                              PRN / # OF OBS      
   R 2   945   945   945   934                              PRN / # OF OBS      
   R 3   980   980   980   979                              PRN / # OF OBS      
   R 4   875   875   874   874                              PRN / # OF OBS      
   R 5   653   653   653   653                              PRN / # OF OBS      
   R 6   763   763   763   763                              PRN / # OF OBS      
   R 7   788   788   788   788                              PRN / # OF OBS      
   R 8   707   707   707   704                              PRN / # OF OBS      
   R 9   899   899   898   892                              PRN / # OF OBS      
   R10   663   663   663   663                              PRN / # OF OBS      
   R11   644   644   644   644                              PRN / # OF OBS      
   R12   758   758   758   758                              PRN / # OF OBS      
   R13   787   787   786   786                              PRN / # OF OBS      
   R14   740   740   740   740                              PRN / # OF OBS      
   R15   958   958   957   955                              PRN / # OF OBS      
   R16  1012  1012  1011  1011                              PRN / # OF OBS      
   R17   929   929   929   929                              PRN / # OF OBS      
   R18  1000  1000   985   985                              PRN / # OF OBS      
   R19   858   858   858   858                              PRN / # OF OBS      
   R20   605   605   604   604                              PRN / # OF OBS      
   R21   741   741   740   740                              PRN / # OF OBS      
   R22   822   822   822   817                              PRN / # OF OBS      
   R23   800   800   795   794                              PRN / # OF OBS      
   R24   672   672   672   672                              PRN / # OF OBS      
BIT 2 OF LLI FLAGS DATA COLLECTED UNDER A/S CONDITION       COMMENT             
SNR is mapped to RINEX snr flag value [2-9]                 COMMENT             
Lx:     = 25dBHz -> 1; 26-27dBHz -> 2; 28-31dBHz -> 3       COMMENT             
       32-35dBHz -> 4; 36-38dBHz -> 5; 39-41dBHz -> 6       COMMENT             
       42-44dBHz -> 7; 45-48dBHz -> 8; >=49dBHz -> 9        COMMENT             
                                                            END OF HEADER       
 15 03 04 00 00  0.0000000  0  7G16G18G19G21G22G27G31
  21165346.080   111224669.66109  21165343.360    86668570.88348
  22493193.180   118202667.97709  22493191.220    92106040.21547
  24288563.660   127637279.28708  24288562.440    99457620.98146
  21814486.900   114635915.10009  21814483.740    89326680.34748
  23350972.780   122710371.62009  23350972.360    95618543.09147
  22172966.120   116519893.12309  22172966.300    90794777.80348
  23284543.280   122361018.36209  23284545.420    95346214.85347
 15 03 04 00 00 30.0000000  0  7G16G18G19G21G22G27G31
  21154445.000   111167384.55009  21154442.380    86623933.14748
  22484428.160   118156607.09209  22484426.140    92070148.65547
  24274065.140   127561089.33908  24274063.840    99398252.34846
  21824881.300   114690537.85909  21824878.140    89369243.53248
  23334256.020   122622525.33108  23334255.460    95550091.74647
  22162784.140   116466387.59809  22162784.460    90753085.21848
  23302900.960   122457486.96109  23302903.200    95421384.72347
 15 03 04 00 01  0.0000000  0  7G16G18G19G21G22G27G31
  21143603.900   111110414.48509  21143601.320    86579540.88448
  22475730.800   118110902.11009  22475728.720    92034534.41147
  24259585.240   127484997.07708  24259583.820    99338959.82446
  21835326.520   114745427.85308  21835323.340    89412014.94348
  23317556.400   122534769.03408  23317555.700    95481710.52147
  22152626.040   116413007.48109  22152626.480    90711490.35048
  23321279.300   122554064.01408  23321281.680    95496639.08047
 15 03 04 00 01 30.0000000  0  7G16G18G19G21G22G27G31
  21132823.340   111053762.53309  21132820.860    86535396.51648
  22467101.780   118065556.28309  22467099.720    91999200.04147
  24245124.100   127409003.74608  24245122.620    99279744.39546
  21845822.460   114800584.48708  21845819.320    89454994.13748
  23300874.640   122447106.69008  23300873.780    95413402.51047
  22142492.140   116359754.05009  22142492.640    90669994.20348
  23339677.980   122650747.94008  23339680.500    95571976.70547
 15 03 04 00 02  0.0000000  0  7G16G18G19G21G22G27G31
  21122104.160   110997433.03309  21122101.740    86491503.41348
  22458541.960   118020573.96709  22458539.860    91964148.93247
  24230682.120   127333111.30508  24230680.600    99220607.56946
  21856369.180   114856008.09109  21856366.040    89498181.36848
  23284211.580   122359543.24008  23284210.740    95345171.56347
  22132382.900   116306629.36909  22132383.300    90628598.39748
  23358096.800   122747537.54008  23358099.420    95647396.67147
 15 03 04 00 02 30.0000000  0  7G16G18G19G21G22G27G31
  21111446.440   110941426.33109  21111444.060    86447861.83048
  22450051.340   117975955.35009  22450049.220    91929381.21347
  24216259.100   127257318.33008  24216257.460    99161548.23546
  21866965.860   114911694.47708  21866962.780    89541573.35148
  23267567.480   122272079.66208  23267566.640    95277018.39847
  22122297.940   116253631.65409  22122298.140    90587301.50548
  23376535.020   122844428.80708  23376537.700    95722895.82747
 15 03 04 00 03  0.0000000  0  7G16G18G19G21G22G27G31
  21100850.920   110885746.26609  21100848.520    86404474.78148
  22441630.560   117931703.96009  22441628.420    91894899.65847
  24201855.260   127181626.05308  24201853.540    99102567.35846
  21877612.680   114967644.14309  21877609.640    89585170.49448
  23250943.260   122184720.52008  23250942.520    95208946.64347
  22112237.420   116200762.46809  22112237.440    90546104.77448
  23394992.220   122941420.08808  23394995.020    95798472.90147
 15 03 04 00 03 30.0000000  0  7G16G18G19G21G22G27G31
  21090317.380   110830391.74109  21090314.960    86361341.39048
  22433279.460   117887818.75709  22433277.220    91860703.43847
  24187470.060   127106031.75508  24187468.260    99043662.84446
  21888308.660   115023851.87409  21888305.600    89628968.72648
  23234338.900   122097465.44008  23234338.120    95140955.93847
  22102200.720   116148018.71209  22102200.620    90505005.77448
  23413467.360   123038505.65108  23413470.320    95874123.41947
 15 03 04 00 04  0.0000000  0  7G16G18G19G21G22G27G31
  21079846.760   110775367.79609  21079844.260    86318465.59548
  22424998.940   117844304.68809  22424996.700    91826796.40647
  24173103.960   127030537.75008  24173102.060    98984836.46346
  21899053.940   115080318.60709  21899050.840    89672968.77348
  23217755.420   122010319.77308  23217754.580    95073050.47747
  22092188.280   116095402.98809  22092188.160    90464006.53448
  23431960.380   123135685.12008  23431963.520    95949847.08447
 15 03 04 00 04 30.0000000  0  7G16G18G19G21G22G27G31
  21069439.060   110720674.74009  21069436.520    86275847.65048
  22416789.080   117801162.10309  22416786.860    91793178.85947
  24158756.700   126955142.59008  24158754.680    98926087.11046
  21909847.960   115137041.24909  21909844.840    89717168.23748
  23201193.020   121923284.67808  23201192.080    95005231.18247
  22082199.820   116042913.79409  22082199.760    90423105.90748
  23450470.520   123232954.23408  23450473.780    96025640.59747
 15 03 04 00 05  0.0000000  0  7G16G18G19G21G22G27G31
  21059094.940   110666315.90709  21059092.360    86233490.12248
  22408650.400   117758393.99909  22408648.340    91759853.11147
  24144428.360   126879847.19908  24144426.260    98867415.49046
  21920690.500   115194018.65409  21920687.260    89761566.21048
  23184652.440   121836364.19508  23184651.380    94937501.17547
  22072235.560   115990552.04209  22072235.580    90382304.57348
  23468997.320   123330310.76808  23469000.600    96101502.19947
 15 03 04 00 05 30.0000000  0  7G16G18G19G21G22G27G31
  21048814.960   110612294.41009  21048812.380    86191395.46348
  22400583.580   117716003.38409  22400581.560    91726821.49547
  24130119.200   126804652.66708  24130117.100    98808822.46346
  21931581.300   115251249.91509  21931578.040    89806161.99648
  23168134.280   121749561.78408  23168133.140    94869863.18547
  22062295.760   115938318.74209  22062295.860    90341603.33148
  23487540.480   123427752.96308  23487543.760    96177430.54547
 15 03 04 00 06  0.0000000  0  7G16G18G19G21G22G27G31
  21038598.980   110558609.39109  21038596.420    86149562.98948
  22392588.480   117673989.42009  22392586.460    91694083.38247
  24115828.700   126729556.17408  24115826.620    98750305.83446
  21942519.520   115308730.45208  21942516.280    89850952.01748
  23151638.600   121662877.82208  23151637.440    94802317.48847
  22052379.940   115886211.09809  22052380.080    90300999.99248
  23506098.880   123525275.26708  23506102.180    96253421.28847
 15 03 04 00 06 30.0000000  0  7G16G18G19G21G22G27G31
  21028448.080   110505266.18609  21028445.500    86107996.85748
  22384666.040   117632357.18409  22384664.020    91661642.70847
  24101557.420   126654560.80908  24101555.300    98691867.99846
  21953505.220   115366460.78708  21953501.980    89895936.69048
  23135166.400   121576317.58708  23135165.260    94734868.18847
  22042488.600   115834232.06509  22042488.820    90260496.87648
  23524672.600   123622877.89208  23524675.960    96329474.59747
 15 03 04 00 07  0.0000000  0  7G16G18G19G21G22G27G31
  21018362.020   110452263.66109  21018359.380    86066696.20148
  22376816.020   117591105.39509  22376813.980    91629498.49947
  24087304.760   126579663.12708  24087302.600    98633506.28446
  21964537.480   115424436.09108  21964534.320    89941112.25347
  23118717.820   121489881.33508  23118716.640    94667515.50247
  22032621.160   115782378.52609  22032621.440    90220091.55648
  23543260.420   123720554.67908  23543263.940    96405585.69547
 15 03 04 00 07 30.0000000  0  7G16G18G19G21G22G27G31
  21008341.680   110399606.35609  21008339.020    86025664.54348
  22369039.220   117550238.29209  22369037.160    91597654.03547
  24073071.160   126504865.61608  24073069.000    98575222.61646
  21975616.560   115482657.79108  21975613.540    89986479.81147
  23102293.800   121403573.87808  23102292.540    94600263.16747
  22022778.060   115730652.79109  22022778.380    90179785.81948
  23561862.260   123818305.00708  23561865.880    96481754.05846
 15 03 04 00 08  0.0000000  0  7G16G18G19G21G22G27G31
  20998386.900   110347293.61009  20998384.180    85984901.36648
  22361335.440   117509755.06309  22361333.460    91566108.69647
  24058856.180   126430165.62908  24058853.860    98517014.93446
  21986741.460   115541120.41508  21986738.580    90032035.09947
  23085894.500   121317395.37609  23085893.000    94533111.29347
  22012958.840   115679052.13409  22012959.080    90139577.54648
  23580477.020   123916123.22508  23580480.720    96557975.30947
 15 03 04 00 08 30.0000000  0  7G16G18G19G21G22G27G31
  20988498.740   110295331.05809  20988496.000    85944411.07848
  22353705.740   117469661.23109  22353703.840    91534866.78647
  24044660.420   126355566.54608  24044658.160    98458885.87946
  21997912.640   115599825.80108  21997909.840    90077779.55947
  23069520.960   121231352.10009  23069519.200    94466064.79347
  22003164.120   115627580.16609  22003164.260    90099469.55348
  23599104.920   124014010.46808  23599108.760    96634250.33946
 15 03 04 00 09  0.0000000  0  7G16G18G19G21G22G27G31
  20978677.300   110243718.93509  20978674.520    85904193.84148
  22346150.180   117429956.65009  22346148.240    91503928.18647
  24030483.460   126281066.37608  24030481.240    98400833.90746
  22009129.300   115658769.97308  22009126.480    90123710.07747
  23053173.280   121145444.60108  23053171.240    94399124.07147
  21993393.520   115576234.81209  21993393.500    90059460.20748
  23617744.940   124111961.53708  23617749.000    96710575.07146
 15 03 04 00 09 30.0000000  0  7G16G18G19G21G22G27G31
  20968922.600   110192457.65109  20968919.820    85864249.99248
  22338668.820   117390641.85609  22338666.820    91473293.32347
  24016325.080   126206663.57608  24016322.840    98342857.79746
  22020390.960   115717950.22008  22020388.040    90169824.55348
  23036851.740   121059674.55309  23036849.620    94332290.46847
  21983646.740   115525014.63509  21983646.540    90019548.39948
  23636396.240   124209971.82408  23636400.500    96786945.94946
 15 03 04 00 10  0.0000000  0  7G16G18G19G21G22G27G31
  20959235.640   110141552.35609  20959232.880    85824583.53448
  22331262.520   117351721.62609  22331260.440    91442965.90447
  24002185.820   126132361.09208  24002183.540    98284959.85246
  22031697.660   115777367.07408  22031694.660    90216123.40147
  23020557.320   120974047.22909  23020555.180    94265568.07047
  21973924.320   115473922.68409  21973924.020    89979736.50848
  23655059.000   124308042.26508  23655063.420    96863363.67547
 15 03 04 00 10 30.0000000  0  7G16G18G19G21G22G27G31
  20949616.560   110091003.90209  20949613.860    85785195.13948
  22323931.420   117313196.34909  22323929.200    91412946.24447
  23988065.380   126058157.69008  23988062.940    98227139.11146
  22043048.840   115837017.52609  22043045.700    90262604.27447
  23004290.420   120888564.60509  23004288.280    94198958.42647
  21964225.980   115422957.62909  21964225.700    89940023.50348
  23673732.360   124406168.27108  23673736.960    96939824.69546
 15 03 04 00 11  0.0000000  0  7G16G18G19G21G22G27G31
  20940066.020   110040815.64609  20940063.360    85746087.40748
  22316676.140   117275069.46909  22316673.820    91383237.01147
  23973964.080   125984054.86308  23973961.460    98169396.73745
  22054444.420   115896901.07008  22054441.100    90309266.76747
  22988051.800   120803231.03208  22988049.660    94132464.90947
  21954551.960   115372120.93609  21954551.840    89900410.52048
  23692416.000   124504348.19608  23692420.740    97016327.70346
 15 03 04 00 11 30.0000000  0  7G16G18G19G21G22G27G31
  20930583.900   109990986.85309  20930581.220    85707259.78048
  22309496.380   117237339.54209  22309493.940    91353837.10347
  23959881.200   125910049.31808  23959878.400    98111730.16546
  22065883.440   115957012.92108  22065879.980    90356107.16347
  22971841.420   120718045.82209  22971839.320    94066087.00147
  21944901.760   115321409.50809  21944901.840    89860895.14848
  23711108.820   124602576.45408  23711113.720    97092868.37146
 15 03 04 00 12  0.0000000  0  7G16G18G19G21G22G27G31
  20921171.220   109941523.22209  20921168.600    85668716.70448
  22302393.280   117200012.21809  22302390.680    91324750.90947
  23945817.480   125836144.72208  23945814.640    98054142.26246
  22077366.160   116017354.64108  22077362.600    90403126.68147
  22955660.560   120633015.65109  22955658.400    93999829.90747
  21935276.120   115270827.15609  21935276.360    89821480.35048
  23729811.000   124700854.12508  23729816.200    97169447.62446
 15 03 04 00 12 30.0000000  0  7G16G18G19G21G22G27G31
  20911828.400   109892426.60009  20911825.860    85630459.59848
  22295366.980   117163088.86009  22295364.300    91295979.49447
  23931772.840   125762340.83408  23931770.040    97996632.82945
  22088892.220   116077924.33808  22088888.680    90450323.83547
  22939509.660   120548142.85309  22939507.440    93933695.41547
  21925675.000   115220373.42609  21925675.300    89782165.77748
  23748521.880   124799177.67008  23748527.400    97246062.65646
 15 03 04 00 13  0.0000000  0  7G16G18G19G21G22G27G31
  20902555.120   109843695.20309  20902552.600    85592487.08348
  22288417.240   117126568.11309  22288414.600    91267521.80447
  23917746.760   125688634.14308  23917743.920    97939199.13546
  22100460.580   116138716.59008  22100457.180    90497694.41547
  22923388.560   120463426.61309  22923386.280    93867682.92047
  21916097.800   115170045.03709  21916098.040    89742948.87748
  23767240.260   124897540.48808  23767246.020    97322708.30846
 15 03 04 00 13 30.0000000  0  7G16G18G19G21G22G27G31
  20893352.300   109795334.10809  20893349.800    85554803.11848
  22281544.960   117090454.41909  22281542.360    91239381.29447
  23903739.760   125615027.44708  23903736.940    97881843.36546
  22112071.520   116199732.57808  22112068.240    90545239.33747
  22907298.380   120378872.81909  22907296.020    93801797.00047
  21906545.060   115119844.87409  21906545.180    89703831.87448
  23785966.240   124995943.28708  23785972.240    97399385.16146
 15 03 04 00 14  0.0000000  0  7G16G18G19G21G22G27G31
  20884220.140   109747344.28809  20884217.620    85517408.46648
  22274750.180   117054747.74309  22274747.540    91211557.94147
  23889751.600   125541519.38808  23889748.760    97824564.44845
  22123724.280   116260968.53408  22123721.100    90592955.66447
  22891239.360   120294482.83209  22891236.900    93736038.72547
  21897016.460   115069771.54809  21897016.460    89664813.72348
  23804698.960   125094381.45808  23804705.100    97476089.47747
 15 03 04 00 14 30.0000000  0  7G16G18G19G21G22G27G31
  20875159.100   109699727.98409  20875156.520    85480304.86248
  22268033.280   117019450.44009  22268030.620    91184053.57747
  23875782.240   125468110.16608  23875779.340    97767362.54546
  22135418.700   116322423.38108  22135415.620    90640842.55847
  22875212.140   120210259.67709  22875209.580    93670410.43747
  21887512.100   115019825.33209  21887511.960    89625894.60648
  23823437.960   125192852.77708  23823444.260    97552819.85547
 15 03 04 00 15  0.0000000  0 15G16G18G19G21G22G27G31R01R02R14R15R16
                                R17R18R24
  20866170.020   109652489.79209  20866167.400    85443495.88848
  22261395.120   116984566.83109  22261392.460    91156871.58347
  23861832.140   125394802.61808  23861829.340    97710239.87046
  22147154.920   116384098.00908  22147151.980    90688900.71247
  22859217.780   120126209.06609  22859215.180    93604916.60847
  21878032.460   114970009.19809  21878032.260    89587076.85848
  23842183.200   125291357.12708  23842189.640    97629576.04546
  22956866.980   122717623.00807  22956871.180    95447064.87205
  22317764.920   119091902.86708  22317769.400    92627067.90507
  22495660.860   119914422.05806  22495672.080    93266769.23306
  19948543.560   106598968.04908  19948547.300    82910324.25408
  21364980.200   114127897.24708  21364982.520    88766158.64808
  20297503.540   108616060.63109  20297503.860    84479170.96308
  21054596.660   112391193.71009  21054600.000    87415506.02808
  23445979.740   125376178.38407  23445980.820    97514801.12405
 15 03 04 00 15 30.0000000  0 15G16G18G19G21G22G27G31R01R02R14R15R16
                                R17R18R24
  20857252.520   109605627.72409  20857249.820    85406980.00148
  22254835.240   116950094.78909  22254832.600    91130010.29147
  23847900.540   125321592.26008  23847897.860    97653192.93446
  22158931.780   116445986.05508  22158928.920    90737125.16147
  22843256.000   120042329.50109  22843253.360    93539556.05647
  21868576.740   114920318.97509  21868576.480    89548357.22448
  23860933.240   125389887.34208  23860939.860    97706352.37545
  22959415.100   122731244.09208  22959419.180    95457659.07205
  22302924.020   119012709.02108  22302928.440    92565472.76007
  22520754.020   120048181.88706  22520765.380    93370803.90506
  19959796.940   106659102.37908  19959800.580    82957095.36808
  21350794.480   114052120.02108  21350796.840    88707220.81608
  20304020.820   108650935.75209  20304021.020    84506296.06108
  21047234.180   112351892.08909  21047237.480    87384938.12608
  23461354.700   125458394.03907  23461355.500    97578746.62505
 15 03 04 00 16  0.0000000  0 15G16G18G19G21G22G27G31R01R02R14R15R16
                                R17R18R24
  20848407.360   109559146.03409  20848404.600    85370760.51148
  22248354.320   116916037.87909  22248351.740    91103472.46747
  23833988.000   125248481.73908  23833985.180    97596223.76946
  22170749.400   116508088.05908  22170746.520    90785516.32347
  22827327.660   119958625.61409  22827324.960    93474332.38947
  21859145.440   114870757.09409  21859145.180    89509737.60948
  23879688.080   125488443.29608  23879694.860    97783148.97546
  22962098.240   122745587.52408  22962102.380    95468815.08405
  22288165.900   118933957.12909  22288170.300    92504221.34607
  22545878.920   120182109.98807  22545890.500    93474969.44106
  19971186.800   106719966.16209  19971190.400    83004433.82808
  21336732.100   113977001.94208  21336734.600    88648795.65808
  20310567.840   108685970.59109  20310568.020    84533545.38208
  21039916.100   112312827.67809  21039919.400    87354554.72208
  23476717.160   125540543.06007  23476717.780    97642640.28905
 15 03 04 00 16 30.0000000  0 15G16G18G19G21G22G27G31R01R02R14R15R16
                                R17R18R24
  20839634.720   109513045.12709  20839631.840    85334837.74048
  22241952.460   116882396.40609  22241949.940    91077258.37847
  23820094.120   125175469.09808  23820091.160    97539330.89446
  22182607.140   116570400.52509  22182604.180    90834071.50347
  22811433.060   119875099.03009  22811430.300    93409246.88047
  21849738.180   114821321.78509  21849737.940    89471216.61348
  23898446.920   125587020.59608  23898453.900    97859962.37847
  22964916.200   122760651.54708  22964920.500    95480531.58405
  22273491.040   118855649.68808  22273495.460    92443315.63208
  22571034.480   120316200.62407  22571046.200    93579261.37906
  19982712.320   106781555.01408  19982715.940    83052336.23108
  21322793.520   113902544.84308  21322796.160    88590884.60008
  20317143.980   108721161.77008  20317144.280    84560916.30808
  21032641.980   112273997.96609  21032645.220    87324353.86808
  23492066.780   125622623.68607  23492067.300    97706480.76605
 15 03 04 00 17  0.0000000  0 15G16G18G19G21G22G27G31R01R02R14R15R16
                                R17R18R24
  20830935.220   109467328.67209  20830932.160    85299214.53548
  22235630.240   116849173.39109  22235627.740    91051370.34347
  23806219.180   125102556.01708  23806216.220    97482515.59246
  22194504.900   116632923.15609  22194501.840    90882790.43647
  22795573.000   119791754.26209  22795570.280    93344303.04747
  21840355.320   114772014.77509  21840355.080    89432795.58348
  23917209.520   125685617.77108  23917216.540    97936791.57847
  22967869.200   122776437.50308  22967873.700    95492809.57505
  22258900.580   118777792.56409  22258904.980    92382760.15908
  22596220.100   120450450.92307  22596231.940    93683677.46506
  19994373.420   106843868.24209  19994377.040    83100802.03308
  21308979.680   113828753.71208  21308982.400    88533491.51008
  20323749.400   108756509.23108  20323749.820    84588408.78008
  21025411.900   112235403.41709  21025415.100    87294335.91108
  23507403.820   125704637.32807  23507404.280    97770269.15605
 15 03 04 00 17 30.0000000  0 15G16G18G19G21G22G27G31R01R02R14R15R16
                                R17R18R24
  20822309.300   109421999.02809  20822306.100    85263892.73648
  22229388.100   116816370.96009  22229385.600    91025810.03647
  23792363.200   125029742.76608  23792360.220    97425778.08046
  22206442.400   116695654.75809  22206439.200    90931672.19647
  22779748.040   119708594.11909  22779745.380    93279503.07147
  21830996.920   114722836.46609  21830996.720    89394474.83148
  23935975.200   125784231.89005  23935982.140    98013633.75041
  22970957.400   122792946.08107  22970962.140    95505649.59005
  22244395.360   118700390.44008  22244399.700    92322558.56107
  22621435.060   120584857.36006  22621446.940    93788214.97806
  20006169.520   106906902.68208  20006173.160    83149828.77608
  21295291.260   113755632.15108  21295293.960    88476619.19508
  20330383.980   108792012.69308  20330384.500    84616022.57908
  21018225.780   112197043.66109  21018228.960    87264500.55708
  23522728.300   125786583.75207  23522728.720    97834005.26805
 15 03 04 00 18  0.0000000  0 15G16G18G19G21G22G27G31R01R02R14R15R16
                                R17R18R24
  20813756.520   109377053.78709  20813753.240    85228870.47648
  22223225.480   116783986.09709  22223222.960    91000575.11747
  23778525.400   124957025.04108  23778522.380    97369114.98746
  22218418.420   116758588.88908  22218415.140    90980711.77547
  22763957.880   119625616.89609  22763955.260    93214845.62947
  21821662.160   114673782.50209  21821662.040    89356250.98648
  23954742.720   125882855.99708  23954749.000    98090690.89946
  22974179.960   122810172.62108  22974184.840    95519048.02905
  22229975.380   118623442.93809  22229979.580    92262710.56007
  22646677.700   120719410.92806  22646689.540    93892866.88306
  20018099.180   106970651.14908  20018102.940    83199410.88208
  21281727.960   113683179.08208  21281730.680    88420266.82108
  20337046.600   108827666.06408  20337047.220    84643752.98508
  21011082.580   112158913.19909  21011085.840    87234843.56008
  23538039.200   125868458.28807  23538039.740    97897685.45005
 15 03 04 00 18 30.0000000  0 15G16G18G19G21G22G27G31R01R02R14R15R16
                                R17R18R24
  20805279.200   109332504.98109  20805275.840    85194157.11948
  22217144.580   116752030.58409  22217142.020    90975674.74347
  23764707.560   124884412.45108  23764704.540    97312533.82446
  22230434.420   116821733.51908  22230431.140    91029915.36847
  22748204.880   119542835.26609  22748202.340    93150340.58647
  21812353.000   114624862.88609  21812352.920    89318131.82248
  23973513.360   125981496.46307  23973519.700    98167553.34245
  22977538.680   122828126.92507  22977543.660    95533012.50305
  22215643.220   118546964.26408  22215647.320    92203227.20307
  22671949.060   120854117.68706  22671960.880    93997637.92905
  20030163.780   107035120.61508  20030167.600    83249553.76108
  21268292.380   113611407.85008  21268295.080    88364444.75608
  20343738.940   108863478.13008  20343739.600    84671606.80508
  21003984.040   112121021.04409  21003987.380    87205371.90508
  23553338.500   125950271.03407  23553339.180    97961317.54605
 15 03 04 00 19  0.0000000  0 15G16G18G19G21G22G27G31R01R02R14R15R16
                                R17R18R24
  20796875.640   109288344.02209  20796872.280    85159745.98448
  22211143.760   116720495.47609  22211141.040    90951101.95447
  23750907.800   124811894.77408  23750904.920    97256026.62146
  22242488.160   116885076.57908  22242484.920    91079273.58847
  22732487.620   119460241.67909  22732485.140    93085982.08247
  21803067.520   114576067.37209  21803067.440    89280109.36548
  23992284.760   126080140.32808  23992291.200    98244418.23746
  22981031.560   122846798.38108  22981036.520    95547534.76705
  22201397.720   118470948.18908  22201401.780    92144103.65607
  22697246.360   120988962.60507  22697258.240    94102516.40805
  20042360.500   107100296.08709  20042364.360    83300245.76308
  21254983.040   113540311.12808  21254985.660    88309147.31408
  20350458.800   108899437.12909  20350459.480    84699574.91008
  20996928.060   112083355.88509  20996931.420    87176076.81508
  23568624.160   126032010.96907  23568624.980    98024893.03405
 15 03 04 00 19 30.0000000  0 15G16G18G19G21G22G27G31R01R02R14R15R16
                                R17R18R24
  20788547.260   109244578.18409  20788543.940    85125642.74048
  22205224.220   116689387.72609  22205221.440    90926862.19047
  23737127.140   124739477.37408  23737124.300    97199597.56046
  22254580.300   116948621.36408  22254577.100    91128788.99947
  22716807.720   119377844.33409  22716805.300    93021776.47947
  21793806.700   114527401.39209  21793806.620    89242187.84348
  24011057.440   126178790.25008  24011063.940    98321287.60646
  22984659.540   122866192.02208  22984664.460    95562618.73405
  22187240.680   118395404.04808  22187244.640    92085347.17007
  22722569.820   121123947.27706  22722581.880    94207503.56405
  20054690.460   107166183.10709  20054694.280    83351491.19608
  21241801.480   113469897.59008  21241804.060    88254381.23708
  20357206.940   108935547.13108  20357207.580    84727660.46508
  20989915.420   112045922.18209  20989918.820    87146961.75208
  23583897.300   126113683.36606  23583898.140    98088415.98505
 15 03 04 00 20  0.0000000  0 15G16G18G19G21G22G27G31R01R02R14R15R16
                                R17R18R24
  20780294.520   109201209.91609  20780291.260    85091849.28548
  22199386.220   116658708.75609  22199383.380    90902956.52347
  23723365.700   124667160.52708  23723362.800    97143246.83046
  22266710.400   117012365.71408  22266707.300    91178459.91147
  22701165.780   119295646.15409  22701163.320    92957726.05847
  21784570.600   114478865.30909  21784570.500    89204367.52648
  24029830.900   126277443.43908  24029837.580    98398159.20147
  22988422.640   122886307.85408  22988427.460    95578264.39005
  22173172.940   118320336.53408  22173176.860    92026961.37407
  22747918.700   121259067.53206  22747930.980    94312596.16705
  20067152.580   107232776.32609  20067156.360    83403285.89308
  21228748.440   113400170.88408  21228751.020    88200149.34808
  20363983.160   108971807.38908  20363983.740    84755862.88208
  20982945.980   112008719.34809  20982949.440    87118026.24308
  23599157.840   126195288.64706  23599158.760    98151886.71504
 15 03 04 00 20 30.0000000  0 15G16G18G19G21G22G27G31R01R02R14R15R16
                                R17R18R24
  20772117.200   109158237.94609  20772114.020    85058364.64148
  22193629.600   116628457.30309  22193626.660    90879383.99847
  23709622.860   124594941.11608  23709619.860    97086972.04646
  22278877.780   117076306.05808  22278874.800    91228283.55247
  22685561.780   119213646.95609  22685559.140    92893830.69247
  21775358.640   114430456.14309  21775358.520    89166646.12348
  24048604.260   126376095.72507  24048611.280    98475030.64043
  22992320.180   122907142.41808  22992324.980    95594469.08205
  22159194.760   118245746.60509  22159198.620    91968947.04007
  22773291.620   121394316.22206  22773304.160    94417788.66806
  20079745.900   107300070.51509  20079749.600    83455625.78508
  21215823.840   113331130.73308  21215826.440    88146451.45508
  20370786.580   109008213.24909  20370787.060    84784178.55608
  20976018.980   111971743.12509  20976022.480    87089266.99808
  23614405.140   126276823.14906  23614406.140    98215302.41604
 15 03 04 00 21  0.0000000  0 15G16G18G19G21G22G27G31R01R02R14R15R16
                                R17R18R24
  20764015.280   109115662.24009  20764012.200    85025188.77248
  22187954.280   116598632.97509  22187951.260    90856144.29047
  23695898.180   124522816.81808  23695894.980    97030771.37046
  22291081.640   117140437.95908  22291078.720    91278256.45147
  22669995.760   119131847.36109  22669992.980    92830090.85747
  21766170.420   114382171.86609  21766170.280    89129022.02948
  24067376.480   126474742.02708  24067383.620    98551897.79547
  22996351.880   122928693.73508  22996356.580    95611231.23405
  22145306.440   118171636.16708  22145310.260    91911305.63807
  22798687.480   121529686.98706  22798700.300    94523076.11605
  20092469.260   107368060.08008  20092473.000    83508506.51408
  21203028.000   113262778.30208  21203030.580    88093288.44508
  20377616.540   109044761.53008  20377617.000    84812605.00008
  20969133.940   111934990.65809  20969137.500    87060681.77308
  23629638.860   126358284.22806  23629639.720    98278661.00804
 15 03 04 00 21 30.0000000  0 15G16G18G19G21G22G27G31R01R02R14R15R16
                                R17R18R24
  20755990.240   109073490.67509  20755987.300    84992327.82148
  22182361.640   116569242.98509  22182358.520    90833243.03447
  23682192.700   124450793.18308  23682189.200    96974649.12547
  22303322.560   117204764.44908  22303319.660    91328380.98947
  22654469.280   119050255.67809  22654466.420    92766513.04147
  21757007.040   114334018.12609  21757006.860    89091499.64948
  24086147.740   126573383.61208  24086154.800    98628760.95546
  23000518.520   122950966.52508  23000523.060    95628554.54005
  22131509.800   118098014.94308  22131513.620    91854044.74707
  22824106.560   121665181.12006  22824119.540    94628459.57305
  20105323.180   107436747.73608  20105327.020    83561930.20708
  21190362.600   113195122.61208  21190365.160    88040667.34608
  20384473.880   109081456.63808  20384474.360    84841145.63308
  20962291.720   111898466.37309  20962295.240    87032274.02008
  23644859.920   126439677.95806  23644860.660    98341967.22804
 15 03 04 00 22  0.0000000  0 14G16G18G19G21G22G27G31R01R02R14R15R16
                                R17R18
  20748041.840   109031721.56209  20748038.960    84959780.45748
  22176851.100   116540284.50809  22176847.860    90810678.01647
  23668505.680   124378866.79808  23668501.980    96918602.67546
  22315599.620   117269280.97208  22315596.720    91378653.59847
  22638982.220   118968871.13509  22638979.240    92703096.63647
  21747867.880   114285991.59009  21747867.660    89054076.39248
  24104916.960   126672014.90508  24104924.100    98705616.14747
  23004819.440   122973956.97908  23004823.800    95646436.03005
  22117804.980   118024883.65408  22117808.760    91797164.91507
  22849547.300   121800790.89407  22849560.440    94733932.95305
  20118306.240   107506125.71608  20118310.200    83615890.80208
  21177827.580   113128162.88908  21177830.120    87988587.56808
  20391357.780   109118293.83408  20391358.260    84869796.78308
  20955491.500   111862165.98909  20955494.920    87004040.40808
 15 03 04 00 22 30.0000000  0 14G16G18G19G21G22G27G31R01R02R14R15R16
                                R17R18
  20740171.480   108990362.37509  20740168.600    84927552.52248
  22171424.240   116511765.68809  22171420.960    90788455.59047
  23654838.240   124307043.73208  23654834.440    96862636.72546
  22327913.760   117333991.95908  22327910.800    91429077.74647
  22623536.200   118887702.36509  22623533.140    92639848.35147
  21738754.080   114238098.32409  21738753.860    89016756.97048
  24123684.780   126770639.31908  24123692.060    98782465.97847
  23009255.700   122997670.83708  23009259.820    95664880.14705
  22104193.880   117952252.15808  22104197.660    91740673.80507
  22875010.060   121936518.29506  22875023.360    94839497.86305
  20131419.140   107576197.51608  20131423.180    83670391.04108
  21165424.660   113061908.42008  21165427.160    87937056.31708
  20398269.100   109155277.94408  20398269.660    84898562.19608
  20948734.220   111826094.60109  20948737.520    86975984.90408
 15 03 04 00 23  0.0000000  0 14G16G18G19G21G22G27G31R01R02R14R15R16
                                R17R18
  20732378.480   108949409.70209  20732375.580    84895641.35048
  22166080.200   116483682.23709  22166076.900    90766572.41247
  23641189.240   124235318.08108  23641185.520    96806746.68346
  22340263.300   117398888.71008  22340260.240    91479646.64447
  22608130.700   118806746.45409  22608127.620    92576765.92847
  21729664.560   114190332.84709  21729664.420    88979537.14948
  24142449.640   126869248.21508  24142457.080    98859303.65346
  23013825.980   123022101.56808  23013829.920    95683881.85205
  22090676.120   117880118.85908  22090679.900    91684570.18607
  22900493.020   122072353.70406  22900506.560    94945146.80905
  20144660.360   107646954.80608  20144664.420    83725424.45708
  21153153.240   112996356.54008  21153155.780    87886071.53308
  20405206.520   109192401.91308  20405207.180    84927436.39408
  20942018.580   111790245.62909  20942021.800    86948102.39108
 15 03 04 00 23 30.0000000  0 14G16G18G19G21G22G27G31R01R02R14R15R16
                                R17R18
  20724663.900   108908869.53209  20724661.040    84864051.60548
  22160819.880   116456039.14309  22160816.620    90745032.36147
  23627559.460   124163694.11608  23627555.900    96750935.87746
  22352648.780   117463974.31009  22352645.580    91530362.69347
  22592766.980   118726010.11809  22592763.940    92513854.59147
  21720600.080   114142699.23209  21720600.100    88942420.06748
  24161211.780   126967842.46808  24161219.240    98936129.65945
  23018531.080   123047253.11208  23018534.840    95703444.17705
  22077253.200   117808491.94608  22077257.020    91628860.40707
  22925996.120   122208296.74206  22926009.940    95050879.48905
  20158029.840   107718397.37608  20158033.920    83780990.85308
  21141014.640   112931514.24808  21141017.260    87835638.63308
  20412170.660   109229668.83408  20412171.400    84956421.76908
  20935345.120   111754622.09709  20935348.320    86920395.22708
 15 03 04 00 24  0.0000000  0 14G16G18G19G21G22G27G31R01R02R14R15R16
                                R17R18
  20717027.320   108868739.31109  20717024.480    84832781.30148
  22155642.820   116428833.89209  22155639.660    90723833.49147
  23613948.160   124092167.44208  23613944.800    96695200.87246
  22365069.020   117529242.68608  22365065.740    91581221.16347
  22577444.780   118645491.91809  22577441.780    92451113.24147
  21711559.900   114095193.39909  21711560.120    88905402.55748
  24179970.000   127066415.46408  24179977.520    99012939.18846
  23023370.020   123073120.21008  23023373.620    95723563.03005
  22063925.140   117737371.17608  22063929.020    91573544.30407
  22951517.780   122344338.95306  22951531.940    95156689.36205
  20171526.100   107790517.25008  20171530.200    83837084.03808
  21129008.680   112867380.40408  21129011.360    87785756.75308
  20419160.440   109267072.99808  20419161.240    84985513.89008
  20928712.920   111719218.68809  20928716.040    86892859.25608
 15 03 04 00 24 30.0000000  0 14G16G18G19G21G22G27G31R01R02R14R15R16
                                R17R18
  20709469.440   108829022.67309  20709466.600    84801833.27348
  22150549.600   116402069.21909  22150546.540    90702977.92647
  23600355.640   124020739.13708  23600352.360    96639542.52646
  22377523.880   117594692.88409  22377520.540    91632221.31147
  22562164.960   118565196.15009  22562161.940    92388545.20547
  21702544.360   114047816.76609  21702544.660    88868485.71648
  24198723.880   127164965.30907  24198731.440    99089730.47145
  23028343.040   123099704.00708  23028346.540    95744239.34805
  22050692.880   117666761.68509  22050696.800    91518625.85107
  22977057.560   122480477.57206  22977071.880    95262574.26005
  20185148.820   107863312.84409  20185152.980    83893702.79408
  21117136.080   112803959.06608  21117138.780    87736429.04708
  20426175.940   109304614.78908  20426176.760    85014713.06108
  20922122.000   111684035.88309  20922125.060    86865494.86708
 15 03 04 00 25  0.0000000  0 14G16G18G19G21G22G27G31R01R02R14R15R16
                                R17R18
  20701990.720   108789722.26509  20701987.920    84771209.58348
  22145540.680   116375747.65009  22145537.780    90682467.64347
  23586782.100   123949410.52508  23586779.000    96583961.85946
  22390013.260   117660324.65408  22390009.800    91683362.94247
  22546928.120   118485126.19409  22546925.060    92326153.12447
  21693553.740   114000570.63409  21693553.980    88831670.56748
  24217473.340   127263491.95408  24217481.060    99166504.12345
  23033450.140   123127004.47908  23033453.600    95765473.07005
  22037557.360   117596668.70608  22037561.340    91464109.13507
  23002614.800   122616709.43106  23002629.460    95368531.72305
  20198897.680   107936782.18309  20198901.840    83950845.57008
  21105397.720   112741254.44808  21105400.300    87687658.78108
  20433217.120   109342294.07908  20433217.920    85044019.16908
  20915572.400   111649073.76109  20915575.460    86838302.13108
 15 03 04 00 25 30.0000000  0 14G16G18G19G21G22G27G31R01R02R14R15R16
                                R17R18
  20694591.540   108750839.91109  20694588.820    84740911.63848
  22140616.200   116349869.94809  22140613.420    90662303.22047
  23573227.480   123878180.80308  23573224.440    96528458.24746
  22402536.640   117726135.36009  22402533.140    91734644.00347
  22531734.700   118405284.63309  22531731.720    92263939.01447
  21684587.980   113953454.59009  21684588.000    88794956.77348
  24236217.720   127361992.33109  24236225.520    99243257.85448
  23038691.160   123155020.59308  23038694.620    95787263.39505
  22024519.280   117527095.58908  22024523.280    91409996.75207
  23028188.600   122753029.87306  23028203.600    95474558.11805
  20212772.020   108010921.59109  20212776.060    84008509.51708
  21093793.900   112679268.88208  21093796.440    87639447.78708
  20440283.720   109380109.23108  20440284.540    85073430.94308
  20909063.820   111614331.04809  20909067.000    86811280.03708
 15 03 04 00 26  0.0000000  0 14G16G18G19G21G22G27G31R01R02R14R15R16
                                R17R18
  20687272.020   108712376.21209  20687269.380    84710939.93548
  22135776.280   116324436.44109  22135773.600    90642484.93447
  23559691.560   123807049.45208  23559688.580    96473031.28046
  22415093.620   117792122.86409  22415090.160    91786062.83447
  22516585.100   118325673.53109  22516582.100    92201904.47947
  21675646.880   113906468.00409  21675646.640    88758343.87348
  24254955.940   127460461.04309  24254963.640    99319986.81948
  23044065.820   123183750.77708  23044069.220    95809609.11805
  22011579.240   117458045.60609  22011583.260    91356291.25107
  23053778.180   122889433.94306  23053793.360    95580649.61705
  20226770.780   108085726.25809  20226774.680    84066690.88908
  21082325.060   112618004.36808  21082327.560    87591797.61908
  20447375.440   109418058.22409  20447376.260    85102946.82108
  20902596.000   111579805.83109  20902599.280    86784427.12408
 15 03 04 00 26 30.0000000  0 14G16G18G19G21G22G27G31R01R02R14R15R16
                                R17R18
  20680032.080   108674330.44909  20680029.520    84681293.89448
  22131020.700   116299446.14109  22131018.120    90623012.00547
  23546173.940   123736013.95508  23546170.980    96417679.00846
  22427683.200   117858281.77908  22427679.800    91837615.23547
  22501479.280   118246292.58109  22501476.300    92140049.29247
  21666729.920   113859608.35909  21666729.480    88721829.88048
  24273687.100   127558893.97408  24273694.800    99396723.17045
  23049573.440   123213191.51508  23049576.720    95832507.51205
  21998737.460   117389519.79709  21998741.560    91302993.45808
  23079382.180   123025915.09906  23079397.520    95686801.13005
  20240892.800   108161189.79709  20240896.680    84125384.71508
  21070991.220   112557461.03708  21070993.680    87544708.37608
  20454491.560   109456137.31609  20454492.320    85132563.89208
  20896168.280   111545494.38009  20896171.540    86757740.46408
 15 03 04 00 27  0.0000000  0 14G16G18G19G21G22G27G31R01R02R14R15R16
                                R17R18
  20672874.780   108636718.43109  20672872.220    84651985.82948
  22126352.260   116274913.83009  22126349.800    90603895.94447
  23532677.100   123665087.52708  23532674.140    96362411.72346
  22440307.880   117924624.73909  22440304.480    91889311.04647
  22486420.380   118167158.25509  22486417.520    92078386.27148
  21657839.720   113812889.44909  21657839.140    88685425.55348
  24292413.220   127657300.93808  24292421.040    99473404.02346
  23055216.420   123243356.12208  23055219.660    95855968.89405
  21985997.260   117321535.92808  21986001.460    91250117.16208
  23105002.240   123162482.35406  23105017.800    95793019.64005
  20255140.060   108237322.88908  20255144.000    84184599.30008
  21059795.560   112497655.49708  21059797.940    87498192.95608
  20461634.380   109494359.23409  20461635.100    85162292.04708
  20889783.080   111511409.79409  20889786.240    86731230.25008
 15 03 04 00 27 30.0000000  0 14G16G18G19G21G22G27G31R01R02R14R15R16
                                R17R18
  20665796.840   108599523.15109  20665794.220    84623002.49148
  22121767.540   116250821.60709  22121765.200    90585122.81047
  23519197.460   123594251.59408  23519194.380    96307214.94746
  22452963.740   117991131.57708  22452960.320    91941134.55047
  22471405.480   118088254.79309  22471402.620    92016903.14447
  21648972.760   113766292.86009  21648972.140    88649116.54248
  24311130.360   127755661.11807  24311138.180    99550031.37744
  23060991.000   123274224.66308  23060994.300    95879977.78205
  21973355.800   117254079.21708  21973360.060    91197650.87808
  23130634.300   123299113.60806  23130649.940    95899287.96604
  20269508.380   108314102.97909  20269512.420    84244317.10008
  21048734.940   112438571.54608  21048737.320    87452238.78108
  20468800.180   109532703.98709  20468800.820    85192115.73508
  20883436.660   111477532.10909  20883439.700    86704880.94708
 15 03 04 00 28  0.0000000  0 14G16G18G19G21G22G27G31R01R02R14R15R16
                                R17R18
  20658800.940   108562759.06409  20658798.280    84594355.15348
  22117269.360   116227184.04509  22117267.160    90566703.95947
  23505737.380   123523518.71408  23505734.200    96252098.47046
  22465652.660   118057812.33408  22465649.180    91993093.57947
  22456437.360   118009597.02809  22456434.380    91955611.47147
  21640131.420   113719831.19709  21640130.820    88612912.67548
  24329840.440   127853983.94607  24329848.740    99626643.68345
  23066899.320   123305808.77608  23066902.680    95904543.23405
  21960816.320   117187166.08009  21960820.400    91145607.37307
  23156279.780   123435816.93706  23156295.540    96005612.39304
  20283999.520   108391538.81809  20284003.580    84304544.93108
  21037812.320   112380224.80908  21037814.720    87406857.99808
  20475991.100   109571183.23309  20475991.640    85222044.03308
  20877131.220   111443873.22409  20877134.140    86678701.83908
 15 03 04 00 28 30.0000000  0 14G16G18G19G21G22G27G31R01R02R14R15R16
                                R17R18
  20651886.920   108526425.07409  20651884.160    84566042.95348
  22112857.340   116203999.13609  22112855.200    90548637.82147
  23492296.340   123452885.86308  23492293.040    96197059.93746
  22478373.720   118124662.14208  22478370.260    92045184.33447
  22441516.000   117931184.73909  22441512.900    91894511.06647
  21631315.160   113673501.48009  21631314.580    88576811.61548
  24348542.160   127952449.41909                                
  23072940.740   123338104.40008  23072944.100    95929662.07404
  21948378.820   117120796.93809  21948382.700    91093986.97507
  23181937.420   123572584.98106  23181953.360    96111987.18205
  20298612.240   108469623.99109  20298616.280    84365277.79208
  21027027.640   112322614.67408  21027030.000    87362050.11508
  20483206.240   109609792.66708  20483206.740    85252073.59108
  20870865.860   111410428.70409  20870868.800    86652689.45208
 15 03 04 00 29  0.0000000  0 14G16G18G19G21G22G27G31R01R02R14R15R16
                                R17R18
  20645054.820   108490521.42109  20645051.920    84538066.07448
  22108531.460   116181266.70209  22108529.300    90530924.25447
  23478874.080   123382351.56108  23478870.740    96142098.18846
  22491126.300   118191677.82008  22491122.920    92097404.33347
  22426641.580   117853019.10809  22426638.340    91833602.85647
  21622523.780   113627302.67909  21622523.240    88540812.56448
  24367235.220   128050682.19408  24367240.560    99779776.65155
  23079114.880   123371109.49008  23079118.300    95955332.71105
  21936043.880   117054974.71609  21936047.440    91042791.94607
  23207606.180   123709412.33306  23207622.300    96218408.08505
  20313345.400   108548352.94308  20313349.400    84426511.36308
  21016381.040   112265742.30408  21016383.400    87317816.05608
  20490445.240   109648529.92408  20490445.720    85282202.56508
  20864640.260   111377196.59209  20864643.300    86626842.27808
 15 03 04 00 29 30.0000000  0 14G16G18G19G21G22G27G31R01R02R14R15R16
                                R17R18
  20638305.020   108455050.32309  20638301.980    84510426.26248
  22104291.960   116158988.01809  22104289.720    90513564.26347
  23465470.680   123311916.36808  23465467.360    96087213.67146
  22503910.220   118258858.26708  22503906.940    92149752.72547
  22411814.760   117775103.46509  22411811.400    91772889.44347
  21613757.380   113581235.28609  21613756.880    88504915.90848
  24385918.660                                                  
  23085421.680   123404823.42008  23085425.120    95981554.67405
  21923812.120   116989703.34009  21923815.440    90992025.36207
  23233285.280   123846295.29806  23233301.600    96324872.27405
  20328198.400   108627722.90608  20328202.440    84488243.49708
  21005873.180   112209611.01708  21005875.480    87274158.39708
  20497707.900   109687394.33508  20497708.500    85312430.43908
  20858454.360   111344176.27809  20858457.480    86601159.84308
 15 03 04 00 30  0.0000000  0 15G16G18G19G21G22G27G31R01R02R03R14R15
                                R16R17R18
  20631637.880   108420013.57709  20631634.680    84483124.90649
  22100139.120   116137164.80209  22100136.820    90496559.18847
  23452086.180   123241580.49308  23452082.920    96032406.54747
  22516725.200   118326202.02208  22516722.000    92202228.37847
  22397036.100   117697440.91909  22397032.640    91712373.26448
  21605016.080   113535299.80909  21605015.640    88469122.05348
  24404592.880   128246994.39909  24404600.200    99932757.74947
  23091860.900   123439245.23108  23091864.340    96008327.20804
  21911684.360   116924986.78509  21911687.500    90941690.31307
  23579669.400   126223824.24205  23579679.680    98174070.13505
  23258974.160   123983230.20206  23258990.600    96431376.86705
  20343170.740   108707730.66608  20343174.840    84550471.70108
  20995504.560   112154223.60908  20995506.740    87231079.30608
  20504994.100   109726384.89108  20504994.800    85342756.43608
  20852308.020   111311366.98809  20852311.180    86575641.53108
 15 03 04 00 30 30.0000000  0 15G16G18G19G21G22G27G31R01R02R03R14R15
                                R16R17R18
  20625054.040   108385414.85709  20625050.740    84456164.86048
  22096073.420   116115799.40709  22096071.020    90479910.84347
  23438720.760   123171345.03908  23438717.660    95977677.66146
  22529571.160   118393708.49908  22529568.040    92254830.81247
  22382306.220   117620035.15109  22382302.780    91652057.15447
  21596300.140   113489497.58809  21596299.820    88433432.02648
  24423255.580   128345075.98108                                
  23098432.620   123474375.08608  23098435.960    96035650.44804
  21899661.500   116860830.28909  21899664.540    90891790.85207
  23557813.700   126106829.57106  23557823.820    98083074.60906
  23284672.320   124120213.97706  23284688.680    96537919.49205
  20358261.840   108788372.96108  20358266.020    84613193.42308
  20985275.800   112099583.58808  20985277.920    87188581.51108
  20512303.960   109765502.19708  20512304.780    85373181.00308
  20846201.360   111278768.99809  20846204.460    86550287.55608
 15 03 04 00 31  0.0000000  0 15G16G18G19G21G22G27G31R01R02R03R14R15
                                R16R17R18
  20618553.180   108351252.43709  20618549.800    84429544.79248
  22092094.420   116094889.88109  22092091.980    90463617.73447
  23425373.900   123101206.94508  23425370.900    95923024.64846
  22542447.200   118461372.87708  22542444.160    92307556.29147
  22367625.080   117542885.64109  22367621.740    91591940.73447
  21587609.020   113443825.82509  21587608.780    88397843.66448
  24441907.820   128443105.03908                                
  23105136.060   123510208.91408  23105139.380    96063521.23104
  21887743.620   116797234.42209  21887746.580    90842327.44807
  23535953.400   125989807.86607  23535962.940    97992058.34206
  23310378.280   124257239.64206  23310394.560    96644494.71105
  20373470.580   108869643.55709  20373474.760    84676403.83308
  20975186.900   112045690.77808  20975188.980    87146664.89408
  20519636.740   109804741.96408  20519637.620    85403700.82008
  20840133.520   111246378.30709  20840136.600    86525094.82708
 15 03 04 00 31 30.0000000  0 15G16G18G19G21G22G27G31R01R02R03R14R15
                                R16R17R18
  20612136.320   108317531.73609  20612132.880    84403268.92748
  22088202.920   116074440.27509  22088200.500    90447683.00547
  23412046.140   123031169.28308  23412043.200    95868449.91147
  22555353.540   118529196.49608  22555350.540    92360405.86847
  22352993.860   117465998.49009  22352990.560    91532028.75148
  21578943.300   113398287.69009  21578943.180    88362359.43048
  24460548.900   128541053.98107  24460555.020   100161876.94644
  23111971.460   123546748.33808  23111974.940    96091940.80205
  21875932.060   116734205.92309  21875935.020    90793305.33707
  23514089.380   125872765.49907  23514098.120    97901025.80006
  23336091.860   124394305.92006  23336108.160    96751101.55705
  20388796.800   108951541.82709  20388800.920    84740102.44708
  20965238.800   111992550.51308  20965240.980    87105333.59608
  20526992.820   109844106.24408  20526993.700    85434317.48808
  20834104.880   111214197.00109  20834107.880    86500064.94708
 15 03 04 00 32  0.0000000  0 15G16G18G19G21G22G27G31R01R02R03R14R15
                                R16R17R18
  20605803.240   108284251.48109  20605799.820    84377336.25148
  22084398.600   116054448.90409  22084396.260    90432105.33047
  23398737.020   122961229.87408  23398734.180    95813951.72246
  22568289.380   118597174.99308  22568286.380    92413376.11847
  22338412.560   117389373.63809  22338409.340    91472321.14048
  21570302.560   113352880.91209  21570302.540    88326977.54948
  24479177.660   128638949.44908                                
  23118938.120   123583989.77008  23118941.760    96120906.36905
  21864227.080   116671746.02909  21864229.980    90744725.45207
  23492221.800   125755704.15607  23492229.840    97809978.37506
  23361811.940   124531406.50606  23361828.200    96857735.07905
  20404239.280   109034061.36009  20404243.300    84804284.25008
  20955431.540   111940162.76208  20955433.900    87064587.56408
  20534371.640   109883591.45708  20534372.400    85465028.19108
  20828114.840   111182221.81409  20828117.860    86475195.37408
 15 03 04 00 32 30.0000000  0 15G16G18G19G21G22G27G31R01R02R03R14R15
                                R16R17R18
  20599554.800   108251416.15109  20599551.440    84351750.28049
  22080682.440   116034920.45409  22080680.140    90416888.39047
  23385446.960   122891391.04408  23385444.200    95759531.91347
  22581254.840   118665308.93008  22581251.800    92466467.50947
  22323882.160   117313016.40609  22323879.020    91412822.07648
  21561687.440   113307608.55309  21561687.460    88291700.41348
  24497795.180   128736789.02808                                
  23126036.460   123621934.88808  23126040.140    96150419.25504
  21852629.820   116609860.98809  21852632.680    90696592.69107
  23470351.820   125638631.48207  23470359.620    97718922.35506
  23387538.080   124668540.08006  23387554.380    96964394.27404
  20419797.860   109117201.30909  20419801.760    84868948.61808
  20945766.180   111888532.78208  20945768.740    87024430.92008
  20541773.380   109923199.53508  20541774.060    85495834.47408
  20822163.760   111150454.40109  20822166.800    86450487.41508
 15 03 04 00 33  0.0000000  0 15G16G18G19G21G22G27G31R01R02R03R14R15
                                R16R17R18
  20593391.260   108219026.99009  20593388.040    84326511.96848
  22077054.420   116015855.04809  22077052.140    90402032.25347
  23372175.900   122821652.16408  23372173.280    95705189.98347
  22594249.500   118733596.31308  22594246.460    92519678.44947
  22309403.140   117236928.99209  22309400.000    91353533.24648
  21553097.820   113262470.10209  21553097.880    88256527.59948
  24516398.360   128834545.93408  24516404.420   100390577.23656
  23133266.140   123660581.52408  23133269.760    96180477.76404
  21841140.900   116548554.03209  21841143.720    90648909.54707
  23448480.000   125521550.45007  23448487.740    97627859.73807
  23413269.540   124805701.98405  23413285.700    97071075.52904
  20435471.500   109200956.28608  20435475.360    84934091.32808
  20936243.020   111837662.19508  20936245.720    86984864.90608
  20549197.740   109962928.77208  20549198.400    85526734.98108
  20816251.340   111118893.34709  20816254.380    86425939.93908
 15 03 04 00 33 30.0000000  0 15G16G18G19G21G22G27G31R01R02R03R14R15
                                R16R17R18
  20587312.300   108187082.43809  20587309.280    84301620.12048
  22073514.120   115997250.27609  22073511.780    90387535.05047
  23358923.340   122752010.18208  23358920.620    95650923.56147
  22607272.420   118802032.04908  22607269.380    92573004.99847
  22294975.320   117161110.44709  22294972.160    91294453.94348
  21544533.240   113217462.68109  21544533.240    88221456.89548
  24534989.120                    24534991.260                  
  23140626.320   123699925.63708  23140629.980    96211078.77604
  21829760.360   116487825.65309  21829763.160    90601676.40307
  23426606.560   125404461.86707  23426614.380    97536791.38207
  23439004.880   124942884.94005  23439021.180    97177773.17904
  20451259.060   109285320.01708  20451262.960    84999707.51108
  20926861.920   111787550.12308  20926864.660    86945888.85608
  20556643.980   110002775.20008  20556644.660    85557726.64508
  20810376.840   111087534.47209  20810379.760    86401549.73008
 15 03 04 00 34  0.0000000  0 15G16G18G19G21G22G27G31R01R02R03R14R15
                                R16R17R18
  20581318.640   108155586.02009  20581315.780    84277077.46148
  22070061.920   115979108.68209  22070059.540    90373398.77247
  23345689.600   122682466.67508  23345686.720    95596733.86446
  22620323.600   118870616.16608  22620320.540    92626447.16547
  22280599.560   117085565.41509  22280596.380    91235587.75348
  21535994.000   113172588.13909  21535993.820    88186489.73848
  24553565.980   129029860.26807                                
  23148116.980   123739967.23508  23148120.680    96242222.27204
  21818489.140   116427680.90909  21818492.080    90554897.19707
  23404732.740   125287371.85207  23404740.660    97445722.02206
  23464743.740   125080086.83105  23464760.280    97284485.55905
  20467160.060   109370290.04408  20467164.080    85065795.25108
  20917623.600   111738200.62208  20917626.360    86907505.91708
  20564112.220   110042739.35108  20564112.920    85588809.87808
  20804540.320   111056378.46709  20804543.160    86377317.31508
 15 03 04 00 34 30.0000000  0 15G16G18G19G21G22G27G31R01R02R03R14R15
                                R16R17R18
  20575410.940   108124541.10209  20575408.160    84252886.62048
  22066698.440   115961433.60209  22066696.020    90359626.00947
  23332475.000   122613023.47008  23332471.920    95542622.31847
  22633403.080   118939348.62708  22633399.940    92680004.92947
  22266276.680   117010298.07309  22266273.420    91176937.94948
  21527480.380   113127848.22809  21527480.040    88151627.49048
  24572128.600   129127402.83008  24572134.160   100618766.28347
  23155738.100   123780706.52108  23155741.920    96273908.40005
  21807328.280   116368124.85609  21807331.380    90508575.86608
  23382859.700   125170286.05907  23382867.560    97354655.98406
  23490485.700   125217305.12106  23490502.420    97391210.74005
  20483173.940   109455863.52108  20483178.080    85132352.33008
  20908528.800   111689617.51208  20908531.500    86869719.05408
  20571602.540   110082821.80208  20571603.300    85619985.11308
  20798741.860   111025425.79509  20798744.680    86353243.02308
 15 03 04 00 35  0.0000000  0 15G16G18G19G21G22G27G31R01R02R03R14R15
                                R16R17R18
  20569589.720   108093950.23209  20569586.940    84229049.57448
  22063423.940   115944226.40309  22063421.540    90346217.82847
  23319279.680   122543681.26408  23319276.400    95488589.47047
  22646510.580   119008228.42608  22646507.360    92733677.49047
  22252007.260   116935312.12209  22252004.060    91118507.41048
  21518992.580   113083244.28809  21518992.120    88116871.18148
  24590676.840   129224879.63909                                
  23163489.660   123822143.32908  23163493.720    96306137.04205
  21796278.660   116309162.24209  21796281.960    90462716.10208
  23360988.320   125053209.64107  23360995.980    97263597.24606
  23516230.120   125354536.74006  23516246.820    97497946.32205
  20499300.440   109542038.55708  20499304.660    85199377.29508
  20899578.100   111641804.17208  20899580.700    86832530.90508
  20579115.080   110123022.73908  20579115.860    85651252.50108
  20792981.600   110994676.88509  20792984.320    86329327.21008
 15 03 04 00 35 30.0000000  0 15G16G18G19G21G22G27G31R01R02R03R14R15
                                R16R17R18
  20563854.760   108063812.43809  20563851.900    84205565.57548
  22060238.140   115927485.31809  22060235.780    90333172.85447
  23306103.140   122474437.53308  23306099.660    95434633.36247
  22659645.280   119077251.33108  22659642.040    92787461.56747
  22237791.300   116860607.50509  22237788.220    91060296.09448
  21510530.100   113038773.79509  21510529.640    88082218.85948
  24609209.360   129322270.02706  24609214.880   100770600.87043
  23171370.920   123864273.29607  23171375.160    96338904.81405
  21785340.520   116250794.08709  21785343.880    90417318.69408
  23339118.740   124936143.44706  23339126.300    97172546.34906
  23541975.860   125491774.88606  23541992.520    97604687.02805
  20515538.120   109628807.60009  20515542.380    85266864.27108
  20890771.360   111594759.79308  20890773.840    86795940.83608
  20586649.080   110163338.50808  20586649.920    85682609.20508
  20787258.760   110964127.95609  20787261.420    86305566.95008
 15 03 04 00 36  0.0000000  0 13G16G18G19G21G22G27R01R02R03R15R16R17
                                R18
  20558207.140   108034133.29309  20558204.120    84182438.97248
  22057142.040   115911215.55009  22057139.700    90320495.13947
  23292945.940   122405295.93508  23292942.400    95380756.83447
  22672807.560   119146419.15108  22672804.320    92841358.55647
  22223629.940   116786190.23009  22223627.000    91002308.67848
  21502093.740   112994440.80209  21502093.340    88047673.68848
  23179382.300   123907098.90307  23179386.780    96372213.63205
  21774515.140   116193027.26409  21774518.480    90372388.98108
  23317252.640   124819095.98106  23317260.200    97081509.97906
  20531887.060   109716170.95709  20531891.300    85334813.49208
  20882109.660   111548490.64008  20882112.120    86759953.72508
  20594205.080   110203771.91708  20594206.000    85714057.40808
  20781573.820   110933781.95209  20781576.560    86281964.51408
 15 03 04 00 36 30.0000000  0 14G16G18G19G21G22G27G31R01R02R03R15R16
                                R17R18
  20552646.800   108004912.76609  20552643.600    84159669.73248
  22054135.480   115895416.17809  22054133.120    90308183.96947
  23279807.880   122336254.98208  23279804.340    95326958.74647
  22685996.800   119215729.08508  22685993.580    92895366.29547
  22209523.540   116712061.77209  22209520.720    90944546.32248
  21493683.260   112950243.92009  21493682.960    88013234.56848
  24646226.740                    24646230.040                  
  23187523.220   123950616.82907  23187527.760    96406060.92705
  21763802.860   116135863.81309  21763806.120    90327928.56208
  23295390.640   124702070.15807  23295398.340    96990490.58906
  20548346.060   109804122.33609  20548350.300    85403220.06608
  20873593.080   111502997.00108  20873595.560    86724569.78408
  20601782.640   110244320.73108  20601783.600    85745595.37008
  20775926.300   110903636.26309  20775929.240    86258517.89908
 15 03 04 00 37  0.0000000  0 14G16G18G19G21G22G27G31R01R02R03R15R16
                                R17R18
  20547173.700   107976151.06109  20547170.380    84137258.01249
  22051218.280   115880086.50909  22051215.920    90296238.79347
  23266688.680   122267313.32108  23266685.180    95273238.01447
  22699212.400   119285177.61608  22699209.220    92949482.01947
  22195472.300   116638223.27709  22195469.580    90887009.89748
  21485298.460   112906181.99809  21485298.300    87978900.61748
  24664711.080   129613931.49204                                
  23195793.160   123994824.26708  23195797.720    96440444.50205
  21753204.000   116079305.79109  21753207.260    90283939.02708
  23273533.260   124585068.74707  23273541.080    96899490.42706
  20564914.320   109892657.61808  20564918.540    85472080.77508
  20865221.740   111458279.42308  20865224.300    86689789.44108
  20609381.300   110284982.36308  20609382.260    85777221.08708
  20770315.740   110873688.40509  20770318.980    86235225.13708
 15 03 04 00 37 30.0000000  0 14G16G18G19G21G22G27G31R01R02R03R15R16
                                R17R18
  20541787.780   107947847.80509  20541784.420    84115203.52948
  22048390.340   115865225.87809  22048388.040    90284659.11147
  23253587.980   122198469.00608  23253584.580    95219593.13647
  22712453.580   119354760.84908  22712450.480    93003702.72047
  22181476.420   116564674.96409  22181473.540    90829699.57748
  21476939.040   112862253.38809  21476939.040    87944670.54848
  24683177.740   129710974.66406  24683181.880   101073507.17444
  23204191.400   124039717.32807  23204195.840    96475361.34405
  21742718.760   116023354.46309  21742722.080    90240421.36708
  23251680.880   124468093.32307  23251688.440    96808510.37006
  20581590.480   109981769.65108  20581594.700    85541390.07808
  20856995.760   111414338.29108  20856998.320    86655612.99908
  20617000.520   110325754.19108  20617001.560    85808932.50208
  20764741.840   110843935.64709  20764745.260    86212084.12308
 15 03 04 00 38  0.0000000  0 13G16G18G19G21G22G27R01R02R03R15R16R17
                                R18
  20536489.960   107920007.71009  20536486.640    84093509.95248
  22045652.340   115850837.86209  22045650.100    90273447.69247
  23240506.440   122129725.13108  23240503.060    95166026.52347
  22725720.660   119424480.37208  22725717.660    93058029.60647
  22167537.020   116491422.93609  22167533.920    90772620.13048
  21468605.600   112818461.45909  21468605.740    87910546.98148
  23212718.200   124085297.81907  23212722.520    96510812.85605
  21732348.440   115968016.66509  21732351.780    90197380.88808
  23229834.860   124351151.38807  23229841.960    96717556.18706
  20598374.380   110071457.86608  20598378.640    85611147.51108
  20848916.100   111371178.44808  20848918.680    86622044.23508
  20624640.680   110366638.24908  20624641.780    85840731.21608
  20759205.080   110814380.24109  20759208.500    86189096.59908
 15 03 04 00 38 30.0000000  0 13G16G18G19G21G22G27R01R02R03R15R16R17
                                R18
  20531280.480   107892631.95709  20531277.220    84072178.20349
  22043004.320   115836922.74109  22043002.120    90262604.77647
  23227443.920   122061081.24808  23227440.560    95112537.84147
  22739013.300   119494334.05308  22739010.420    93112461.04647
  22153654.420   116418468.98909  22153651.040    90715772.96248
  21460298.140   112774805.96409  21460298.380    87876529.73148
  23221373.100   124131563.48707  23221377.380    96546797.28305
  21722093.500   115913294.87909  21722096.880    90154819.54908
  23207995.840   124234246.82808  23208002.440    96626631.14707
  20615265.180   110161717.38808  20615269.520    85681349.29808
  20840983.120   111328801.59108  20840985.640    86589084.46108
  20632301.540   110407633.42008  20632302.680    85872616.34808
  20753705.200   110785020.77509  20753708.440    86166261.46708
 15 03 04 00 39  0.0000000  0 13G16G18G19G21G22G27R01R02R03R15R16R17
                                R18
  20526159.680   107865722.27909  20526156.500    84051209.62549
  22040446.560   115823481.90509  22040444.420    90252131.42447
  23214400.480   121992537.39808  23214397.040    95059127.09047
  22752331.220   119564320.26008  22752328.380    93166995.74147
  22139829.120   116345816.14809  22139825.500    90659160.41248
  21452016.780   112731287.37809  21452017.060    87842619.15549
  23230155.980   124178512.99507  23230160.320    96583313.57705
  21711954.600   115859192.85209  21711958.060    90112740.23008
  23186164.500   124117384.08107  23186170.680    96535738.61507
  20632262.320   110252545.21808  20632266.780    85751993.09508
  20833197.100   111287209.66708  20833199.560    86556735.18408
  20639982.980   110448738.81908  20639984.160    85904587.21708
  20748241.920   110755856.49109  20748245.000    86143578.14108
 15 03 04 00 39 30.0000000  0 13G16G18G19G21G22G27R01R02R03R15R16R17
                                R18
  20521127.840   107839279.80009  20521124.700    84030605.09549
  22037979.180   115810515.75909  22037977.100    90242027.95247
  23201376.020   121924093.48008  23201372.480    95005794.21647
  22765673.980   119634436.86708  22765671.160    93221632.04347
  22126061.480   116273466.54609  22126057.700    90602784.14948
  21443761.520   112687905.59209  21443761.740    87808815.17548
  23239066.340   124226143.92507  23239070.740    96620359.87505
  21701932.440   115805713.72609  21701936.020    90071145.40008
  23164341.540   124000566.93407  23164347.460    96444881.45207
  20649364.860   110343936.12708  20649369.360    85823074.84208
  20825558.280   111246404.24208  20825560.720    86524997.62208
  20647684.800   110489953.39208  20647686.040    85936642.98708
  20742814.860   110726886.02509  20742817.900    86121045.57108
 15 03 04 00 40  0.0000000  0 13G16G18G19G21G22G27R01R02R03R15R16R17
                                R18
  20516185.700   107813308.59209  20516182.600    84010367.79949
  22035602.640   115798027.15709  22035600.620    90232296.60647
  23188370.920   121855751.59408  23188367.320    94952540.85947
  22779041.660   119704684.51208  22779038.860    93276370.47247
  22112352.400   116201425.03609  22112348.560    90546647.97648
  21435532.840   112644663.23409  21435532.960    87775119.85448
  23248104.300   124274457.01407  23248108.800    96657936.74105
  21692028.000   115752862.87308  21692031.680    90030039.22508
  23142528.140   123883801.89107  23142534.120    96354064.95507
  20666572.360   110435887.58608  20666576.900    85894592.59208
  20818067.440   111206389.37808  20818069.920    86493874.94908
  20655407.340   110531278.47708  20655408.580    85968784.72108
  20737424.260   110698110.92209  20737427.400    86098664.96308
 15 03 04 00 40 30.0000000  0 13G16G18G19G21G22G27R01R02R03R15R16R17
                                R18
  20511333.100   107787807.87009  20511330.020    83990497.10648
  22033316.760   115786014.60309  22033314.700    90222936.19547
  23175384.760   121787509.42808  23175381.180    94899365.20547
  22792433.580   119775059.30908  22792430.780    93331207.96847
  22098701.860   116129691.54509  22098698.120    90490751.80648
  21427330.320   112601558.17809  21427330.280    87741531.50948
  23257268.980   124323448.08007  23257273.740    96696040.91505
  21682241.480   115700641.00209  21682245.280    89989422.25308
  23120724.840   123767090.91707  23120730.940    96263290.50607
  20683883.780   110528394.34708  20683888.380    85966542.21808
  20810724.440   111167164.39608  20810726.980    86463366.62308
  20663150.040   110572711.11708  20663151.200    86001010.09208
  20732069.500   110669527.75409  20732072.860    86076433.63308
 15 03 04 00 41  0.0000000  0 13G16G18G19G21G22G27R01R02R03R15R16R17
                                R18
  20506570.340   107762779.44509  20506567.240    83970994.44149
  22031121.680   115774479.06409  22031119.560    90213947.48647
  23162417.700   121719367.45908  23162414.160    94846267.62447
  22805849.440   119845559.85608  22805846.620    93386143.45347
  22085110.460   116058268.77109  22085106.800    90435097.75848
  21419154.060   112558591.00809  21419153.880    87708050.60648
  23266560.180   124373115.38708  23266565.180    96734671.05005
  21672573.580   115649051.69409  21672577.420    89949297.27308
  23098932.600   123650438.83807  23098938.720    96172561.89806
  20701298.180   110621451.14208  20701302.760    86038919.65008
  20803529.720   111128731.44208  20803532.300    86433474.32408
  20670912.760   110614250.60408  20670913.800    86033318.57808
  20726750.560   110641135.88709  20726754.140    86054351.09208
 15 03 04 00 41 30.0000000  0 13G16G18G19G21G22G27R01R02R03R15R16R17
                                R18
  20501897.680   107738224.77709  20501894.620    83951860.92848
  22029017.560   115763421.70309  22029015.360    90205331.38147
  23149469.760   121651325.75408  23149466.240    94793248.16147
  22819288.920   119916184.49808  22819286.020    93441175.63147
  22071578.760   115987159.77709  22071575.200    90379688.20648
  21411004.080   112515762.18809  21411003.840    87674677.50748
  23275977.700   124423457.27408  23275982.740    96773825.85205
  21663024.980   115598098.51409  21663028.740    89909667.05308
  23077152.100   123533849.43507  23077158.100    96081881.91306
  20718815.060   110715055.45308  20718819.560    86111722.93708
  20796483.680   111091092.34208  20796486.160    86404199.45808
  20678695.320   110655896.49908  20678696.240    86065709.82108
  20721467.500   110612934.76509  20721471.160    86032416.91108
 15 03 04 00 42  0.0000000  0 13G16G18G19G21G22G27R01R02R03R15R16R17
                                R18
  20497315.360   107714144.96909  20497312.340    83933097.44148
  22027004.400   115752842.30509  22027002.080    90197087.72147
  23136540.800   121583383.87908  23136537.380    94740306.47847
  22832751.660   119986931.26108  22832748.680    93496302.96746
  22058107.200   115916366.63809  22058103.680    90324524.77648
  21402880.380   112473071.60409  21402880.080    87641412.13048
  23285521.000   124474471.46508  23285525.960    96813503.57305
  21653596.040   115547783.74209  21653599.760    89870533.38708
  23055384.180   123417326.88407  23055389.880    95991253.88706
  20736433.420   110809201.77208  20736437.840    86184947.78508
  20789586.540   111054248.36108  20789588.860    86375543.02408
  20686497.480   110697647.34008  20686498.300    86098182.69508
  20716220.020   110584922.99509  20716223.580    86010629.99708
 15 03 04 00 42 30.0000000  0 13G16G18G19G21G22G27R01R02R03R15R16R17
                                R18
  20492824.020   107690543.23809  20492821.040    83914706.47849
  22025082.680   115742743.47709  22025080.260    90189218.51647
  23123631.180   121515543.52308  23123627.780    94687443.90247
  22846237.580   120057799.81308  22846234.500    93551525.20147
  22044696.540   115845893.58009  22044693.080    90269610.75648
  21394783.320   112430521.22009  21394783.020    87608255.99248
  23295190.120   124526157.83008  23295194.840    96853704.09605
  21644287.780   115498112.66709  21644291.320    89831900.36208
  23033629.880   123300877.09707  23033635.220    95900682.42006
  20754152.680   110903887.28908  20754157.040    86258592.00708
  20782838.820   111018202.59708  20782841.000    86347507.43208
  20694319.400   110739504.23308  20694320.240    86130738.03808
  20711008.220   110557101.30509  20711011.620    85988990.92008
 15 03 04 00 43  0.0000000  0 13G16G18G19G21G22G27R01R02R03R15R16R17
                                R18
  20488423.500   107667418.78309  20488420.580    83896687.42848
  22023252.100   115733123.57809  22023249.580    90181722.51847
  23110740.500   121447802.63408  23110737.100    94634658.84347
  22859745.960   120128786.44508  22859742.840    93606839.46047
  22031346.800   115775740.52309  22031343.380    90214946.10148
  21386712.560   112388109.16309  21386712.300    87575207.65048
  23304984.220   124578512.02608  23304988.580    96894424.04905
  21635100.240   115449085.76909  21635103.620    89793768.37408
  23011889.700   123184502.48107  23011894.660    95810169.40906
  20771971.600   110999105.62308  20771975.940    86332650.64508
  20776240.420   110982954.66408  20776242.500    86320092.39208
  20702160.640   110781463.97908  20702161.460    86163373.40008
  20705831.400   110529466.64509  20705834.620    85967497.31208
 15 03 04 00 43 30.0000000  0 13G16G18G19G21G22G27R01R02R03R15R16R17
                                R18
  20484114.660   107644775.95709  20484111.740    83879043.66849
  22021513.260   115723985.96409  22021510.720    90174602.31647
  23097869.260   121380163.75308  23097865.820    94581953.25347
  22873276.960   120199892.16208  22873273.820    93662246.49647
  22018058.900   115705912.57809  22018055.520    90160534.76948
  21378668.620   112345838.29409  21378668.380    87542269.32148
  23314903.320   124631534.65008  23314907.320    96935663.88505
  21626034.560   115400709.07209  21626037.760    89756142.08908
  22990164.800   123068209.74607  22990169.520    95719720.10906
  20789889.980   111094855.88208  20789894.420    86407122.98808
  20769792.080   110948508.73808  20769794.140    86293301.10608
  20710021.580   110823528.64608  20710022.300    86196090.34708
  20700689.860   110502020.67509  20700693.000    85946150.46708
 15 03 04 00 44  0.0000000  0 13G16G18G19G21G22G27R01R02R03R15R16R17
                                R18
  20479897.520   107622614.75309  20479894.540    83861775.21148
  22019866.060   115715329.88009  22019863.540    90167857.34647
  23085017.180   121312625.61708  23085013.700    94529326.18747
  22886830.060   120271114.02808  22886826.960    93717744.05646
  22004833.240   115636411.46309  22004829.820    90106378.12648
  21370651.320   112303707.79109  21370651.200    87509440.37948
  23324946.860   124685222.43008  23324950.540    96977421.08005
  21617091.060   115352984.35409  21617094.120    89719022.92208
  22968455.760   122952001.87007  22968460.420    95629336.86406
  20807906.720   111191131.72608  20807911.280    86482004.13308
  20763493.820   110914864.79608  20763495.940    86267133.60608
  20717901.820   110865696.17908  20717902.360    86228887.32108
  20695583.320   110474761.31609  20695586.380    85924948.77108
 15 03 04 00 44 30.0000000  0 13G16G18G19G21G22G27R01R02R03R15R16R17
                                R18
  20475772.340   107600936.35209  20475769.260    83844882.94948
  22018310.600   115707155.86409  22018308.100    90161488.00147
  23072184.240   121245188.37208  23072180.760    94476777.72147
  22900404.860   120342450.02608  22900401.780    93773330.52947
  21991670.260   115567239.39209  21991666.800    90052477.86448
  21362660.720   112261717.81409  21362660.740    87476720.93449
  23335114.360   124739573.10108  23335117.900    97019693.84105
  21608270.220   115305914.24309  21608273.100    89682412.86908
  22946763.280   122835883.11607  22946767.980    95539022.89107
  20826020.920   111287928.72108  20826025.620    86557290.59608
  20757345.900   110882024.29308  20757348.160    86241590.98408
  20725801.060   110907965.73908  20725801.420    86261763.63908
  20690511.600   110447687.61609  20690514.560    85903891.46008
 15 03 04 00 45  0.0000000  0 13G16G18G19G21G22G27R01R02R03R15R16R17
                                R18
  20471739.680   107579743.88509  20471736.500    83828369.33649
  22016847.300   115699466.27409  22016844.820    90155496.12547
  23059370.840   121177853.74808  23059367.300    94424309.23247
  22914001.420   120413900.26308  22913998.320    93829006.02247
  21978570.700   115498400.20309  21978567.120    89998836.98548
  21354697.300   112219870.30909  21354697.360    87444112.49448
  23345405.720   124794585.92508  23345409.140    97062481.62405
  21599572.920   115259503.39909  21599575.700    89646315.58608
  22925088.480   122719859.33507  22925093.320    95448782.71207
  20844232.300   111385244.66708  20844237.040    86632980.69308
  20751348.980   110849990.28308  20751351.360    86216675.63008
  20733719.420   110950338.35908  20733719.720    86294720.11608
  20685474.780   110420800.33609  20685477.680    85882979.14808
 15 03 04 00 45 30.0000000  0 13G16G18G19G21G22G27R01R02R03R15R16R17
                                R18
  20467799.540   107559037.93109  20467796.320    83812234.83849
  22015476.000   115692260.30909  22015473.600    90149881.11047
  23046576.740   121110620.40608  23046573.020    94371919.66447
  22927619.240   120485462.38708  22927616.140    93884768.71847
  21965534.740   115429895.36409  21965531.080    89945456.65048
  21346760.960   112178164.69509  21346761.000    87411614.63049
  23355820.500   124850258.46008  23355823.880    97105782.52205
  21590999.460   115213753.85709  21591002.200    89610732.65008
  22903432.100   122603934.07507  22903437.040    95358619.13707
  20862539.820   111483074.28208  20862544.580    86709070.32208
  20745503.200   110818763.19908  20745505.600    86192387.90908
  20741656.640   110992812.21208  20741656.940    86327755.34008
  20680472.440   110394097.49209  20680475.340    85862210.29208
 15 03 04 00 46  0.0000000  0 13G16G18G19G21G22G27R01R02R03R15R16R17
                                R18
  20463951.700   107538817.22409  20463948.480    83796478.43249
  22014196.280   115685535.70809  22014193.960    90144641.17747
  23033801.520   121043486.14108  23033797.620    94319607.29447
  22941257.420   120557131.81208  22941254.400    93940615.01347
  21952562.400   115361725.05709  21952558.700    89892336.96948
  21338851.260   112136598.71709  21338851.200    87379225.55649
  23366357.640   124906585.44308  23366361.040    97149592.40805
  21582549.820   115168665.91409  21582552.740    89575664.27008
  22881794.420   122488108.80807  22881799.400    95268533.29107
  20880942.020   111581409.47408  20880946.720    86785553.15808
  20739808.240   110788341.56308  20739810.620    86168726.62208
  20749612.120   111035384.08708  20749612.500    86360866.79508
  20675503.880   110367575.60309  20675506.840    85841582.17108
 15 03 04 00 46 30.0000000  0 13G16G18G19G21G22G27R01R02R03R15R16R17
                                R18
  20460197.280   107519087.71109  20460194.120    83781104.77949
  22013009.380   115679298.64809  22013007.100    90139781.14147
  23021046.040   120976455.64608  23021042.060    94267375.77147
  22954916.640   120628911.95508  22954913.660    93996547.58547
  21939655.000   115293896.25409  21939651.320    89839483.40448
  21330969.160   112095177.59509  21330969.000    87346949.36749
  23377017.680   124963569.79208  23377021.100    97193913.57605
  21574225.580   115124247.36909  21574228.740    89541116.53808
  22860177.380   122372393.19307  22860182.260    95178532.69607
  20899438.960   111680251.22708  20899443.620    86862429.99408
  20734265.240   110758731.74008  20734267.580    86145696.75308
  20757586.760   111078058.45708  20757587.180    86394057.96308
  20670570.000   110341238.92909  20670573.000    85821098.10208
 15 03 04 00 47  0.0000000  0 13G16G18G19G21G22G27R01R02R03R15R16R17
                                R18
  20456535.980   107499847.71809  20456532.900    83766112.57848
  22011914.760   115673546.20309  22011912.500    90135298.73447
  23008309.660   120909525.70908  23008305.740    94215222.60847
  22968595.980   120700797.77908  22968593.080    94052562.50746
  21926812.380   115226407.75509  21926808.660    89786895.01248
  21323114.020   112053898.21109  21323113.760    87314783.63048
  23387799.600   125021205.83608  23387803.100    97238741.62904
  21566026.660   115080497.47909  21566030.020    89507088.88308
  22838581.020   122256787.67307  22838585.720    95088617.72707
  20918029.400   111779592.53908  20918034.060    86939695.37808
  20728873.740   110729931.45908  20728876.100    86123296.53508
  20765579.680   111120830.58208  20765580.140    86427325.16708
  20665670.040   110315082.84509  20665673.040    85800754.50408
 15 03 04 00 47 30.0000000  0 13G16G18G19G21G22G27R01R02R03R15R16R17
                                R18
  20452968.300   107481099.62509  20452965.280    83751503.67349
  22010912.600   115668279.58509  22010910.300    90131194.90147
  22995592.620   120842697.42608  22995588.780    94163148.65047
  22982295.320   120772788.64308  22982292.420    94108659.28347
  21914035.220   115159263.33409  21914031.520    89734574.73348
  21315286.120   112012762.09309  21315285.740    87282729.52348
  23398703.180   125079492.47607  23398706.740    97284075.71804
  21557953.880   115037420.30909  21557957.320    89473584.45308
  22817006.380   122141298.04407  22817010.820    94998792.85907
  20936712.600   111879429.58808  20936717.280    87017346.33508
  20723634.140   110701942.75608  20723636.520    86101527.54108
  20773591.120   111163701.47708  20773591.580    86460669.18708
  20660804.080   110289107.83909  20660807.020    85780551.73508
 15 03 04 00 48  0.0000000  0 13G16G18G19G21G22G27R01R02R03R15R16R17
                                R18
  20449494.780   107462846.14909  20449491.780    83737280.18149
  22010003.340   115663501.05809  22010000.980    90127471.38247
  22982895.200   120775972.73708  22982891.540    94111155.42747
  22996014.740   120844884.88708  22996011.840    94164838.15746
  21901324.400   115092467.46309  21901320.660    89682526.03948
  21307485.900   111971771.46909  21307485.460    87250788.79148
  23409728.300   125138429.13607  23409731.980    97329915.35904
  21550008.040   114995020.46209  21550011.540    89440606.82108
  22795454.640   122025930.90408  22795458.800    94909063.22207
  20955488.100   111979759.74208  20955492.780    87095380.80808
  20718547.080   110674768.95508  20718549.540    86080392.35008
  20781621.220   111206672.00708  20781621.720    86494090.69508
  20655972.240   110263314.98809  20655975.160    85760490.64008
 15 03 04 00 48 30.0000000  0 13G16G18G19G21G22G27R01R02R03R15R16R17
                                R18
  20446115.680   107445088.57709  20446112.620    83723443.11249
  22009186.860   115659210.11909  22009184.440    90124127.81147
  22970217.340   120709351.05308  22970213.940    94059242.46947
  23009753.860   120917084.40208  23009750.960    94221097.51247
  21888680.080   115026021.47809  21888676.320    89630750.00448
  21299713.280   111930926.04609  21299712.840    87218961.19948
  23420874.480   125198013.11507  23420878.300    97376258.48304
  21542189.620   114953300.15009  21542193.100    89408157.72308
  22773926.420   121910689.48408  22773930.260    94819431.32706
  20974354.980   112080578.39108  20974359.680    87173795.22308
  20713612.640   110648410.42308  20713615.160    86059891.26108
  20789669.760   111249741.32708  20789670.320    86527589.05308
  20651174.140   110237702.66909  20651177.160    85740569.96208
 15 03 04 00 49  0.0000000  0 13G16G18G19G21G22G27R01R02R03R15R16R17
                                R18
  20442830.920   107427826.77909  20442827.800    83709992.36049
  22008463.080   115655406.29609  22008460.620    90121163.81447
  22957558.920   120642831.17508  22957555.640    94007408.84147
  23023512.000   120989383.90308  23023509.060    94277434.77746
  21876102.620   114959927.18109  21876098.860    89579248.00648
  21291968.080   111890224.96309  21291967.740    87187246.07149
  23432141.120   125258240.38207  23432145.020    97423101.94904
  21534498.860   114912260.84709  21534502.300    89376238.30308
  22752422.280   121795576.84008  22752425.800    94729899.59107
  20993312.140   112181879.43108  20993316.860    87252584.83408
  20708830.840   110622866.97508  20708833.340    86040024.11808
  20797736.180   111292907.33108  20797736.960    86561162.59908
  20646409.440   110212268.70809  20646412.560    85720788.00208
 15 03 04 00 49 30.0000000  0 14G04G16G18G19G21G22G27R01R02R03R15R16
                                R17R18
  24605570.780   129303150.94107  24605585.000   100755696.46343
  20439640.440   107411060.66409  20439637.300    83696927.85349
  22007831.800   115652088.77309  22007829.300    90118578.75447
  22944919.720   120576411.93008  22944916.460    93955653.63447
  23037288.620   121061780.35908  23037285.600    94333847.59847
  21863592.220   114894185.28209  21863588.460    89528020.60148
  21284250.120   111849667.23309  21284249.900    87155642.65949
  23443527.540   125319107.50207  23443531.580    97470443.07504
  21526935.980   114871903.69709  21526939.360    89344849.44508
  22730942.780   121680596.46008  22730946.220    94640470.73507
  21012358.580   112283657.48408  21012363.340    87331745.44808
  20704201.540   110598138.14908  20704204.040    86020790.57708
  20805820.260   111336167.71808  20805821.260    86594809.56908
  20641677.780   110187011.06809  20641680.940    85701143.19408
 15 03 04 00 50  0.0000000  0 14G04G16G18G19G21G22G27R01R02R03R15R16
                                R17R18
  24586154.020   129201115.64408  24586168.300   100676188.91244
  20436545.980   107394799.28609  20436542.840    83684256.64349
  22007294.600   115649265.74509  22007292.080    90116379.00647
  22932301.280   120510101.38808  22932297.920    93903983.12347
  23051084.940   121134280.25808  23051081.840    94390341.00747
  21851150.780   114828805.75709  21851147.040    89477075.56648
  21276561.080   111809261.29709  21276560.960    87124157.52248
  23455034.700   125380619.82707  23455038.900    97518286.01704
  21519503.000   114832239.56109  21519506.240    89313999.58908
  22709490.300   121565760.53608  22709493.560    94551154.20307
  21031494.760   112385915.14508  21031499.560    87411279.09308
  20699726.440   110574233.01108  20699728.900    86002197.68808
  20813923.600   111379530.35708  20813924.620    86628536.05808
  20636980.600   110161937.11209  20636983.720    85681641.22408
 15 03 04 00 50 30.0000000  0 14G04G16G18G19G21G22G27R01R02R03R15R16
                                R17R18
  24566763.760   129099220.05707  24566777.860   100596790.20844
  20433545.540   107379031.86709  20433542.380    83671970.34549
  22006849.260   115646925.54109  22006846.780    90114555.50147
  22919701.240   120443887.28208  22919697.720    93852387.76147
  23064898.420   121206870.45608  23064895.320    94446904.80246
  21838776.560   114763779.16009  21838772.820    89426405.54548
  21268898.740   111768995.36509  21268898.640    87092781.48849
  23466659.880   125442762.53707  23466664.100    97566619.25604
  21512198.100   114793258.61409  21512201.220    89283681.11008
  22688063.260   121451061.05307  22688066.420    94461943.78107
  21050717.760   112488636.39308  21050722.580    87491173.31608
  20695403.440   110551140.18508  20695405.860    85984236.60308
  20822043.720   111422982.40108  20822044.660    86662332.09608
  20632315.380   110137033.50309  20632318.340    85662271.77008
 15 03 04 00 51  0.0000000  0 14G04G16G18G19G21G22G27R01R02R03R15R16
                                R17R18
  24547401.220   128997470.17908  24547415.260   100517505.03544
  20430640.240   107363764.44109  20430637.060    83660073.64748
  22006496.680   115645072.74709  22006494.160    90113111.77747
  22907120.560   120377774.73408  22907116.760    93800871.52947
  23078729.660   121279553.75808  23078726.440    94503541.12746
  21826470.800   114699112.19309  21826467.120    89376015.74748
  21261264.040   111728874.52809  21261263.900    87061518.49849
  23478403.420   125505538.45307  23478407.720    97615444.97004
  21505022.620   114754968.15809  21505025.600    89253899.66008
  22666663.440   121336507.45807  22666666.520    94372846.81107
  21070027.520   112591821.48708  21070032.400    87571428.28908
  20691233.520   110528865.14608  20691235.900    85966911.57408
  20830181.300   111466527.61208  20830182.140    86696200.58108
  20627682.760   110112304.13809  20627685.620    85643037.82908
 15 03 04 00 51 30.0000000  0 14G04G16G18G19G21G22G27R01R02R03R15R16
                                R17R18
  24528067.480   128895872.26307  24528081.540   100438338.22344
  20427831.260   107349003.14709  20427828.060    83648571.34649
  22006237.920   115643712.89609  22006235.320    90112052.17647
  22894560.080   120311768.61208  22894556.080    93749438.23247
  23092579.220   121352333.64508  23092575.960    94560252.71946
  21814234.960   114634812.51509  21814231.320    89325912.15648
  21253658.000   111688904.39409  21253657.840    87030372.96249
  23490265.740   125568950.06007  23490270.160    97664765.12104
  21497978.000   114717376.23009  21497980.880    89224661.52508
  22645292.680   121222109.24107  22645295.600    94283870.70807
  21089424.160   112695471.06008  21089429.080    87652044.52408
  20687217.900   110507414.19208  20687220.280    85950227.49708
  20838337.220   111510171.02808  20838337.980    86730145.46408
  20623083.620   110087753.53109  20623086.440    85623942.93508
 15 03 04 00 52  0.0000000  0 14G04G16G18G19G21G22G27R01R02R03R15R16
                                R17R18
  24508761.700   128794421.54607  24508775.720   100359286.15944
  20425117.600   107334742.92209  20425114.420    83637459.48049
  22006071.920   115642840.51509  22006069.260    90111372.41547
  22882018.660   120245862.85808  22882014.560    93698083.12947
  23106445.680   121425202.06608  23106442.340    94617033.29546
  21802068.240   114570875.93609  21802064.580    89276091.49048
  21246079.460   111649079.00309  21246079.340    86999340.20449
  23502245.220   125632988.24307  23502249.740    97714572.61504
  21491063.360   114680478.57809  21491066.320    89195963.37908
  22623950.700   121107864.46808  22623953.380    94195013.93107
  21108905.580   112799573.85908  21108910.540    87733013.25408
  20683355.440   110486781.43408  20683357.860    85934179.79308
  20846510.160   111553905.57308  20846510.840    86764161.21308
  20618516.580   110063374.40709  20618519.460    85604981.40908
 15 03 04 00 52 30.0000000  0 14G04G16G18G19G21G22G27R01R02R03R15R16
                                R17R18
  24489484.540   128693121.23107  24489498.280   100280351.31144
  20422499.900   107320987.04409  20422496.780    83626740.61349
  22005999.000   115642457.53909  22005996.300    90111074.00247
  22869496.720   120180059.60309  22869492.480    93646807.89547
  23120329.080   121498159.63408  23120325.620    94673883.34146
  21789971.560   114507307.29509  21789967.820    89226557.53248
  21238528.920   111609400.92609  21238528.860    86968422.23449
  23514341.820   125697652.97007  23514346.520    97764867.41504
  21484279.640   114644280.07409  21484282.780    89167809.01408
  22602638.600   120993779.72008  22602641.080    94106281.59407
  21128471.560   112904128.37208  21128476.520    87814333.32008
  20679646.720   110466969.96608  20679649.180    85918770.85808
  20854700.420   111597732.91008  20854701.000    86798249.13708
  20613981.960   110039168.24909  20613984.900    85586154.40608
 15 03 04 00 53  0.0000000  0 14G04G16G18G19G21G22G27R01R02R03R15R16
                                R17R18
  24470236.760   128591975.47008  24470250.340   100201537.13644
  20419978.900   107307739.30709  20419975.860    83616417.69949
  22006019.700   115642566.82009  22006017.000    90111159.17147
  22856994.720   120114361.46808  22856990.460    93595614.57747
  23134229.680   121571207.67008  23134226.200    94730803.88947
  21777945.840   114444111.49709  21777941.980    89177314.10048
  21231006.960   111569873.21109  21231006.980    86937621.43049
  23526555.640   125762943.88607  23526560.460    97815649.25504
  21477627.820   114608785.65709  21477631.160    89140202.26508
  22581357.660   120879861.94208  22581360.020    94017679.11707
  21148121.720   113009132.56208  21148126.720    87896003.14408
  20676092.360   110447983.06008  20676094.820    85904003.25908
  20862908.300   111641654.94908  20862908.880    86832410.72608
  20609480.060   110015136.79609  20609483.060    85567463.29208
 15 03 04 00 53 30.0000000  0 14G04G16G18G19G21G22G27R01R02R03R15R16
                                R17R18
  24451017.920   128490982.06207  24451031.380   100122841.68343
  20417554.240   107294997.61509  20417551.220    83606489.10349
  22006133.580   115643165.65209  22006130.860    90111625.81047
  22844512.200   120048765.69208  22844507.880    93544501.01147
  23148146.640   121644341.37008  23148143.160    94787791.17746
  21765990.880   114381287.64809  21765986.900    89128360.49448
  21223513.140   111530493.26809  21223513.240    86906935.77249
  23538885.740   125828855.63107  23538890.480    97866913.96405
  21471107.860   114573994.69809  21471111.340    89113142.65408
  22560108.260   120766112.92208  22560110.440    93929207.88507
  21167854.440   113114577.73208  21167859.440    87978015.94008
  20672691.880   110429818.25808  20672694.360    85889875.06308
  20871133.260   111685668.52408  20871133.880    86866643.50208
  20605010.200   109991276.17909  20605013.160    85548905.04308
 15 03 04 00 54  0.0000000  0 14G04G16G18G19G21G22G27R01R02R03R15R16
                                R17R18
  24431828.700   128390144.94707  24431841.960   100044268.22044
  20415226.620   107282765.96809  20415223.640    83596957.94549
  22006341.020   115644256.23509  22006338.300    90112475.63147
  22832049.660   119983274.85508  22832045.400    93493469.21647
  23162080.020   121717561.71308  23162076.600    94844845.98046
  21754107.580   114318840.41709  21754103.420    89079700.35148
  21216048.020   111491263.98209  21216048.180    86876367.50549
  23551331.960   125895387.76907  23551336.660    97918661.20205
  21464720.760   114539912.14609  21464724.320    89086634.02308
  22538891.600   120652539.44108  22538893.740    93840873.17107
  21187669.480   113220462.34208  21187674.380    88060370.53008
  20669445.840   110412478.65308  20669448.380    85876388.69308
  20879375.620   111729775.16508  20879376.320    86900948.65508
  20600572.600   109967588.16709  20600575.560    85530481.03908
 15 03 04 00 54 30.0000000  0 14G04G16G18G19G21G22G27R01R02R03R15R16
                                R17R18
  24412669.240   128289465.12507  24412682.380    99965817.31244
  20412996.240   107271045.18109  20412993.280    83587824.87149
  22006642.220   115645839.56409  22006639.500    90113709.40447
  22819607.160   119917889.16809  22819602.940    93442519.36747
  23176029.540   121790867.06208  23176026.260    94901967.02146
  21742296.280   114256771.83709  21742292.020    89031335.27148
  21208611.700   111452185.72009  21208611.780    86845916.92649
  23563893.820   125962537.86707  23563898.460    97970889.07205
  21458466.980   114506540.16209  21458470.420    89060678.05608
  22517708.520   120539145.70508  22517710.640    93752678.25807
  21207565.780   113326781.37208  21207570.640    88143062.99708
  20666354.380   110395964.79408  20666356.940    85863544.58408
  20887635.300   111773974.51208  20887636.020    86935325.92308
  20596167.180   109944071.89609  20596170.180    85512190.62708
 15 03 04 00 55  0.0000000  0 14G04G16G18G19G21G22G27R01R02R03R15R16
                                R17R18
  24393539.460   128188941.81207  24393552.640    99887488.53144
  20410862.880   107259834.26509  20410859.940    83579089.09249
  22007036.840   115647913.57909  22007034.120    90115325.53247
  22807184.280   119852606.57208  22807180.140    93391649.83247
  23189994.600   121864254.03908  23189991.420    94959151.66847
  21730557.120   114195082.45609  21730552.820    88983265.66648
  21201203.920   111413257.08409  21201203.840    86815582.94149
  23576570.320   126030301.21207  23576574.980    98023593.90205
  21452346.440   114473879.10709  21452349.720    89035275.03608
  22496559.480   120425934.30408  22496561.600    93664625.14107
  21227542.280   113433529.10108  21227547.140    88226088.89408
  20663417.220   110380275.02608  20663419.760    85851341.41908
  20895911.900   111818264.23308  20895912.600    86969773.47508
  20591793.440   109920724.67609  20591796.440    85494031.69308
 15 03 04 00 55 30.0000000  0 14G04G16G18G19G21G22G27R01R02R03R15R16
                                R17R18
  24374440.380   128088580.48807  24374453.540    99809286.01344
  20408827.640   107249138.84109  20408824.660    83570754.99349
  22007525.660   115650482.36409  22007522.900    90117327.19347
  22794781.760   119787431.28608  22794777.740    93340863.92447
  23203975.680   121937725.28708  23203972.580    95016401.98346
  21718891.320   114133778.63309  21718887.060    88935496.49348
  21193825.460   111374482.77609  21193825.240    86785369.20049
  23589361.740   126098679.15507  23589366.400    98076776.76205
  21446360.320   114441935.66909  21446363.420    89010430.15008
  22475446.280   120312914.48608  22475448.380    93576721.03407
  21247599.020   113540705.89408  21247603.920    88309448.50108
  20660635.260   110365414.33508  20660637.800    85839783.09808
  20904206.100   111862648.11108  20904206.760    87004294.27108
  20587452.060   109897550.06309  20587455.100    85476007.00008
 15 03 04 00 56  0.0000000  0 14G04G16G18G19G21G22G27R01R02R03R15R16
                                R17R18
  24355371.320   127988376.97207  24355384.420    99731206.43544
  20406889.720   107238955.00009  20406886.740    83562819.53149
  22008107.720   115653540.97609  22008104.940    90119710.54547
  22782398.760   119722358.62609  22782394.920    93290157.98747
  23217971.560   122011274.30908  23217968.640    95073712.89046
  21707298.420   114072857.78509  21707294.180    88888025.74748
  21186475.440   111335858.18909  21186475.100    86755272.13049
  23602266.760   126167664.09408  23602271.380    98130431.72505
  21440508.060   114410707.03009  21440511.080    88986141.23808
  22454368.600   120200084.90308  22454370.700    93488964.87507
  21267734.020   113648300.83908  21267738.940    88393133.32308
  20658007.640   110351377.97808  20658010.200    85828865.92308
  20912516.780   111907120.44708  20912517.520    87038883.86208
  20583141.960   109874542.16809  20583144.940    85458111.97508
 15 03 04 00 56 30.0000000  0 14G04G16G18G19G21G22G27R01R02R03R15R16
                                R17R18
  24336332.800   127888334.06107  24336345.840    99653251.91244
  20405049.600   107229285.04909  20405046.620    83555284.50049
  22008783.400   115657091.48309  22008780.520    90122477.18447
  22770035.600   119657390.24109  22770031.820    93239533.29947
  23231982.300   122084901.15208  23231979.420    95131084.44946
  21695779.060   114012323.38909  21695774.860    88840856.12748
  21179154.240   111297385.35209  21179153.840    86725293.30648
  23615285.200   126237254.77008  23615289.640    98184557.82805
  21434790.280   114380196.66609  21434793.340    88962410.97508
  22433327.680   120087452.03008  22433329.760    93401361.70307
  21287946.920   113756311.97208  21287951.900    88477141.85608
  20655534.660   110338167.75708  20655537.240    85818591.29408
  20920844.160   111951682.56308  20920844.980    87073543.28708
  20578863.240   109851701.65409  20578866.100    85440347.12808
 15 03 04 00 57  0.0000000  0 14G04G16G18G19G21G22G27R01R02R03R15R16
                                R17R18
  24317325.280   127788453.83508  24317338.220    99575424.16245
  20403307.620   107220130.84809  20403304.600    83548151.36149
  22009552.800   115661134.67609  22009549.900    90125627.74447
  22757692.500   119592527.03109  22757688.680    93188990.57647
  23246007.640   122158604.74808  23246004.840    95188515.82046
  21684333.840   113952178.62809  21684329.700    88793990.12248
  21171862.120   111259065.53409  21171861.720    86695433.71749
  23628416.680   126307449.25707  23628420.840    98239153.56805
  21429207.620   114350407.45309  21429210.800    88939241.62108
  22412324.480   119975021.06707  22412326.560    93313915.57707
  21308236.860   113864734.74708  21308241.960    88561470.55608
  20653216.540   110325784.98208  20653219.140    85808960.25308
  20929188.280   111996334.53408  20929189.240    87108272.59808
  20574615.900   109829028.83209  20574618.600    85422712.73008
 15 03 04 00 57 30.0000000  0 14G04G16G18G19G21G22G27R01R02R03R15R16
                                R17R18
  24298348.700   127688735.72507  24298361.420    99497722.85044
  20401663.600   107211491.60409  20401660.580    83541419.48049
  22010415.540   115665668.53909  22010412.640    90129160.64347
  22745369.300   119527767.55309  22745365.280    93138528.67047
  23260047.100   122232382.42208  23260044.320    95246004.90646
  21672962.840   113892423.89609  21672958.760    88747428.04048
  21164598.860   111220897.53309  21164598.580    86665692.42649
  23641660.240   126378242.87807  23641664.240    98294215.28605
  21423760.360   114321340.05409  21423763.600    88916633.67108
  22391359.500   119862794.73108  22391361.620    93226628.60107
  21328602.580   113973562.51008  21328607.820    88646114.23608
  20651053.080   110314228.10508  20651055.600    85799971.57108
  20937548.940   112041074.63608  20937549.960    87143070.44908
  20570399.460   109806521.16509  20570402.100    85405206.78108
 15 03 04 00 58  0.0000000  0 14G04G16G18G19G21G22G27R01R02R03R15R16
                                R17R18
  24279403.420   127589182.07608  24279416.000    99420149.74144
  20400117.900   107203368.99009  20400114.920    83535090.16649
  22011371.840   115670694.33909  22011369.060    90133076.86447
  22733066.000   119463112.68109  22733061.760    93088148.27147
  23274100.480   122306233.39808  23274097.760    95303551.11546
  21661666.620   113833062.01609  21661662.540    88701172.07148
  21157364.780   111182882.67709  21157364.620    86636070.45949
  23655015.500   126449633.82807  23655019.380    98349741.58405
  21418449.000   114292997.49209  21418452.220    88894589.48908
  22370433.780   119750778.43308  22370435.920    93139504.97707
  21349043.520   114082792.06708  21349048.840    88731070.41408
  20649044.400   110303498.16708  20649046.900    85791626.05708
  20945926.220   112085902.92608  20945927.180    87177936.89908
  20566213.860   109784178.78609  20566216.580    85387829.39408
 15 03 04 00 58 30.0000000  0 14G04G16G18G19G21G22G27R02R03R09R15R16
                                R17R18
  24260490.240   127489797.22107  24260502.700    99342708.30444
  20398671.460   107195767.79409  20398668.460    83529167.15349
  22012422.320   115676215.22509  22012419.680    90137378.87547
  22720783.300   119398566.03209  22720778.860    93037852.19947
  23288168.120   122380159.38508  23288165.440    95361155.78046
  21650446.300   113774098.98109  21650442.200    88655226.88848
  21150160.640   111145024.80809  21150160.540    86606570.83549
  21413274.440   114265384.87209  21413277.680    88873113.03408
  22349548.760   119638979.97108  22349550.860    93052550.79207
  23578449.280   125907603.79407  23578450.200    97928139.45503
  21369559.360   114192421.97208  21369564.740    88816337.97408
  20647191.200   110293598.68608  20647193.700    85783926.45508
  20954320.500   112130822.46508  20954321.460    87212874.31108
  20562059.700   109762004.38009  20562062.540    85370582.65008
 15 03 04 00 59  0.0000000  0 14G04G16G18G19G21G22G27R02R03R09R15R16
                                R17R18
  24241608.080   127390575.85107  24241620.340    99265394.34444
  20397323.180   107188682.27509  20397320.140    83523645.97349
  22013565.880   115682224.79409  22013563.240    90142061.67247
  22708519.920   119334121.03809  22708515.380    92987635.34347
  23302248.540   122454152.63908  23302245.860    95418812.86146
  21639301.080   113715530.45809  21639296.920    88609589.12248
  21142985.280   111107318.00509  21142985.240    86577188.92149
  21408235.820   114238497.81409  21408239.000    88852200.90308
  22328704.060   119527397.50308  22328706.100    92965764.57407
  23560015.520   125809169.09407  23560016.740    97851579.19303
  21390147.920   114302440.62608  21390153.340    88901907.88608
  20645492.280   110284523.25408  20645494.820    85776867.77908
  20962730.580   112175826.50408  20962731.580    87247877.44908
  20557935.680   109739990.59109  20557938.600    85353460.83508
 15 03 04 00 59 30.0000000  0 14G04G16G18G19G21G22G27R02R03R09R15R16
                                R17R18
  24222758.740   127291527.26307  24222770.720    99188215.06244
  20396074.800   107182121.74709  20396071.680    83518533.86549
  22014804.100   115688731.47909  22014801.460    90147131.83747
  22696277.420   119269786.28709  22696272.900    92937504.39148
  23316342.920   122528219.41008  23316340.300    95476527.20847
  21628232.900   113657366.69509  21628228.680    88564266.74548
  21135840.400   111069771.08209  21135840.320    86547931.58449
  21403335.080   114212346.58209  21403338.240    88831861.08508
  22307902.100   119416043.74008  22307904.100    92879156.23907
  23541670.360   125711207.04108  23541671.300    97775386.47103
  21410810.140   114412852.93108  21410815.580    88987783.97208
  20643949.260   110276280.52308  20643951.860    85770456.75808
  20971158.060   112220923.07708  20971159.020    87282952.55708
  20553843.300   109718145.25009  20553846.220    85336470.02108
 15 03 04 01 00  0.0000000  0 14G04G16G18G19G21G22G27R02R03R09R15R16
                                R17R18
  24203941.760   127192648.63107  24203953.340    99111168.17245
  20394925.740   107176083.17009  20394922.540    83513828.48249
  22016136.200   115695731.28909  22016133.500    90152586.25047
  22684055.100   119205558.08009  22684050.740    92887456.47248
  23330450.420   122602354.86508  23330447.740    95534295.09746
  21617241.340   113599605.90209  21617237.120    88519258.37948
  21128725.340   111032380.66309  21128725.180    86518796.21749
  21398571.900   114186929.36809  21398574.980    88812092.17508
  22287142.860   119304919.29507  22287145.040    92792726.28007
  23523413.680   125613717.41708  23523414.520    97699561.20203
  21431544.340   114523649.54908  21431549.740    89073958.97008
  20642561.360   110268866.39908  20642564.000    85764690.20908
  20979601.980   112266107.68208  20979602.860    87318096.13908
  20549781.660   109696463.65109  20549784.520    85319606.56608
 15 03 04 01 00 30.0000000  0 14G04G16G18G19G21G22G27R02R03R09R15R16
                                R17R18
  24185157.240   127093940.40508  24185168.440    99034254.05245
  20393876.000   107170566.74909  20393872.820    83509529.96649
  22017561.880   115703223.24009  22017559.220    90158424.14747
  22671852.900   119141435.97708  22671848.780    92837491.23048
  23344570.620   122676556.99808  23344567.880    95592114.94146
  21606326.640   113542249.09709  21606322.460    88474564.80048
  21121640.020   110995146.64009  21121639.760    86489782.70349
  21393946.500   114162247.26509  21393949.480    88792895.00108
  22266427.260   119194028.26008  22266429.520    92706477.84707
  23505246.040   125516703.24408  23505247.000    97624105.74003
  21452349.560   114634825.60208  21452354.900    89160429.07908
  20641328.480   110262280.29309  20641331.100    85759567.66908
  20988062.160   112311379.40508  20988062.960    87353307.46608
  20545750.480   109674944.56009  20545753.260    85302869.50708
 15 03 04 01 01  0.0000000  0 14G04G16G18G19G21G22G27R02R03R09R15R16
                                R17R18
  24166405.560   126995404.65608  24166416.340    98957474.30345
  20392925.980   107165574.41809  20392922.820    83505639.83249
  22019081.420   115711208.56409  22019078.840    90164646.49347
  22659671.060   119077421.24708  22659667.260    92787609.66948
  23358703.420   122750825.57908  23358700.740    95649986.55646
  21595489.600   113485300.28309  21595485.440    88430189.14448
  21114584.760   110958070.55209  21114584.400    86460892.25549
  21389459.360   114138303.13509  21389462.260    88774271.80708
  22245756.260   119083375.77408  22245758.620    92620414.94207
  23487168.260   125420169.21208  23487169.380    97549023.74203
  21473225.100   114746377.20208  21473230.360    89247191.27708
  20640250.860   110256523.36209  20640253.380    85755090.05208
  20996538.740   112356738.89008  20996539.460    87388587.05508
  20541749.740   109653588.19609  20541752.480    85286259.01208
 15 03 04 01 01 30.0000000  0 14G04G16G18G19G21G22G27R02R03R09R15R16
                                R17R18
  24147686.560   126897040.73708  24147696.920    98880828.41444
  20392075.540   107161105.14109  20392072.400    83502157.27949
  22020694.500   115719685.43209  22020691.940    90171251.87047
  22647509.360   119013512.01309  22647505.780    92737810.30248
  23372848.180   122825156.83108  23372845.540    95707907.00346
  21584730.140   113428759.18909  21584726.000    88386131.19148
  21107559.340   110921151.15109  21107558.840    86432123.91149
  21385110.480   114115096.89409  21385113.360    88756222.54008
  22225130.480   118972964.74408  22225132.820    92534539.82807
  23469180.820   125324117.40908  23469182.080    97474316.79404
  21494169.600   114858297.07108  21494174.720    89334239.91207
  20639328.060   110251593.37408  20639330.420    85751255.62108
  21005031.240   112402183.78808  21005031.860    87423933.08708
  20537779.020   109632392.03109  20537781.760    85269773.12908
 15 03 04 01 02  0.0000000  0 14G04G16G18G19G21G22G27R02R03R09R15R16
                                R17R18
  24129000.880   126798851.93908  24129010.960    98804318.93845
  20391325.260   107157162.22009  20391322.120    83499084.86649
  22022401.460   115728655.83609  22022398.960    90178241.81147
  22635368.300   118949710.84009  22635364.700    92688095.12547
  23387005.040   122899551.62808  23387002.440    95765876.95346
  21574049.180   113372630.38909  21574045.000    88342394.49948
  21100564.200   110884391.23209  21100563.580    86403479.83249
  21380900.620   114092632.72009  21380903.580    88738750.42508
  22204551.140   118862801.92008  22204553.420    92448857.76007
  23451284.680   125228553.54808  23451286.160    97399989.36604
  21515182.940   114970584.91208  21515187.960    89421574.74207
  20638560.480   110247492.65408  20638562.720    85748066.16808
  21013540.100   112447716.60908  21013540.660    87459347.49408
  20533838.680   109611357.83109  20533841.320    85253413.20608
 15 03 04 01 02 30.0000000  0 14G04G16G18G19G21G22G27R02R03R09R15R16
                                R17R18
  24110348.600   126700839.01608  24110358.380    98727946.48945
  20390675.140   107153745.68209  20390672.060    83496422.63149
  22024202.160   115738119.07509  22024199.760    90185615.77847
  22623247.900   118886017.47409  22623244.140    92638463.96248
  23401173.660   122974007.93708  23401171.040    95823894.85446
  21563446.940   113316915.30209  21563442.700    88298980.18848
  21093599.380   110847790.76909  21093598.640    86374960.00149
  21376830.000   114070911.57109  21376833.120    88721856.21908
  22184018.940   118752891.52908  22184021.180    92363372.02507
  23433480.520   125133480.69008  23433482.160    97326043.83004
  21536263.960   115083234.65808  21536268.960    89509191.04407
  20637947.840   110244220.20108  20637950.080    85745520.92508
  21022065.140   112493336.19808  21022065.760    87494829.38708
  20529928.380   109590484.24309  20529930.980    85237178.20908
 15 03 04 01 03  0.0000000  0 14G04G16G18G19G21G22G27R02R03R09R15R16
                                R17R18
  24091729.720   126603001.28608  24091739.360    98651710.50745
  20390125.040   107150854.77709  20390122.000    83494169.98049
  22026096.380   115748073.55709  22026093.980    90193372.53647
  22611147.840   118822430.59609  22611143.760    92588915.77247
  23415353.500   123048523.15708  23415350.760    95881958.65846
  21552923.540   113261614.34909  21552919.220    88255888.57848
  21086664.640   110811348.72709  21086663.900    86346563.62449
  21372898.700   114049933.72109  21372901.960    88705540.14208
  22163534.400   118643236.33008  22163536.540    92278084.78207
  23415768.640   125038900.98107  23415770.500    97252481.87604
  21557411.280   115196238.65008  21557416.300    89597082.86207
  20637489.940   110241774.56308  20637492.240    85743618.75408
  21030606.060   112539040.52508  21030606.760    87530377.20208
  20526047.720   109569769.19709  20526050.380    85221066.52408
 15 03 04 01 03 30.0000000  0 14G04G16G18G19G21G22G27R02R03R09R15R16
                                R17R18
  24073144.980   126505342.60508  24073154.300    98575613.99445
  20389675.600   107148493.14809  20389672.620    83492329.74049
  22028084.480   115758521.58709  22028082.120    90201513.86847
  22599068.600   118758952.84209  22599064.160    92539452.60847
  23429544.800   123123098.49508  23429542.020    95940069.30346
  21542479.780   113206732.19009  21542475.420    88213123.29448
  21079760.700   110775068.51909  21079760.000    86318293.33448
  21369107.540   114029703.74609  21369110.880    88689805.74508
  22143098.900   118533843.58108  22143100.840    92193001.64307
  23398150.260   124944820.85607  23398152.280    97179308.44604
  21578624.840   115309596.96208  21578629.940    89685250.24907
  20637187.300   110240158.12308  20637189.620    85742361.50008
  21039163.380   112584832.28008  21039164.140    87565992.99708
  20522197.100   109549214.69709  20522199.880    85205079.70308
 15 03 04 01 04  0.0000000  0 14G04G16G18G19G21G22G27R02R03R09R15R16
                                R17R18
  24054593.840   126407860.35008  24054602.800    98499654.93345
  20389326.260   107146657.62009  20389323.340    83490899.45549
  22030165.800   115769459.01309  22030163.420    90210036.55047
  22587009.400   118695580.52009  22587004.620    92490071.59647
  23443746.520   123197728.54108  23443743.620    95998222.57346
  21532115.280   113152266.84609  21532110.980    88170682.80048
  21072886.920   110738946.78709  21072886.260    86290146.53449
  21365456.140   114010219.01109  21365459.460    88674650.98208
  22122712.520   118424713.72808  22122714.180    92108122.97007
  23380625.380   124851239.92307  23380627.620    97106523.32104
  21599902.880   115423299.84308  21599908.060    89773685.63607
  20637039.060   110239366.33208  20637041.400    85741745.65608
  21047736.260   112630707.16408  21047737.100    87601673.45708
  20518375.640   109528816.13009  20518378.560    85189214.16108
 15 03 04 01 04 30.0000000  0 14G04G16G18G19G21G22G27R02R03R09R15R16
                                R17R18
  24036077.480   126310560.67508  24036086.200    98423838.11045
  20389078.140   107145354.05809  20389075.240    83489883.69549
  22032341.340   115780891.22209  22032338.880    90218944.78547
  22574971.260   118632319.22309  22574966.260    92440777.10947
  23457959.380   123272417.23008  23457956.320    96056421.55446
  21521831.540   113098226.03409  21521827.320    88128573.11448
  21066044.360   110702989.22809  21066043.800    86262127.67749
  21361945.720   113991486.41209  21361948.980    88660081.21108
  22102377.060   118315856.89208  22102378.580    92023456.66507
  23363195.660   124758167.02307  23363197.900    97034133.30504
  21621245.420   115537347.37208  21621250.680    89862389.08607
  20637046.220   110239404.31208  20637048.480    85741775.19208
  21056325.660   112676670.17108  21056326.500    87637422.46108
  20514584.320   109508578.16709  20514587.280    85173473.54008
 15 03 04 01 05  0.0000000  0 14G04G16G18G19G21G22G27R02R03R09R15R16
                                R17R18
  24017595.260   126213440.38308  24017603.680    98348161.02645
  20388930.600   107144578.98009  20388927.660    83489279.73649
  22034610.180   115792813.45509  22034607.620    90228234.84747
  22562953.360   118569164.68709  22562948.340    92391565.80347
  23472182.260   123347158.69908  23472179.140    96114661.64146
  21511628.080   113044607.03109  21511623.920    88086792.11248
  21059232.360   110667192.15009  21059231.880    86234233.85849
  21358575.740   113973503.37409  21358578.940    88646094.43508
  22082092.600   118207273.05308  22082094.000    91939002.67407
  23345860.900   124665601.37107  23345863.300    96962137.85104
  21642651.140   115651732.24308  21642656.460    89951354.89507
  20637207.760   110240267.08608  20637209.960    85742446.23608
  21064930.760   112722716.61608  21064931.500    87673236.35908
  20510822.240   109488495.95009  20510825.120    85157854.04808
 15 03 04 01 05 30.0000000  0 14G04G16G18G19G21G22G27R02R03R09R15R16
                                R17R18
  23999148.140   126116504.14108  23999156.160    98272627.33645
  20388884.480   107144336.56809  20388881.420    83489090.84349
  22036972.940   115805229.34109  22036970.260    90237909.58647
  22550956.480   118506120.98609  22550951.560    92342440.87247
  23486415.680   123421955.51508  23486412.460    96172944.87146
  21501506.040   112991415.77809  21501501.940    88045344.42348
  21052451.720   110631559.88509  21052451.340    86206468.47449
  21355347.160   113956274.90009  21355350.280    88632694.54908
  22061860.760   118098970.69108  22061862.080    91854767.60807
  23328622.620   124573550.45107  23328625.040    96890542.72903
  21664119.620   115766452.40608  21664124.960    90040581.49007
  20637524.340   110241958.12209  20637526.520    85743761.48608
  21073552.080   112768850.03808  21073552.640    87709117.90508
  20507089.920   109468572.41209  20507092.660    85142357.98408
 15 03 04 01 06  0.0000000  0 14G04G16G18G19G21G22G27R02R03R09R15R16
                                R17R18
  23980736.060   126019751.75708  23980743.640    98197236.88345
  20388939.580   107144626.01509  20388936.420    83489316.37749
  22039429.260   115818136.88009  22039426.500    90247967.42147
  22538980.400   118443186.89109  22538975.700    92293401.34247
  23500658.960   123496804.29908  23500655.580    96231268.59046
  21491465.480   112938652.56009  21491461.360    88004230.26048
  21045702.280   110596091.51509  21045701.940    86178830.79749
  21352259.960   113939800.78309  21352263.040    88619881.37708
  22041682.060   117990952.45508  22041683.280    91770753.52207
  23311481.140   124482016.13107  23311483.340    96819349.38103
  21685649.500   115881501.11108  21685654.920    90130063.59507
  20637995.560   110244475.17709  20637997.780    85745719.18908
  21082189.220   112815068.90208  21082189.620    87745065.90208
  20503386.900   109448805.51209  20503389.580    85126983.73608
 15 03 04 01 06 30.0000000  0 14G04G16G18G19G21G22G27R02R03R09R15R16
                                R17R18
  23962359.060   125923183.66208  23962366.280    98121989.97545
  20389095.980   107145447.88909  20389092.780    83489956.79849
  22041978.940   115831535.26809  22041976.120    90258407.73647
  22527025.160   118380362.09409  22527020.640    92244446.98747
  23514911.880   123571703.67908  23514908.460    96289631.73546
  21481506.700   112886319.14309  21481502.620    87963451.00748
  21038984.080   110560787.30109  21038983.780    86151321.03849
  21349314.320   113924082.31809  21349317.400    88607655.94208
  22021557.300   117883222.75608  22021558.420    91686963.85608
  23294437.160   124391001.81008  23294439.180    96748560.48303
  21707240.180   115996875.08608  21707245.780    90219798.68307
  20638621.240   110247817.33809  20638623.520    85748318.64208
  21090842.120   112861372.56408  21090842.420    87781079.86108
  20499713.000   109429194.40309  20499715.740    85111730.66008
 15 03 04 01 07  0.0000000  0 14G04G16G18G19G21G22G27R02R03R09R15R16
                                R17R18
  23944017.780   125826803.37408  23944024.680    98046889.38445
  20389354.280   107146805.28909  20389351.100    83491014.51049
  22044622.420   115845426.92809  22044619.600    90269232.42447
  22515091.220   118317649.29909  22515086.860    92195579.91448
  23529174.660   123646654.78908  23529171.180    96348035.19746
  21471630.380   112834419.39609  21471626.400    87923009.68948
  21032297.680   110525650.16909  21032297.400    86123941.47149
  21346510.980   113909123.15309  21346514.020    88596021.06308
  22001487.780   117775788.57008  22001488.820    91603404.03408
  23277491.640   124300513.15008  23277493.440    96678180.41603
  21728891.020   116112570.27208  21728896.820    90309783.60707
  20639401.800   110251986.54809  20639404.080    85751561.35508
  21099511.260   112907763.13508  21099511.460    87817161.41408
  20496068.600   109409740.66309  20496071.400    85096599.99008
 15 03 04 01 07 30.0000000  0 14G04G16G18G19G21G22G27R02R03R09R15R16
                                R17R18
  23925711.720   125730607.90308  23925718.300    97971932.77345
  20389713.800   107148694.53409  20389710.640    83492486.63749
  22047358.840   115859807.28509  22047356.020    90280437.90647
  22503177.900   118255044.99209  22503173.640    92146797.35748
  23543446.240   123721652.24008  23543442.720    96406474.74346
  21461836.260   112782951.49509  21461832.340    87882904.85748
  21025642.520   110490676.83809  21025642.180    86096689.52949
  21343849.520   113894920.67409  21343852.480    88584974.70708
  21981473.500   117668650.41808  21981474.480    91520074.44508
  23260644.560   124210549.73508  23260646.040    96608208.85003
  21750600.600   116228579.25208  21750606.540    90400012.57307
  20640336.240   110256977.88108  20640338.520    85755443.49008
  21108195.760   112954236.22908  21108195.960    87853307.14608
  20492452.960   109390439.92309  20492455.760    85081588.29708
 15 03 04 01 08  0.0000000  0 14G04G16G18G19G21G22G27R02R03R09R15R16
                                R17R18
  23907441.720   125634601.77308  23907448.020    97897123.66345
  20390175.280   107151119.74409  20390172.200    83494376.40749
  22050188.780   115874679.55609  22050186.040    90292026.70647
  22491285.920   118192552.58309  22491281.680    92098101.99848
  23557726.980   123796698.00108  23557723.380    96464951.94746
  21452125.460   112731921.15909  21452121.580    87843140.99048
  21019019.260   110455871.20409  21019018.820    86069568.26149
  21341330.660   113881479.35109  21341333.520    88574520.37808
  21961515.940   117561816.22608  21961516.880    91436981.29107
  23243897.240   124121118.62108  23243898.440    96538651.32803
  21772368.500   116344899.58308  21772374.560    90490483.69607
  20641425.060   110262794.12209  20641427.340    85759967.23108
  21116896.340   113000795.08208  21116896.540    87889519.57608
  20488866.600   109371294.95909  20488869.300    85066697.78608
 15 03 04 01 08 30.0000000  0 14G04G16G18G19G21G22G27R02R03R09R15R16
                                R17R18
  23889207.660   125538784.64108  23889213.720    97822461.80745
  20390738.600   107154080.06309  20390735.600    83496683.14549
  22053111.980   115890041.86109  22053109.380    90303997.35047
  22479415.040   118130170.96409  22479410.840    92049492.98148
  23572016.380   123871789.26308  23572012.680    96523464.61346
  21442497.920   112681328.08509  21442494.060    87803717.84548
  21012427.800   110421232.64009  21012427.260    86042577.18149
  21338954.440   113868799.31409  21338957.180    88564658.14608
  21941615.680   117455288.91908  21941616.560    91354126.81307
  23227249.900   124032221.81508  23227250.900    96469509.37603
  21794193.860   116461526.63208  21794199.940    90581193.36907
  20642667.980   110269433.44208  20642670.200    85765131.13808
  21125612.740   113047438.33608  21125612.980    87925797.64708
  20485309.080   109352303.92509  20485311.660    85051926.99908
 15 03 04 01 09  0.0000000  0 14G04G16G18G19G21G22G27R02R03R09R15R16
                                R17R18
  23871009.700   125443157.26308  23871015.560    97747947.77145
  20391403.800   107157575.72609  20391400.840    83499407.03249
  22056128.340   115905893.52309  22056125.840    90316349.31547
  22467565.260   118067899.93409  22467561.020    92000970.12748
  23586314.180   123946924.46208  23586310.380    96582011.51346
  21432954.040   112631174.55409  21432950.140    87764637.20748
  21005868.220   110386761.52809  21005867.580    86015716.58549
  21336720.940   113856881.35209  21336723.680    88555388.64408
  21921773.560   117349073.20908  21921774.480    91271514.68107
  23210703.240   123943862.62008  23210704.140    96400785.57004
  21816075.560   116578454.86908  21816081.680    90672137.30107
  20644064.700   110276894.46608  20644066.840    85770934.15508
  21134344.840   113094165.39908  21134345.160    87962140.91108
  20481780.080   109333466.09709  20481782.680    85037275.37108
 15 03 04 01 09 30.0000000  0 14G04G16G18G19G21G22G27R02R03R09R15R16
                                R17R18
  23852848.160   125347721.41007  23852853.920    97673582.96645
  20392171.100   107161608.11909  20392168.220    83502549.15449
  22059238.020   115922235.18309  22059235.580    90329083.08047
  22455736.780   118005740.76509  22455732.500    91952534.44048
  23600620.200   124022103.09208  23600616.220    96640592.24746
  21423494.340   112581463.19609  21423490.340    87725901.11248
  20999340.800   110352459.29209  20999340.060    85988987.57849
  21334630.600   113845727.60109  21334633.460    88546713.52808
  21901990.380   117243173.89808  21901991.600    91189148.64808
  23194257.920   123856045.20608  23194258.840    96332483.14904
  21838012.880   116695680.58308  21838019.080    90763312.57907
  20645615.220   110285177.07408  20645617.300    85777376.17708
  21143092.720   113140977.12808  21143093.160    87998550.01908
  20478279.700   109314781.37009  20478282.320    85022742.82308
 15 03 04 01 10  0.0000000  0 14G04G16G18G19G21G22G27R02R03R09R15R16
                                R17R18
  23834723.200   125252477.77607  23834728.880    97599367.90445
  20393040.580   107166177.44409  20393037.720    83506109.66549
  22062440.720   115939065.61709  22062438.320    90342197.72047
  22443929.520   117943693.13509  22443925.220    91904185.65948
  23614934.220   124097323.61408  23614930.140    96699205.64546
  21414119.000   112532195.02009  21414114.860    87687510.35948
  20992845.520   110318326.09209  20992844.720    85962390.28549
  21332683.520   113835338.44209  21332686.460    88538633.09908
  21882267.180   117137595.42708  21882268.620    91107032.14908
  23177914.520   123768772.60208  23177915.600    96264604.43504
  21860004.800   116813197.79208  21860010.980    90854714.58107
  20647319.260   110294280.06008  20647321.360    85784456.26708
  21151856.340   113187873.10908  21151856.920    88035024.66108
  20474807.840   109296249.02609  20474810.480    85008328.79608
 15 03 04 01 10 30.0000000  0 14G04G16G18G19G21G22G27R02R03R09R15R16
                                R17R18
  23816635.340   125157429.05307  23816641.020    97525304.70445
  20394012.680   107171286.03409  20394009.840    83510090.38349
  22065736.760   115956386.20609  22065734.300    90355694.29547
  22432143.880   117881759.13609  22432139.660    91855925.43248
  23629256.300   124172586.35808  23629252.220    96757851.92946
  21404828.660   112483373.64909  21404824.380    87649467.76348
  20986382.760   110284364.24809  20986382.000    85935926.52949
  21330880.360   113825716.74109  21330883.320    88531149.58208
  21862605.080   117032343.92708  21862606.700    91025169.96308
  23161673.900   123682049.79607  23161675.400    96197153.39704
  21882051.060   116931004.98808  21882057.240    90946342.11307
  20649177.040   110304204.18709  20649179.180    85792175.02408
  21160635.840   113234854.55108  21160636.600    88071565.77008
  20471364.800   109277870.23709  20471367.440    84994034.20108
 15 03 04 01 11  0.0000000  0 14G04G16G18G19G21G22G27R02R03R09R15R16
                                R17R18
  23798584.480   125062574.75907  23798590.080    97451392.97745
  20395087.200   107176932.66509  20395084.340    83514490.35249
  22069125.760   115974195.08709  22069123.220    90369571.35847
  22420379.640   117819937.62009  22420375.420    91807752.84448
  23643585.780   124247888.50208  23643581.780    96816528.92246
  21395623.460   112434999.68409  21395619.020    87611773.79348
  20979952.440   110250573.03809  20979951.800    85909595.72449
  21329221.020   113816862.24409  21329224.020    88524262.77508
  21843004.800   116927422.72008  21843006.460    90943564.66308
  23145536.620   123595879.00907  23145538.560    96130131.67204
  21904150.260   117049094.80708  21904156.400    91038189.46307
  20651188.080   110314946.95408  20651190.240    85800530.50108
  21169431.020   113281919.93308  21169431.900    88108172.16808
  20467950.180   109259642.79109  20467952.840    84979857.30808
 15 03 04 01 11 30.0000000  0 14G04G16G18G19G21G22G27R02R03R09R15R16
                                R17R18
  23780570.620   124967914.87507  23780576.120    97377632.72345
  20396264.000   107183116.83209  20396261.100    83519309.18049
  22072607.440   115992490.91909  22072604.800    90383827.85747
  22408636.720   117758228.02709  22408632.500    91759667.47448
  23657922.340   124323227.72508  23657918.340    96875234.79446
  21386503.480   112387073.66909  21386498.940    87574428.87948
  20973554.500   110216952.20609  20973554.000    85883397.68849
  21327705.500   113808774.80809  21327708.460    88517972.57408
  21823466.900   116822835.29308  21823468.520    90862218.95908
  23129503.200   123510262.61307  23129505.440    96063541.15204
  21926301.340   117167461.88908  21926307.460    91130252.44407
  20653352.020   110326506.39509  20653354.200    85809521.17108
  21178241.800   113329068.30608  21178242.680    88144843.11408
  20464563.800   109241565.70109  20464566.460    84965797.35208
 15 03 04 01 12  0.0000000  0 14G04G16G18G19G21G22G27R02R03R09R15R16
                                R17R18
  23762594.660   124873453.53107  23762599.960    97304027.11845
  20397543.820   107189842.26909  20397540.880    83524549.77249
  22076182.200   116011276.07809  22076179.520    90398465.65447
  22396915.660   117696633.52309  22396911.440    91711671.78948
  23672266.260   124398605.86708  23672262.440    96933970.99446
  21377469.640   112339600.47509  21377465.060    87537436.80648
  20967189.660   110183505.53209  20967189.320    85857335.36149
  21326334.520   113801458.77209  21326337.400    88512282.33408
  21803992.680   116718589.12808  21803994.340    90781138.69408
  23113574.980   123425207.14407  23113577.360    95997386.89304
  21948504.240   117286105.65908  21948510.340    91222530.60307
  20655669.220   110338884.62909  20655671.480    85819148.67208
  21187068.640   113376302.62008  21187069.460    88181580.89908
  20461206.040   109223641.24109  20461208.660    84951856.11308
 15 03 04 01 12 30.0000000  0 14G04G16G18G19G21G22G27R02R03R09R15R16
                                R17R18
  23744656.020   124779187.99607  23744661.180    97230574.10345
  20398925.960   107197105.32709  20398923.000    83530209.29249
  22079849.240   116030546.35409  22079846.540    90413481.45747
  22385215.860   117635150.91909  22385211.680    91663763.29148
  23686616.720   124474018.19908  23686612.980    96992733.82746
  21368521.680   112292578.42809  21368517.040    87500796.27948
  20960857.380   110150229.86509  20960857.140    85831406.28349
  21325107.500   113794911.13409  21325110.320    88507189.75408
  21784582.360   116614685.01908  21784584.040    90700324.47608
  23097751.760   123340711.91708  23097754.100    95931668.39204
  21970756.980   117405016.02608  21970763.080    91315016.11807
  20658138.760   110352076.54908  20658141.060    85829409.04408
  21195910.780   113423618.73408  21195911.520    88218382.31108
  20457876.020   109205865.14409  20457878.620    84938030.26608
 15 03 04 01 13  0.0000000  0 14G04G16G18G19G21G22G27R02R03R09R15R16
                                R17R18
  23726755.580   124685122.69308  23726760.440    97157277.07844
  20400411.200   107204909.90609  20400408.140    83536290.78049
  22083609.120   116050304.75909  22083606.360    90428877.63947
  22373537.960   117573783.60209  22373533.800    91615944.62948
  23700974.060   124549466.65308  23700970.440    97051524.81246
  21359660.500   112246012.59709  21359655.840    87464511.24848
  20954558.500   110117129.31809  20954558.260    85805613.65849
  21324025.260   113789136.11509  21324028.000    88502698.08908
  21765237.540   116511130.94808  21765239.180    90619782.50008
  23082034.880   123256783.97108  23082037.120    95866391.10504
  21993059.700   117524193.27908  21993065.780    91407709.20307
  20660761.060   110366084.54608  20660763.380    85840304.14708
  21204768.960   113471020.55408  21204769.620    88255250.38508
  20454574.260   109188240.54609  20454577.000    84924322.26308
 15 03 04 01 13 30.0000000  0 14G04G16G18G19G21G22G27R02R03R09R15R16
                                R17R18
  23708893.020   124591256.29807  23708897.600    97084135.02145
  20401999.220   107213254.45309  20401996.020    83542793.01649
  22087461.340   116070548.53809  22087458.560    90444652.02047
  22361881.600   117512529.69809  22361877.480    91568214.34348
  23715337.640   124624947.65208  23715334.140    97110341.15046
  21350886.020   112199902.45409  21350881.360    87428581.29948
  20948292.660   110084202.43309  20948292.440    85779956.34749
  21323087.500   113784132.35209  21323090.200    88498806.29308
  21745958.640   116407929.34708  21745960.240    90539514.66808
  23066424.460   123173424.13408  23066426.240    95801555.65704
  22015410.760   117643629.07408  22015416.880    91500603.35207
  20663535.480   110380905.19008  20663537.860    85851831.29108
  21213642.660   113518505.30908  21213643.280    88292182.94908
  20451300.280   109170764.68909  20451303.200    84910729.95208
 15 03 04 01 14  0.0000000  0 14G04G16G18G19G21G22G27R02R03R09R15R16
                                R17R18
  23691068.920   124497591.96708  23691073.140    97011150.39744
  20403690.420   107222141.32209  20403687.140    83549717.84348
  22091406.220   116091279.05909  22091403.420    90460805.68747
  22350247.300   117451391.80109  22350243.260    91520574.45148
  23729707.620   124700462.27808  23729704.160    97169183.70546
  21342198.880   112154251.52909  21342194.260    87393009.18148
  20942060.460   110051451.99309  20942060.240    85754436.53449
  21322294.800   113779902.60709  21322297.420    88495516.52408
  21726746.860   116305086.73308  21726748.340    90459526.05108
  23050921.520   123090638.13208  23050922.820    95737166.54704
  22037809.980   117763322.26808  22037816.180    91593697.70407
  20666462.240   110396539.42408  20666464.600    85863991.24108
  21222532.340   113566075.34608  21222532.900    88329181.85408
  20448054.520   109153439.22109  20448057.560    84897254.60208
 15 03 04 01 14 30.0000000  0 14G04G16G18G19G21G22G27R02R03R09R15R16
                                R17R18
  23673283.140   124404128.67108  23673287.160    96938322.41745
  20405484.380   107231568.65909  20405481.120    83557063.82249
  22095443.180   116112493.51909  22095440.340    90477336.44847
  22338634.760   117390368.14509  22338630.820    91473023.58048
  23744083.340   124776007.03608  23744079.980    97228049.73446
  21333599.140   112109059.93009  21333594.500    87357794.97948
  20935861.560   110018876.60609  20935861.320    85729053.13049
  21321646.900   113776445.71009  21321649.500    88492827.85308
  21707602.500   116202605.28508  21707603.820    90379818.32708
  23035526.220   123008426.98608  23035527.160    95673224.55904
  22060255.960   117883265.65508  22060262.280    91686986.62407
  20669540.640   110412983.58608  20669542.980    85876781.12308
  21231437.540   113613728.61108  21231438.100    88366245.49208
  20444836.540   109136261.50009  20444839.560    84883894.16508
 15 03 04 01 15  0.0000000  0 15G04G16G18G19G21G22G27R02R03R09R15R16
                                R17R18R19
  23655536.080   124310868.94308  23655539.800    96865653.03845
  20407381.500   107241538.43809  20407378.320    83564832.47349
  22099572.440   116134193.21009  22099569.640    90494245.31747
  22327044.460   117329461.05409  22327040.540    91425563.54048
  23758464.920   124851582.81208  23758461.680    97286939.93346
  21325087.400   112064330.93609  21325082.800    87322941.24448
  20929696.500   109986478.95809  20929696.220    85703808.22349
  21321144.380   113773764.31909  21321146.980    88490742.34908
  21688526.820   116100491.78808  21688528.040    90300396.79508
  23020239.460   122926795.90008  23020239.900    95609733.70204
  22082748.180   118003455.98808  22082754.620    91780467.59707
  20672770.860   110430238.48908  20672773.100    85890201.58908
  21240358.540   113661466.75108  21240359.080    88403375.14608
  20441646.660   109119233.34009  20441649.580    84870650.05208
  23641085.580   126463865.63107  23641087.560    98360792.09906
 15 03 04 01 15 30.0000000  0 15G04G16G18G19G21G22G27R02R03R09R15R16
                                R17R18R19
  23637827.520   124217811.48808  23637830.980    96793141.24745
  20409381.520   107252048.98009  20409378.420    83573022.49749
  22103793.560   116156375.42709  22103790.800    90511530.16947
  22315475.940   117268668.19209  22315472.040    91378192.50348
  23772851.720   124927185.87808  23772848.540    97345851.40545
  21316663.580   112020063.85209  21316659.040    87288447.43948
  20923564.960   109954257.29509  20923564.640    85678700.44049
  21320786.900   113771856.58209  21320789.520    88489258.57908
  21669520.220   115998748.20908  21669521.360    90221262.97508
  23005061.340   122845745.67408  23005061.640    95546694.64404
  22105285.340   118123886.94908  22105292.020    91874135.70107
  20676152.120   110448300.23608  20676154.240    85904249.60208
  21249295.040   113709287.54808  21249295.460    88440569.08908
  20438484.200   109102351.50909  20438486.980    84857519.74208
  23628111.400   126394462.88807  23628113.440    98306812.27206
 15 03 04 01 16  0.0000000  0 15G04G16G18G19G21G22G27R02R03R09R15R16
                                R17R18R19
  23620158.240   124124960.80508  23620161.560    96720790.56345
  20411485.100   107263103.70909  20411482.080    83581636.56149
  22108107.000   116179042.67909  22108104.240    90529192.97347
  22303929.920   117207993.55009  22303926.040    91330913.59048
  23787244.080   125002818.21108  23787240.880    97404785.67446
  21308328.580   111976263.52009  21308324.100    87254317.34148
  20917467.720   109922215.72509  20917467.340    85653732.98849
  21320575.160   113770726.45409  21320577.780    88488379.61208
  21650584.180   115897382.43908  21650585.300    90142422.99608
  22989993.180   122765283.02408  22989993.580    95484112.55904
  22127867.280   118244556.75808  22127874.120    91967989.55807
  20679684.760   110467170.74108  20679686.780    85918926.64708
  21258247.560   113757194.10608  21258247.900    88477829.72908
  20435349.780   109085619.41709  20435352.360    84844505.90008
  23615146.960   126325111.25807  23615148.940    98252872.18606
 15 03 04 01 16 30.0000000  0 15G04G16G18G19G21G22G27R02R03R09R15R16
                                R17R18R19
  23602528.380   124032317.24908  23602531.560    96648601.28345
  20413692.320   107274702.71009  20413689.320    83590674.74649
  22112512.520   116202193.91609  22112509.820    90547232.91847
  22292406.340   117147436.77309  22292402.400    91283726.52448
  23801641.720   125078478.23308  23801638.560    97463741.53346
  21300082.660   111932931.21009  21300078.220    87220551.93748
  20911404.840   109890354.61109  20911404.340    85628906.15549
  21320509.160   113770374.16709  21320511.840    88488105.64308
  21631719.560   115796398.83808  21631720.620    90063880.26407
  22975035.520   122685410.57908  22975036.140    95421989.53804
  22150493.000   118365460.49008  22150499.980    92062025.34707
  20683368.400   110486848.12408  20683370.420    85934231.28308
  21267216.100   113805186.17408  21267216.340    88515156.89508
  20432243.120   109069035.87109  20432245.540    84831607.60108
  23602191.860   126255809.54807  23602193.840    98198970.95106
 15 03 04 01 17  0.0000000  0 15G04G16G18G19G21G22G27R02R03R09R15R16
                                R17R18R19
  23584937.720   123939879.54308  23584940.880    96576572.35245
  20416002.740   107286843.81209  20415999.720    83600135.33749
  22117009.540   116225826.17009  22117006.980    90565647.67047
  22280904.920   117086996.40109  22280900.940    91236630.16048
  23816043.980   125154162.82308  23816041.020    97522716.51845
  21291925.780   111890066.76309  21291921.420    87187151.09448
  20905376.040   109858672.47209  20905375.380    85604218.77149
  21320588.640   113770797.98109  21320591.360    88488435.29708
  21612926.700   115695799.31308  21612927.680    89985636.24808
  22960188.660   122606129.52708  22960189.520    95360326.47704
  22173161.260   118486590.93108  22173168.300    92156237.44707
  20687202.340   110507328.55208  20687204.400    85950160.49208
  21276200.180   113853261.45008  21276200.360    88552548.76408
  20429163.740   109052598.35109  20429166.200    84818822.86908
  23589245.440   126186554.94908  23589247.420    98145106.33906
 15 03 04 01 17 30.0000000  0 16G04G07G16G18G19G21G22G27R02R03R09R15
                                R16R17R18R19
  23567386.980   123847651.35108  23567390.060    96504706.67745
  24532880.920   128921159.44708  24532879.180   100458039.27945
  20418416.840   107299529.76509  20418413.800    83610020.49149
  22121598.380   116249941.31509  22121596.040    90584438.70547
  22269426.140   117026674.94209  22269422.080    91189626.45448
  23830451.140   125229873.05708  23830448.240    97581711.49145
  21283858.720   111847674.05309  21283854.340    87154117.84248
  20899381.860   109827172.50709  20899381.100    85579673.35049
  21320814.120   113772001.10009  21320816.900    88489371.05808
  21594206.780   115595590.72808  21594207.820    89907696.30608
  22945453.600   122527445.30208  22945454.580    95299127.63104
  22195871.660   118607946.50708  22195878.760    92250624.62707
  20691186.800   110528613.00108  20691188.940    85966715.04008
  21285200.240   113901422.42608  21285200.380    88590007.28408
  20426112.080   109036308.94009  20426114.700    84806153.33508
  23576308.220   126117349.44408  23576310.120    98091279.90306
 15 03 04 01 18  0.0000000  0 16G04G07G16G18G19G21G22G27R02R03R09R15
                                R16R17R18R19
  23549876.500   123755634.42608  23549879.380    96433005.61145
  24527316.840   128891920.37108  24527314.940   100435255.57045
  20420934.800   107312761.71809  20420931.760    83620331.10249
  22126279.220   116274539.78709  22126276.960    90603606.36347
  22257970.300   116966474.18509  22257966.120    91142716.80948
  23844863.180   125305608.95108  23844860.300    97640726.47346
  21275881.820   111805755.07409  21275877.380    87121453.73148
  20893422.640   109795856.70509  20893421.840    85555271.43649
  21321185.860   113773984.95409  21321188.680    88490914.07708
  21575560.960   115495779.05608  21575562.120    89830065.07408
  22930831.320   122449362.48608  22930832.380    95238396.56304
  22218623.440   118729523.47508  22218630.680    92345183.99907
  20695321.800   110550701.16208  20695323.960    85983894.71008
  21294216.600   113949670.49508  21294216.640    88627533.54808
  20423088.400   109020168.63809  20423091.200    84793599.78008
  23563380.180   126048193.43908  23563382.040    98037491.98506
 15 03 04 01 18 30.0000000  0 16G04G07G16G18G19G21G22G27R02R03R09R15
                                R16R17R18R19
  23532405.060   123663822.93208  23532407.760    96361464.61545
  24521849.520   128863189.94408  24521847.760   100412868.22845
  20423555.360   107326532.99109  20423552.340    83631061.95949
  22131050.640   116299613.98909  22131048.380    90623144.71947
  22246536.080   116906387.11409  22246531.860    91095895.73548
  23859278.500   125381362.10008  23859275.640    97699754.89745
  21267994.320   111764305.74309  21267989.760    87089155.57748
  20887497.180   109764718.64709  20887496.480    85531008.02249
  21321702.640   113776742.60709  21321705.480    88493058.94108
  21556988.840   115396361.60808  21556990.060    89752740.45908
  22916320.900   122371876.75308  22916321.960    95178129.89604
  22241414.400   118851310.14108  22241421.900    92439906.46207
  20699605.560   110573584.11108  20699607.740    86001692.55108
  21303247.900   113997998.51208  21303247.900    88665121.99408
  20420091.220   109004169.73309  20420094.200    84781156.19708
  23550459.820   125979079.27407  23550461.640    97983736.59106
 15 03 04 01 19  0.0000000  0 16G04G07G16G18G19G21G22G27R02R03R09R15
                                R16R17R18R19
  23514973.860   123572223.05008  23514976.360    96290088.48145
  24516480.240   128834974.45008  24516478.500   100390882.11445
  20426279.620   107340849.48909  20426276.680    83642217.65649
  22135913.460   116325168.55109  22135911.260    90643057.36547
  22235124.620   116846419.95209  22235120.500    91049168.09048
  23873698.040   125457137.48308  23873695.340    97758800.62245
  21260197.380   111723332.40709  21260192.660    87057228.32748
  20881606.800   109733764.89609  20881606.200    85506888.21449
  21322365.600   113780280.49409  21322368.440    88495810.64208
  21538492.340   115297348.62008  21538493.620    89675730.40908
  22901923.980   122294997.05608  22901924.940    95118334.57404
  22264245.000   118973308.30208  22264252.720    92534793.40507
  20704038.800   110597265.78208  20704041.020    86020111.60408
  21312295.220   114046412.36108  21312295.240    88702777.19008
  20417121.640   108988317.85509  20417124.680    84768826.96308
  23537548.180   125910011.89107  23537550.080    97930017.58706
 15 03 04 01 19 30.0000000  0 16G04G07G16G18G19G21G22G27R02R03R09R15
                                R16R17R18R19
  23497582.920   123480834.92708  23497585.360    96218877.35245
  24511209.040   128807273.58408  24511207.280   100369296.99945
  20429107.500   107355710.33209  20429104.620    83653797.52649
  22140867.340   116351201.59509  22140865.160    90663342.86447
  22223735.880   116786572.24709  22223731.900    91002533.54248
  23888121.380   125532932.72808  23888118.720    97817861.83546
  21252491.100   111682835.50609  21252486.240    87025672.32548
  20875751.460   109702995.13409  20875750.920    85482911.78049
  21323174.620   113784597.74609  21323177.440    88499168.53308
  21520072.140   115198743.57208  21520073.420    89599037.65408
  22887640.880   122218725.55408  22887641.720    95059012.31904
  22287114.180   119095512.18008  22287121.980    92629840.41907
  20708621.020   110621743.35708  20708623.300    86039149.69108
  21321358.340   114094910.73308  21321358.320    88740498.12708
  20414179.320   108972611.50309  20414182.340    84756610.91508
  23524645.080   125840989.94307  23524647.020    97876333.91306
 15 03 04 01 20  0.0000000  0 16G04G07G16G18G19G21G22G27R02R03R09R15
                                R16R17R18R19
  23480232.320   123389658.64308  23480234.700    96147831.28145
  24506035.700   128780086.33008  24506033.740   100348112.11645
  20432038.780   107371114.40509  20432035.960    83665800.69549
  22145912.040   116377711.92509  22145909.860    90684000.26947
  22212369.760   116726843.42009  22212365.920    90955991.63148
  23902548.180   125608746.01608  23902545.520    97876937.10646
  21244875.620   111642816.05709  21244870.740    86994488.37248
  20869931.160   109672409.49009  20869930.680    85459078.81949
  21324129.580   113789694.01409  21324132.540    88503132.32008
  21501728.800   115100550.17808  21501730.060    89522665.07908
  22873471.920   122143064.48808  22873472.740    95000164.84204
  22310020.680   119217915.20008  22310028.480    92725042.33007
  20713351.780   110647014.51708  20713354.180    86058805.01208
  21330437.100   114143493.08408  21330437.080    88778284.39008
  20411264.000   108957049.46809  20411266.980    84744507.12108
  23511750.220   125772011.86708  23511752.140    97822684.37406
 15 03 04 01 20 30.0000000  0 16G04G07G16G18G19G21G22G27R02R03R09R15
                                R16R17R18R19
  23462922.580   123298696.95908  23462924.940    96076952.41945
  24500960.500   128753414.88608  24500958.280   100327329.15045
  20435073.960   107387064.18309  20435071.120    83678229.08849
  22151047.740   116404700.31509  22151045.580    90705030.19747
  22201026.760   116667235.82309  22201023.040    90909544.18648
  23916978.420   125684577.61308  23916975.740    97936026.64545
  21237351.560   111603277.29109  21237346.740    86963678.97048
  20864146.340   109642010.38409  20864145.920    85435391.20849
  21325230.920   113795571.15909  21325233.880    88507703.45408
  21483463.440   115002774.36108  21483464.660    89446617.28208
  22859418.060   122068018.72708  22859419.020    94941795.93204
  22332964.020   119340515.02708  22332971.840    92820397.18307
  20718231.120   110673079.19508  20718233.580    86079077.51708
  21339531.980   114192161.31108  21339531.940    88816137.44908
  20408375.960   108941633.33109  20408378.920    84732516.80608
  23498863.980   125703078.95008  23498865.760    97769069.93506
 15 03 04 01 21  0.0000000  0 16G04G07G16G18G19G21G22G27R02R03R09R15
                                R16R17R18R19
  23445653.720   123207949.96308  23445655.920    96006240.82345
  24495983.280   128727258.94007  24495981.060   100306947.89545
  20438212.840   107403558.85209  20438209.980    83691082.06649
  22156274.060   116432164.91709  22156271.860    90726431.19547
  22189706.880   116607749.16609  22189703.140    90863190.97148
  23931411.860   125760425.71208  23931409.160    97995129.04045
  21229919.200   111564220.05909  21229914.380    86933244.79348
  20858397.060   109611798.02109  20858396.700    85411849.12049
  21326478.520   113802228.72309  21326481.400    88512881.57508
  21465276.780   114905420.16108  21465278.020    89370897.40908
  22845479.740   121993590.43507  22845480.920    94883907.26004
  22355943.560   119463308.17308  22355951.340    92915902.49107
  20723258.560   110699934.80508  20723261.040    86099965.19308
  21348642.840   114240914.98908  21348642.800    88854056.96508
  20405515.160   108926362.15709  20405517.960    84720639.23308
  23485986.120   125634189.79908  23485987.520    97715489.54206
 15 03 04 01 21 30.0000000  0 16G04G07G16G18G19G21G22G27R02R03R09R15
                                R16R17R18R19
  23428425.980   123117419.00808  23428428.060    95935697.55346
  24491104.200   128701619.40407  24491102.200   100286969.02645
  20441455.460   107420598.81109  20441452.580    83704359.95249
  22161591.040   116460105.86009  22161588.800    90748203.37347
  22178410.180   116548383.94709  22178406.300    90816932.37848
  23945848.420   125836290.19208  23945845.660    98054244.20346
  21222578.820   111525645.70009  21222573.880    86903186.86748
  20852683.540   109581773.56509  20852683.200    85388453.45249
  21327872.500   113809667.17109  21327875.260    88518667.05008
  21447169.700   114808492.23208  21447171.020    89295509.07608
  22831657.620   121919783.17107  22831659.040    94826501.62104
  22378958.060   119586288.17408  22378965.800    93011553.17307
  20728433.820   110727579.80008  20728436.240    86121466.83908
  21357769.800   114289754.76408  21357769.720    88892043.44508
  20402681.520   108911235.78909  20402684.140    84708874.27108
  23473116.400   125565344.62507  23473117.540    97661943.34706
 15 03 04 01 22  0.0000000  0 16G04G07G16G18G19G21G22G27R02R03R09R15
                                R16R17R18R19
  23411239.380   123027103.99008  23411241.280    95865322.55246
  24486323.040   128676495.60207  24486321.400   100267392.00146
  20444801.660   107438183.09809  20444798.740    83718061.98249
  22166998.280   116488521.04209  22166995.980    90770345.07347
  22167136.520   116489139.65209  22167132.480    90770768.02148
  23960287.560   125912168.51408  23960284.840    98113370.13946
  21215330.560   111487555.34309  21215325.540    86873506.09148
  20847005.760   109551936.83209  20847005.440    85365204.05849
  21329412.700   113817885.80309  21329415.340    88525059.33308
  21429142.980   114711994.46308  21429144.360    89220455.30608
  22817952.260   121846598.77108  22817953.840    94769580.42704
  22402006.600   119709450.39208  22402014.340    93107345.52807
  20733756.300   110756011.12408  20733758.680    86143580.07708
  21366912.520   114338678.99308  21366912.400    88930095.61508
  20399874.880   108896253.19609  20399877.400    84697221.14208
  23460254.360   125496541.31407  23460255.300    97608429.73206
 15 03 04 01 22 30.0000000  0 16G04G07G16G18G19G21G22G27R02R03R09R15
                                R16R17R18R19
  23394094.560   122937008.48008  23394096.360    95795118.58046
  24481640.460   128651890.12108  24481639.180   100248218.86745
  20448251.940   107456314.35009  20448249.000    83732190.22849
  22172496.140   116517412.21309  22172493.800    90792857.70147
  22155886.500   116430019.75209  22155882.260    90724700.59848
  23974729.720   125988062.54508  23974726.900    98172508.34146
  21208175.160   111449953.07609  21208170.020    86844205.65648
  20841364.420   109522291.41909  20841364.100    85342103.75749
  21331099.580   113826887.21609  21331102.160    88532060.45908
  21411197.980   114615933.81608  21411199.280    89145741.53108
  22804364.780   121774043.14208  22804366.560    94713148.30804
  22425088.840   119832792.91008  22425096.660    93203278.03807
  20739226.120   110785229.76308  20739228.540    86166305.67508
  21376071.580   114387691.11208  21376071.580    88968216.15008
  20397095.620   108881416.87109  20397098.100    84685681.79108
  23447400.480   125427782.44807  23447401.440    97554950.68706
 15 03 04 01 23  0.0000000  0 16G04G07G16G18G19G21G22G27R02R03R09R15
                                R16R17R18R19
  23376991.120   122847130.58608  23376992.840    95725084.16546
  24477056.280   128627801.13308  24477055.200   100229448.19245
  20451805.760   107474989.84509  20451802.800    83746742.54749
  22178083.960   116546775.77209  22178081.460    90815738.39647
  22144659.660   116371021.83109  22144655.260    90678728.20348
  23989174.160   126063968.57108  23989171.280    98231655.86245
  21201112.260   111412837.35409  21201107.100    86815284.33548
  20835759.160   109492835.40909  20835758.780    85319151.02349
  21332932.720   113836668.98909  21332935.240    88539668.50908
  21393334.900   114520311.82608  21393336.180    89071368.92308
  22790895.240   121702116.14408  22790896.940    94657205.08504
  22448203.360   119956307.92208  22448211.320    93299344.66307
  20744842.320   110815230.61908  20744844.800    86189639.64208
  21385246.600   114436788.59908  21385246.660    89006403.07208
  20394343.160   108866723.71709  20394345.680    84674253.77908
  23434554.280   125359064.43007  23434555.200    97501503.37706
 15 03 04 01 23 30.0000000  0 16G04G07G16G18G19G21G22G27R02R03R09R15
                                R16R17R18R19
  23359929.140   122757470.76308  23359930.900    95655219.66946
  24472570.540   128604228.16008  24472569.480   100211079.60846
  20455463.100   107494209.26209  20455460.120    83761718.71449
  22183761.480   116576610.64209  22183758.800    90838986.36147
  22133456.000   116312145.96609  22133451.480    90632850.92848
  24003620.560   126139884.72108  24003617.540    98290811.28745
  21194141.980   111376208.90309  21194136.900    86786742.70748
  20830190.060   109463569.14409  20830189.560    85296346.15649
  21334911.920   113847230.50509  21334914.460    88547883.03808
  21375554.500   114425132.42408  21375555.760    88997340.55308
  22777544.060   121630820.40408  22777545.680    94601752.86704
  22471349.260   120079990.79308  22471357.440    93395541.86507
  20750604.560   110846011.47808  20750607.120    86213580.29008
  21394437.400   114485970.81508  21394437.580    89044655.89508
  20391617.380   108852173.05409  20391619.940    84662936.60508
  23421715.480   125290386.28808  23421716.480    97448087.10106
 15 03 04 01 24  0.0000000  0 16G04G07G16G18G19G21G22G27R02R03R09R15
                                R16R17R18R19
  23342909.040   122668031.05808  23342910.820    95585526.68146
  24468183.360   128581172.09708  24468182.000   100193113.83246
  20459224.100   107513973.45609  20459221.120    83777119.37649
  22189528.640   116606916.68909  22189525.780    90862601.46947
  22122275.840   116253393.67409  22122271.240    90587069.93848
  24018068.900   126215811.06108  24018065.640    98349974.66645
  21187265.040   111340070.63609  21187260.020    86758583.04048
  20824657.380   109434494.55909  20824656.820    85273690.63949
  21337037.380   113858572.86809  21337040.020    88556704.90108
  21357857.880   114330401.29608  21357859.100    88923660.84508
  22764311.840   121560159.80908  22764313.360    94546794.65504
  22494526.060   120203838.47508  22494534.500    93491867.24507
  20756512.520   110877571.07908  20756515.200    86238126.61908
  21403644.240   114535239.16508  21403644.560    89082975.72208
  20388918.380   108837765.76309  20388921.020    84651730.94108
  23408884.300   125221748.55208  23408885.260    97394702.24906
 15 03 04 01 24 30.0000000  0 16G04G07G16G18G19G21G22G27R02R03R09R15
                                R16R17R18R19
  23325930.780   122578811.26308  23325932.600    95516005.03346
  24463894.580   128558632.73208  24463892.840   100175550.66646
  20463088.540   107534281.21209  20463085.580    83792943.59048
  22195385.160   116637692.35809  22195382.080    90886582.50747
  22111119.100   116194764.54709  22111114.520    90541384.91448
  24032518.760   126291745.66708  24032515.420    98409144.47045
  21180481.400   111304422.77509  21180476.500    86730805.50848
  20819161.160   109405611.66009  20819160.560    85251184.49049
  21339308.900   113870694.96709  21339311.680    88566133.21008
  21340245.720   114236121.93908  21340246.840    88850332.50408
  22751198.940   121490136.45008  22751200.320    94492332.07204
  22517732.680   120327845.21408  22517741.260    93588316.38907
  20762565.720   110909906.44908  20762568.460    86263276.30808
  21412867.020   114584592.99908  21412867.420    89121362.02208
  20386245.980   108823500.68409  20386248.700    84640635.88208
  23396060.460   125153149.97408  23396061.440    97341347.84706
 15 03 04 01 25  0.0000000  0 16G04G07G16G18G19G21G22G27R02R03R09R15
                                R16R17R18R19
  23308995.200   122489815.84008  23308997.040    95446658.22846
  24459704.760   128536613.66008  24459702.760   100158392.93545
  20467057.300   107555136.95809  20467054.300    83809194.81249
  22201331.460   116668939.81809  22201328.220    90910931.19047
  22099986.540   116136262.60709  22099982.000    90495799.00948
  24046970.700   126367691.29508  24046967.240    98468322.86945
  21173792.060   111269270.31609  21173787.220    86703414.00648
  20813702.260   109376924.86809  20813701.660    85228831.15449
  21341727.220   113883600.29009  21341730.120    88576170.71308
  21322719.540   114142302.46808  21322720.520    88777361.85608
  22738206.540   121420756.77708  22738207.620    94438370.10104
  22540968.920   120452010.25708  22540977.600    93684888.59607
  20768764.420   110943019.01608  20768767.180    86289030.50008
  21422106.540   114634036.07208  21422106.940    89159817.73508
  20383600.900   108809381.38509  20383603.660    84629654.20708
  23383244.500   125084593.38708  23383245.420    97288026.09706
 15 03 04 01 25 30.0000000  0 16G04G07G16G18G19G21G22G27R02R03R09R15
                                R16R17R18R19
  23292101.880   122401042.43608  23292103.760    95377484.40746
  24455613.200   128515111.62908  24455611.160   100141638.10646
  20471129.500   107576536.59509  20471126.560    83825869.84249
  22207366.740   116700655.37609  22207363.420    90935644.62047
  22088877.560   116077884.99609  22088873.120    90450309.98048
  24061423.780   126443643.22108  24061420.300    98527506.16045
  21167196.580   111234610.82109  21167191.760    86676406.62648
  20808280.180   109348431.59809  20808279.580    85206628.60849
  21344291.680   113897285.34009  21344294.600    88586814.66008
  21305279.400   114048943.61008  21305280.220    88704749.46308
  22725334.360   121352019.92008  22725335.480    94384908.12204
  22564233.280   120576325.29008  22564242.080    93781577.44706
  20775107.620   110976903.08708  20775110.300    86315384.74308
  21431362.180   114683565.08308  21431362.560    89198340.27807
  20380982.420   108795404.03309  20380985.160    84618782.92908
  23370435.720   125016075.06708  23370436.640    97234734.11806
 15 03 04 01 26  0.0000000  0 16G04G07G16G18G19G21G22G27R02R03R09R15
                                R16R17R18R19
  23275251.260   122312493.02608  23275253.060    95308485.11746
  24451620.120   128494128.20908  24451618.200   100125287.39745
  20475305.460   107598481.47009  20475302.520    83842969.73049
  22213491.020   116732839.13709  22213487.780    90960722.88147
  22077792.500   116019633.29309  22077788.140    90404919.05148
  24075878.180   126519601.96508  24075874.600    98586694.78245
  21160695.500   111200447.42109  21160690.720    86649785.81348
  20802895.380   109320134.15709  20802894.760    85184578.65049
  21347002.460   113911751.24609  21347005.400    88598065.93208
  21287926.400   113956051.19608  21287927.040    88632499.85808
  22712583.280   121283930.18708  22712584.440    94331949.44804
  22587525.020   120700786.98408  22587534.000    93878380.40207
  20781595.160   111011557.89308  20781597.740    86342338.45508
  21440634.240   114733181.66808  21440634.580    89236930.93707
  20378390.820   108781569.93109  20378393.520    84608023.06808
  23357634.260   124947595.54908  23357634.980    97181472.31406
 15 03 04 01 26 30.0000000  0 16G04G07G16G18G19G21G22G27R02R03R09R15
                                R16R17R18R19
  23258443.400   122224167.53008  23258445.060    95239660.28846
  24447725.420   128473662.52408  24447723.660   100109340.11046
  20479584.940   107620970.43709  20479582.020    83860493.59049
  22219703.960   116765488.95109  22219700.840    90986164.30747
  22066731.300   115961507.31909  22066727.080    90359626.10348
  24090333.540   126595565.43208  24090329.900    98645887.06545
  21154288.900   111166780.55809  21154284.140    86623551.92048
  20797547.840   109292032.37109  20797547.180    85162681.15849
  21349859.460   113926996.71609  21349862.340    88609923.53708
  21270661.100   113863628.70108  21270661.660    88560615.74908
  22699953.600   121216489.44208  22699954.880    94279495.55304
  22610843.320   120825390.73708  22610852.520    93975293.73607
  20788226.340   111046979.85209  20788228.800    86369888.84708
  21449922.580   114782885.18408  21449922.860    89275589.21108
  20375825.840   108767877.87509  20375828.400    84597373.70308
  23344839.800   124879153.36008  23344840.360    97128239.54706
 15 03 04 01 27  0.0000000  0 16G04G07G16G18G19G21G22G27R02R03R09R15
                                R16R17R18R19
  23241678.240   122136066.65008  23241679.820    95171010.49246
  24443929.160   128453714.59007  24443927.620   100093796.25746
  20483967.880   107644002.73409  20483964.920    83878440.82549
  22226005.420   116798603.89009  22226002.360    91011968.16847
  22055694.060   115903507.13309  22055689.980    90314431.17548
  24104789.660   126671532.80308  24104785.940    98705082.38645
  21147976.920   111133611.21809  21147972.200    86597705.70448
  20792237.660   109264127.01609  20792236.980    85140936.72649
  21352862.560   113943021.20109  21352865.320    88622387.03708
  21253484.240   113771680.32608  21253484.800    88489100.39408
  22687446.040   121149700.25608  22687447.400    94227548.40604
  22634187.340   120950131.32608  22634196.680    94072313.44807
  20795000.680   111083166.71209  20795003.100    86398034.15908
  21459227.060   114832675.21108  21459227.380    89314314.76408
  20373287.420   108754327.67009  20373289.880    84586834.65908
  23332052.240   124810748.04508  23332052.500    97075035.44006
 15 03 04 01 27 30.0000000  0 16G04G07G16G18G19G21G22G27R02R03R09R15
                                R16R17R18R19
  23224956.380   122048193.23208  23224957.780    95102537.92846
  24440231.880   128434286.35608  24440230.480   100078657.36645
  20488454.600   107667580.34409  20488451.600    83896812.98449
  22232395.520   116832184.79909  22232392.500    91038135.12447
  22044681.400   115845635.81009  22044677.400    90269336.65248
  24119246.720   126747504.82708  24119242.860    98764281.35545
  21141760.160   111100942.31809  21141755.500    86572249.44548
  20786965.360   109236420.98509  20786964.720    85119347.61049
  21356012.080   113959826.61309  21356014.720    88635457.93208
  21236397.000   113680212.19708  21236397.700    88417958.57208
  22675061.320   121083567.23108  22675062.900    94176111.61704
  22657556.420   121075006.11708  22657566.040    94169437.38207
  20801918.080   111120117.94109  20801920.500    86426773.98308
  21468548.300   114882554.65308  21468548.680    89353109.86708
  20370775.860   108740921.03509  20370778.320    84576407.28508
  23319271.780   124742380.99608  23319271.820    97021861.11206
 15 03 04 01 28  0.0000000  0 16G04G07G16G18G19G21G22G27R02R03R09R15
                                R16R17R18R19
  23208277.300   121960544.59508  23208278.580    95034240.50346
  24436633.000   128415374.21708  24436631.440   100063920.61745
  20493044.480   107691700.09009  20493041.420    83915607.57748
  22238873.440   116866227.18709  22238870.560    91064661.66647
  22033692.760   115787890.09409  22033688.760    90224339.99048
  24133703.880   126823476.81708  24133699.800    98823480.27645
  21135638.260   111068772.06809  21135633.720    86547181.74048
  20781730.460   109208911.72809  20781729.900    85097911.82049
  21359307.220   113977409.07909  21359309.700    88649133.19408
  21219399.720   113589225.18908  21219400.560    88347190.95108
  22662799.380   121018089.52308  22662801.020    94125184.51404
  22680949.280   121200007.48308  22680959.140    94266659.84407
  20808977.520   111157827.75609  20808979.840    86456103.81808
  21477885.620   114932519.95008  21477885.980    89391971.73908
  20368290.540   108727654.42009  20368293.080    84566088.81308
  23306497.680   124674048.18208  23306497.560    96968713.39306
 15 03 04 01 28 30.0000000  0 16G04G07G16G18G19G21G22G27R02R03R09R15
                                R16R17R18R19
  23191641.860   121873125.54008  23191643.060    94966121.97046
  24433133.280   128396982.33408  24433131.440   100049589.26345
  20497738.200   107716365.58409  20497735.080    83934827.43649
  22245439.780   116900734.00209  22245437.040    91091550.09647
  22022728.980   115730274.44409  22022724.860    90179444.68348
  24148161.700   126899452.00408  24148157.500    98882681.70245
  21129612.260   111037105.42909  21129607.760    86522506.45348
  20776533.940   109181604.10909  20776533.500    85076633.15849
  21362748.520   113995771.96309  21362750.920    88663415.44108
  21202493.900   113498727.91508  21202494.860    88276804.22508
  22650661.440   120953273.83308  22650663.240    94074772.32904
  22704365.800   121325135.15608  22704375.840    94363980.63007
  20816179.280   111196297.56809  20816181.480    86486024.75208
  21487239.760   114982575.39008  21487240.080    89430903.73008
  20365832.220   108714531.78109  20365834.840    84555882.32408
  23293730.400   124605753.04408  23293730.480    96915595.00606
 15 03 04 01 29  0.0000000  0 16G04G07G16G18G19G21G22G27R02R03R09R15
                                R16R17R18R19
  23175049.660   121785933.82408  23175050.780    94898180.59046
  24429732.100   128379107.71708  24429729.860   100035660.99045
  20502535.080   107741573.32209  20502531.960    83954469.82349
  22252093.780   116935701.10009  22252091.080    91118797.19947
  22011789.480   115672786.13809  22011785.240    90134648.61448
  24162619.360   126975426.32208  24162615.000    98941882.45545
  21123681.720   111005940.36009  21123677.240    86498222.00848
  20771375.340   109154495.87209  20771375.020    85055509.86749
  21366335.340   114014911.78309  21366337.760    88678301.98208
  21185679.880   113408721.43308  21185680.840    88206799.24008
  22638647.460   120889119.67208  22638649.240    94024874.65004
  22727804.400   121450381.13407  22727814.700    94461393.51307
  20823522.260   111235521.80609  20823524.360    86516532.47808
  21496610.200   115032717.96408  21496610.500    89469903.49708
  20363400.280   108701549.69109  20363402.940    84545785.15108
  23280969.420   124537491.95507  23280969.920    96862503.11006
 15 03 04 01 29 30.0000000  0 16G04G07G16G18G19G21G22G27R02R03R09R15
                                R16R17R18R19
  23158500.940   121698970.39408  23158501.960    94830417.09146
  24426429.360   128361750.47608  24426426.860   100022135.85245
  20507435.080   107767323.11109  20507432.020    83974534.58449
  22258835.260   116971127.72709  22258832.600    91146402.36547
  22000874.400   115615426.39309  22000870.060    90089952.71348
  24177076.740   127051399.29808  24177072.320    99001082.15045
  21117846.940   110975278.45509  21117842.500    86474329.63348
  20766254.900   109127588.29109  20766254.740    85034542.92449
  21370067.580   114034828.29409  21370070.160    88693792.61008
  21168958.460   113319210.43008  21168959.380    88137179.61008
  22626757.940   120825629.98608  22626759.600    93975493.78904
  22751264.400   121575741.86907  22751274.980    94558895.77307
  20831006.020   111275498.13409  20831008.020    86547625.14508
  21505997.000   115082948.37608  21505997.280    89508971.57808
  20360994.780   108688708.38709  20360997.460    84535797.47208
  23268214.820   124469264.82308  23268215.880    96809437.62106
 15 03 04 01 30  0.0000000  0 16G04G07G16G18G19G21G22G27R02R03R09R15
                                R16R17R18R19
  23141996.360   121612238.82408  23141997.200    94762834.24046
  24423225.520   128344913.49308  24423222.940   100009016.11045
  20512438.740   107793617.68509  20512435.740    83995023.84849
  22265664.520   117007015.53309  22265661.820    91174366.89447
  21989984.360   115558198.63409  21989979.980    90045359.66248
  24191534.160   127127372.48308  24191529.640    99060282.01045
  21112108.660   110945123.82409  21112104.280    86450832.54148
  20761173.360   109100885.07009  20761173.300    85013735.21849
  21373945.760   114055523.83009  21373948.520    88709889.14608
  21152330.920   113230201.89608  21152331.820    88067950.79808
  22614993.820   120762810.19608  22614995.400    93926633.95104
  22774745.400   121701214.81708  22774756.200    94656485.15407
  20838630.600   111316226.99108  20838632.580    86579303.11608
  21515400.760   115133269.62108  21515401.080    89548110.30808
  20358616.220   108676010.74309  20358618.840    84525921.52908
  23255467.100   124401073.79307  23255468.500    96756400.21407
 15 03 04 01 30 30.0000000  0 16G04G07G16G18G19G21G22G27R02R03R09R15
                                R16R17R18R19
  23125535.940   121525739.35308  23125536.580    94695432.23946
  24420120.300   128328595.92408  24420117.920    99996301.10945
  20517545.960   107820456.20009  20517542.960    84015936.96649
  22272581.240   117043362.83009  22272578.520    91202689.46447
  21979119.260   115501102.21609  21979114.860    90000868.95548
  24205991.300   127203344.64608  24205986.820    99119481.06546
  21106466.900   110915476.54009  21106462.560    86427730.78448
  20756130.820   109074386.53509  20756130.800    84993087.01149
  21377969.680   114076997.04409  21377972.600    88726590.55208
  21135797.940   113141699.51708  21135798.860    87999115.66408
  22603355.520   120700662.04308  22603357.020    93878296.51504
  22798246.820   121826796.73107  22798257.840    94754159.40907
  20846395.380   111357704.96708  20846397.380    86611563.72608
  21524821.400   115183681.75108  21524821.860    89587319.71808
  20356264.440   108663455.93609  20356266.940    84516156.67708
  23242726.000   124332917.80707  23242727.620    96703390.07106
 15 03 04 01 31  0.0000000  0 16G04G07G16G18G19G21G22G27R02R03R09R15
                                R16R17R18R19
  23109120.100   121439474.27208  23109120.640    94628212.88446
  24417114.040   128312799.16708  24417112.160    99983991.90846
  20522756.860   107847839.39109  20522753.860    84037274.50549
  22279585.460   117080169.81009  22279582.680    91231370.22647
  21968279.560   115444139.55809  21968275.200    89956482.48148
  24220448.280   127279316.11108  24220443.900    99178679.57845
  21100922.260   110886339.52609  21100917.940    86405026.63548
  20751127.680   109048095.00109  20751127.680    84972600.09949
  21382139.600   114099249.10209  21382142.560    88743897.70808
  21119360.560   113053709.13808  21119361.520    87930678.74808
  22591843.900   120639189.65408  22591845.080    93830484.64504
  22821767.800   121952483.42707  22821779.000    94851915.27107
  20854300.140   111399930.84008  20854302.180    86644406.03608
  21534259.220   115234186.19508  21534259.920    89626600.92708
  20353939.640   108651045.32809  20353942.000    84506503.98208
  23229991.780   124264797.92608  23229993.300    96650408.00807
 15 03 04 01 31 30.0000000  0 16G04G07G16G18G19G21G22G27R02R03R09R15
                                R16R17R18R19
  23092748.340   121353440.79708  23092748.860    94561173.99346
  24414206.160   128297519.66008  24414204.700    99972085.77546
  20528070.620   107875763.01709  20528067.580    84059033.16149
  22286676.200   117117431.55609  22286673.320    91260405.35947
  21957464.660   115387307.27109  21957460.280    89912197.59048
  24234904.140   127355282.06508  24234900.040    99237873.79045
  21095474.280   110857710.36309  21095469.960    86382718.22148
  20746163.480   109022007.70209  20746163.420    84952272.33649
  21386454.600   114122275.20109  21386457.520    88761806.90808
  21103018.860   112966230.88308  21103019.820    87862640.14508
  22580458.480   120578391.62108  22580459.520    93783197.30204
  22845306.520   122078265.14807  22845317.960    94949744.80707
  20862343.700   111442898.34509  20862345.800    86677825.17408
  21543713.620   115284779.48508  21543714.600    89665951.23808
  20351641.120   108638775.25109  20351643.400    84496960.59008
  23217263.620   124196709.81208  23217264.920    96597450.64106
 15 03 04 01 32  0.0000000  0 16G04G07G16G18G19G21G22G27R02R03R09R15
                                R16R17R18R19
  23076420.840   121267639.91208  23076421.320    94494316.33546
  24411396.800   128282757.50908  24411395.640    99960582.78346
  20533487.360   107904228.05709  20533484.280    84081213.69548
  22293853.280   117155147.15009  22293850.280    91289794.13647
  21946674.840   115330606.79209  21946670.480    89868015.40948
  24249358.900   127431242.33108  24249354.980    99297063.57545
  21090123.200   110829590.36109  21090118.900    86360806.54648
  20741238.420   108996126.15109  20741238.300    84932104.88749
  21390914.700   114146075.33309  21390917.640    88780318.13008
  21086773.800   112879269.98108  21086774.720    87795003.93008
  22569199.780   120518270.93208  22569200.900    93736436.76004
  22868862.900   122204141.13107  22868874.520    95047647.94306
  20870525.620   111486605.06209  20870527.740    86711819.25108
  21553184.760   115335462.57608  21553186.040    89705371.39708
  20349368.940   108626646.00709  20349371.160    84487526.73008
  23204541.340   124128653.55608  23204542.340    96544518.05506
 15 03 04 01 32 30.0000000  0 16G04G07G16G18G19G21G22G27R02R03R09R15
                                R16R17R18R19
  23060137.940   121182073.46808  23060138.380    94427641.35146
  24408686.300   128268513.52708  24408685.260    99949483.55946
  20539007.200   107933234.78909  20539004.060    84103816.33149
  22301116.740   117193316.92509  22301113.720    91319536.81947
  21935910.360   115274039.59809  21935906.060    89823937.08248
  24263812.520   127507197.04308  24263808.780    99356249.03945
  21084869.400   110801981.53709  21084865.080    86339293.19748
  20736352.920   108970452.24109  20736352.700    84912099.23549
  21395519.980   114170649.78409  21395522.880    88799431.60508
  21070626.360   112792831.65008  21070627.220    87727774.16508
  22558068.480   120458830.97208  22558069.740    93690205.69004
  22892436.020   122330106.78107  22892447.740    95145620.92706
  20878845.660   111531049.17609  20878847.780    86746386.85708
  21562672.900   115386236.64008  21562674.460    89744862.31508
  20347123.180   108614658.64709  20347125.520    84478203.23408
  23191825.060   124060629.61808  23191825.780    96491610.60606
 15 03 04 01 33  0.0000000  0 16G04G07G16G18G19G21G22G27R02R03R09R15
                                R16R17R18R19
  23043899.700   121096741.86508  23043900.120    94361149.35946
  24406074.540   128254787.27508  24406073.320    99938787.75546
  20544629.940   107962782.26409  20544626.720    84126840.32549
  22308466.340   117231939.41709  22308463.320    91349632.26847
  21925171.280   115217605.83009  21925167.040    89779962.72648
  24278264.800   127583144.78308  24278261.240    99415429.08145
  21079713.020   110774884.59309  21079708.660    86318178.71148
  20731507.020   108944986.57609  20731506.720    84892255.85549
  21400270.120   114195997.20109  21400272.940    88819146.27908
  21054577.080   112706919.41108  21054578.000    87660953.58508
  22547064.960   120400073.90508  22547066.380    93644505.74104
  22916024.780   122456156.41307  22916036.660    95243659.14507
  20887303.260   111576227.82109  20887305.360    86781525.78008
  21572178.100   115437101.77608  21572179.800    89784424.06908
  20344903.860   108602812.81009  20344906.360    84468989.81108
  23179114.620   123992637.16108  23179115.200    96438727.64406
 15 03 04 01 33 30.0000000  0 17G04G07G11G16G18G19G21G22G27R02R03R09
                                R15R16R17R18R19
  23027706.640   121011647.53608  23027707.000    94294842.25546
  24403561.600   128241580.30108  24403560.140    99928496.59445
  24717306.920   129890319.67508  24717308.860   101213240.82045
  20550355.780   107992871.55409  20550352.520    84150286.50748
  22315902.160   117271014.96509  22315899.140    91380080.74947
  21914458.060   115161307.83109  21914453.900    89736094.17848
  24292715.840   127659086.37608  24292712.500    99474604.32745
  21074654.500   110748302.18509  21074650.140    86297465.16348
  20726701.300   108919731.89209  20726700.940    84872576.87749
  21405165.320   114222118.65909  21405168.040    88839462.97308
  21038627.180   112621539.30608  21038628.200    87594546.87808
  22536189.960   120342003.75008  22536191.640    93599340.07104
  22939628.820   122582287.80607  22939640.820    95341761.00506
  20895898.100   111622139.48409  20895900.160    86817234.81308
  21581700.860   115488060.09308  21581702.540    89824058.29308
  20342711.320   108591110.25209  20342714.100    84459887.82608
  23166410.200   123924677.48508  23166410.780    96385870.17007
 15 03 04 01 34  0.0000000  0 17G04G07G11G16G18G19G21G22G27R02R03R09
                                R15R16R17R18R19
  23011557.920   120926786.61908  23011558.300    94228717.02146
  24401146.480   128228887.68308  24401144.760    99918606.22845
  24700171.560   129800272.50108  24700173.280   101143074.62545
  20556183.780   108023497.74509  20556180.520    84174151.06549
  22323423.020   117310537.53809  22323419.980    91410877.56547
  21903769.900   115105141.68909  21903765.860    89692328.38148
  24307164.640   127735016.37008  24307161.580    99533770.53244
  21069693.220   110722230.51209  21069688.800    86277149.59648
  20721934.980   108894684.36009  20721934.600    84853059.32349
  21410204.500   114249008.52109  21410207.140    88860377.32508
  21022776.580   112536690.62208  21022777.720    87528553.50708
  22525443.360   120284618.18408  22525445.160    93554706.86504
  22963246.420   122708491.83307  22963258.500    95439919.47706
  20904628.800   111668776.95308  20904630.860    86853508.36308
  21591240.300   115539106.98008  21591241.880    89863761.41407
  20340544.800   108579546.23209  20340547.780    84450893.60108
  23153710.980   123856745.29808  23153711.580    96333034.07506
 15 03 04 01 34 30.0000000  0 17G04G07G11G16G18G19G21G22G27R02R03R09
                                R15R16R17R18R19
  22995454.600   120842164.09508  22995455.000    94162777.54546
  24398829.940   128216713.63608  24398828.020    99909119.95046
  24683054.040   129710319.55508  24683055.540   101072981.79546
  20562114.760   108054665.09809  20562111.500    84198437.30649
  22331029.580   117350510.46209  22331026.540    91442025.30247
  21893107.800   115049112.31709  21893103.900    89648669.15148
  24321612.040   127810938.50008  24321609.220    99592930.61745
  21064830.340   110696675.59209  21064825.800    86257236.69048
  20717209.100   108869849.48009  20717208.660    84833707.47549
  21415388.420   114276670.37609  21415390.920    88881892.11308
  21007026.980   112452382.37208  21007028.180    87462980.47308
  22514826.520   120227923.90808  22514828.020    93510611.31104
  22986877.580   122834768.58808  22986889.800    95538134.47106
  20913495.600   111716141.63808  20913497.680    86890347.52908
  21600797.320   115590247.48608  21600798.700    89903537.34507
  20338405.220   108568125.13709  20338408.140    84442010.52908
  23141017.680   123788844.76708  23141018.340    96280222.62106
 15 03 04 01 35  0.0000000  0 17G04G07G11G16G18G19G21G22G27R02R03R09
                                R15R16R17R18R19
  22979396.820   120757780.87708  22979397.240    94097024.54046
  24396611.820   128205057.54208  24396609.800    99900037.26345
  24665954.380   129620461.14708  24665955.820   101002962.62845
  20568148.560   108086372.77609  20568145.260    84223144.57149
  22338721.620   117390932.32609  22338718.500    91473522.86747
  21882471.840   114993220.18509  21882468.040    89605116.86148
  24336057.700   127886851.41608  24336055.100    99652083.53645
  21060065.940   110671637.94709  21060061.260    86237726.85548
  20712523.840   108845228.10709  20712523.340    84814521.98949
  21420716.820   114305103.05909  21420719.160    88904006.42608
  20991379.140   112368618.29908  20991380.300    87397830.68308
  22504339.640   120171922.99208  22504340.760    93467055.04704
  23010521.500   122961113.77907  23010533.840    95636402.80106
  20922497.920   111764230.36308  20922500.020    86927749.81608
  21610371.940   115641481.89508  21610373.060    89943386.30907
  20336292.480   108556846.95509  20336295.260    84433238.60608
  23128330.260   123720975.56108  23128330.880    96227435.50306
 15 03 04 01 35 30.0000000  0 17G04G07G11G16G18G19G21G22G27R02R03R09
                                R15R16R17R18R19
  22963384.640   120673636.82608  22963384.980    94031457.89446
  24394492.000   128193918.60608  24394490.080    99891357.57045
  24648872.540   129530696.86508  24648873.960   100933016.79745
  20574284.860   108118619.41809  20574281.600    84248271.81549
  22346498.760   117431801.37509  22346495.640    91505368.88747
  21871862.060   114937465.39909  21871858.300    89561671.59648
  24350501.380   127962753.50008  24350498.840    99711228.00345
  21055400.020   110647117.80109  21055395.180    86218620.26548
  20707879.220   108820820.44009  20707878.680    84795503.03949
  21426189.440   114334304.99109  21426191.520    88926719.06308
  20975833.600   112285401.76908  20975834.760    87333106.76508
  22493982.860   120116616.91208  22493983.640    93424039.23904
  23034177.580   123087523.86007  23034190.020    95734721.45507
  20931635.160   111813039.53309  20931637.200    86965712.48208
  21619963.940   115692809.86508  21619964.900    89983308.04508
  20334206.460   108545711.04109  20334209.060    84424577.33708
  23115648.440   123653136.13708  23115649.020    96174671.56506
 15 03 04 01 36  0.0000000  0 17G04G07G11G16G18G19G21G22G27R02R03R09
                                R15R16R17R18R19
  22947418.080   120589732.25508  22947418.360    93966077.83846
  24392470.520   128183296.02208  24392468.760    99883080.23846
  24631808.540   129441026.65508  24631810.020   100863144.25446
  20580523.560   108151404.15309  20580520.300    84273818.34449
  22354360.660   117473115.66309  22354357.540    91537561.83747
  21861278.500   114881848.01409  21861274.720    89518333.38448
  24364942.860   128038643.79008  24364940.280    99770363.28445
  21050832.560   110623115.53209  21050827.620    86199917.21848
  20703275.400   108796627.13509  20703274.780    84776651.10649
  21431805.940   114364274.73209  21431807.800    88950028.87208
  20960391.160   112202737.03108  20960392.280    87268812.00208
  22483756.500   120062007.87408  22483757.080    93381565.55304
  23057844.560   123213992.22907  23057857.120    95833085.51206
  20940906.620   111862565.76209  20940908.560    87004232.84108
  21629573.400   115744231.20808  21629574.180    90023302.40007
  20332146.980   108534717.08509  20332149.440    84416026.47608
  23102971.980   123585325.84608  23102972.380    96121930.26406
 15 03 04 01 36 30.0000000  0 17G04G07G11G16G18G19G21G22G27R02R03R09
                                R15R16R17R18R19
  22931497.280   120506067.82508  22931497.360    93900884.90946
  24390547.340   128173189.18608  24390545.620    99875204.78346
  24614762.520   129351450.91808  24614764.040   100793345.32546
  20586864.480   108184726.08609  20586861.280    84299783.47348
  22362307.020   117514873.77209  22362303.880    91570100.62547
  21850721.280   114826368.74209  21850717.360    89475102.79848
  24379381.940   128114521.58108  24379379.360    99829488.83145
  21046363.760   110599631.85109  21046358.760    86181618.25648
  20698712.480   108772648.92809  20698711.880    84757966.79149
  21437565.980   114395010.89709  21437567.720    88973934.78808
  20945052.420   112120627.36808  20945053.500    87204948.97408
  22473660.860   120008097.40208  22473661.500    93339635.18304
  23081521.660   123340514.75607  23081534.380    95931491.60206
  20950311.720   111912805.77109  20950313.580    87043308.37208
  21639200.240   115795746.17008  21639201.020    90063369.56307
  20330114.000   108523864.79309  20330116.420    84407585.80408
  23090300.720   123517543.86008  23090301.040    96069210.99206
 15 03 04 01 37  0.0000000  0 17G04G07G11G16G18G19G21G22G27R02R03R09
                                R15R16R17R18R19
  22915622.220   120422643.57508  22915622.140    93835879.12946
  24388722.320   128163597.57708  24388720.480    99867730.78846
  24597734.400   129261969.21208  24597735.920   100723619.64545
  20593307.500   108218584.32609  20593304.320    84326166.50148
  22370337.460   117557073.85609  22370334.400    91602983.81647
  21840190.300   114771027.37509  21840186.200    89431979.66548
  24393818.280   128190384.87908  24393815.740    99888603.07045
  21041993.740   110576667.23809  21041988.720    86163723.77348
  20694190.560   108748886.35609  20694190.000    84739450.50449
  21443469.160   114426511.59909  21443470.880    88998435.34108
  20929818.160   112039076.79908  20929819.080    87141520.78908
  22463696.140   119954887.26608  22463696.900    93298249.52004
  23105207.940   123467086.05307  23105220.720    96029935.64306
  20959849.700   111963755.86508  20959851.560    87082936.18408
  21648844.620   115847354.68208  21648845.260    90103509.49407
  20328107.520   108513153.81809  20328109.900    84399255.04608
  23077634.620   123449789.54208  23077634.980    96016513.23307
 15 03 04 01 37 30.0000000  0 17G04G07G11G16G18G19G21G22G27R02R03R09
                                R15R16R17R18R19
  22899792.920   120339459.94508  22899792.720    93771060.83346
  24386995.140   128154520.28108  24386993.240    99860657.55846
  24580724.300   129172582.04108  24580725.740   100653967.64246
  20599852.400   108252977.94209  20599849.200    84352966.70948
  22378451.700   117599714.39909  22378448.660    91636210.21147
  21829685.620   114715824.41209  21829681.400    89388964.38248
  24408251.700   128266232.97908  24408249.240    99947705.46945
  21037722.640   110554222.56409  21037717.620    86146234.43348
  20689709.820   108725340.14309  20689709.300    84721102.80349
  21449515.320   114458775.93709  21449517.200    89023529.82808
  20914689.000   111958088.92108  20914689.800    87078530.25108
  22453862.920   119902379.34408  22453863.880    93257410.01904
  23128902.740   123593702.91607  23128915.580    96128415.18006
  20969520.020   112015412.90408  20969521.960    87123113.83108
  21658506.500   115899056.68708  21658507.000    90143722.13208
  20326127.420   108502583.99509  20326129.800    84391034.07308
  23064973.520   123382062.08508  23064974.020    95963836.37007
 15 03 04 01 38  0.0000000  0 17G04G07G11G16G18G19G21G22G27R02R03R09
                                R15R16R17R18R19
  22884010.000   120256520.34008  22884009.740    93706432.68446
  24385366.220   128145959.63908  24385364.280    99853986.92446
  24563732.860   129083292.63308  24563734.280   100584391.78945
  20606499.500   108287908.45709  20606496.260    84380185.27848
  22386649.940   117642796.72209  22386646.980    91669780.85247
  21819207.860   114660763.28009  21819203.600    89346059.62248
  24422682.500   128342067.57807  24422680.160   100006797.34145
  21033551.100   110532300.97809  21033546.100    86129152.68848
  20685270.980   108702013.97009  20685270.520    84702926.56749
  21455704.720   114491805.38909  21455706.980    89049219.40608
  20899666.180   111877670.41808  20899666.840    87015982.56408
  22444162.000   119850578.46208  22444163.260    93217120.45204
  23152605.540   123720362.48007  23152618.320    96226927.91206
  20979322.560   112067776.32109  20979324.600    87163840.89607
  21668186.500   115950855.53808  21668186.880    90184010.09807
  20324174.220   108492158.04409  20324176.620    84382924.99708
  23052317.880   123314363.70708  23052318.580    95911182.14006
 15 03 04 01 38 30.0000000  0 17G04G07G11G16G18G19G21G22G27R02R03R09
                                R15R16R17R18R19
  22868273.520   120173825.31508  22868273.340    93641995.12946
  24383835.360   128137914.98908  24383833.620    99847718.33346
  24546760.000   128994100.93908  24546761.340   100514892.07545
  20613248.700   108323375.67209  20613245.460    84407822.05848
  22394932.020   117686319.50609  22394929.160    91703694.71447
  21808757.200   114605844.55709  21808752.920    89303265.83348
  24437110.540   128417887.50607  24437108.400   100065877.78145
  21029479.200   110510903.27809  21029474.240    86112479.17448
  20680874.200   108678908.71709  20680873.760    84684922.48149
  21462037.180   114525598.23409  21462039.860    89075502.73408
  20884750.380   111797825.03708  20884751.020    86953880.63808
  22434594.000   119799486.46108  22434595.280    93177382.22904
  23176315.740   123847061.06308  23176328.260    96325471.03706
  20989256.680   112120842.65809  20989258.780    87205114.68808
  21677884.640   116002751.57808  21677884.880    90224373.67007
  20322248.000   108481876.16209  20322250.500    84374927.97608
  23039667.680   123246694.02008  23039668.500    95858550.20906
 15 03 04 01 39  0.0000000  0 17G04G07G11G16G18G19G21G22G27R02R03R09
                                R15R16R17R18R19
  22852583.220   120091373.18908  22852583.180    93577746.84246
  24382402.040   128130383.47008  24382400.500    99841849.58846
  24529805.400   128905005.07608  24529806.680   100445467.01245
  20620099.360   108359376.26709  20620096.160    84435874.44948
  22403297.160   117730278.77109  22403294.380    91737948.68347
  21798333.280   114551066.60109  21798329.020    89260581.72948
  24451535.280   128493690.29207  24451533.180   100124944.85645
  21025506.660   110490027.64909  21025501.720    86096212.46048
  20676519.200   108656023.05309  20676518.780    84667089.49549
  21468512.120   114560151.02509  21468515.140    89102377.12208
  20869942.040   111718554.87108  20869942.640    86892226.09808
  22425158.740   119749102.92808  22425160.060    93138195.03904
  23200032.060   123973792.58807  23200044.360    96424039.82206
  20999321.400   112174606.50309  20999323.520    87246930.98108
  21687600.400   116054742.71508  21687600.660    90264811.18907
  20320348.260   108471735.72809  20320350.900    84367040.97008
  23027022.320   123179050.09308  23027023.240    95805938.32207
 15 03 04 01 39 30.0000000  0 17G04G07G11G16G18G19G21G22G27R02R03R09
                                R15R16R17R18R19
  22836939.180   120009164.26008  22836939.240    93513688.05946
  24381066.220   128123364.40308  24381064.780    99836380.17145
  24512869.020   128816005.06508  24512870.120   100376116.64745
  20627051.380   108395909.83309  20627048.360    84464342.14748
  22411745.100   117774673.09609  22411742.340    91772541.66747
  21787936.160   114496429.62209  21787931.940    89218007.47448
  24465956.540   128569474.69807  24465954.500   100183997.61445
  21021633.640   110469674.75309  21021628.680    86080353.07748
  20672206.140   108633357.64409  20672205.700    84649428.13949
  21475129.220   114595462.00509  21475132.460    89129841.22908
  20855241.800   111639863.14508  20855242.320    86831021.46008
  22415856.620   119699429.52808  22415857.920    93099560.18504
  23223753.240   124100550.47907  23223765.460    96522628.89106
  21009516.020   112229064.25809  21009518.100    87289286.98608
  21697333.860   116106829.07008  21697334.340    90305322.77008
  20318475.100   108461736.76609  20318477.820    84359264.00108
  23014381.660   123111431.30708  23014382.620    95753346.00206
 15 03 04 01 40  0.0000000  0 17G04G07G11G16G18G19G21G22G27R02R03R09
                                R15R16R17R18R19
  22821341.900   119927200.94108  22821341.980    93449820.65046
  24379828.240   128116859.29408  24379826.780    99831311.23445
  24495951.320   128727103.56708  24495952.340   100306843.04545
  20634104.960   108432977.13509  20634102.120    84493225.74248
  22420275.840   117819502.55809  22420273.100    91807473.71547
  21777566.380   114441936.25409  21777562.140    89175545.11848
  24480374.400   128645241.24507  24480372.320   100243036.45145
  21017860.620   110449847.32209  21017855.640    86064903.14548
  20667935.600   108610915.36109  20667935.040    84631940.64149
  21481888.640   114631531.94709  21481891.920    89157895.63008
  20840650.760   111561755.81208  20840651.160    86770271.34808
  22406688.180   119650470.20208  22406689.420    93061480.71904
  23247479.340   124227334.48207  23247491.540    96621238.32206
  21019840.240   112284214.24209  21019842.320    87332181.38208
  21707085.480   116159012.95908  21707086.220    90345910.22207
  20316628.840   108451881.27309  20316631.600    84351598.61608
  23001745.940   123043839.11608  23001746.720    95700774.33706
 15 03 04 01 40 30.0000000  0 17G04G07G11G16G18G19G21G22G27R02R03R09
                                R15R16R17R18R19
  22805791.040   119845481.55309  22805791.140    93386143.31646
  24378687.460   128110864.56508  24378685.820    99826639.99645
  24479051.900   128638297.87408  24479052.940   100237644.07245
  20641259.460   108470574.47809  20641256.740    84522522.35749
  22428888.680   117864763.31109  22428885.900    91842741.83747
  21767223.440   114387584.45809  21767219.320    89133193.08148
  24494788.240   128720986.84507  24494786.180   100302058.95845
  21014187.160   110430543.02609  21014182.140    86049860.84748
  20663707.220   108588694.47009  20663706.560    84614625.66749
  21488789.560   114668356.48209  21488792.740    89186536.93908
  20826169.080   111484234.19208  20826169.400    86709976.79108
  22397653.240   119602223.84908  22397654.380    93023955.78804
  23271208.820   124354136.19107  23271221.020    96719861.37906
  21030292.920   112340050.61108  21030295.060    87375609.63808
  21716854.900   116211291.73308  21716855.800    90386571.46807
  20314809.000   108442166.59509  20314811.720    84344042.75508
  22989114.520   122976270.32008  22989115.180    95648220.87706
 15 03 04 01 41  0.0000000  0 18G04G07G11G16G18G19G21G22G27R02R03R04
                                R09R15R16R17R18R19
  22790287.780   119764012.02108  22790287.900    93322660.67646
  24377644.840   128105385.43908  24377643.000    99822370.53145
  24462171.900   128549594.04208  24462172.940   100168524.47545
  20648515.800   108508706.69709  20648513.100    84552235.75848
  22437584.460   117910459.74109  22437581.680    91878349.44347
  21756908.680   114333380.65109  21756904.660    89090956.36748
  24509199.020   128796716.28107  24509196.880   100361068.85145
  21010614.520   110411768.46009  21010609.460    86035231.33248
  20659522.200   108566701.60009  20659521.440    84597488.36849
  21495832.700   114705939.72809  21495835.680    89215768.35908
  20811798.520   111407307.72108  20811798.840    86650145.14008
  23566994.760   126200189.14807                                
  22388753.180   119554698.02208  22388754.340    92986991.25504
  23294941.900   124480957.49207  23294954.320    96818499.85306
  21040874.580   112396575.71508  21040876.740    87419573.57508
  21726643.300   116263671.98408  21726644.400    90427311.63008
  20313016.680   108432598.50009  20313019.340    84336600.90208
  22976488.460   122908730.21808  22976489.060    95595689.74106
 15 03 04 01 41 30.0000000  0 18G04G07G11G16G18G19G21G22G27R02R03R04
                                R09R15R16R17R18R19
  22774830.760   119682785.26608  22774830.840    93259367.21147
  24376698.780   128100413.55608  24376696.760    99818496.32846
  24445309.840   128460984.67708  24445310.880   100099478.49945
  20655872.360   108547365.60709  20655869.700    84582359.57049
  22446361.420   117956582.37309  22446358.560    91914289.15647
  21746620.720   114279317.62409  21746616.800    89048829.35148
  24523605.140   128872420.89007  24523602.960   100420059.42645
  21007141.300   110393516.41109  21007136.200    86021008.97048
  20655379.260   108544930.02209  20655378.440    84580523.50449
  21503016.360   114744272.59709  21503019.160    89245582.81608
  20797538.360   111330972.39908  20797538.740    86590773.26208
  23542513.900   126069095.66107  23542523.220    98053777.23007
  22379986.900   119507886.75708  22379988.260    92950582.49904
  23318676.480   124607786.92207  23318689.160    96917144.79006
  21051583.020   112453778.15708  21051585.260    87464064.32708
  21736449.360   116316146.20308  21736450.600    90468124.89507
  20311250.300   108423169.20909  20311252.920    84329267.00908
  22963866.340   122841210.50208  22963866.940    95543174.47106
 15 03 04 01 42  0.0000000  0 18G04G07G11G16G18G19G21G22G27R02R03R04
                                R09R15R16R17R18R19
  22759421.420   119601808.78209  22759421.400    93196268.75747
  24375850.500   128095955.34608  24375848.380    99815022.38745
  24428467.260   128372477.30708  24428468.200   100030511.97546
  20663330.240   108586557.09209  20663327.620    84612898.37049
  22455220.480   118003136.55409  22455217.520    91950565.13947
  21736361.120   114225403.19309  21736357.180    89006818.11948
  24538007.780   128948106.91407  24538005.440   100479035.51845
  21003768.940   110375794.44209  21003763.780    86007199.65848
  20651279.900   108523387.78709  20651279.060    84563737.34949
  21510341.540   114783360.51009  21510344.220    89275984.52708
  20783390.740   111255239.41908  20783391.160    86531869.86608
  23518027.560   125937973.37307  23518037.000    97951793.59907
  22371356.080   119461798.97308  22371357.680    92914736.44504
  23342413.000   124734626.64307  23342425.860    97015797.48906
  21062418.860   112511661.56308  21062421.260    87509084.70908
  21746274.520   116368721.81108  21746275.720    90509017.01508
  20309511.300   108413886.28009  20309513.920    84322046.95208
  22951249.300   122773717.88308  22951250.020    95490680.26106
 15 03 04 01 42 30.0000000  0 18G04G07G11G16G18G19G21G22G27R02R03R04
                                R09R15R16R17R18R19
  22744058.880   119521078.07909  22744058.740    93133361.81647
  24375098.940   128092005.16308  24375096.680    99811944.30146
  24411643.300   128284067.18908  24411643.980    99961621.20445
  20670888.300   108626275.22809  20670885.760    84643847.54949
  22464160.420   118050115.78509  22464157.340    91987172.33047
  21726128.960   114171632.72209  21726124.920    88964919.06448
  24552405.740   129023768.51507  24552403.280   100537992.55645
  21000496.520   110358597.94909  21000491.380    85993799.80748
  20647223.320   108502070.67509  20647222.540    84547126.61149
  21517806.960   114823196.70609  21517809.520    89306968.23708
  20769355.320   111180107.08108  20769355.780    86473433.63908
  23493535.560   125806821.22007  23493545.120    97849786.84607
  22362859.960   119416431.00908  22362861.760    92879450.26404
  23366149.600   124861467.13407  23366162.780    97114450.67406
  21073380.600   112570217.51008  21073383.120    87554628.17508
  21756117.820   116421394.17408  21756118.920    90549984.37807
  20307798.640   108404744.21709  20307801.340    84314936.46108
  22938636.300   122706246.81108  22938637.160    95438202.81307
 15 03 04 01 43  0.0000000  0 18G04G07G11G16G18G19G21G22G27R02R03R04
                                R09R15R16R17R18R19
  22728743.800   119440597.00309  22728743.620    93070649.39647
  24374444.420   128088565.05608  24374442.120    99809263.67645
  24394838.400   128195757.23008  24394838.860    99892808.49246
  20678546.980   108666522.11509  20678544.520    84675208.74549
  22473181.540   118097521.82509  22473178.380    92024112.10847
  21715924.980   114118010.19309  21715920.800    88923135.29448
  24566799.480   129099408.04208  24566797.000   100596932.44845
  20997324.820   110341930.87809  20997319.720    85980812.50048
  20643210.320   108480982.69609  20643209.620    84530694.42749
  21525412.940   114863782.77709  21525415.300    89338535.18508
  20755433.480   111105582.32208  20755433.900    86415469.97508
  23469039.020   125675646.03307  23469048.820    97747762.25207
  22354499.700   119371787.72808  22354501.580    92844727.71504
  23389886.500   124988308.83807  23389899.900    97213105.05506
  21084468.100   112629445.36108  21084470.780    87600694.24008
  21765979.780   116474166.42508  21765980.780    90591029.43308
  20306113.040   108395746.63109  20306115.800    84307938.34908
  22926027.920   122638799.94508  22926028.720    95385744.18307
 15 03 04 01 43 30.0000000  0 18G04G07G11G16G18G19G21G22G27R02R03R04
                                R09R15R16R17R18R19
  22713476.280   119360366.23509  22713476.140    93008132.01547
  24373886.860   128085634.64908  24373884.540    99806980.23545
  24378052.840   128107548.78508  24378053.020    99824074.87045
  20686306.180   108707296.69709  20686303.700    84706981.12948
  22482283.520   118145352.96109  22482280.340    92061383.12047
  21705749.260   114064536.34409  21705745.020    88881467.36448
  24581188.880   129175024.85207  24581186.280   100655854.60144
  20994254.060   110325794.24109  20994248.980    85968238.51148
  20639241.200   108460125.30509  20639240.580    84514441.91949
  21533159.140   114905117.08509  21533161.380    89370684.09708
  20741625.900   111031669.22008  20741626.220    86357982.03608
  23444539.020   125544452.30907  23444548.940    97645723.27206
  22346275.520   119327871.21208  22346277.480    92810570.43104
  23413622.680   125115146.01607  23413636.120    97311756.05607
  21095680.800   112689341.95308  21095683.640    87647280.43008
  21775860.460   116527039.66608  21775861.460    90632153.03008
  20304454.580   108386893.89109  20304457.440    84301052.88508
  22913424.120   122571377.30608  22913424.660    95333304.37407
 15 03 04 01 44  0.0000000  0 18G04G07G11G16G18G19G21G22G27R02R03R04
                                R09R15R16R17R18R19
  22698256.480   119280386.40308  22698256.380    92945810.17047
  24373426.080   128083213.34608  24373423.820    99805093.48045
  24361286.680   128019442.30108  24361286.600    99755420.69645
  20694165.860   108748599.09009  20694163.280    84739164.79349
  22491466.160   118193608.11509  22491463.000    92098984.53947
  21695602.000   114011212.00409  21695597.680    88839915.93548
  24595573.740   129250618.07307  24595571.020   100714758.41344
  20991284.320   110310188.27309  20991279.220    85956078.02948
  20635316.200   108439499.47209  20635315.600    84498369.83749
  21541045.300   114947198.25709  21541047.400    89403413.89808
  20727933.300   110958371.89308  20727933.640    86300973.03308
  23420036.160   125413243.47106  23420046.140    97543672.59906
  22338187.800   119284682.97908  22338189.760    92776979.59204
  23437357.300   125241975.18907  23437370.700    97410400.81806
  21107018.040   112749903.76908  21107021.020    87694384.01508
  21785759.980   116580014.33208  21785761.060    90673355.53707
  20302823.320   108378186.21809  20302826.240    84294280.25108
  22900824.740   122503978.63508  22900825.040    95280883.21607
 15 03 04 01 44 30.0000000  0 18G04G07G11G16G18G19G21G22G27R02R03R04
                                R09R15R16R17R18R19
  22683084.400   119200657.33908  22683084.340    92883683.72647
  24373061.800   128081299.80408  24373059.700    99803602.40145
  24344539.740   127931437.16808  24344539.520    99686845.48745
  20702125.660   108790427.45109  20702122.960    84771758.31549
  22500729.040   118242285.16209  22500725.960    92136914.71847
  21685483.280   113958037.75609  21685478.900    88798481.47448
  24609953.920   129326186.73107  24609951.100   100773643.09444
  20988415.460   110295112.63809  20988410.440    85944330.79948
  20631435.340   108419105.53409  20631434.740    84482478.46149
  21549070.840   114990023.65209  21549072.880    89436722.54308
  20714356.100   110885692.90308  20714356.580    86244444.96908
  23395531.140   125282023.27907  23395541.180    97441613.14106
  22330236.760   119242224.11108  22330238.540    92743956.03804
  23461089.420   125368791.30207  23461102.780    97509035.38406
  21118479.100   112811126.54208  21118482.140    87742001.68208
  21795678.320   116633090.11908  21795679.520    90714636.68407
  20301219.160   108369623.19709  20301222.060    84287620.13508
  22888229.640   122436602.78408  22888229.680    95228479.78707
 15 03 04 01 45  0.0000000  0 18G04G07G11G16G18G19G21G22G27R02R03R04
                                R09R15R16R17R18R19
  22667960.180   119121180.09308  22667960.240    92821753.48947
  24372793.960   128079893.41708  24372792.020    99802506.49745
  24327812.100   127843533.72208  24327811.640    99618349.48845
  20710185.280   108832780.76209  20710182.540    84804760.87448
  22510071.860   118291382.77709  22510068.900    92175172.59147
  21675393.200   113905014.03809  21675388.800    88757164.29348
  24624329.360   129401730.40907  24624326.580   100832508.24844
  20985647.720   110280568.17909  20985642.720    85932997.46048
  20627598.860   108398944.91309  20627598.320    84466768.87849
  21557235.560   115033591.98709  21557237.560    89470609.02308
  20700895.200   110813636.40308  20700895.800    86188401.05208
  23371024.740   125150795.65607  23371034.820    97339547.93006
  22322422.540   119200496.17208  22322424.060    92711500.96604
  23484818.320   125495590.52007  23484831.740    97607656.77606
  21130063.360   112873006.97608  21130066.380    87790130.86008
  21805615.700   116686267.86308  21805616.980    90755997.12007
  20299642.180   108361205.22609  20299645.060    84281072.82108
  22875638.680   122369249.73408  22875638.660    95176094.12307
 15 03 04 01 45 30.0000000  0 19G04G07G11G16G18G19G21G22G27G32R02R03
                                R04R09R15R16R17R18R19
  22652883.760   119041953.75709  22652883.860    92760018.78047
  24372622.380   128078992.66208  24372620.700    99801804.60246
  24311103.680   127755731.57008  24311103.200    99549932.44445
  20718344.220   108875656.38609  20718341.500    84838170.44148
  22519494.180   118340898.21509  22519491.400    92213756.06247
  21665331.660   113852140.42009  21665327.260    88715964.09448
  24638699.520   129477246.75607  24638696.940   100891352.14944
  20982980.900   110266554.22309  20982975.920    85922077.51848
  20623806.720   108379017.36209  20623806.240    84451240.92449
  24512777.860   128815516.50408  24512787.560   100375741.03445
  21565538.800   115077900.24009  21565540.900    89505070.99808
  20687551.100   110742204.90808  20687551.760    86132843.25808
  23346517.560   125019563.46707  23346527.500    97237479.21706
  22314745.260   119159499.50308  22314746.640    92679614.67904
  23508543.100   125622367.88607  23508556.540    97706261.29606
  21141769.800   112935540.05508  21141772.780    87838767.66208
  21815572.040   116739546.89708  21815573.320    90797436.34407
  20298092.200   108352931.36509  20298095.080    84274637.60008
  22863051.560   122301917.70508  22863051.680    95123724.82507
 15 03 04 01 46  0.0000000  0 19G04G07G11G16G18G19G21G22G27G32R02R03
                                R04R09R15R16R17R18R19
  22637854.180   118962973.25409  22637854.280    92698475.61547
  24372545.760   128078590.28108  24372544.140    99801491.04446
  24294413.520   127668025.18008  24294413.160    99481590.01845
  20726601.340   108919048.42509  20726598.740    84871982.39948
  22528994.540   118390823.88709  22528991.960    92252659.18746
  21655297.740   113799411.87209  21655293.360    88674876.92248
  24653063.320   129552729.54107  24653060.880   100950169.88145
  20980414.140   110253065.96409  20980409.200    85911567.20048
  20620058.040   108359318.05709  20620057.620    84435890.82149
  24490358.940   128697705.46908  24490368.420   100283940.42644
  21573979.140   115122940.46409  21573981.300    89540102.28708
  20674323.340   110671396.25108  20674324.100    86077769.88908
  23322009.120   124888324.46207  23322018.860    97135405.25606
  22307204.060   119119229.61108  22307205.400    92648293.65404
  23532261.840   125749113.38507  23532275.300    97804840.98705
  21153596.600   112998716.23008  21153599.580    87887904.64608
  21825546.260   116792921.61108  21825547.620    90838949.97507
  20296568.240   108344795.95509  20296570.980    84268310.06008
  22850467.240   122234600.62108  22850467.340    95071367.11206
 15 03 04 01 46 30.0000000  0 19G04G07G11G16G18G19G21G22G27G32R02R03
                                R04R09R15R16R17R18R19
  22622874.400   118884254.19209  22622874.440    92637136.17647
  24372566.920   128078700.82608  24372565.260    99801577.15745
  24277744.560   127580430.06608  24277744.140    99413334.27745
  20734959.360   108962970.37709  20734956.820    84906207.27448
  22538575.580   118441173.48509  22538573.040    92291892.64046
  21645294.400   113746844.16309  21645290.060    88633915.08148
  24667423.480   129628193.18307  24667421.160   101008972.66845
  20977950.300   110240118.35509  20977945.340    85901478.16248
  20616355.860   108339863.15609  20616355.480    84420731.15249
  24467940.920   128579899.40308  24467950.440   100192143.85044
  21582559.220   115168726.43909  21582561.480    89575713.60207
  20661215.460   110601229.36708  20661216.260    86023195.67708
  23297503.040   124757098.19407  23297512.540    97033341.20906
  22299802.140   119079703.63508  22299803.380    92617551.20904
  23555976.740   125875837.82907  23555990.160    97903404.04506
  21165545.920   113062547.27008  21165548.980    87937550.95608
  21835541.360   116846407.92308  21835542.760    90880550.39807
  20295073.240   108336814.69209  20295075.760    84262102.40908
  22837888.420   122167313.48308  22837888.600    95019032.70107
 15 03 04 01 47  0.0000000  0 19G04G07G11G16G18G19G21G22G27G32R02R03
                                R04R09R15R16R17R18R19
  22607942.260   118805785.34209  22607942.180    92575991.70647
  24372683.320   128079311.47508  24372681.520    99802052.96645
  24261094.600   127492934.47508  24261094.160    99345156.09445
  20743415.860   109007409.38409  20743413.300    84940835.06248
  22548234.780   118491933.52809  22548232.280    92331445.92946
  21635319.540   113694426.25609  21635315.300    88593069.98748
  24681777.600   129703624.74807  24681775.380   101067750.48245
  20975587.160   110227699.80009  20975582.160    85891801.38248
  20612698.180   108320641.86609  20612697.800    84405753.53549
  24445522.020   128462088.90508  24445531.500   100100343.97345
  21591276.400   115215243.93709  21591278.760    89611893.88608
  20648225.940   110531695.95008  20648226.760    85969114.16608
  23272997.820   124625876.35207  23273007.000    96931280.61607
  22292537.420   119040910.69208  22292538.680    92587378.92004
  23579684.500   126002523.92207  23579698.040    98001937.13406
  21177614.820   113127017.25908  21177617.980    87987694.22908
  21845555.220   116899994.16408  21845556.580    90922228.55107
  20293604.860   108328975.59309  20293607.160    84256005.33208
  22825312.960   122100043.86508  22825313.420    94966711.93207
 15 03 04 01 47 30.0000000  0 19G04G07G11G16G18G19G21G22G27G32R02R03
                                R04R09R15R16R17R18R19
  22593058.680   118727571.64409  22593058.460    92515046.04447
  24372895.560   128080426.06008  24372893.780    99802921.43545
  24244464.660   127405543.88608  24244464.120    99277059.71245
  20751971.500   109052369.25009  20751968.860    84975868.70148
  22557972.700   118543106.93509  22557970.260    92371321.30447
  21625374.220   113642163.46509  21625370.100    88552345.73648
  24696126.700   129779029.34107  24696124.540   101126507.25745
  20973325.760   110215815.75509  20973320.720    85882541.09448
  20609086.060   108301659.78209  20609085.640    84390962.29649
  24423103.560   128344281.15208  24423113.200   100008546.39546
  21600131.200   115262495.55709  21600133.680    89648645.14308
  20635356.220   110462803.78608  20635357.080    85915531.39008
  23248495.020   124494667.79507  23248503.860    96829230.33507
  22285411.040   119002856.76008  22285412.400    92557781.41104
  23603385.500   126129173.47707  23603399.040    98100441.69606
  21189803.540   113192127.30108  21189806.760    88038335.31008
  21855588.880   116953685.55708  21855590.100    90963988.48907
  20292163.960   108321283.71409  20292166.160    84250022.75608
  22812741.620   122032796.15408  22812742.320    94914408.18807
 15 03 04 01 48  0.0000000  0 19G04G07G11G16G18G19G21G22G27G32R02R03
                                R04R09R15R16R17R18R19
  22578223.660   118649613.12409  22578223.300    92454299.22847
  24373203.340   128082043.18908  24373201.540    99804181.51145
  24227854.520   127318257.57908  24227853.920    99209044.57645
  20760626.000   109097848.35809  20760623.240    85011306.95748
  22567788.960   118594691.92909  22567786.600    92411517.40847
  21615458.660   113590056.69309  21615454.580    88511743.06548
  24710470.280   129854404.71107  24710468.120   101185241.27845
  20971166.040   110204465.99509  20971160.940    85873697.13348
  20605519.580   108282917.44309  20605519.080    84376357.87649
  24400685.960   128226478.04108  24400695.660    99916752.27845
  21609123.200   115310479.06908  21609125.760    89685965.65508
  20622606.960   110394556.15408  20622607.840    85862449.93208
  23223995.380   124363476.11707  23224003.860    96727193.20207
  22278423.220   118965542.57008  22278424.640    92528759.25704
  23627079.000   126255782.07107  23627092.600    98198914.49906
  21202111.180   113257872.89508  21202114.420    88089470.72708
  21865642.160   117007482.10308  21865643.280    91005830.22407
  20290750.480   108313738.71309  20290752.680    84244154.42108
  22800174.280   121965569.65608  22800175.040    94862120.94107
 15 03 04 01 48 30.0000000  0 19G04G07G11G16G18G19G21G22G27G32R02R03
                                R04R09R15R16R17R18R19
  22563437.380   118571910.90309  22563436.940    92393752.12747
  24373606.600   128084162.64508  24373604.900    99805833.01745
  24211264.500   127231076.91608  24211263.740    99141111.79045
  20769379.140   109143846.01709  20769376.260    85047149.27948
  22577683.260   118646686.93609  22577680.920    92452033.00447
  21605572.940   113538106.76809  21605568.900    88471262.62548
  24724808.260   129929750.57907  24724806.100   101243952.31045
  20969108.120   110193651.34209  20969103.020    85865270.15448
  20601999.020   108264416.50209  20601998.440    84361941.56949
  24378269.740   128108682.68008  24378279.420    99824964.09645
  21618252.100   115359192.91708  21618254.760    89723854.21008
  20609978.980   110326957.45508  20609979.800    85809873.19908
  23199499.660   124232305.71807  23199507.840    96625172.58607
  22271574.360   118928970.23208  22271575.780    92500314.11804
  23650764.180   126382345.77707  23650777.800    98297352.05205
  21214537.280   113324250.88808  21214540.500    88141098.00908
  21875715.320   117061384.92108  21875716.360    91047754.61307
  20289364.620   108306341.46709  20289366.980    84238401.02408
  22787610.960   121898364.36808  22787611.720    94809850.20507
 15 03 04 01 49  0.0000000  0 18G04G07G11G16G18G19G21G22G27G32R02R03
                                R04R09R16R17R18R19
  22548699.440   118494462.53709  22548698.940    92333402.82547
  24374104.740   128086780.58308  24374103.000    99807872.93945
  24194694.020   127143999.23708  24194693.240    99073259.22945
  20778230.160   109190358.48409  20778227.280    85083392.74248
  22587654.800   118699087.46009  22587652.380    92492864.57046
  21595716.640   113486311.41809  21595712.640    88430902.61548
  24739140.180   130005063.87408  24739137.820   101302637.96345
  20967151.560   110183369.41609  20967146.480    85857258.27848
  20598524.000   108246155.04109  20598523.380    84347711.85349
  24355855.060   127990895.41108  24355864.700    99733182.31846
  21627516.980   115408632.12109  21627519.780    89762306.92208
  20597472.240   110260007.75708  20597473.040    85757801.23908
  23175008.120   124101157.52708  23175015.960    96523169.23306
  22264864.100   118893137.84708  22264865.460    92472444.48504
  21227080.580   113391254.60908  21227083.760    88193211.96408
  21885807.920   117115391.50208  21885808.800    91089759.69607
  20288005.920   108299089.33009  20288008.500    84232760.47408
  22775051.080   121831177.27908  22775051.720    94757593.60707
 15 03 04 01 49 30.0000000  0 18G04G07G11G16G18G19G21G22G27G32R02R03
                                R04R09R16R17R18R19
  22534009.940   118417268.94609  22534009.440    92273252.05047
  24374697.540   128089896.03008  24374695.680    99810300.52445
  24178143.140   127057025.12608  24178142.400    99005487.37545
  20787178.820   109237384.48709  20787176.000    85120036.35348
  22597703.360   118751892.49709  22597700.880    92534011.33847
  21585890.040   113434672.20709  21585886.080    88390664.27448
  24753465.860   130080344.32508  24753463.260   101361298.02845
  20965296.300   110173620.43509  20965291.300    85849661.67948
  20595094.840   108228134.48409  20595094.200    84333669.85649
  24333442.520   127873118.96508  24333452.040    99641408.91144
  21636917.580   115458795.01509  21636920.400    89801322.50008
  20585087.480   110193711.24208  20585088.240    85706237.31008
  23150521.520   123970036.16307  23150529.080    96421186.74106
  22258292.720   118858047.09308  22258294.120    92445151.66204
  21239740.340   113458880.47208  21239743.500    88245809.80608
  21895920.060   117169502.99508  21895920.860    91131846.37807
  20286674.620   108291983.06809  20286677.320    84227233.38008
  22762494.620   121764008.22408  22762495.100    94705351.03007
 15 03 04 01 50  0.0000000  0 18G04G07G11G16G18G19G21G22G27G32R02R03
                                R04R09R16R17R18R19
  22519369.480   118340333.43008  22519369.120    92213302.37547
  24375385.460   128093510.93808  24375383.440    99813117.30945
  24161612.580   126970157.95008  24161611.840    98937798.83444
  20796225.540   109284925.51909  20796222.740    85157081.29648
  22607829.100   118805102.68209  22607826.480    92575473.81647
  21576093.740   113383192.29009  21576089.800    88350550.06148
  24767785.600   130155593.76908  24767782.800   101419933.94045
  20963543.100   110164407.91909  20963538.200    85842483.11148
  20591712.200   108210358.54309  20591711.580    84319818.47649
  24311033.220   127755359.21408  24311042.600    99549648.66446
  21646453.840   115509682.03409  21646456.760    89840901.28908
  20572825.820   110128073.90008  20572826.580    85655186.07108
  23126041.140   123838948.06608  23126048.460    96319230.10106
  22251860.820   118823701.59708  22251862.380    92418438.50004
  21252516.280   113527127.19508  21252519.440    88298890.52808
  21906052.300   117223722.12608  21906053.080    91174016.78407
  20285371.200   108285025.53109  20285374.000    84221821.96308
  22749941.960   121696859.83208  22749942.320    94653124.54707
 15 03 04 01 50 30.0000000  0 18G04G07G11G16G18G19G21G22G27G32R02R03
                                R04R09R16R17R18R19
  22504777.780   118263654.07008  22504777.580    92153552.29647
  24376167.900   128097622.17508  24376165.740    99816320.83645
  24145101.900   126883395.31407  24145101.260    98870191.75445
  20805369.800   109332978.86709  20805366.980    85194525.44548
  22618031.200   118858714.38509  22618028.460    92617249.16547
  21566327.480   113331870.17909  21566323.480    88310558.80948
  24782098.780   130230809.25207  24782095.920   101478543.38745
  20961891.540   110155729.53809  20961886.760    85835720.75148
  20588375.880   108192826.09209  20588375.260    84306156.81849
  24288627.080   127637615.85408  24288636.280    99457901.03145
  21656125.000   115561289.02409  21656127.960    89881040.05408
  20560687.560   110063097.00208  20560688.320    85604648.51908
  23101567.440   123707895.61708  23101574.540    96217301.18506
  22245568.340   118790100.59608  22245569.980    92392304.37004
  21265407.320   113595988.70408  21265410.480    88352449.41908
  21916204.380   117278047.59608  21916205.220    91216269.90607
  20284095.260   108278215.01609  20284098.140    84216524.89808
  22737392.580   121629729.36808  22737392.840    94600911.99407
 15 03 04 01 51  0.0000000  0 18G04G07G11G16G18G19G21G22G27G32R02R03
                                R04R09R16R17R18R19
  22490235.480   118187234.24808  22490235.380    92094004.45747
  24377045.080   128102231.34108  24377042.880    99819912.35645
  24128611.800   126796740.41508  24128611.260    98802668.61144
  20814611.740   109381545.57609  20814608.920    85232369.61148
  22628309.880   118912728.67509  22628307.060    92659338.20846
  21556591.940   113280709.43709  21556587.860    88270693.30248
  24796405.880   130305992.93407  24796403.080   101537128.04345
  20960342.280   110147588.40309  20960337.540    85829377.01748
  20585086.660   108175541.06409  20585085.980    84292687.96349
  24266225.300   127519894.85908  24266234.320    99366170.68046
  21665931.240   115613616.55709  21665934.180    89921739.24408
  20548673.860   109998786.61808  20548674.560    85554629.35008
  23077101.560   123576885.08608  23077108.520    96115404.83006
  22239416.060   118757247.97008  22239417.680    92366752.30604
  21278413.360   113665464.09308  21278416.480    88406485.77508
  21926376.880   117332482.69008  21926377.840    91258608.28407
  20282847.460   108271554.69309  20282850.440    84211344.64608
  22724847.080   121562619.80908  22724847.320    94548715.71007
 15 03 04 01 51 30.0000000  0 18G04G07G11G16G18G19G21G22G27G32R02R03
                                R04R09R16R17R18R19
  22475742.420   118111072.99009  22475742.320    92034658.10647
  24378016.420   128107335.73308  24378014.320    99823889.79045
  24112142.120   126710192.52708  24112141.680    98735228.86644
  20823950.940   109430623.45009  20823948.140    85270612.09948
  22638664.620   118967142.68309  22638661.740    92701738.73846
  21546887.000   113229709.62309  21546882.860    88230953.20648
  24810706.500   130381142.83107  24810703.720   101595686.40344
  20958895.040   110139983.05509  20958890.260    85823450.79148
  20581844.460   108158503.09109  20581843.780    84279411.62449
  24243828.080   127402197.92909  24243836.800    99274459.18246
  21675871.860   115666661.03909  21675874.700    89962996.07208
  20536785.060   109935144.81208  20536785.700    85505130.20608
  23052644.040   123445919.63108  23052650.940    96013543.53406
  22233403.880   118725143.30908  22233405.560    92341782.04004
  21291533.320   113735547.80108  21291536.360    88460995.27908
  21936569.560   117387026.33308  21936570.620    91301031.10707
  20281627.620   108265043.43209  20281630.660    84206280.34508
  22712305.240   121495529.33108  22712305.440    94496534.25707
 15 03 04 01 52  0.0000000  0 18G04G07G11G16G18G19G21G22G27G32R02R03
                                R04R09R16R17R18R19
  22461298.580   118035170.07308  22461298.380    91975513.03947
  24379081.680   128112934.12708  24379079.880    99828252.12845
  24095692.900   126623751.61108  24095692.480    98667872.45344
  20833386.980   109480210.30109  20833384.220    85309251.18348
  22649094.920   119021953.97009  22649092.020    92744448.82346
  21537212.800   113178871.59009  21537208.640    88191339.16848
  24825000.320   130456257.27607  24824997.540   101654217.10644
  20957549.700   110132913.33209  20957544.920    85817941.92048
  20578649.300   108141712.57209  20578648.660    84266328.09549
  24221435.800   127284526.82308  24221444.220    99182767.79844
  21685946.260   115720419.20709  21685948.840    90004807.97807
  20525021.680   109872174.37908  20525022.260    85456153.22108
  23028195.540   123315002.52008  23028202.400    95911719.82306
  22227531.920   118693786.97008  22227533.500    92317393.76804
  21304766.240   113806235.16308  21304769.260    88515974.27308
  21946782.500   117441678.52008  21946783.700    91343538.34107
  20280435.760   108258681.04009  20280438.760    84201331.81408
  22699766.800   121428456.87708  22699766.980    94444366.82607
 15 03 04 01 52 30.0000000  0 18G04G07G11G16G18G19G21G22G27G32R02R03
                                R04R09R16R17R18R19
  22446904.780   117959529.98808  22446904.460    91916572.78547
  24380241.420   128119029.13308  24380239.940    99833001.44245
  24079264.800   126537421.54408  24079264.280    98600602.42944
  20842920.320   109530308.57809  20842917.620    85348288.77448
  22659601.160   119077164.57608  22659598.280    92787470.06847
  21527570.140   113128199.34809  21527565.960    88151854.31548
  24839288.160   130531340.44207  24839285.360   101712723.46144
  20956307.060   110126383.45709  20956302.340    85812853.71448
  20575502.200   108125174.48109  20575501.560    84253441.26549
  24199049.640   127166888.01108  24199058.200    99091100.42844
  21696154.800   115774893.27409  21696157.180    90047176.70307
  20513385.020   109809882.48008  20513385.540    85407703.99308
  23003757.580   123184141.69308  23003764.400    95809939.86706
  22221800.980   118663183.77108  22221802.420    92293591.26704
  21318112.140   113877526.30908  21318115.180    88571422.87308
  21957016.460   117496443.88008  21957017.860    91386133.58707
  20279272.600   108252471.75609  20279275.520    84196502.36908
  22687232.480   121361406.23108  22687232.500    94392216.35407
 15 03 04 01 53  0.0000000  0 18G04G07G11G16G18G19G21G22G27G32R02R03
                                R04R09R16R17R18R19
  22432559.000   117884142.18509  22432558.560    91857829.11147
  24381493.460   128125608.58908  24381492.060    99838128.26546
  24062855.660   126451191.45108  24062855.140    98533410.28444
  20852548.700   109580906.19509  20852546.080    85387715.46548
  22670180.940   119132761.73709  22670178.080    92830792.52546
  21517957.060   113077682.51109  21517952.820    88112490.54448
  24853567.800   130606380.82507  24853565.040   101771196.47044
  20955165.060   110120382.50809  20955160.380    85808177.66048
  20572401.220   108108878.91109  20572400.640    84240743.40749
  24176668.160   127049273.93808  24176676.460    98999453.50145
  21706494.860   115830069.22309  21706497.060    90090091.33407
  20501873.660   109748261.36208  20501874.160    85359776.48008
  22979328.840   123053330.06207  22979335.560    95708198.14506
  22216209.140   118633323.67408  22216210.560    92270366.74304
  21331568.260   113949406.02508  21331571.260    88627329.26108
  21967269.600   117551311.68908  21967271.140    91428808.53107
  20278136.220   108246404.90309  20278138.940    84191783.69908
  22674700.060   121294365.98508  22674699.940    94340073.97306
 15 03 04 01 53 30.0000000  0 18G04G07G11G16G18G19G21G22G27G32R02R03
                                R04R09R16R17R18R19
  22418263.780   117809019.88409  22418263.200    91799292.32747
  24382840.080   128132684.48708  24382838.700    99843641.91646
  24046468.100   126365075.00208  24046467.640    98466306.69045
  20862274.360   109632014.70209  20862271.720    85427540.25948
  22680836.400   119188756.75109  22680833.600    92874425.00247
  21508376.300   113027335.56909  21508372.040    88073259.17048
  24867841.400   130681389.82906  24867838.780   101829645.03144
  20954126.140   110114923.19409  20954121.500    85803923.66348
  20569348.980   108092839.75109  20569348.480    84228245.36349
  24154294.220   126931699.77608  24154302.420    98907837.68746
  21716968.440   115885958.16709  21716970.580    90133560.52007
  20490490.600   109687327.12808  20490491.140    85312383.21408
  22954912.600   122922585.18307  22954919.200    95606508.32406
  22210759.060   118604220.39608  22210760.500    92247730.83904
  21345136.180   114021883.04708  21345139.180    88683700.22408
  21977544.520   117606295.56208  21977546.120    91471573.73507
  20277029.020   108240493.81009  20277031.540    84187186.17608
  22662171.900   121227348.89808  22662171.640    94287949.60606
 15 03 04 01 54  0.0000000  0 18G04G07G11G16G18G19G21G22G27G32R02R03
                                R04R09R16R17R18R19
  22404017.940   117734157.26409  22404017.220    91740957.88147
  24384279.740   128140249.21508  24384278.460    99849536.46346
  24030101.060   126279066.23508  24030100.440    98399287.02244
  20872095.880   109683626.46609  20872093.140    85467757.19548
  22691565.960   119245141.43208  22691563.280    92918361.10946
  21498826.760   112977152.54209  21498822.480    88034155.51548
  24882107.840   130756361.27606  24882105.200   101888064.31444
  20953189.180   110109999.56509  20953184.520    85800087.07348
  20566344.520   108077051.79109  20566344.100    84215943.05049
  24131927.140   126814161.64407  24131935.260    98816249.83544
  21727573.840   115942551.20109  21727576.080    90177577.31107
  20479235.280   109627076.69508  20479235.860    85265521.78708
  22930508.260   122791904.34307  22930514.840    95504868.29606
  22205449.720   118575868.58408  22205451.120    92225679.40304
  21358813.980   114094947.07108  21358817.000    88740527.72708
  21987840.160   117661389.61708  21987841.660    91514424.63307
  20275949.800   108234732.52709  20275952.240    84182705.18008
  22649646.860   121160348.50508  22649646.540    94235838.21307
 15 03 04 01 54 30.0000000  0 18G04G07G11G16G18G19G21G22G27G32R02R03
                                R04R09R16R17R18R19
  22389822.200   117659558.17009  22389821.400    91682828.78347
  24385812.840   128148304.56708  24385811.580    99855813.32846
  24013755.200   126193168.97908  24013754.480    98332354.20744
  20882013.540   109735743.46409  20882010.720    85508367.82948
  22702369.960   119301917.23209  22702367.280    92962601.98847
  21489309.260   112927137.87809  21489304.980    87995183.05648
  24896367.440   130831297.53006  24896365.180   101946456.18244
  20952354.820   110105615.21209  20952350.180    85796670.71148
  20563388.780   108061519.61709  20563388.460    84203840.05349
  24109568.180   126696666.36008  24109576.260    98724695.35145
  21738311.380   115999849.41209  21738313.740    90222142.58008
  20468108.900   109567516.85508  20468109.560    85219197.49408
  22906117.340   122661295.18507  22906123.780    95403283.99807
  22200281.960   118548272.50508  22200283.380    92204215.77004
  21372601.620   114168597.80008  21372604.680    88797811.56408
  21998157.240   117716597.90408  21998158.660    91557364.39107
  20274899.400   108229125.06509  20274901.760    84178343.81508
  22637125.540   121093368.02008  22637125.220    94183742.30307
 15 03 04 01 55  0.0000000  0 18G04G07G11G16G18G19G21G22G27G32R02R03
                                R04R09R16R17R18R19
  22375675.680   117585218.06609  22375674.900    91624901.49547
  24387438.260   128156845.20908  24387436.980    99862468.34046
  23997429.580   126107378.34908  23997428.960    98265504.49745
  20892026.160   109788359.64309  20892023.280    85549367.42648
  22713247.260   119359077.89809  22713244.540    93007142.76446
  21479823.040   112877287.36709  21479818.740    87956338.51448
  24910619.420   130906193.52306  24910617.560   102004816.67945
  20951622.120   110101765.06909  20951617.500    85793670.60948
  20560481.020   108046239.30309  20560480.760    84191933.31349
  24087216.980   126579211.52808  24087224.880    98633172.43745
  21749179.620   116057845.23708  21749182.160    90267250.43407
  20457111.140   109508645.46408  20457111.840    85173408.66108
  22881739.740   122530757.17907  22881746.080    95301755.01806
  22195254.900   118521427.92808  22195256.340    92183336.65604
  21386497.280   114242825.67108  21386500.400    88855544.27908
  22008494.960   117771916.15208  22008496.220    91600389.67007
  20273876.900   108223666.90709  20273879.300    84174098.58008
  22624607.020   121026402.19408  22624606.700    94131657.79907
 15 03 04 01 55 30.0000000  0 18G04G07G11G16G18G19G21G22G27G32R02R03
                                R04R09R16R17R18R19
  22361579.200   117511141.03109  22361578.480    91567179.19347
  24389156.280   128165873.01508  24389154.720    99869502.96646
  23981125.060   126021698.43808  23981124.460    98198741.05545
  20902134.180   109841477.43709  20902131.320    85590757.89448
  22724198.140   119416625.19709  22724195.340    93051984.81246
  21470368.920   112827605.44909  21470364.560    87917625.34448
  24924864.400   130981051.96007  24924862.700   102063147.90445
  20950991.840   110098452.84109  20950987.200    85791089.66148
  20557622.080   108031215.59309  20557621.860    84180226.52449
  24064874.780   126461803.28108  24064882.500    98541685.56546
  21760178.840   116116540.00108  21760181.460    90312901.91507
  20446243.380   109450469.66508  20446244.040    85128160.84108
  22857376.980   122400297.86108  22857383.060    95200287.20706
  22190369.380   118495339.20008  22190370.740    92163045.41504
  21400500.940   114317630.43408  21400504.040    88913725.68707
  22018853.960   117827348.36808  22018855.100    91643503.58007
  20272883.140   108218361.98809  20272885.560    84169972.52608
  22612092.000   120959454.80608  22612091.700    94079587.63007
 15 03 04 01 56  0.0000000  0 18G04G07G11G16G18G19G21G22G27G32R02R03
                                R04R09R16R17R18R19
  22347532.440   117437325.24009  22347531.740    91509660.45447
  24390966.140   128175384.94208  24390964.340    99876914.84546
  23964841.260   125936127.25808  23964840.780    98132062.33445
  20912336.940   109895093.27309  20912334.120    85632536.45048
  22735221.880   119474555.56508  22735219.040    93097125.35246
  21460946.740   112778091.28909  21460942.280    87879042.89148
  24939101.880   131055870.28907  24939100.140   102121447.85745
  20950463.600   110095676.79709  20950458.940    85788926.51848
  20554811.760   108016447.45109  20554811.600    84168718.87649
  24042541.720   126344442.61008  24042549.280    98450235.74146
  21771308.240   116175929.05508  21771310.800    90359093.39507
  20435505.720   109392990.05308  20435506.360    85083454.49608
  22833029.500   122269919.49308  22833035.220    95098882.33706
  22185625.120   118470005.02808  22185626.400    92143341.05104
  21414611.420   114393005.67908  21414614.460    88972350.81707
  22029233.940   117882893.17908  22029235.020    91686705.07307
  20271917.760   108213208.81009  20271920.300    84165964.49008
  22599579.980   120892523.34408  22599579.580    94027529.84807
 15 03 04 01 56 30.0000000  0 18G04G07G11G16G18G19G21G22G27G32R02R03
                                R04R09R16R17R18R19
  22333535.760   117363772.52109  22333535.020    91452346.71547
  24392868.020   128185380.61408  24392866.300    99884703.64946
  23948578.600   125850666.87408  23948578.140    98065469.94645
  20922634.360   109949206.58309  20922631.560    85674702.63948
  22746318.320   119532867.75908  22746315.380    93142563.42346
  21451556.820   112728746.79209  21451552.380    87840592.64448
  24953332.000   131130649.41207  24953330.220   102179717.29645
  20950037.600   110093437.87609  20950032.900    85787181.91348
  20552050.540   108001937.17309  20552050.340    84157412.16549
  24020218.580   126227133.72109  24020226.020    98358826.34947
  21782567.500   116236010.92008  21782569.980    90405823.73207
  20424898.980   109336211.06208  20424899.580    85039293.08808
  22808698.140   122139627.08608  22808703.480    94997544.29806
  22181022.400   118445427.17208  22181023.740    92124224.93604
  21428828.180   114468948.81408  21428831.240    89031417.63707
  22039635.180   117938552.39308  22039636.340    91729995.54507
  20270981.040   108208208.80409  20270983.740    84162075.59308
  22587071.060   120825608.63508  22587070.600    93975485.09707
 15 03 04 01 57  0.0000000  0 18G04G07G11G16G18G19G21G22G27G32R02R03
                                R04R09R16R17R18R19
  22319588.940   117290481.84209  22319588.200    91395237.14447
  24394861.660   128195857.43308  24394860.220    99892867.36246
  23932336.820   125765315.90408  23932336.200    97998962.80945
  20933025.960   110003814.86009  20933023.180    85717254.51648
  22757486.900   119591558.89909  22757483.920    93188296.76646
  21442199.020   112679571.17609  21442194.600    87802273.98148
  24967554.160   131205386.63407  24967552.200   102237954.07246
  20949713.500   110091734.54609  20949708.780    85785854.64848
  20549338.360   107987684.43709  20549338.120    84146306.12449
  23997905.460   126109877.52808  23997912.720    98267457.85345
  21793955.900   116296781.83708  21793958.360    90453089.99307
  20414423.400   109280134.11408  20414424.000    84995677.69908
  22784383.420   122009423.74608  22784388.400    94896275.50406
  22176561.180   118421604.90908  22176562.540    92105696.49504
  21443150.160   114545453.91808  21443153.180    89090921.53107
  22050057.540   117994324.81908  22050058.860    91773374.08307
  20270072.860   108203361.18709  20270075.660    84158305.22208
  22574564.920   120758709.48608  22574564.540    93923452.44407
 15 03 04 01 57 30.0000000  0 18G04G07G11G16G18G19G21G22G27G32R02R03
                                R04R09R16R17R18R19
  22305692.220   117217454.31909  22305691.440    91338332.64547
  24396946.980   128206815.17008  24396945.560    99901405.83146
  23916116.140   125680075.43408  23916115.400    97932541.78145
  20943511.580   110058917.05709  20943508.800    85760191.27948
  22768727.440   119650628.07808  22768724.420    93234324.70046
  21432873.700   112630566.55709  21432869.360    87764088.58648
  24981768.580   131280082.90607  24981766.540   102296158.94745
  20949491.480   110090567.89409  20949486.780    85784945.58548
  20546675.620   107973691.28909  20546675.340    84135402.37149
  23975603.240   125992678.92108  23975610.400    98176134.70546
  21805473.160   116358240.08409  21805475.560    90500890.86408
  20404079.820   109224763.54008  20404080.400    84952611.73208
  22760086.200   121879314.55308  22760090.880    94795079.94807
  22172241.940   118398539.78308  22172243.100    92087756.93604
  21457576.740   114622517.86308  21457579.780    89150860.09407
  22060501.400   118050212.39508  22060502.920    91816842.17707
  20269193.500   108198667.32809  20269196.400    84154654.45108
  22562061.740   120691826.50008  22562061.480    93871432.36507
 15 03 04 01 58  0.0000000  0 18G04G07G11G16G18G19G21G22G27G32R02R03
                                R04R09R16R17R18R19
  22291845.780   117144691.19909  22291845.020    91281634.16447
  24399123.600   128218253.14408  24399122.200    99910318.50945
  23899916.760   125594947.10508  23899915.900    97866208.11445
  20954091.160   110114513.01209  20954088.340    85803512.78248
  22780039.680   119710074.02708  22780036.620    93280646.21346
  21423581.220   112581734.58909  21423576.980    87726037.71448
  24995975.400   131354739.09607  24995973.160   102354332.59345
  20949371.640   110089938.28809  20949366.920    85784454.99048
  20544062.620   107959959.36909  20544062.240    84124702.17349
  23953312.440   125875540.85908  23953319.660    98084858.83046
  21817118.840   116420383.49608  21817121.220    90549224.63107
  20393868.780   109170102.69508  20393869.380    84910097.76008
  22735807.400   121749304.32608  22735811.820    94693961.33207
  22168064.740   118376232.90108  22168065.780    92070407.13404
  21472107.220   114700136.82008  21472110.240    89211230.32507
  22070967.020   118106216.17908  22070968.680    91860400.64307
  20268343.280   108194128.46809  20268346.120    84151124.22408
  22549561.600   120624960.18008  22549561.440    93819425.25207
 15 03 04 01 58 30.0000000  0 18G04G07G11G16G18G19G21G22G27G32R02R03
                                R04R09R16R17R18R19
  22278050.120   117072194.80509  22278049.380    91225143.53147
  24401391.460   128230171.64008  24401390.100    99919605.61545
  23883739.080   125509932.90908  23883738.200    97799963.38045
  20964764.680   110170602.56809  20964761.800    85847218.90848
  22791423.640   119769896.77809  22791420.600    93327261.33946
  21414322.060   112533077.91109  21414317.940    87688123.42748
  25010174.580   131429355.30207  25010172.180   102412475.07544
  20949354.380   110089847.69409  20949349.620    85784384.40548
  20541499.900   107946491.78009  20541499.460    84114207.94049
  23931033.900   125758467.67308  23931041.040    97993633.51145
  21828892.800   116483211.47709  21828895.240    90598090.83007
  20383791.280   109116156.50008  20383791.800    84868139.62708
  22711548.200   121619399.25108  22711552.500    94592924.50407
  22164030.020   118354686.60808  22164030.880    92053648.90204
  21486741.140   114778308.61808  21486744.160    89272030.54607
  22081454.960   118162338.92408  22081456.600    91904051.64707
  20267522.600   108189746.96009  20267525.340    84147716.38308
  22537064.880   120558112.06708  22537064.860    93767432.30207
 15 03 04 01 59  0.0000000  0 18G04G07G11G16G18G19G21G22G27G32R02R03
                                R04R09R16R17R18R19
  22264304.740   116999962.64809  22264304.000    91168858.79547
  24403750.000   128242566.90808  24403748.740    99929264.23446
  23867582.580   125425030.22808  23867581.560    97733805.56245
  20975531.400   110227182.02409  20975528.500    85891306.77648
  22802878.460   119830092.04509  22802875.480    93374166.72646
  21405095.900   112484594.61509  21405091.840    87650344.23848
  25024365.560   131503928.70707  25024363.000   102470584.19345
  20949439.160   110090293.33909  20949434.360    85784731.66948
  20538987.120   107933286.79009  20538986.660    84103918.32949
  23908767.640   125641459.73608  23908774.740    97902459.19245
  21840794.040   116546718.65708  21840796.580    90647485.29908
  20373847.220   109062924.76108  20373847.600    84826737.18908
  22687308.880   121489600.49308  22687313.020    94491970.31207
  22160137.260   118333898.76308  22160138.040    92037480.57404
  21501477.220   114857026.35008  21501480.300    89333255.37207
  22091964.660   118218578.04008  22091966.240    91947793.15407
  20266730.940   108185520.57409  20266733.600    84144429.18808
  22524571.040   120491279.54208  22524571.240    93715451.48507
 15 03 04 01 59 30.0000000  0 18G04G07G11G16G18G19G21G22G27G32R02R03
                                R04R09R16R17R18R19
  22250610.160   116927997.09409  22250609.320    91112781.80447
  24406199.540   128255439.76608  24406198.580    99939295.00646
  23851447.800   125340241.75508  23851446.680    97667736.73045
  20986391.320   110284251.54109  20986388.540    85935776.51348
  22814404.260   119890660.10208  22814401.260    93421362.62346
  21395903.380   112436287.99609  21395899.360    87612702.73548
  25038548.580   131578460.99607  25038545.960   102528661.28344
  20949626.240   110091276.73009  20949621.440    85785497.97248
  20536524.860   107920347.71009  20536524.420    84093835.93349
  23886514.640   125524521.84408  23886521.680    97811339.48746
  21852822.380   116610904.29908  21852825.120    90697407.47108
  20364037.620   109010412.75508  20364037.820    84785894.54908
  22663090.680   121359914.70308  22663094.740    94391104.00507
  22156386.900   118313871.76408  22156387.620    92021904.02604
  21516315.140   114936287.76708  21516318.240    89394903.07607
  22102496.720   118274936.55108  22102498.120    91991627.53107
  20265968.860   108181452.08909  20265971.440    84141264.81608
  22512080.460   120424464.81308  22512080.980    93663484.51307
 15 03 04 02 00  0.0000000  0 18G04G07G11G16G18G19G21G22G27G32R02R03
                                R04R09R16R17R18R19
  22236965.400   116856293.41509  22236964.460    91056908.86847
  24408738.720   128268783.18708  24408737.880    99949692.42646
  23835333.780   125255562.19808  23835332.560    97601752.75745
  20997343.300   110341804.77809  20997340.640    85980623.16948
  22825999.560   119951593.63108  22825996.620    93468843.28846
  21386743.680   112388153.51809  21386739.580    87575195.35448
  25052722.780   131652947.08206  25052720.220   102586702.37344
  20949914.780   110092793.13609  20949909.980    85786679.59348
  20534112.360   107907670.36309  20534112.000    84083957.48749
  23864274.500   125407651.63208  23864281.480    97720272.56945
  21864976.360   116675760.54808  21864979.320    90747851.21608
  20354362.040   108958618.24008  20354362.080    84745609.94908
  22638893.400   121230340.76008  22638897.380    94290324.65307
  22152778.040   118294600.74408  22152778.820    92006915.44804
  21531253.100   115016083.38208  21531256.180    89456966.26607
  22113050.160   118331409.61408  22113051.360    92035551.02007
  20265235.360   108177536.56509  20265237.940    84138219.40308
  22499592.260   120357662.20408  22499592.860    93611526.95707
 15 03 04 02 00 30.0000000  0 18G04G07G11G16G18G19G21G22G27G32R02R03
                                R04R09R16R17R18R19
  22223372.240   116784860.77709  22223371.240    91001247.11847
  24411368.940   128282604.55008  24411368.060    99960462.27245
  23819242.280   125171001.04908  23819240.920    97535861.04245
  21008388.680   110399848.85209  21008386.080    86025852.28748
  22837665.600   120012899.11408  22837662.760    93516613.77846
  21377618.720   112340201.12209  21377614.480    87537829.84648
  25066889.440   131727393.91906  25066886.720   102644712.86044
  20950306.400   110094851.04009  20950301.600    85788283.15748
  20531751.600   107895264.59109  20531751.300    84074290.64349
  23842049.360   125290860.72508  23842056.140    97629267.49546
  21877257.120   116741293.35108  21877260.220    90798821.16008
  20344822.680   108907552.87908  20344822.620    84705892.46208
  22614719.540   121100891.87108  22614723.360    94189642.55007
  22149312.420   118276094.98008  22149313.360    91992522.06404
  21546291.880   115096417.54708  21546294.980    89519448.31508
  22123626.800   118388006.78308  22123627.860    92079571.02007
  20264532.280   108173783.57009  20264534.820    84135300.40008
  22487108.100   120290880.72208  22487108.640    93559585.81707
 15 03 04 02 01  0.0000000  0 18G04G07G11G16G18G19G21G22G27G32R02R03
                                R04R09R16R17R18R19
  22209829.240   116713692.09709  22209828.200    90945791.06147
  24414088.480   128296895.14608  24414087.520    99971597.78546
  23803172.000   125086551.42808  23803170.500    97470056.24345
  21019525.800   110458374.70809  21019523.220    86071456.83148
  22849400.780   120074568.09008  22849398.060    93564667.53246
  21368527.220   112292424.42409  21368522.840    87500601.25448
  25081047.220   131801794.88206  25081044.760   102702687.63245
  20950799.640   110097442.75509  20950794.800    85790302.68348
  20529441.380   107883124.22609  20529441.060    84064830.62949
  23819838.340   125174144.57208  23819845.080    97538320.69146
  21889662.780   116807492.48208  21889665.980    90850309.37708
  20335418.600   108857211.54808  20335418.400    84666738.12108
  22590568.400   120971564.56808  22590572.080    94089055.01907
  22145988.720   118258347.35808  22145989.820    91978718.36004
  21561429.340   115177278.96708  21561432.500    89582340.46307
  22134225.440   118444721.38008  22134226.280    92123682.36507
  20263858.400   108170186.29909  20263860.900    84132502.52508
  22474626.440   120224112.49008  22474626.960    93507655.00307
 15 03 04 02 01 30.0000000  0 18G04G07G11G16G18G19G21G22G27G32R02R03
                                R04R09R16R17R18R19
  22196337.260   116642791.83109  22196336.280    90890544.15347
  24416897.760   128311657.55808  24416896.720    99983100.92445
  23787123.780   125002217.58908  23787122.220    97404341.65545
  21030755.080   110517384.68109  21030752.440    86117438.61048
  22861205.500   120136602.72508  22861202.880    93613006.20446
  21359470.060   112244828.29009  21359465.620    87463513.37048
  25095196.780   131876152.70106  25095194.260   102760628.79044
  20951395.220   110100572.04409  20951390.320    85792741.10348
  20527182.640   107871254.34709  20527182.300    84055581.36649
  23797642.820   125057509.97408  23797649.520    97447437.44245
  21902193.620   116874359.25108  21902196.800    90902316.86407
  20326151.080   108807601.55508  20326150.840    84628152.59208
  22566441.560   120842367.41808  22566445.120    93988568.69807
  22142807.820   118241362.11408  22142808.900    91965507.61304
  21576665.440   115258666.93108  21576668.600    89645642.14007
  22144846.840   118501558.02208  22144847.580    92167888.60807
  20263214.540   108166749.20309  20263217.000    84129829.22408
  22462148.120   120157361.83908  22462148.620    93455737.86707
 15 03 04 02 02  0.0000000  0 18G04G07G11G16G18G19G21G22G27G32R02R03
                                R04R09R16R17R18R19
  22182895.900   116572157.82709  22182895.000    90835504.72147
  24419796.020   128326887.98008  24419795.040    99994968.75946
  23771097.220   124917997.57908  23771095.620    97338715.75745
  21042075.760   110576874.79309  21042073.040    86163794.51548
  22873078.960   120198998.65908  22873076.440    93661626.39946
  21350446.940   112197411.12309  21350442.460    87426564.92848
  25109337.740   131950465.32706  25109335.140   102818534.70245
  20952092.540   110104236.11809  20952087.620    85795596.22548
  20524975.140   107859653.67209  20524974.740    84046541.86949
  23775462.900   124940957.48108  23775469.560    97356618.20645
  21914848.640   116941888.48308  21914851.720    90954839.58607
  20317020.100   108758722.79808  20317019.860    84590135.79708
  22542339.300   120713301.86408  22542342.660    93888184.70507
  22139769.400   118225137.16408  22139770.360    91952888.20304
  21591998.820   115340574.73708  21592002.000    89709348.13007
  22155490.640   118558514.72008  22155491.340    92212188.23607
  20262600.320   108163470.54009  20262602.760    84127279.14408
  22449672.680   120090626.14708  22449673.140    93403832.36007
 15 03 04 02 02 30.0000000  0 17G04G07G11G16G18G19G22G27G32R02R03R04
                                R09R16R17R18R19
  22169504.260   116501785.18509  22169503.460    90780668.96047
  24422782.000   128342579.64508  24422781.060   100007195.98746
  23755091.360   124833886.39108  23755089.600    97273174.66145
  21053486.440   110636837.77009  21053483.580    86210518.89648
  22885019.620   120261747.98608  22885017.300    93710521.97946
  21341457.040   112150168.82709  21341452.580    87389752.75948
  20952890.680   110108429.80709  20952885.680    85798864.04948
  20522818.080   107848317.96109  20522817.640    84037708.85449
  23753298.080   124824484.44108  23753304.600    97265860.89745
  21927626.280   117010071.73009  21927629.180    91007871.00907
  20308025.180   108710572.76608  20308024.980    84552685.80808
  22518261.500   120584367.31508  22518264.600    93787902.60507
  22136872.380   118209667.03808  22136873.320    91940855.87904
  21607427.720   115422992.74808  21607430.880    89773450.95708
  22166155.920   118615586.97808  22166156.740    92256577.75507
  20262014.840   108160345.51709  20262017.280    84124848.57808
  22437199.120   120023900.05108  22437199.480    93351934.31507
 15 03 04 02 03  0.0000000  0 17G04G07G11G16G18G19G22G27G32R02R03R04
                                R09R16R17R18R19
  22156165.280   116431689.17909  22156164.560    90726048.74447
  24425858.320   128358745.89908  24425857.440   100019793.02646
  23739109.000   124749899.03708  23739107.160    97207730.06045
  21064989.720   110697287.73309  21064986.840    86257622.74748
  22897030.220   120324864.71508  22897028.080    93759703.84546
  21332503.420   112103117.37809  21332499.000    87353089.30948
  20953792.320   110113167.66009  20953787.280    85802555.89548
  20520714.520   107837263.44309  20520714.040    84029094.94349
  23731151.780   124708108.86908  23731158.260    97175179.50746
  21940528.880   117078921.37409  21940531.520    91061420.73007
  20299169.680   108663169.24808  20299169.580    84515816.43208
  22494211.640   120455582.91708  22494214.660    93687737.29207
  22134119.600   118194967.50908  22134120.640    91929422.90604
  21622954.140   115505931.64008  21622957.320    89837958.90508
  22176845.740   118672790.50008  22176846.700    92301069.37107
  20261461.080   108157389.96309  20261463.660    84122549.81308
  22424730.160   119957198.46708  22424730.200    93300055.32007
 15 03 04 02 03 30.0000000  0 17G04G07G11G16G18G19G22G27G32R02R03R04
                                R09R16R17R18R19
  22142876.820   116361858.63309  22142876.180    90671635.37347
  24429022.400   128375373.52508  24429021.580   100032749.56046
  23723148.120   124666024.60108  23723146.360    97142373.43445
  21076583.140   110758211.39509  21076580.240    86305095.70648
  22909108.140   120388334.99408  22909106.080    93809161.19747
  21323584.080   112056245.91409  21323579.680    87316566.08548
  20954795.200   110118437.84809  20954790.200    85806662.53748
  20518662.400   107826479.54509  20518661.880    84020691.90449
  23709022.320   124591821.92408  23709028.720    97084567.17946
  21953553.580   117148422.77009  21953556.000    91115477.36207
  20290451.880   108616503.03908  20290451.880    84479520.50608
  22470188.460   120326941.35408  22470191.400    93587683.03807
  22131508.820   118181026.48808  22131510.020    91918579.88304
  21638575.080   115589375.34808  21638578.280    89902859.47708
  22187557.960   118730113.91908  22187559.080    92345654.24407
  20260937.020   108154592.70309  20260939.680    84120374.15808
  22412263.640   119890509.85108  22412263.340    93248186.40307
 15 03 04 02 04  0.0000000  0 18G01G04G07G11G16G18G19G22G27G32R02R03
                                R04R09R16R17R18R19
  24595194.800   129248619.84307  24595202.820   100713225.27745
  22129639.360   116292295.92109  22129638.740    90617430.71347
  24432274.460   128392463.36808  24432273.580   100046066.28046
  23707209.260   124582265.68608  23707207.360    97077106.83245
  21088266.700   110819608.93309  21088263.860    86352937.91948
  22921253.420   120452159.16508  22921251.400    93858894.31146
  21314699.660   112009557.90909  21314695.320    87280185.82948
  20955899.680   110124242.19509  20955894.760    85811185.40948
  20516662.380   107815969.54709  20516661.860    84012502.29449
  23686910.660   124475628.71508  23686917.080    96994027.88446
  21966700.220   117218575.22709  21966702.480    91170040.38807
  20281872.720   108570578.87508  20281872.820    84443801.73508
  22446193.140   120198449.31508  22446196.100    93487745.10007
  22129040.560   118167846.48808  22129041.900    91908328.75904
  21654290.040   115673321.68808  21654293.340    89968150.99408
  22198293.140   118787560.42408  22198294.440    92390334.84607
  20260443.180   108151956.64809  20260445.900    84118323.89708
  22399799.900   119823836.44708  22399799.320    93196329.32707
 15 03 04 02 04 30.0000000  0 18G01G04G07G11G16G18G19G22G27G32R02R03
                                R04R09R16R17R18R19
  24579093.760   129164009.71007  24579102.060   100647296.26945
  22116453.480   116223003.89309  22116452.860    90563436.97447
  24435614.700   128410016.26908  24435613.840   100059743.82446
  23691293.000   124498625.28108  23691291.020    97011932.56545
  21100040.600   110881481.07509  21100037.760    86401149.95448
  22933466.120   120516337.60208  22933464.120    93908903.47346
  21305850.840   111963056.84609  21305846.540    87243951.23548
  20957106.240   110130582.97409  20957101.400    85816126.28448
  20514715.200   107805737.09009  20514714.680    84004528.94649
  23664817.820   124359534.46108  23664824.240    96903565.65446
  21979968.660   117289378.06309  21979970.840    91225109.26107
  20273433.140   108525401.82808  20273433.300    84408664.05208
  22422226.900   120070113.30108  22422229.960    93387928.49607
  22126715.320   118155429.93508  22126716.760    91898671.43404
  21670098.700   115757768.74408  21670102.100    90033831.94207
  22209051.840   118845132.92808  22209053.300    92435113.43307
  20259980.140   108149484.87709  20259982.820    84116401.40608
  22387339.380   119757180.61508  22387338.680    93144485.92907
 15 03 04 02 05  0.0000000  0 18G01G04G07G11G16G18G19G22G27G32R02R03
                                R04R09R16R17R18R19
  24563021.560   129079552.02807  24563029.900   100581485.97545
  22103318.440   116153978.88109  22103317.820    90509651.29847
  24439041.980   128428026.53708  24439041.020   100073777.76046
  23675398.460   124415099.25608  23675396.540    96946847.42745
  21111903.660   110943821.85509  21111900.840    86449727.15748
  22945745.060   120580864.23008  22945743.080    93959183.95446
  21297036.900   111916739.30009  21297032.660    87207859.64448
  20958413.980   110137455.46709  20958409.220    85821481.47348
  20512820.260   107795779.12809  20512819.740    83996769.48949
  23642743.700   124243538.01808  23642750.080    96813179.62146
  21993357.640   117360824.26608  21993359.780    91280678.52207
  20265132.800   108480970.07108  20265133.040    84374106.03408
  22398289.900   119941933.47708  22398292.980    93288233.33807
  22124532.320   118143772.53208  22124533.760    91889604.54904
  21685999.460   115842707.77708  21686002.940    90099895.53508
  22219833.440   118902828.07308  22219835.060    92479987.40607
  20259547.220   108147173.96309  20259549.800    84114604.02508
  22374881.280   119690538.15108  22374880.500    93092652.93107
 15 03 04 02 05 30.0000000  0 18G01G04G07G11G16G18G19G22G27G32R02R03
                                R04R09R16R17R18R19
  24546978.720   128995249.48207  24546987.260   100515796.54845
  22090234.680   116085223.08009  22090234.020    90456075.40647
  24442556.360   128446494.44008  24442555.380   100088168.28446
  23659526.140   124331690.12708  23659524.220    96881853.36845
  21123856.080   111006632.25609  21123853.320    86498670.31148
  22958090.480   120645739.68208  22958088.440    94009736.25646
  21288258.500   111870608.70709  21288254.340    87171913.74248
  20959823.300   110144861.59609  20959818.600    85827252.49748
  20510978.220   107786099.02209  20510977.680    83989226.55149
  23620689.260   124127644.47008  23620695.460    96722873.75446
  22006866.900   117432913.01608  22006869.240    91336747.54707
  20256972.680   108437288.35508  20256972.920    84340131.39108
  22374383.260   119813916.37408  22374386.420    93188664.75907
  22122491.960   118132876.68308  22122493.300    91881130.01004
  21701992.020   115928136.99108  21701995.580    90166340.39007
  22230638.540   118960648.71008  22230640.280    92524959.01007
  20259144.880   108145026.72309  20259147.500    84112933.95708
  22362426.060   119623911.44408  22362425.240    93040832.18807
 15 03 04 02 06  0.0000000  0 18G01G04G07G11G16G18G19G22G27G32R02R03
                                R04R09R16R17R18R19
  24530965.460   128911102.19707  24530973.920   100450228.06846
  22077202.200   116016736.66209  22077201.420    90402709.40747
  24446157.520   128465418.46608  24446156.520   100102914.24645
  23643676.140   124248398.20608  23643674.260    96816950.65145
  21135897.380   111069909.71209  21135894.660    86547977.39748
  22970501.900   120710961.59808  22970499.700    94060558.52046
  21279515.800   111824665.75809  21279511.680    87136114.05148
  20961334.100   110152800.77809  20961329.400    85833438.87948
  20509189.180   107776697.53509  20509188.660    83981900.71349
  23598654.980   124011856.36608  23598661.080    96632650.02146
  22020495.840   117505640.94008  22020498.480    91393313.70407
  20248953.060   108394358.83308  20248953.340    84306741.78908
  22350507.800   119686065.95508  22350511.020    93089225.80607
  22120594.080   118122741.75808  22120595.340    91873247.28104
  21718075.420   116014051.18908  21718079.000    90233162.44807
  22241467.180   119018594.91208  22241468.980    92570028.26507
  20258773.200   108143043.50509  20258775.940    84111391.45708
  22349973.600   119557300.17208  22349972.960    92989023.45007
 15 03 04 02 06 30.0000000  0 18G01G04G07G11G16G18G19G22G27G32R02R03
                                R04R09R16R17R18R19
  24514981.520   128827109.26207  24514989.940   100384779.83145
  22064220.780   115948518.51409  22064219.880    90349552.45847
  24449844.900   128484795.53408  24449843.860   100118013.22645
  23627848.220   124165222.65808  23627846.460    96752138.61945
  21148027.040   111133651.51109  21148024.400    86597646.31848
  22982978.640   120776526.62608  22982976.220    94111648.15446
  21270808.760   111778910.25909  21270804.660    87100460.43448
  20962945.960   110161271.21209  20962941.280    85840039.23348
  20507453.120   107767574.50409  20507452.640    83974791.86049
  23576641.100   123896175.30808  23576646.980    96542509.68446
  22034243.660   117579003.46008  22034246.580    91450373.43407
  20241074.100   108352182.48808  20241074.440    84273937.99708
  22326664.120   119558385.52908  22326667.300    92989919.07107
  22118838.340   118113366.26508  22118839.620    91865955.22404
  21734248.600   116100444.66308  21734252.140    90300357.29107
  22252319.320   119076666.35708  22252320.980    92615194.93807
  20258432.220   108141223.72509  20258435.020    84109976.07908
  22337523.820   119490703.08608  22337523.400    92937225.74207
 15 03 04 02 07  0.0000000  0 17G01G04G11G16G18G19G22G27G32R02R03R04
                                R09R16R17R18R19
  24499027.640   128743274.20207  24499035.880   100319454.57745
  22051291.040   115880571.95609  22051290.020    90296607.13947
  23612043.020   124082166.45808  23612041.280    96687419.56545
  21160245.220   111197858.53809  21160242.620    86647677.73948
  22995520.900   120842435.79308  22995518.220    94163005.93946
  21262138.100   111733345.94009  21262134.040    87064955.78348
  20964659.360   110170275.37609  20964654.700    85847055.46948
  20505770.800   107758734.06609  20505770.380    83967903.20949
  23554648.720   123780607.14908  23554654.320    96452457.28746
  22048110.520   117653000.75408  22048113.720    91507926.86807
  20233336.820   108310764.64008  20233337.200    84241724.13608
  22302853.540   119430882.13208  22302856.640    92890750.01007
  22117225.240   118104753.17808  22117226.660    91859256.13904
  21750511.260   116187315.99808  21750514.720    90367923.79507
  22263195.560   119134866.63208  22263196.980    92660461.79307
  20258122.540   108139570.94209  20258125.380    84108690.57508
  22325077.380   119424123.34308  22325077.100    92885441.52807
 15 03 04 02 07 30.0000000  0 17G01G04G11G16G18G19G22G27G32R02R03R04
                                R09R16R17R18R19
  24483103.700   128659596.40407  24483111.660   100254251.84045
  22038412.800   115812896.32709  22038411.760    90243872.92647
  23596260.420   123999229.13908  23596258.780    96622793.16145
  21172551.520   111262528.70209  21172549.000    86698070.05048
  23008128.140   120908686.31408  23008125.220    94214629.71746
  21253503.880   111687973.02309  21253499.820    87029600.26748
  20966474.080   110179811.94409  20966469.400    85854486.57148
  20504142.300   107750176.27209  20504141.880    83961234.79849
  23532678.200   123665153.79108  23532683.520    96362494.31846
  22062095.720   117727628.74708  22062098.980    91565970.85607
  20225741.520   108270106.79308  20225741.900    84210101.38908
  22279076.700   119303559.17308  22279079.700    92791721.28407
  22115754.700   118096901.23908  22115756.260    91853149.05004
  21766862.220   116274659.54708  21766865.700    90435857.56907
  22274095.820   119193195.16708  22274096.940    92705828.40907
  20257844.220   108138085.16009  20257847.040    84107534.96508
  22312633.860   119357559.65608  22312633.700    92833669.79607
 15 03 04 02 08  0.0000000  0 17G01G04G11G16G18G19G22G27G32R02R03R04
                                R09R16R17R18R19
  24467209.020   128576072.53107  24467216.700   100189169.01345
  22025585.420   115745488.15309  22025584.360    90191347.12547
  23580499.860   123916407.38408  23580498.320    96558256.80445
  21184944.760   111327655.83009  21184942.300    86748818.43648
  23020799.220   120975272.32808  23020796.080    94266514.91646
  21244905.580   111642788.76509  21244901.440    86994391.76248
  20968389.240   110189876.57209  20968384.600    85862329.14948
  20502567.080   107741898.46709  20502566.680    83954784.55849
  23510729.360   123549814.29908  23510734.420    96272620.05745
  22076197.880   117802880.23608  22076201.120    91624499.78407
  20218287.900   108230207.03708  20218288.180    84179068.26908
  22255333.680   119176417.22308  22255336.580    92692833.34407
  22114425.900   118089806.20708  22114427.580    91847630.68004
  21783300.020   116362467.09908  21783303.520    90504152.23507
  22285019.440   119251648.83008  22285020.320    92751292.35407
  20257596.580   108136762.94209  20257599.340    84106506.57508
  22300192.720   119291008.51808  22300192.660    92781907.82607
 15 03 04 02 08 30.0000000  0 17G01G04G11G16G18G19G22G27G32R02R03R04
                                R09R16R17R18R19
  24451344.580   128492707.31607  24451351.960   100124209.79145
  22012809.780   115678351.82709  22012808.720    90139033.14647
  23564762.280   123833705.64808  23564760.620    96493813.96545
  21197425.420   111393242.45409  21197423.000    86799924.87548
  23033534.580   121042196.29208  23033531.280    94318663.46046
  21236344.220   111597798.49609  21236339.980    86959334.42448
  20970405.620   110200473.09609  20970401.020    85870586.19548
  20501046.260   107733906.12009  20501045.820    83948556.76049
  23488803.560   123434595.94108  23488808.400    96182840.15546
  22090417.140   117878756.68608  22090420.360    91683514.79907
  20210977.240   108191072.17308  20210977.420    84148630.06808
  22231626.140   119049464.94708  22231628.960    92594092.91607
  22113239.820   118083472.29608  22113241.420    91842704.29904
  21799824.640   116450738.46908  21799828.160    90572807.66107
  22295967.320   119310232.84208  22295968.100    92796857.68607
  20257380.480   108135609.53809  20257383.300    84105609.48708
  22287754.800   119224474.34108  22287754.760    92730159.05207
 15 03 04 02 09  0.0000000  0 17G01G04G11G16G18G19G22G27G32R02R03R04
                                R09R16R17R18R19
  24435511.020   128409504.36607  24435518.120   100059376.96445
  22000086.600   115611491.01009  22000085.500    90086933.84347
  23549048.260   123751127.70508  23549046.380    96429467.56745
  21209993.820   111459290.03409  21209991.420    86851390.48748
  23046334.300   121109458.93308  23046330.880    94371075.89146
  21227820.640   111553006.58409  21227816.260    86924431.63548
  20972523.700   110211604.12009  20972519.140    85879259.71848
  20499580.640   107726203.50209  20499580.080    83942554.70749
  23466901.960   123319504.80008  23466906.560    96093159.36046
  22104753.520   117955257.81508  22104756.600    91743015.66507
  20203810.480   108152707.48808  20203810.540    84118790.87408
  22207955.400   118922709.96708  22207958.200    92495505.92807
  22112196.800   118077902.35008  22112198.320    91838372.09104
  21816435.900   116539472.37408  21816439.380    90641822.81907
  22306940.120   119368950.79008  22306940.940    92842527.15907
  20257196.700   108134628.93809  20257199.600    84104846.78708
  22275320.660   119157960.26608  22275320.660    92678425.89907
 15 03 04 02 09 30.0000000  0 17G01G04G11G16G18G19G22G27G32R02R03R04
                                R09R16R17R18R19
  24419707.060   128326457.00707  24419713.980    99994665.37745
  21987414.500   115544898.64409  21987413.400    90035043.72847
  23533356.500   123668666.97608  23533354.440    96365212.51945
  21222648.340   111525790.00109  21222645.940    86903208.62148
  23059196.860   121177052.02908  23059193.400    94423745.82846
  21219333.660   111508407.00309  21219329.180    86889678.73048
  20974742.080   110223262.16109  20974737.600    85888343.91648
  20498168.960   107718784.69509  20498168.340    83936773.82149
  23445023.800   123204536.76508  23445028.200    96003574.48546
  22119205.040   118032373.40708  22119208.000    91802994.44807
  20196786.700   108115108.03608  20196786.660    84089546.88808
  22184320.980   118796149.48208  22184323.780    92397070.20307
  22111295.400   118073088.70608  22111296.800    91834628.14304
  21833131.500   116628657.21308  21833135.040    90711188.71807
  22317936.740   119427796.40308  22317937.640    92888295.94707
  20257044.120   108133814.50109  20257047.040    84104213.34408
  22262888.940   119091459.26008  22262889.100    92626702.93007
 15 03 04 02 10  0.0000000  0 17G01G04G11G16G18G19G22G27G32R02R03R04
                                R09R16R17R18R19
  24403933.560   128243569.49207  24403940.340    99930078.32445
  21974794.320   115478578.92909  21974793.140    89983366.07647
  23517687.760   123586327.41508  23517685.640    96301051.89645
  21235389.320   111592743.96909  21235386.880    86955380.52548
  23072122.440   121244976.72108  23072119.060    94476674.15946
  21210884.200   111464004.62809  21210879.680    86855079.49948
  20977061.360   110235450.37009  20977056.960    85897841.23448
  20496812.180   107711654.61309  20496811.540    83931217.91949
  23423170.380   123089698.45208  23423174.460    95914090.65646
  22133771.900   118110104.13108  22133774.680    91863451.67507
  20189906.960   108078279.63908  20189906.800    84060902.61208
  22160724.340   118669791.61408  22160727.240    92298792.08907
  22110536.300   118069034.80708  22110537.600    91831475.11104
  21849911.300   116718292.13308  21849915.020    90780904.67607
  22328958.000   119486774.15708  22328959.100    92934167.51707
  20256923.660   108133171.14909  20256926.560    84103712.95708
  22250460.500   119024975.58808  22250460.680    92574993.43607
 15 03 04 02 10 30.0000000  0 17G01G04G11G16G18G19G22G27G32R02R03R04
                                R09R16R17R18R19
  24388190.700   128160842.88007  24388197.280    99865616.61645
  21962226.180   115412532.88409  21962224.960    89931901.65847
  23502042.320   123504110.19908  23502040.200    96236986.59045
  21248216.460   111660150.61609  21248213.980    87007905.15748
  23085111.060   121313232.58208  23085107.760    94529860.53646
  21202472.600   111419801.29309  21202468.060    86820635.34248
  20979481.620   110248168.96909  20979477.280    85907751.83148
  20495510.700   107704815.10809  20495510.020    83925888.43749
  23401342.380   122974993.57608  23401346.100    95824710.78446
  22148453.520   118188447.46308  22148456.120    91924385.37207
  20183171.740   108042225.14408  20183171.500    84032860.24608
  22137166.480   118543641.55408  22137169.400    92200675.56007
  22109919.480   118065741.02208  22109920.760    91828913.26604
  21866774.700   116808373.33908  21866778.540    90850967.72707
  22340004.220   119545885.51408  22340005.540    92980142.98607
  20256835.540   108132700.27209  20256838.340    84103346.71408
  22238035.500   118958509.88208  22238035.600    92523297.90607
 15 03 04 02 11  0.0000000  0 17G01G04G11G16G18G19G22G27G32R02R03R04
                                R09R16R17R18R19
  24372477.820   128078273.72907  24372484.220    99801277.58545
  21949709.440   115346756.77209  21949708.180    89880647.57547
  23486419.440   123422011.67108  23486417.320    96173013.78045
  21261128.580   111728004.04909  21261126.140    87060777.93748
  23098161.400   121381813.02308  23098158.300    94583299.83046
  21194098.240   111375793.81009  21194093.740    86786343.80948
  20982002.000   110261413.43009  20981997.620    85918072.19648
  20494263.940   107698263.31609  20494263.220    83920783.14549
  23379539.580   122860421.05708  23379543.080    95735434.03146
  22163248.500   118267395.84108  22163250.920    91985789.65407
  20176580.760   108006942.75108  20176580.400    84005418.40108
  22113647.440   118417699.54408  22113650.400    92102720.87207
  22109444.140   118063202.79208  22109445.540    91826939.08104
  21883720.100   116898892.26108  21883724.080    90921371.22907
  22351074.880   119605127.18408  22351076.300    93026219.80907
  20256779.120   108132398.57009  20256781.840    84103112.05508
  22225613.160   118892058.20208  22225613.120    92471613.29507
 15 03 04 02 11 30.0000000  0 17G01G04G11G16G18G19G22G27G32R02R03R04
                                R09R16R17R18R19
  24356795.720   127995865.66007  24356801.960    99737064.04845
  21937244.740   115281253.96609  21937243.400    89829606.46047
  23470819.880   123340035.44508  23470817.740    96109136.26645
  21274126.020   111796305.70309  21274123.600    87113999.97848
  23111273.680   121450719.14408  23111270.820    94636992.90846
  21185762.000   111331986.77609  21185757.540    86752208.46648
  20984622.900   110275186.18409  20984618.480    85928804.22348
  20493072.780   107692003.64209  20493072.040    83915905.47249
  23357763.160   122745987.11008  23357766.500    95646265.22646
  22178156.920   118346949.67508  22178159.240    92047664.84907
  20170134.960   107972437.45608  20170134.500    83978580.97008
  22090168.780   118291973.46208  22090171.700    92004934.10707
  22109110.800   118061422.78608  22109112.240    91825554.61904
  21900747.320   116989847.74008  21900751.340    90992114.28007
  22362170.600   119664502.67108  22362172.060    93072400.71607
  20256755.080   108132270.13909  20256757.800    84103012.17208
  22213194.120   118825624.17408  22213193.900    92419942.40107
 15 03 04 02 12  0.0000000  0 17G01G04G11G16G18G19G22G27G32R02R03R04
                                R09R16R17R18R19
  24341144.260   127913618.31507  24341150.220    99672975.73145
  21924831.940   115216023.99909  21924830.560    89778777.94347
  23455243.480   123258180.96408  23455241.320    96045353.60845
  21287208.380   111865053.62709  21287205.920    87167569.76148
  23124447.500   121519948.63508  23124444.820    94690937.95146
  21177463.980   111288380.42609  21177459.520    86718229.49448
  20987344.160   110289486.31509  20987339.700    85939947.18248
  20491937.300   107686036.48609  20491936.540    83911255.73649
  23336013.520   122631693.84108  23336016.600    95557206.01046
  22193178.000   118427104.76108  22193180.200    92110007.67907
  20163834.500   107938710.61908  20163834.060    83952349.00108
  22066731.120   118166466.91208  22066733.960    91907318.07407
  22108919.160   118060399.68408  22108920.760    91824758.85904
  21917855.240   117081234.29908  21917859.220    91063192.60907
  22373291.580   119724012.46008  22373292.920    93118686.07607
  20256763.440   108132315.04009  20256766.180    84103047.09908
  22200778.280   118759207.23308  22200777.900    92368284.79007
 15 03 04 02 12 30.0000000  0 17G01G04G11G16G18G19G22G27G32R02R03R04
                                R09R16R17R18R19
  24325523.120   127831530.60107  24325528.860    99609011.76645
  21912470.820   115151065.79109  21912469.460    89728161.19747
  23439690.120   123176447.51808  23439688.040    95981665.27046
  21300374.860   111934243.78109  21300372.360    87221484.13848
  23137682.200   121589497.87608  23137679.620    94745132.15946
  21169204.120   111244974.57909  21169199.640    86684406.75648
  20990165.340   110304311.54809  20990160.840    85951499.32248
  20490857.380   107680361.48909  20490856.620    83906833.65449
  23314290.940   122517542.85208  23314293.920    95468257.65846
  22208310.840   118507856.51108  22208313.020    92172814.57707
  20157679.440   107905762.38708  20157679.140    83926722.61908
  22043335.080   118041182.76708  22043337.780    91809875.02907
  22108868.920   118060131.44808  22108870.580    91824550.20404
  21935042.700   117173045.92808  21935046.660    91134601.53607
  22384437.420   119783655.23208  22384438.560    93165074.87207
  20256804.200   108132532.54209  20256806.900    84103216.26408
  22188365.300   118692805.98308  22188364.900    92316639.39907
 15 03 04 02 13  0.0000000  0 17G01G04G11G16G18G19G22G27G32R02R03R04
                                R09R16R17R18R19
  24309932.600   127749603.78607  24309938.180    99545173.18145
  21900161.500   115086380.06209  21900160.160    89677756.76348
  23424160.020   123094836.32608  23424157.980    95918072.19346
  21313625.260   112003874.79009  21313622.680    87275742.03648
  23150977.580   121659365.74308  23150975.100    94799574.64746
  21160982.760   111201771.19009  21160978.260    86650741.78648
  20993086.440   110319661.84809  20993081.860    85963460.59748
  20489833.380   107674980.64509  20489832.660    83902640.77949
  23292596.200   122403537.80008  23292598.980    95379422.98746
  22223554.960   118589202.03808  22223557.080    92236083.30807
  20151670.380   107873595.95108  20151670.300    83901704.29508
  22019981.580   117916126.08608  22019984.040    91712608.89307
  22108960.100   118060618.09608  22108961.760    91824928.68104
  21952309.000   117265278.95508  21952312.920    91206338.20607
  22395608.560   119843433.00908  22395609.460    93211568.65007
  20256877.720   108132924.53009  20256880.300    84103521.13908
  22175955.320   118626421.40508  22175955.020    92265006.96207
 15 03 04 02 13 30.0000000  0 17G01G04G11G16G18G19G22G27G32R02R03R04
                                R09R16R17R18R19
  24294373.140   127667840.16607  24294378.460    99481461.73545
  21887904.440   115021969.13909  21887903.200    89627566.47547
  23408653.600   123013349.58108  23408651.580    95854576.10446
  21326959.720   112073947.55409  21326957.080    87330344.17348
  23164333.580   121729551.99608  23164331.140    94854265.22246
  21152800.480   111158773.21809  21152795.960    86617236.88748
  20996107.700   110335538.61909  20996103.060    85975832.11848
  20488865.880   107669896.98409  20488865.240    83898679.48949
  23270930.140   122289683.65208  23270932.780    95290705.90546
  22238910.160   118671140.36708  22238912.360    92299813.12007
  20145808.040   107842215.01808  20145808.180    83877296.92908
  21996671.840   117791303.50608  21996674.040    91615524.83607
  22109192.920   118061860.99808  22109194.460    91825895.38204
  21969653.620   117357930.79108  21969657.580    91278400.61807
  22406805.360   119903348.17308  22406806.020    93258169.31707
  20256984.400   108133493.56009  20256986.860    84103963.72408
  22163548.800   118560055.71808  22163548.700    92213389.23207
 15 03 04 02 14  0.0000000  0 17G01G04G11G16G18G19G22G27G32R02R03R04
                                R09R16R17R18R19
  24278844.320   127586237.80307  24278849.500    99417875.92145
  21875699.260   114957831.09509  21875698.080    89577588.81547
  23393170.500   122931985.45408  23393168.520    95791175.54746
  21340377.340   112144457.00509  21340374.640    87385286.58148
  23177749.460   121800052.81408  23177747.060    94909200.92246
  21144657.040   111115979.45709  21144652.560    86583891.10548
  20999228.580   110351938.79609  20999223.880    85988611.48448
  20487954.700   107665109.30309  20487954.140    83894948.82849
  23249292.880   122175980.95408  23249295.460    95202106.82646
  22254375.260   118753665.29108  22254377.620    92363999.16107
  20140092.240   107811618.77408  20140092.560    83853499.87308
  21973406.120   117666716.86408  21973408.100    91518624.26707
  22109566.800   118063857.03708  22109568.300    91827447.85305
  21987075.320   117450994.39608  21987079.400    91350783.28907
  22418027.400   119963399.00908  22418027.840    93304875.50007
  20257123.920   108134238.26009  20257126.320    84104542.93108
  22151145.400   118493706.83508  22151145.560    92161784.57907
 15 03 04 02 14 30.0000000  0 17G01G04G11G16G18G19G22G27G32R02R03R04
                                R09R16R17R18R19
  24263346.240   127504797.06306  24263351.280    99354416.03945
  21863546.020   114893966.00009  21863544.940    89527823.85148
  23377710.800   122850744.18508  23377708.740    95727870.71346
  21353877.660   112215401.25109  21353874.900    87440567.78048
  23191224.760   121870865.78308  23191222.340    94964379.85046
  21136552.720   111073391.16309  21136548.320    86550705.43648
  21002448.880   110368861.46609  21002444.160    86001797.99048
  20487100.040   107660618.70209  20487099.580    83891449.65249
  23227685.000   122062432.68608  23227687.500    95113628.06846
  22269949.660   118836773.65808  22269952.180    92428638.99807
  20134523.380   107781808.84608  20134523.800    83830314.38808
  21950185.280   117542370.62908  21950187.140    91421910.68707
  22110081.540   118066605.37808  22110083.040    91829585.43304
  22004573.220   117544464.87408  22004577.440    91423482.41307
  22429274.780   120023586.16608  22429275.260    93351687.70807
  20257296.420   108135159.41309  20257298.840    84105259.37908
  22138745.240   118427374.95308  22138745.540    92110193.15707
 15 03 04 02 15  0.0000000  0 17G01G04G11G16G18G19G22G27G32R02R03R04
                                R09R16R17R18R19
  24247879.100   127423518.84306  24247884.200    99291082.76445
  21851444.940   114830374.77409  21851443.880    89478272.28947
  23362274.700   122769626.87408  23362272.540    95664662.48646
  21367460.460   112286779.13609  21367457.680    87496186.88948
  23204759.240   121941989.57208  23204756.720    95019800.97646
  21128487.800   111031009.67709  21128483.420    86517680.91648
  21005768.720   110386306.82309  21005763.840    86015391.78248
  20486302.300   107656426.87809  20486301.900    83888183.28849
  23206107.160   121949042.31308  23206109.660    95025272.31046
  22285632.800   118920462.47408  22285635.580    92493730.28907
  20129101.920   107752787.77408  20129102.400    83807742.45808
  21927010.300   117418269.87708  21927012.060    91325388.02407
  22110737.080   118070105.69008  22110738.620    91832307.87904
  22022146.720   117638338.54308  22022150.940    91496495.12607
  22440547.740   120083910.83308  22440548.460    93398606.87107
  20257502.200   108136258.38009  20257504.740    84106114.13808
  22126348.460   118361060.82608  22126348.780    92058615.52707
 15 03 04 02 15 30.0000000  0 17G01G04G11G16G18G19G22G27G32R02R03R04
                                R09R16R17R18R19
  24232443.200   127342404.66106  24232448.340    99227877.30445
  21839396.180   114767058.38809  21839395.100    89428934.88147
  23346862.400   122688634.72008  23346860.060    95601551.78045
  21381125.520   112358589.55809  21381122.780    87552143.03448
  23218352.720   122013423.27408  23218350.060    95075463.58946
  21120462.740   110988837.56309  21120458.400    86484819.53748
  21009188.060   110404275.16909  21009183.060    86029393.09948
  20485561.960   107652536.11609  20485561.540    83885151.51949
  23184560.180   121835813.83008  23184562.600    94937042.67546
  22301424.260   119004729.76808  22301427.280    92559271.51407
  20123828.380   107724558.28608  20123828.900    83785786.20408
  21903882.300   117294420.35108  21903883.960    91229060.75407
  22111533.460   118074358.47508  22111535.060    91835615.58204
  22039795.040   117732611.74108  22039799.240    91569818.58607
  22451846.820   120144375.04908  22451847.740    93445634.57407
  20257741.760   108137537.35209  20257744.320    84107108.89508
  22113955.320   118294765.92108  22113955.720    92007052.83807
 15 03 04 02 16  0.0000000  0 17G01G04G11G16G18G19G22G27G32R02R03R04
                                R09R16R17R18R19
  24217038.280   127261453.41007  24217043.620    99164798.79145
  21827399.560   114704015.97209  21827398.440    89379810.95247
  23331473.760   122607766.96608  23331471.260    95538538.00146
  21394872.220   112430829.19909  21394869.540    87608433.63048
  23232004.500   122085163.50208  23232001.760    95131365.04746
  21112477.500   110946874.54909  21112473.140    86452121.08648
  21012706.440   110422764.03409  21012701.340    86043800.00348
  20484878.900   107648946.05109  20484878.400    83882354.06049
  23163044.320   121722748.83308  23163046.660    94848940.43846
  22317323.080   119089570.26608  22317326.420    92625258.54207
  20118702.740   107697120.33408  20118703.240    83764445.58308
  21880801.640   117170824.52308  21880803.240    91132930.80507
  22112470.180   118079360.88908  22112471.800    91839506.30904
  22057517.100   117827278.53908  22057521.220    91643448.17207
  22463171.860   120204977.99008  22463173.020    93492770.16307
  20258014.980   108138995.54109  20258017.460    84108243.03408
  22101565.560   118228488.86108  22101565.960    91955504.02408
 15 03 04 02 16 30.0000000  0 17G01G04G11G16G18G19G22G27G32R02R03R04
                                R09R16R17R18R19
  24201664.340   127180664.74907  24201669.740    99101846.95845
  21815454.880   114641246.64109  21815453.700    89330899.81647
  23316108.660   122527023.21408  23316106.040    95475620.86245
  21408700.100   112503495.35409  21408697.480    87665056.58148
  23245714.080   122157207.32708  23245711.160    95187503.08646
  21104532.180   110905121.16709  21104527.760    86419585.99748
  21016323.560   110441771.91509  21016318.400    86058611.35148
  20484253.140   107645657.13209  20484252.560    83879791.27049
  23141560.020   121609849.53508  23141562.240    94760967.30846
  22333328.600   119174980.02508  22333332.160    92691688.34907
  20113725.300   107670475.34408  20113725.740    83743721.72508
  21857769.100   117047486.54208  21857770.740    91037001.40607
  22113547.100   118085111.77708  22113548.740    91843979.20704
  22075311.780   117922333.43608  22075315.900    91717379.60707
  22474522.840   120265719.55308  22474524.220    93540013.57007
  20258321.840   108140633.21009  20258324.220    84109516.77408
  22089179.080   118162229.40908  22089179.420    91903968.92007
 15 03 04 02 17  0.0000000  0 17G01G04G11G16G18G19G22G27G32R02R03R04
                                R09R16R17R18R19
  24186321.900   127100041.15907  24186327.320    99039023.72445
  21803562.600   114578752.95009  21803561.440    89282203.46847
  23300767.620   122446405.84108  23300764.860    95412802.17546
  21422609.180   112576587.96509  21422606.560    87722011.83648
  23259481.540   122229555.11308  23259478.360    95243877.97246
  21096627.360   110863580.50309  21096622.800    86387216.65348
  21020039.660   110461300.21009  21020034.460    86073828.21048
  20483685.280   107642672.59509  20483684.640    83877465.65049
  23120108.200   121497120.92608  23120110.400    94673127.16346
  22349440.640   119260957.80908  22349444.420    92758559.93407
  20108896.540   107644626.28408  20108896.920    83723616.91508
  21834785.860   116924412.64408  21834787.500    90941277.40007
  22114764.400   118091612.05908  22114766.020    91849034.95904
  22093178.600   118017774.03908  22093182.760    91791611.02907
  22485900.340   120326602.65108  22485901.840    93587367.05307
  20258662.820   108142453.36509  20258665.160    84110932.45108
  22076796.240   118095989.92608  22076796.500    91852449.34107
 15 03 04 02 17 30.0000000  0 17G01G04G11G16G18G19G22G27G32R02R03R04
                                R09R16R17R18R19
  24171010.440   127019579.70007  24171015.800    98976326.82944
  21791722.100   114516531.54109  21791721.060    89233719.28847
  23285450.160   122365912.24508  23285447.360    95350079.94946
  21436598.440   112650101.79709  21436595.800    87779295.31948
  23273305.760   122302201.26008  23273302.340    95300485.35146
  21088762.620   110822250.33209  21088757.900    86355011.32748
  21023853.980   110481344.87809  21023848.760    86089447.43448
  20483174.880   107639990.23609  20483174.220    83875375.50049
  23098688.840   121384562.81208  23098690.920    94585419.86546
  22365657.860   119347496.21908  22365661.600    92825867.58007
  20104216.160   107619571.59808  20104216.460    83704129.95508
  21811852.140   116801604.04308  21811853.840    90845759.73908
  22116121.240   118098857.29208  22116122.780    91854670.13304
  22111116.140   118113592.35108  22111120.320    91866136.22307
  22497303.800   120387624.56108  22497305.360    93634828.50907
  20259037.500   108144453.62509  20259039.820    84112488.20608
  22064416.540   118029767.26908  22064416.700    91800942.85007
 15 03 04 02 18  0.0000000  0 17G01G04G11G16G18G19G22G27G32R02R03R04
                                R09R16R17R18R19
  24155730.380   126939283.02607  24155735.540    98913758.32445
  21779933.960   114454585.24609  21779933.040    89185449.48347
  23270156.720   122285544.90708  23270153.980    95287456.10746
  21450667.820   112724036.75109  21450665.180    87836906.94348
  23287186.840   122375146.35708  23287183.200    95357325.67446
  21080938.620   110781134.44309  21080933.720    86322972.97048
  21027766.840   110501907.53209  21027761.640    86105470.28248
  20482722.540   107637613.46809  20482721.940    83873523.46349
  23077302.980   121272180.45508  23077304.900    94497849.48546
  22381980.200   119434594.66708  22381983.780    92893610.80207
  20099684.820   107595314.99308  20099685.100    83685263.72408
  21788969.140   116679067.39108  21788970.900    90750453.59608
  22117617.940   118106848.93008  22117619.320    91860885.83404
  22129123.940   118209786.02208  22129128.120    91940953.35507
  22508733.800   120448788.20108  22508735.360    93682400.20207
  20259446.420   108146637.21809  20259448.900    84114186.55208
  22052040.500   117963564.12108  22052040.600    91749451.53207
