     2.11           OBSERVATION DATA    M                   RINEX VERSION / TYPE
SPIDER V4,0,0,3554                      2015 03 24 07:21    PGM / RUN BY / DATE 
OJGS                                                        MARKER NAME         
OJGS                                                        MARKER NUMBER       
                                                            OBSERVER / AGENCY   
496552              LEICA GRX1200+GNSS  8.20/4.007          REC # / TYPE / VERS 
10401003            LEIAR25         NONE                    ANT # / TYPE        
  5198100.9450    88691.2920  3684205.7148                  APPROX POSITION XYZ 
        0.1200        0.0000        0.0000                  ANTENNA: DELTA H/E/N
     1     1                                                WAVELENGTH FACT L1/2
     4    C1    L1    P2    L2                              # / TYPES OF OBSERV 
    30.000                                                  INTERVAL            
  2015    03    04    00    00    0.0000000     GPS         TIME OF FIRST OBS   
  2015    03    04    23    59   30.0000000     GPS         TIME OF LAST OBS    
    16                                                      LEAP SECONDS        
    54                                                      # OF SATELLITES     
   G 1   833   833   832   832                              PRN / # OF OBS      
   G 2   926   925   925   925                              PRN / # OF OBS      
   G 3   840   839   839   839                              PRN / # OF OBS      
   G 4   845   845   844   844                              PRN / # OF OBS      
   G 5   674   673   673   673                              PRN / # OF OBS      
   G 6   732   732   732   732                              PRN / # OF OBS      
   G 7   721   721   721   721                              PRN / # OF OBS      
   G 9   783   783   783   783                              PRN / # OF OBS      
   G10   784   784   784   784                              PRN / # OF OBS      
   G11   797   797   797   797                              PRN / # OF OBS      
   G12   811   811   811   811                              PRN / # OF OBS      
   G13   821   821   821   821                              PRN / # OF OBS      
   G14   933   932   932   932                              PRN / # OF OBS      
   G15   733   733   733   733                              PRN / # OF OBS      
   G16   693   693   693   693                              PRN / # OF OBS      
   G17   931   931   931   931                              PRN / # OF OBS      
   G18   939   939   939   939                              PRN / # OF OBS      
   G19   791   791   790   790                              PRN / # OF OBS      
   G20   795   795   794   794                              PRN / # OF OBS      
   G21   711   711   711   711                              PRN / # OF OBS      
   G22   804   804   804   804                              PRN / # OF OBS      
   G23   727   727   727   727                              PRN / # OF OBS      
   G24   842   841   841   841                              PRN / # OF OBS      
   G25   853   853   853   853                              PRN / # OF OBS      
   G27   832   831   831   831                              PRN / # OF OBS      
   G28   912   912   911   911                              PRN / # OF OBS      
   G29   741   741   741   741                              PRN / # OF OBS      
   G30   692   692   691   691                              PRN / # OF OBS      
   G31   796   796   796   796                              PRN / # OF OBS      
   G32   739   737   736   736                              PRN / # OF OBS      
   R 1   699   699   699   699                              PRN / # OF OBS      
   R 2   956   956   956   949                              PRN / # OF OBS      
   R 3   983   983   983   980                              PRN / # OF OBS      
   R 4   873   873   873   873                              PRN / # OF OBS      
   R 5   659   659   659   659                              PRN / # OF OBS      
   R 6   762   762   762   761                              PRN / # OF OBS      
   R 7   779   779   779   779                              PRN / # OF OBS      
   R 8   697   697   697   695                              PRN / # OF OBS      
   R 9   899   899   898   891                              PRN / # OF OBS      
   R10   664   664   663   663                              PRN / # OF OBS      
   R11   651   651   651   648                              PRN / # OF OBS      
   R12   758   758   758   757                              PRN / # OF OBS      
   R13   777   777   777   777                              PRN / # OF OBS      
   R14   724   724   724   723                              PRN / # OF OBS      
   R15   969   969   968   968                              PRN / # OF OBS      
   R16  1011  1011  1011  1011                              PRN / # OF OBS      
   R17   929   929   929   929                              PRN / # OF OBS      
   R18   991   991   986   986                              PRN / # OF OBS      
   R19   838   838   837   837                              PRN / # OF OBS      
   R20   599   599   599   598                              PRN / # OF OBS      
   R21   759   759   759   759                              PRN / # OF OBS      
   R22   825   825   824   824                              PRN / # OF OBS      
   R23   799   799   794   793                              PRN / # OF OBS      
   R24   683   683   672   672                              PRN / # OF OBS      
BIT 2 OF LLI FLAGS DATA COLLECTED UNDER A/S CONDITION       COMMENT             
SNR is mapped to RINEX snr flag value [2-9]                 COMMENT             
Lx:     = 25dBHz -> 1; 26-27dBHz -> 2; 28-31dBHz -> 3       COMMENT             
       32-35dBHz -> 4; 36-38dBHz -> 5; 39-41dBHz -> 6       COMMENT             
       42-44dBHz -> 7; 45-48dBHz -> 8; >=49dBHz -> 9        COMMENT             
                                                            END OF HEADER       
 15 03 04 00 00  0.0000000  0  7G16G18G19G21G22G27G31
  21156930.480   111180436.80809  21156927.520    86634112.89548
  22446715.040   117958443.02909  22446713.080    91915739.01746
  24411095.480   128281175.36408  24411093.040    99959355.86145
  21714485.100   114110399.93408  21714481.880    88917186.55447
  23411716.740   123029558.07608  23411714.840    95867230.87346
  22234698.600   116844210.17509  22234697.660    91047462.41448
  23425646.780   123102542.11608  23425647.300    95924031.94447
 15 03 04 00 00 30.0000000  0  7G16G18G19G21G22G27G31
  21146050.080   111123259.84909  21146047.140    86589559.43548
  22437469.240   117909855.84809  22437467.360    91877878.91446
  24396142.380   128202596.22007  24396140.020    99898125.46946
  21724351.480   114162248.04808  21724348.140    88957587.68048
  23394601.300   122939616.56709  23394599.200    95797146.83546
  22223898.860   116787457.43209  22223897.900    91003239.51848
  23444095.060   123199487.25708  23444095.640    95999573.28547
 15 03 04 00 01  0.0000000  0  7G16G18G19G21G22G27G31
  21135233.000   111066415.46609  21135230.000    86545265.11248
  22428291.420   117861626.05809  22428289.640    91840297.29846
  24381206.100   128124106.04608  24381203.800    99836964.43245
  21734270.200   114214371.31608  21734266.800    88998203.21747
  23377502.340   122849761.79008  23377500.080    95727130.37546
  22213122.960   116730829.95009  22213122.020    90959114.24248
  23462561.360   123296527.30908  23462562.120    96075188.58047
 15 03 04 00 01 30.0000000  0  7G16G18G19G21G22G27G31
  21124479.960   111009907.59909  21124476.800    86501233.01148
  22419182.380   117813757.75609  22419180.580    91802997.35546
  24366287.120   128045707.18608  24366284.940    99775874.54245
  21744241.300   114266770.07308  21744237.840    89039033.42047
  23360420.840   122759998.53008  23360418.460    95657185.22746
  22202371.280   116674329.96109  22202370.440    90915088.30348
  23481045.620   123393661.50608  23481046.500    96150877.19846
 15 03 04 00 02  0.0000000  0  7G16G18G19G21G22G27G31
  21113790.480   110953733.85809  21113787.240    86457461.26848
  22410141.680   117766248.58809  22410139.760    91765977.25946
  24351384.760   127967394.86608  24351382.660    99714852.06545
  21754263.620   114319437.95408  21754260.140    89080073.32347
  23343356.400   122670324.97809  23343353.920    95587309.97246
  22191643.040   116617952.87109  22191642.340    90871158.12448
  23499546.280   123490881.94308  23499547.340    96226633.03346
 15 03 04 00 02 30.0000000  0  7G16G18G19G21G22G27G31
  21103166.420   110897904.08509  21103163.240    86413957.55848
  22401171.160   117719108.27109  22401169.100    91729244.57546
  24336500.300   127889177.17908  24336497.980    99653903.32145
  21764338.220   114372380.32908  21764334.740    89121327.12347
  23326311.020   122580751.60609  23326308.360    95517512.75246
  22180939.660   116561706.50809  22180939.080    90827329.80548
  23518064.440   123588194.07508  23518065.580    96302460.28946
 15 03 04 00 03  0.0000000  0  7G16G18G19G21G22G27G31
  21092606.320   110842410.47409  21092603.180    86370715.78748
  22392269.260   117672328.67609  22392267.240    91692792.97746
  24321632.060   127811043.82408  24321629.140    99593020.25145
  21774462.920   114425586.06808  21774459.460    89162786.14147
  23309283.340   122491271.27409  23309280.600    95447788.04346
  22170259.240   116505580.86109  22170258.680    90783595.56848
  23536597.520   123685584.62808  23536598.740    96378348.65346
 15 03 04 00 03 30.0000000  0  7G16G18G19G21G22G27G31
  21082112.160   110787263.13409  21082109.020    86327743.85048
  22383437.980   117625920.01809  22383435.920    91656630.42446
  24306781.360   127733003.28107  24306778.300    99532209.54745
  21784638.880   114479061.23508  21784635.500    89204455.10947
  23292275.420   122401894.87409  23292272.620    95378144.33146
  22159603.300   116449584.15909  22159602.940    90739961.80548
  23555146.580   123783059.09008  23555147.780    96454302.40146
 15 03 04 00 04  0.0000000  0  7G16G18G19G21G22G27G31
  21071684.620   110732465.88409  21071681.460    86285044.70048
  22374678.000   117579886.02009  22374675.880    91620759.81146
  24291948.460   127655056.71708  24291945.420    99471472.10745
  21794866.080   114532805.58108  21794862.740    89246333.83047
  23275288.100   122312626.46709  23275285.240    95308584.74846
  22148972.260   116393717.86909  22148971.860    90696429.65748
  23573711.320   123880615.84408  23573712.520    96530320.25747
 15 03 04 00 04 30.0000000  0  7G16G18G19G21G22G27G31
  21061322.700   110678013.50609  21061319.500    86242614.28648
  22365988.340   117534221.54909  22365986.140    91585177.14346
  24277132.160   127577197.31608  24277129.020    99410802.55845
  21805142.880   114586810.53008  21805139.560    89288415.60647
  23258320.440   122223461.67409  23258317.540    95239105.89947
  22138364.720   116337975.06209  22138364.380    90652993.73548
  23592289.840   123978245.15708  23592291.160    96606394.63147
 15 03 04 00 05  0.0000000  0  7G16G18G19G21G22G27G31
  21051028.640   110623917.68409  21051025.420    86200461.69848
  22357371.160   117488937.98809  22357368.860    91549891.28046
  24262333.960   127499434.27008  24262331.160    99350208.07645
  21815470.620   114641083.35408  21815467.400    89330706.11247
  23241374.860   122134412.85409  23241371.920    95169717.41147
  22127782.440   116282365.09409  22127782.220    90609661.32548
  23610883.380   124075953.08808  23610884.740    96682530.25946
 15 03 04 00 05 30.0000000  0  7G16G18G19G21G22G27G31
  21040800.140   110570166.41509  21040796.840    86158577.59648
  22348824.160   117444023.21309  22348821.880    91514892.77946
  24247551.740   127421753.74508  24247549.100    99289677.90945
  21825846.240   114695608.04108  21825843.160    89373192.86947
  23224449.120   122045468.34109  23224446.120    95100410.17746
  22117222.660   116226873.90409  22117222.560    90566421.45048
  23629488.640   124173722.77608  23629490.080    96758713.99746
 15 03 04 00 06  0.0000000  0  7G16G18G19G21G22G27G31
  21030639.440   110516771.66509  21030636.140    86116971.30648
  22340349.660   117399489.25509  22340347.280    91480191.02646
  24232787.040   127344165.72608  24232784.580    99229219.82346
  21836271.440   114750392.91808  21836268.500    89415882.37847
  23207545.760   121956641.36209  23207542.640    95031194.53846
  22106687.380   116171511.66409  22106687.500    90523282.06148
  23648107.020   124271561.57208  23648108.560    96834951.56046
 15 03 04 00 06 30.0000000  0  7G16G18G19G21G22G27G31
  21020546.740   110463734.39509  21020543.480    86075643.56248
  22331947.680   117355336.83609  22331945.300    91445786.58246
  24218039.860   127266669.05308  24218037.540    99168832.91045
  21846745.500   114805434.17808  21846742.540    89458771.67347
  23190664.940   121867932.78509  23190661.800    94962071.15346
  22096176.400   116116277.05009  22096176.700    90480242.13348
  23666737.780   124369465.22208  23666739.420    96911239.66046
 15 03 04 00 07  0.0000000  0  7G16G18G19G21G22G27G31
  21010522.400   110411056.27409  21010519.120    86034595.68748
  22323618.580   117311567.48309  22323616.220    91411680.61946
  24203310.020   127189263.10608  24203307.660    99108516.71045
  21857267.940   114860729.82408  21857265.040    89501859.18148
  23173807.180   121779345.62309  23173804.000    94893042.37946
  22085689.700   116061169.83409  22085690.160    90437301.46648
  23685380.280   124467430.43908  23685382.080    96987575.71746
 15 03 04 00 07 30.0000000  0  7G16G18G19G21G22G27G31
  21000566.820   110358739.29809  21000563.560    85993829.23048
  22315362.720   117268182.93509  22315360.360    91377874.51747
  24188597.360   127111947.93408  24188594.860    99048271.18545
  21867838.620   114916278.81708  21867835.740    89545144.10548
  23156972.980   121690882.17909  23156969.780    94824109.99047
  22075227.200   116006189.87709  22075227.820    90394459.96748
  23704033.940   124565454.06108  23704035.880    97063957.26546
 15 03 04 00 08  0.0000000  0  7G16G18G19G21G22G27G31
  20990680.220   110306784.81209  20990677.000    85953345.21148
  22307180.280   117225184.42409  22307178.020    91344369.20646
  24173901.900   127034722.92108  24173899.440    98988095.94245
  21878456.820   114972077.71908  21878453.980    89588623.75747
  23140162.740   121602544.62309  23140159.580    94755275.69146
  22064788.820   115951336.56309  22064789.620    90351717.13848
  23722698.060   124663532.44208  23722700.100    97140381.47246
 15 03 04 00 08 30.0000000  0  7G16G18G19G21G22G27G31
  20980863.460   110255197.28509  20980860.180    85913147.14848
  22299072.160   117182576.32009  22299069.940    91311168.11946
  24159223.960   126957590.33508  24159221.360    98927992.73545
  21889122.740   115028127.27408  21889119.900    89632298.73847
  23123377.420   121514338.02809  23123374.280    94686543.45147
  22054375.020   115896612.41809  22054375.900    90309074.97448
  23741372.600   124761665.55008  23741374.660    97216848.30746
 15 03 04 00 09  0.0000000  0  7G16G18G19G21G22G27G31
  20971116.520   110203976.60909  20971113.200    85873234.94348
  22291038.260   117140358.15609  22291036.100    91278270.87946
  24144563.140   126880547.99408  24144560.680    98867959.82645
  21899835.580   115084423.19708  21899832.580    89676165.69547
  23106617.040   121426262.58809  23106613.900    94617913.39946
  22043985.400   115842015.18809  22043986.380    90266531.70048
  23760056.480   124859847.90608  23760058.620    97293353.50446
 15 03 04 00 09 30.0000000  0  7G16G18G19G21G22G27G31
  20961439.580   110153123.96209  20961436.180    85833609.50448
  22283078.860   117098531.28009  22283076.740    91245678.54347
  24129919.380   126803595.18108  24129917.020    98807996.67945
  21910594.880   115140963.60308  21910591.860    89720223.13648
  23089882.120   121338320.78309  23089878.940    94549387.46947
  22033619.960   115787544.27309  22033620.940    90224086.84148
  23778749.000   124958075.63608  23778751.160    97369894.03147
 15 03 04 00 10  0.0000000  0  7G16G18G19G21G22G27G31
  20951833.940   110102645.97809  20951830.560    85794276.01448
  22275195.120   117057102.01209  22275193.060    91213396.02346
  24115293.400   126726736.31408  24115291.280    98748106.75545
  21921401.060   115197750.58308  21921398.080    89764472.72047
  23073173.880   121250519.35409  23073170.760    94480970.91447
  22023279.460   115733204.33409  22023280.380    90181744.06248
  23797450.640   125056351.23908  23797452.920    97446471.84446
 15 03 04 00 10 30.0000000  0  7G16G18G19G21G22G27G31
  20942298.900   110052538.96809  20942295.540    85755231.59348
  22267386.260   117016066.19709  22267384.200    91181420.10046
  24100684.380   126649965.84508  24100682.160    98688285.71145
  21932252.740   115254776.63508  21932249.720    89808908.60647
  23056491.900   121162855.68709  23056488.840    94412661.71547
  22012962.780   115678989.58409  22012963.600    90139498.81348
  23816159.640   125154665.56408  23816162.100    97523079.82346
 15 03 04 00 11  0.0000000  0  7G16G18G19G21G22G27G31
  20932835.620   110002808.98609  20932832.220    85716480.95948
  22259653.440   116975430.00909  22259651.380    91149755.56446
  24086093.000   126573287.91508  24086090.680    98628536.73845
  21943150.300   115312043.96808  21943147.340    89853532.49347
  23039837.480   121075336.85009  23039834.480    94344465.36646
  22002670.720   115624904.24609  22002671.480    90097354.41648
  23834876.240   125253019.62708  23834878.780    97599718.73946
 15 03 04 00 11 30.0000000  0  7G16G18G19G21G22G27G31
  20923443.500   109953453.36709  20923440.160    85678022.04148
  22251996.060   116935190.13409  22251993.920    91118399.84347
  24071518.340   126496697.39708  24071516.120    98568855.90345
  21954092.580   115369545.98208  21954089.480    89898339.25947
  23023210.120   120987960.21409  23023207.100    94276379.80747
  21992402.380   115570943.49309  21992403.060    90055307.10448
  23853599.000   125351406.00408  23853601.640    97676382.82246
 15 03 04 00 12  0.0000000  0  7G16G18G19G21G22G27G31
  20914123.620   109904477.28509  20914120.320    85639858.87348
  22244415.080   116895351.70509  22244412.860    91087356.94447
  24056961.060   126420197.63808  24056958.860    98509245.77146
  21965079.700   115427283.73508  21965076.600    89943329.71047
  23006611.020   120900731.97708  23006607.920    94208409.87547
  21982158.420   115517110.65709  21982159.040    90013359.46348
  23872327.980   125449825.06708  23872330.740    97753072.35646
 15 03 04 00 12 30.0000000  0  7G16G18G19G21G22G27G31
  20904876.420   109855883.07609  20904873.160    85601993.26448
  22236910.820   116855916.65509  22236908.500    91056628.36446
  24042421.000   126343788.81308  24042418.380    98449706.50645
  21976111.380   115485255.90108  21976108.240    89988502.83147
  22990040.660   120813654.92309  22990037.520    94140557.76046
  21971938.900   115463405.87909  21971939.240    89971511.60248
  23891062.640   125548273.87108  23891065.600    97829785.04246
 15 03 04 00 13  0.0000000  0  7G16G18G19G21G22G27G31
  20895702.900   109807676.10009  20895699.660    85564429.38648
  22229484.420   116816890.77809  22229482.020    91026218.62247
  24027899.000   126267474.73308  24027896.080    98390241.08045
  21987188.000   115543464.25508  21987184.760    90033859.99247
  22973500.280   120726735.40708  22973497.140    94072828.39847
  21961744.560   115409833.18609  21961744.640    89929766.67348
  23909803.120   125646753.05208  23909806.320    97906521.39146
 15 03 04 00 13 30.0000000  0  7G16G18G19G21G22G27G31
  20886602.260   109759851.95309  20886599.080    85527163.83248
  22222134.920   116778269.07309  22222132.480    90996123.81046
  24013393.740   126191248.78608  24013390.860    98330844.30145
  21998308.100   115601900.54409  21998304.840    90079394.76447
  22956989.220   120639969.85209  22956986.020    94005219.00646
  21951574.140   115356386.01709  21951573.920    89888119.54748
  23928547.700   125745253.81008  23928551.000    97983274.52846
 15 03 04 00 14  0.0000000  0  7G16G18G19G21G22G27G31
  20877575.740   109712417.73809  20877572.640    85490202.12048
  22214863.480   116740057.71609  22214861.120    90966348.76246
  23998906.080   126115115.82108  23998903.020    98271519.99145
  22009472.060   115660567.19508  22009468.680    90125109.04246
  22940508.860   120553365.70908  22940505.700    93937735.38547
  21941428.500   115303069.30509  21941428.020    89846574.09248
  23947296.740   125843777.93208  23947300.220    98060045.85646
 15 03 04 00 14 30.0000000  0  7G16G18G19G21G22G27G31
  20868623.760   109665375.13109  20868620.740    85453545.55348
  22207670.460   116702258.45409  22207668.100    90936894.83046
  23984436.040   126039075.50008  23984432.980    98212267.86845
  22020679.500   115719462.59008  22020676.060    90171001.55947
  22924059.660   120466925.43109  22924056.560    93870379.44547
  21931307.580   115249882.80209  21931306.900    89805130.07448
  23966049.600   125942321.98408  23966053.260    98136832.68046
 15 03 04 00 15  0.0000000  0  7G16G18G19G21G22G27G31
  20859746.560   109618725.31109  20859743.500    85417195.05948
  22200556.040   116664872.32109  22200553.680    90907762.80146
  23969983.440   125963127.44108  23969980.780    98153087.65745
  22031929.880   115778584.34308  22031926.680    90217070.43547
  22907642.080   120380651.37009  22907639.100    93803153.01047
  21921211.340   115196826.21909  21921210.580    89763787.29348
  23984805.680   126040882.90408  23984809.480    98213632.63146
 15 03 04 00 15 30.0000000  0 15G16G18G19G21G22G27G31R01R02R14R15R16
                                R17R18R24
  20850944.080   109572468.20909  20850941.080    85381150.57648
  22193520.220   116627899.12609  22193517.900    90878952.54646
  23955547.920   125887269.08608  23955545.140    98093977.31245
  22043222.520   115837928.03708  22043219.480    90263312.26947
  22891256.200   120294543.89808  22891253.280    93736056.39247
  21911139.360   115143897.42609  21911138.580    89722544.10848
  24003563.960   126139455.55308  24003567.900    98290441.71246
  22788678.780   121818550.42108  22788683.500    94747775.73105
  22214275.320   118539631.75508  22214279.280    92197504.43707
  22639601.980   120681808.00607  22639612.100    93863654.01605
  20060072.100   107194942.84808  20060075.800    83373859.58108
  21350614.080   114051144.15309  21350615.620    88706451.65808
  20217263.300   108186655.62108  20217263.680    84145181.18308
  21114917.300   112712862.55109  21114920.640    87665571.34408
  23288267.060   124532834.26006  23288269.060    96858875.49705
 15 03 04 00 16  0.0000000  0 15G16G18G19G21G22G27G31R01R02R14R15R16
                                R17R18R24
  20842220.120   109526623.97809  20842217.180    85345427.81148
  22186566.720   116591358.34809  22186564.400    90850479.24447
  23941132.980   125811519.11108  23941130.100    98034951.42945
  22054560.640   115897510.12808  22054557.560    90309739.86647
  22874905.920   120208623.60308  22874903.080    93669105.62147
  21901095.140   115091114.84309  21901094.380    89681414.84948
  24022327.400   126238055.30308  24022331.520    98367271.90546
  22791314.460   121832638.98907  22791318.840    94758733.54905
  22199067.600   118458480.28208  22199071.400    92134386.66807
  22664893.560   120816624.81106  22664903.480    93968510.91105
  20072094.040   107259184.74208  20072097.840    83423825.46508
  21337160.040   113979275.53309  21337161.620    88650553.84807
  20223118.000   108217985.00108  20223118.040    84169548.50108
  21106801.820   112669541.71509  21106805.240    87631877.39308
  23303623.500   124614949.88806  23303625.100    96922743.13505
 15 03 04 00 16 30.0000000  0 15G16G18G19G21G22G27G31R01R02R14R15R16
                                R17R18R24
  20833567.880   109481156.48609  20833564.980    85309998.59948
  22179688.640   116555213.84009  22179686.360    90822314.72647
  23926731.540   125735839.13308  23926728.460    97975980.07345
  22065936.600   115957290.70008  22065933.480    90356322.13247
  22858584.640   120122855.58308  22858581.960    93602273.49247
  21891071.400   115038440.31509  21891070.720    89640369.79148
  24041088.260   126336641.41608  24041092.680    98444091.44646
  22794082.960   121847439.03707  22794087.480    94770244.68305
  22183940.260   118377757.07209  22183943.620    92071601.98507
  22690207.960   120951563.57106  22690217.900    94073462.60805
  20084245.440   107324118.28108  20084249.340    83474329.29108
  21323828.980   113908064.42908  21323830.600    88595167.43608
  20229000.980   108249466.37908  20229001.180    84194034.00908
  21098725.160   112626428.03809  21098728.660    87598344.56008
  23318966.620   124696995.71307  23318968.020    96986556.48205
 15 03 04 00 17  0.0000000  0 15G16G18G19G21G22G27G31R01R02R14R15R16
                                R17R18R24
  20824992.580   109436093.02009  20824989.720    85274884.21148
  22172891.040   116519492.29009  22172888.760    90794479.76447
  23912348.200   125660254.51508  23912345.100    97917083.02745
  22077354.780   116017293.13608  22077351.640    90403077.26447
  22842297.680   120037267.97408  22842295.100    93535581.94147
  21881072.980   114985899.28309  21881072.440    89599428.74148
  24059850.800   126435235.86308  24059855.240    98520917.48646
  22796989.240   121862975.88607  22796994.020    94782328.89105
  22168898.680   118297492.03709  22168902.160    92009173.66707
  22715549.340   121086645.40106  22715559.380    94178525.56105
  20096530.560   107389766.66508  20096534.620    83525389.11008
  21310626.400   113837539.79108  21310628.160    88540314.93608
  20234916.900   108281123.81208  20234917.360    84218656.43808
  21090691.900   112583546.09209  21090695.340    87564991.95808
  23334301.560   124778997.18907  23334302.840    97050335.40005
 15 03 04 00 17 30.0000000  0 15G16G18G19G21G22G27G31R01R02R14R15R16
                                R17R18R24
  20816494.280   109391434.15509  20816491.440    85240085.09848
  22166173.960   116484194.06709  22166171.700    90766974.68847
  23897982.760   125584763.84508  23897979.580    97858259.17945
  22088814.560   116077514.53708  22088811.480    90450003.02347
  22826045.300   119951861.83208  22826042.740    93469031.79647
  21871099.740   114933490.52009  21871099.340    89558590.76248
  24078614.240   126533834.71908  24078618.700    98597746.94546
  22800033.260   121879248.42308  22800038.020    94794985.33105
  22153943.360   118217688.08209  22153947.200    91947103.98107
  22740916.660   121221865.03107  22740926.760    94283695.66505
  20108948.540   107456124.76108  20108952.600    83577000.93608
  21297552.640   113767703.25508  21297554.540    88485997.63608
  20240865.360   108312955.38608  20240865.820    84243414.33108
  21082701.660   112540893.88809  21082705.040    87531818.04308
  23349627.860   124860952.30807  23349628.700    97114078.27704
 15 03 04 00 18  0.0000000  0 15G16G18G19G21G22G27G31R01R02R14R15R16
                                R17R18R24
  20808072.300   109347176.53509  20808069.540    85205598.65148
  22159536.700   116449315.27209  22159534.460    90739796.43547
  23883634.280   125509362.02608  23883631.080    97799504.56246
  22100314.560   116137947.54208  22100311.580    90497093.66647
  22809826.920   119866634.51808  22809824.460    93402621.01347
  21861150.700   114881208.78909  21861150.400    89517851.76648
  24097376.820   126632429.58708  24097381.440    98674573.32246
  22803214.020   121896250.97008  22803218.460    94808209.60904
  22139074.240   118138343.94509  22139078.180    91885391.92607
  22766308.000   121357212.49706  22766318.220    94388965.17205
  20121497.820   107523184.23108  20121501.900    83629158.27408
  21284607.280   113698552.70508  21284609.440    88432213.89408
  20246845.100   108344954.15608  20246845.560    84268302.26708
  21074753.260   112498465.11509  21074756.580    87498817.91308
  23364944.180   124942855.41807  23364945.020    97177780.72904
 15 03 04 00 18 30.0000000  0 15G16G18G19G21G22G27G31R01R02R14R15R16
                                R17R18R24
  20799728.200   109303328.14909  20799725.480    85171431.07948
  22152980.780   116414863.68809  22152978.480    90712951.07146
  23869303.680   125434054.65308  23869300.620    97740823.56946
  22111855.620   116198596.16908  22111852.660    90544352.34147
  22793644.180   119781594.64408  22793641.860    93336356.27647
  21851227.020   114829060.18709  21851226.780    89477216.50648
  24116139.320   126731024.08208  24116144.180    98751399.40446
  22806532.360   121913989.23807  22806536.680    94822006.05904
  22124293.260   118059469.76609  22124297.100    91824045.38407
  22791723.720   121492689.78506  22791734.040    94494335.59605
  20134178.880   107590947.80508  20134182.960    83681863.23708
  21271792.080   113630097.23508  21271794.440    88378970.76707
  20252856.920   108377124.90308  20252857.540    84293323.95308
  21066847.700   112456264.84309  21066850.940    87465995.49208
  23380251.800   125024712.55606  23380252.760    97241447.37104
 15 03 04 00 19  0.0000000  0 15G16G18G19G21G22G27G31R01R02R14R15R16
                                R17R18R24
  20791461.320   109259885.56109  20791458.580    85137579.72348
  22146505.440   116380835.55709  22146503.100    90686435.66747
  23854990.220   125358836.76408  23854987.420    97682212.30446
  22123436.420   116259453.53108  22123433.400    90591773.65647
  22777496.700   119696739.84208  22777494.460    93270235.74347
  21841327.780   114777039.76309  21841327.540    89436681.12948
  24134900.180   126829609.97908  24134905.220    98828218.77745
  22809987.240   121932457.82508  22809991.620    94836370.53605
  22109600.180   117981064.59609  22109603.840    91763063.63007
  22817161.960   121628287.10106  22817172.340    94599799.37105
  20146989.900   107659405.58708  20146993.960    83735108.13708
  21259106.580   113562334.63108  21259109.180    88326266.54008
  20258899.720   108409461.22908  20258900.320    84318474.43308
  21058983.780   112414287.14409  21058987.080    87433346.18508
  23395549.520   125106517.87706  23395550.760    97305073.67705
 15 03 04 00 19 30.0000000  0 15G16G18G19G21G22G27G31R01R02R14R15R16
                                R17R18R24
  20783272.800   109216854.73009  20783270.060    85104049.21748
  22140111.720   116347236.61309  22140109.400    90660254.69247
  23840694.520   125283712.52108  23840691.780    97623673.98646
  22135057.360   116320521.73608  22135054.260    90639359.26847
  22761385.800   119612077.04308  22761383.580    93204264.83147
  21831453.700   114725151.76109  21831453.540    89396248.93848
  24153659.680   126928188.73208  24153664.880    98905032.64346
  22813579.600   121951660.42708  22813584.040    94851305.92505
  22094996.440   117903136.52708  22094999.920    91702452.95507
  22842622.860   121764004.75006  22842633.340    94705356.67605
  20159931.600   107728561.71508  20159935.660    83788896.20308
  21246552.180   113495272.15108  21246554.960    88274106.84608
  20264974.040   108441965.99208  20264974.620    84343755.92408
  21051162.180   112372535.35509  21051165.520    87400872.59208
  23410838.420   125188275.30907  23410839.940    97368662.74905
 15 03 04 00 20  0.0000000  0 15G16G18G19G21G22G27G31R01R02R14R15R16
                                R17R18R24
  20775163.000   109174237.52509  20775160.260    85070841.00748
  22133799.900   116314067.73509  22133797.540    90634408.83847
  23826416.560   125208681.73508  23826414.000    97565208.52046
  22146717.880   116381798.05908  22146714.660    90687107.05047
  22745311.920   119527608.57508  22745309.700    93138445.33847
  21821604.820   114673396.07309  21821604.700    89355919.84548
  24172417.240   127026757.10708  24172422.640    98981838.43145
  22817309.220   121971596.47808  22817313.620    94866811.77705
  22080482.800   117825689.73408  22080486.380    91642216.61307
  22868105.500   121899838.05106  22868116.040    94811003.93205
  20173002.880   107798410.12808  20173006.860    83843222.71508
  21234129.420   113428912.72308  21234132.320    88222493.96408
  20271079.520   108474638.01608  20271080.140    84369167.49208
  21043382.720   112331008.45709  21043386.180    87368573.89508
  23426118.600   125269984.68907  23426120.180    97432214.47105
 15 03 04 00 20 30.0000000  0 15G16G18G19G21G22G27G31R01R02R14R15R16
                                R17R18R24
  20767131.900   109132033.58109  20767129.080    85037954.81548
  22127569.860   116281328.63109  22127567.460    90608897.87247
  23812156.020   125133742.29308  23812153.460    97506814.22846
  22158417.480   116443279.93208  22158414.300    90735014.99547
  22729275.180   119443335.17608  22729272.920    93072777.82847
  21811780.800   114621770.74609  21811780.700    89315692.31348
  24191171.900   127125310.32008  24191177.440    99058632.47445
  22821175.500   121992263.42008  22821179.840    94882886.09705
  22066059.740   117748726.13009  22066063.400    91582356.07807
  22893608.660   122035780.74207  22893619.280    94916736.22205
  20186202.840   107868946.33508  20186206.820    83898084.18808
  21221838.440   113363256.89108  21221841.360    88171428.32508
  20277215.620   108507473.67108  20277216.060    84394706.32608
  21035644.840   112289703.30909  21035648.280    87336447.70308
  23441389.240   125351643.29507  23441390.780    97495726.71304
 15 03 04 00 21  0.0000000  0 15G16G18G19G21G22G27G31R01R02R14R15R16
                                R17R18R24
  20759179.560   109090243.64909  20759176.720    85005391.23648
  22121421.680   116249019.73709  22121419.260    90583722.14047
  23797912.640   125058892.80308  23797909.920    97448490.01145
  22170155.540   116504963.78808  22170152.400    90783080.33147
  22713275.860   119359258.30108  22713273.540    93007263.46247
  21801981.400   114570274.67009  21801981.300    89275565.51148
  24209922.880   127223844.37408  24209928.580    99135411.58545
  22825178.100   122013660.08407  22825182.440    94899527.96105
  22051727.840   117672248.49409  22051731.500    91522873.51507
  22919131.340   122171827.36406  22919142.140    95022549.32905
  20199530.580   107940165.41908  20199534.540    83953476.78408
  21209679.600   113298306.49408  21209682.460    88120911.35108
  20283381.940   108540470.73208  20283382.300    84420370.71108
  21027948.140   112248618.01509  21027951.560    87304492.48008
  23456650.040   125433249.37806  23456651.340    97559198.10104
 15 03 04 00 21 30.0000000  0 15G16G18G19G21G22G27G31R01R02R14R15R16
                                R17R18R24
  20751307.280   109048874.50709  20751304.480    84973155.55348
  22115356.540   116217147.22209  22115354.120    90558886.43847
  23783687.200   124984137.70808  23783684.240    97390239.35645
  22181932.440   116566851.58409  22181929.200    90831304.58847
  22697315.360   119275385.14908  22697312.900    92941907.84747
  21792207.540   114518912.57409  21792207.480    89235543.11048
  24228670.460   127322360.64008  24228676.300    99212176.81445
  22829317.760   122035790.03507  22829322.520    94916740.11805
  22037488.580   117596265.49308  22037492.140    91463775.67307
  22944673.480   122307978.10506  22944684.580    95128443.37105
  20212986.340   108012068.84008  20212990.320    84009401.64308
  21197654.360   113234069.32908  21197657.060    88070949.12008
  20289579.000   108573632.54008  20289579.500    84446163.23108
  21020293.260   112207756.03409  21020296.720    87272710.96608
  23471901.840   125514807.82006  23471902.960    97622632.46004
 15 03 04 00 22  0.0000000  0 15G16G18G19G21G22G27G31R01R02R14R15R16
                                R17R18R24
  20743514.860   109007925.00109  20743512.060    84941246.84748
  22109374.040   116185708.85109  22109371.560    90534389.03347
  23769479.360   124909474.36608  23769476.040    97332060.16945
  22193747.400   116628939.37908  22193744.140    90879684.68547
  22681393.580   119191715.53108  22681391.060    92876710.83047
  21782458.660   114467681.68709  21782458.600    89195622.95348
  24247413.580   127420853.71208  24247419.680    99288923.96045
  22833594.040   122058649.97007  22833599.020    94934520.06305
  22023342.220   117520778.40509  22023345.620    91405063.54407
  22970233.860   122444225.76906  22970245.320    95234412.80405
  20226568.760   108084649.24908  20226572.780    84065853.04908
  21185762.600   113170545.00809  21185765.220    88021541.32808
  20295806.080   108606955.07708  20295806.600    84472080.75708
  21012679.560   112167113.80309  21012683.080    87241100.35908
  23487144.040   125596315.03207  23487145.180    97686026.93304
 15 03 04 00 22 30.0000000  0 15G16G18G19G21G22G27G31R01R02R14R15R16
                                R17R18R24
  20735802.780   108967397.49409  20735799.940    84909666.98048
  22103474.720   116154707.74209  22103472.200    90510232.35147
  23755289.100   124834903.78408  23755285.480    97273953.26145
  22205600.240   116691226.60808  22205596.920    90928220.19247
  22665511.240   119108252.99208  22665508.540    92811675.16647
  21772735.020   114416583.21009  21772734.960    89155805.97648
  24266152.000   127519321.93408  24266158.380    99365651.78745
  22838006.900   122082240.53407  22838011.980    94952868.27005
  22009289.780   117445792.02409  22009293.340    91346740.84007
  22995811.900   122580567.29106  22995823.680    95340455.19605
  20240277.520   108157904.84008  20240281.560    84122829.59108
  21174004.960   113107737.55208  21174007.480    87972691.09008
  20302063.140   108640438.08308  20302063.600    84498123.08908
  21005107.060   112126691.44709  21005110.680    87209660.76308
  23502377.000   125677772.05507  23502378.240    97749382.40105
 15 03 04 00 23  0.0000000  0 15G16G18G19G21G22G27G31R01R02R14R15R16
                                R17R18R24
  20728171.500   108927294.39809  20728168.580    84878417.81448
  22097658.920   116124145.48509  22097656.300    90486417.62247
  23741116.320   124760426.02408  23741112.740    97215918.70245
  22217490.500   116753710.46108  22217487.060    90976908.89947
  22649668.840   119025000.49809  22649666.000    92746803.17047
  21763036.660   114365617.51909  21763036.560    89116092.46948
  24284885.200   127617762.60508  24284891.600    99442358.15345
  22842556.480   122106561.04508  22842561.060    94971784.25604
  21995332.020   117371310.74209  21995335.680    91288810.99807
  23021406.820   122716998.91006  23021418.980    95446567.66805
  20254112.100   108231833.06808  20254116.220    84180329.29308
  21162382.020   113045650.08808  21162384.540    87924400.84908
  20308350.080   108674080.57308  20308350.600    84524289.46808
  20997575.740   112086488.42309  20997579.380    87178391.75108
  23517600.500   125759178.67507  23517601.840    97812698.65905
 15 03 04 00 23 30.0000000  0 15G16G18G19G21G22G27G31R01R02R14R15R16
                                R17R18R24
  20720621.700   108887619.66609  20720618.700    84847502.44048
  22091927.180   116094025.07809  22091924.540    90462947.20747
  23726961.560   124686043.42208  23726958.100    97157958.29745
  22229418.380   116816392.01508  22229414.940    91025751.67447
  22633867.320   118941962.71609  22633864.360    92682098.48247
  21753364.000   114314786.85909  21753363.820    89076484.19148
  24303612.980   127716174.88208  24303619.500    99519042.31145
  22847243.200   122131613.26908  22847247.360    94991269.40105
  21981470.020   117297340.72109  21981473.620    91231278.80307
  23047018.280   122853518.29606  23047030.640    95552748.39105
  20268072.140   108306431.58908  20268076.300    84238350.33108
  21150894.680   112984287.40408  21150897.240    87876674.32108
  20314667.060   108707883.66408  20314667.620    84550580.76808
  20990085.700   112046505.89409  20990089.380    87147294.25508
  23532814.920   125840536.65007  23532816.300    97875977.06404
 15 03 04 00 24  0.0000000  0 15G16G18G19G21G22G27G31R01R02R14R15R16
                                R17R18R24
  20713153.200   108848372.34209  20713150.180    84816920.11248
  22086279.360   116064345.70409  22086276.760    90439820.44147
  23712824.220   124611753.29108  23712821.000    97100069.93146
  22241383.060   116879266.90108  22241379.760    91074745.08847
  22618106.660   118859139.86209  22618103.640    92617561.26847
  21743716.560   114264088.84909  21743716.300    89036979.26348
  24322334.320   127814553.38408  24322341.000    99595700.18846
  22852066.220   122157393.72208  22852070.140    95011320.88604
  21967704.140   117223883.45909  21967707.480    91174145.41007
  23072644.860   122990118.69406  23072657.420    95658992.12105
  20282156.420   108381693.87608  20282160.660    84296887.62408
  21139543.100   112923649.91308  21139545.780    87829511.83808
  20321013.300   108741843.43808  20321013.920    84576993.91308
  20982636.360   112006740.37609  20982639.920    87116365.52308
  23548019.620   125921843.51906  23548021.100    97939215.69604
 15 03 04 00 24 30.0000000  0 15G16G18G19G21G22G27G31R01R02R14R15R16
                                R17R18R24
  20705766.320   108809553.99409  20705763.260    84786672.04248
  22080715.580   116035108.06609  22080713.000    90417037.89547
  23698704.500   124537554.74608  23698701.980    97042252.96846
  22253383.900   116942332.19508  22253380.820    91123886.85947
  22602387.300   118776534.14109  22602384.240    92553193.24748
  21734094.220   114213522.99009  21734093.900    88997577.30548
  24341048.580   127912894.80708  24341055.560    99672329.24546
  22857025.200   122183901.39507  22857028.820    95031938.00304
  21954034.920   117150941.99709  21954038.240    91117413.21007
  23098285.860   123126795.20206  23098298.580    95765295.04105
  20296364.220   108457616.15908  20296368.520    84355938.25108
  21128327.680   112863739.41708  21128330.360    87782914.78608
  20327388.480   108775958.26808  20327389.020    84603527.67008
  20975227.400   111967190.38309  20975230.820    87085604.44208
  23563214.560   126003098.16007  23563215.920    98002413.73704
 15 03 04 00 25  0.0000000  0 15G16G18G19G21G22G27G31R01R02R14R15R16
                                R17R18R24
  20698461.540   108771167.22609  20698458.500    84756760.27948
  22075236.320   116006314.71009  22075233.800    90394601.54047
  23684602.640   124463449.22908  23684600.120    96984508.47146
  22265420.960   117005587.68508  22265417.960    91173176.84747
  22586709.900   118694149.02209  22586706.760    92488997.13247
  21724497.280   114163090.64309  21724496.960    88958279.39748
  24359755.500   128011197.67008  24359762.680    99748928.25745
  22862120.040   122211136.21408  22862123.360    95053120.69704
  21940463.400   117078521.64609  21940466.840    91061086.31307
  23123940.500   123263544.77806  23123953.520    95871654.81505
  20310695.200   108534196.36508  20310699.520    84415500.61108
  21117249.220   112804559.97608  21117251.780    87736886.33208
  20333792.640   108810228.16308  20333793.080    84630182.03008
  20967858.860   111927856.19209  20967862.120    87055011.20308
  23578400.000   126084301.37407  23578401.200    98065571.84304
 15 03 04 00 25 30.0000000  0 15G16G18G19G21G22G27G31R01R02R14R15R16
                                R17R18R24
  20691238.860   108733211.87309  20691235.800    84727184.67848
  22069841.420   115977964.51609  22069838.940    90372510.50047
  23670518.040   124389434.03608  23670515.240    96926834.33346
  22277493.360   117069028.77708  22277490.300    91222611.45747
  22571074.580   118611985.05809  22571071.360    92424973.33747
  21714925.300   114112789.55909  21714925.000    88919083.76248
  24378454.080   128109456.93308  24378461.460    99825493.32946
  22867350.340   122239095.09807  22867353.680    95074866.51904
  21926989.780   117006623.79009  21926993.240    91005165.80307
  23149607.760   123400360.81306  23149620.860    95978066.27904
  20325148.260   108611428.63608  20325152.500    84475570.10108
  21106307.680   112746111.74909  21106310.100    87691426.60408
  20340225.020   108844649.53708  20340225.620    84656954.20008
  20960530.140   111888734.66409  20960533.320    87024583.37308
  23593575.500   126165451.11207  23593576.640    98128688.30704
 15 03 04 00 26  0.0000000  0 15G16G18G19G21G22G27G31R01R02R14R15R16
                                R17R18R24
  20684099.260   108695692.96909  20684096.180    84697949.17248
  22064531.760   115950062.27509  22064529.320    90350768.52547
  23656451.460   124315513.21508  23656448.680    96869233.74646
  22289601.560   117132657.87108  22289598.500    91272192.56347
  22555482.580   118530048.77609  22555479.340    92361126.95247
  21705379.040   114062623.67209  21705378.740    88879993.48848
  24397144.460   128207673.11808  24397151.920    99902024.87246
  22872716.560   122267781.02008  22872720.260    95097177.80205
  21913615.520   116935256.26109  21913618.940    90949657.75807
  23175287.240   123537242.88906  23175300.520    96084529.12705
  20339723.320   108689312.58908  20339727.440    84536146.47608
  21095504.240   112688401.18109  21095506.560    87646540.61308
  20346686.180   108879225.07408  20346687.020    84683846.28808
  20953241.800   111849828.59109  20953244.860    86994323.11708
  23608741.520   126246550.46007  23608742.720    98191765.57204
 15 03 04 00 26 30.0000000  0 15G16G18G19G21G22G27G31R01R02R14R15R16
                                R17R18R24
  20677043.120   108658612.60409  20677040.020    84669055.38148
  22059307.720   115922609.89109  22059305.280    90329377.08547
  23642402.920   124241687.11608  23642399.960    96811706.98246
  22301745.080   117196472.43908  22301742.040    91321918.19647
  22539934.400   118448342.73509  22539931.120    92297459.98547
  21695858.620   114012593.43809  21695858.360    88841008.92548
  24415826.080   128305843.63908  24415833.780    99978520.76745
  22878218.520   122297193.35007  22878222.820    95120054.02505
  21900341.400   116864423.05109  21900344.800    90894565.30307
  23200978.400   123674187.35106  23200991.920    96191040.51205
  20354419.620   108767844.60008  20354423.680    84597226.89308
  21084839.460   112631431.08409  21084841.680    87602230.53108
  20353176.000   108913953.92008  20353177.040    84710857.61708
  20945993.720   111811137.22809  20945996.680    86964229.85108
  23623898.120   126327599.63806  23623899.440    98254803.77405
 15 03 04 00 27  0.0000000  0 15G16G18G19G21G22G27G31R01R02R14R15R16
                                R17R18R24
  20670070.480   108621971.09909  20670067.380    84640503.55748
  22054169.160   115895606.75409  22054166.700    90308335.69147
  23628371.880   124167953.66408  23628368.820    96754252.39046
  22313923.380   117260469.77208  22313920.340    91371786.23947
  22524430.220   118366867.98009  22524426.920    92233973.23848
  21686363.740   113962697.28009  21686363.440    88802128.81148
  24434498.260   128403964.46508  24434506.160   100054978.01246
  22883856.000   122327329.56908  22883860.680    95143493.31306
  21887167.820   116794126.26409  21887171.280    90839890.06508
  23226680.040   123811187.69006  23226693.700    96297595.41505
  20369236.240   108847019.49108  20369240.200    84658807.33108
  21074313.400   112575202.21909  21074315.460    87558496.95908
  20359694.000   108948833.23208  20359695.180    84737985.96208
  20938785.380   111772658.21409  20938788.280    86934301.76208
  23639044.900   126408596.91106  23639046.400    98317801.57404
 15 03 04 00 27 30.0000000  0 14G16G18G19G21G22G27G31R01R02R14R15R16
                                R17R18
  20663181.220   108585767.65909  20663178.100    84612293.09548
  22049115.760   115869051.19509  22049113.280    90287643.07747
  23614357.980   124094310.56608  23614354.980    96696868.22246
  22326135.740   117324645.93408  22326132.720    91421793.64447
  22508970.140   118285624.94009  22508966.800    92170667.04548
  21676893.940   113912933.13509  21676893.580    88763351.58848
  24453159.960   128502030.45308  24453168.040   100131392.64445
  22889628.320   122358186.24808  22889633.200    95167492.95905
  21874095.020   116724367.67209  21874098.720    90785633.44307
  23252391.060   123948238.24006  23252405.000    96404189.37805
  20384172.000   108926831.12708  20384175.940    84720883.02908
  21063926.080   112519714.71008  21063928.180    87515340.00808
  20366239.520   108983859.64208  20366240.640    84765228.74008
  20931616.160   111734388.20109  20931618.940    86904536.22808
 15 03 04 00 28  0.0000000  0 14G16G18G19G21G22G27G31R01R02R14R15R16
                                R17R18
  20656376.380   108550008.12009  20656373.360    84584428.51548
  22044148.700   115842949.27109  22044146.260    90267303.93247
  23600362.060   124020761.94608  23600359.100    96639557.64846
  22338382.440   117389002.44008  22338379.420    91471941.55547
  22493555.380   118204619.88209  22493551.920    92107546.27047
  21667449.960   113863305.12709  21667449.640    88724680.43548
  24471811.380   128600042.59008  24471819.640   100207765.27045
  22895536.060   122389766.27908  22895541.000    95192055.21005
  21861124.500   116655155.00409  21861128.240    90731801.39107
  23278111.440   124085338.48806  23278125.760    96510822.02704
  20399226.820   109007279.40608  20399230.780    84783453.86408
  21053678.740   112464975.32609  21053681.040    87472764.93708
  20372813.080   109019036.15108  20372814.080    84792588.22808
  20924486.740   111696330.46209  20924489.320    86874935.77908
 15 03 04 00 28 30.0000000  0 14G16G18G19G21G22G27G31R01R02R14R15R16
                                R17R18
  20649656.580   108514695.55909  20649653.600    84556912.24148
  22039268.400   115817303.21009  22039266.000    90247320.01647
  23586384.400   123947309.04908  23586381.560    96582321.68446
  22350663.360   117453538.69808  22350660.260    91522229.55047
  22478186.660   118123856.84709  22478183.120    92044614.10648
  21658032.080   113813814.60309  21658031.840    88686116.41948
  24490452.260   128697999.55208  24490460.720   100284094.90246
  22901579.320   122422069.79108  22901583.840    95217180.20505
  21848257.120   116586493.00409  21848261.060    90678397.66507
  23303840.500   124222485.40406  23303855.100    96617491.06104
  20414400.360   109088362.07008  20414404.360    84846518.12508
  21043572.140   112410987.58709  21043574.580    87430774.47608
  20379414.720   109054362.86008  20379415.700    84820064.54908
  20917397.080   111658485.06609  20917399.500    86845500.50608
 15 03 04 00 29  0.0000000  0 14G16G18G19G21G22G27G31R01R02R14R15R16
                                R17R18
  20643021.620   108479829.04809  20643018.660    84529743.53348
  22034474.640   115792111.75309  22034472.240    90227690.32947
  23572424.540   123873949.35108  23572421.740    96525158.34646
  22362977.640   117518250.42108  22362974.440    91572654.26347
  22462863.920   118043335.87509  22462860.400    91981870.56347
  21648640.000   113764459.49609  21648639.760    88647657.91348
  24509081.600   128795895.76208  24509090.200   100360377.13345
  22907757.340   122455093.63808  22907761.400    95242865.44204
  21835493.380   116518383.48209  21835497.300    90625423.64007
  23329577.040   124359672.41706  23329591.780    96724191.33104
  20429691.380   109170072.27808  20429695.380    84910070.47908
  21033606.160   112357751.32708  21033608.760    87389368.50408
  20386043.760   109089836.31308  20386044.720    84847655.00408
  20910346.640   111620849.04209  20910349.000    86816228.06808
 15 03 04 00 29 30.0000000  0 14G16G18G19G21G22G27G31R01R02R14R15R16
                                R17R18
  20636471.840   108445409.85309  20636468.880    84502923.37548
  22029767.500   115767375.29709  22029765.060    90208415.20147
  23558482.380   123800682.58708  23558479.360    96468067.40946
  22375324.980   117583135.65008  22375321.540    91623214.19047
  22447587.700   117963059.33609  22447584.180    91919317.47748
  21639273.660   113715239.51809  21639273.400    88609304.70348
  24527698.920   128893728.77608  24527707.740   100436610.28244
  22914069.640   122488836.20307  22914073.260    95269109.70704
  21822833.800   116450829.52209  21822837.540    90572881.71207
  23355320.240   124496895.06806  23355335.100    96830919.38504
  20445099.120   109252406.19808  20445103.100    84974107.91308
  21023781.300   112305268.78709  21023784.000    87348548.74908
  20392699.940   109125455.01008  20392700.840    84875358.42908
  20903335.140   111583421.04609  20903337.380    86787117.42108
 15 03 04 00 30  0.0000000  0 14G16G18G19G21G22G27G31R01R02R14R15R16
                                R17R18
  20630007.800   108411441.09609  20630004.860    84476454.21848
  22025147.520   115743096.99609  22025144.980    90189497.06747
  23544558.160   123727510.47208  23544554.820    96411050.21946
  22387705.280   117648194.34808  22387701.840    91673909.27347
  22432358.920   117883031.79809  22432355.340    91856958.42148
  21629933.400   113666156.65409  21629933.100    88571058.34248
  24546303.860   128991497.07408  24546312.860   100512792.99245
  22920516.160   122523297.93107  22920519.920    95295913.26504
  21810279.280   116383836.47709  21810282.840    90520776.05307
  23381069.580   124634151.10406  23381084.680    96937673.46404
  20460623.180   109335361.89408  20460627.160    85038628.97308
  21014098.300   112253543.98708  21014100.940    87308318.34508
  20399383.400   109161219.44508  20399384.240    84903175.20608
  20896362.720   111546201.85009  20896364.960    86758169.18908
 15 03 04 00 30 30.0000000  0 15G16G18G19G21G22G27G31R01R02R03R14R15
                                R16R17R18
  20623629.900   108377925.05509  20623627.000    84450337.81948
  22020614.900   115719277.82309  22020612.320    90170936.69147
  23530651.800   123654432.74108  23530648.200    96354106.59346
  22400118.180   117713424.58508  22400114.720    91724738.02546
  22417177.960   117803255.52309  22417174.360    91794795.15347
  21620619.220   113617210.93809  21620618.880    88532918.83048
  24564896.060   129089198.33108  24564905.240   100588923.56345
  22927096.980   122558477.48408  22927100.900    95323275.14204
  21797830.660   116317408.25809  21797834.080    90469109.69107
  23590653.720   126282617.69206  23590661.380    98219832.92906
  23406824.320   124771436.08706  23406839.640    97044450.11204
  20476262.680   109418934.58208  20476266.660    85103629.90408
  21004557.460   112202578.83909  21004560.120    87268678.79408
  20406093.880   109197128.91108  20406094.740    84931104.78808
  20889429.180   111509190.43109  20889431.500    86729382.55208
 15 03 04 00 31  0.0000000  0 15G16G18G19G21G22G27G31R01R02R03R14R15
                                R16R17R18
  20617338.160   108344861.68009  20617335.240    84424574.15248
  22016169.600   115695917.61109  22016167.020    90152733.95547
  23516763.260   123581448.23008  23516759.440    96297235.57746
  22412563.160   117778823.32308  22412559.720    91775698.07947
  22402045.020   117723731.72009  22402041.380    91732828.61548
  21611330.980   113568401.42209  21611330.620    88494885.45748
  24583474.660   129186828.44308  24583484.020   100664998.95046
  22933811.840   122594372.47908  22933815.920    95351193.49605
  21785488.440   116251547.25009  21785491.860    90417884.50607
  23568375.900   126163362.29606  23568383.540    98127078.95305
  23432583.400   124908744.82606  23432598.960    97151245.32904
  20492016.760   109503119.76108  20492020.740    85169107.21408
  20995159.100   112152374.79709  20995161.760    87229631.20908
  20412831.060   109233180.98308  20412832.040    84959145.29108
  20882534.100   111472384.76509  20882536.500    86700755.95808
 15 03 04 00 31 30.0000000  0 15G16G18G19G21G22G27G31R01R02R03R14R15
                                R16R17R18
  20611133.140   108312254.06209  20611130.160    84399165.62048
  22011811.960   115673018.17109  22011809.420    90134890.25847
  23502892.760   123508557.77708  23502889.340    96240437.87746
  22425040.000   117844389.66508  22425036.520    91826788.72246
  22386960.840   117644464.20509  22386957.240    91671061.78148
  21602068.840   113519729.11609  21602068.540    88456959.00548
  24602039.360   129284385.73008  24602048.720   100741017.67945
  22940660.560   122630982.16008  22940664.580    95379667.72505
  21773253.260   116186257.89209  21773256.600    90367103.92508
  23546093.580   126044082.64206  23546101.140    98034305.71206
  23458346.320   125046073.71206  23458362.100    97258056.27204
  20507884.860   109587914.25508  20507888.900    85235058.43708
  20985903.720   112102934.65608  20985906.400    87191177.76008
  20419594.920   109269375.41908  20419595.760    84987296.52708
  20875677.520   111435784.73809  20875680.040    86672289.29108
 15 03 04 00 32  0.0000000  0 15G16G18G19G21G22G27G31R01R02R03R14R15
                                R16R17R18
  20605015.000   108280102.90909  20605011.960    84374112.77448
  22007542.060   115650579.89209  22007539.580    90117405.91047
  23489040.200   123435761.35508  23489036.680    96183713.43547
  22437548.280   117910121.28008  22437544.780    91878008.16746
  22371925.840   117565454.98609  22371922.260    91609496.21548
  21592832.820   113471193.85509  21592832.540    88419139.33248
  24620589.440   129381866.90808  24620598.800   100816977.20546
  22947642.760   122668305.03708  22947646.780    95408696.64205
  21761125.820   116121543.52709  21761129.240    90316770.57607
  23523807.600   125924782.80706  23523814.940    97941516.64505
  23484112.040   125183418.62406  23484128.020    97364879.76704
  20523866.200   109673313.69308  20523870.340    85301480.17508
  20976791.680   112054260.31108  20976794.460    87153319.94008
  20426385.100   109305710.88908  20426385.860    85015557.44008
  20868859.280   111399389.32409  20868861.920    86643981.77208
 15 03 04 00 32 30.0000000  0 15G16G18G19G21G22G27G31R01R02R03R14R15
                                R16R17R18
  20598984.580   108248412.64909  20598981.520    84349419.06348
  22003360.820   115628607.45109  22003358.380    90100284.54447
  23475206.000   123363061.30808  23475202.460    96127064.08347
  22450088.200   117976018.80708  22450084.740    91929356.88647
  22356941.040   117486709.36709  22356937.420    91548136.05048
  21583623.560   113422798.83309  21583623.280    88381428.94948
  24639124.740   129479270.64608  24639133.960   100892875.81446
  22954758.580   122706342.76708  22954762.640    95438281.55505
  21749107.280   116057410.45209  21749110.660    90266889.33908
  23501519.320   125805471.35806  23501526.820    97848719.31606
  23509880.600   125320778.19806  23509896.840    97471714.71004
  20539960.600   109759317.05708  20539964.800    85368371.63208
  20967823.960   112006356.81208  20967826.700    87116061.67408
  20433202.100   109342189.31308  20433202.780    85043929.54308
  20862079.660   111363200.30309  20862082.520    86615834.77008
 15 03 04 00 33  0.0000000  0 15G16G18G19G21G22G27G31R01R02R03R14R15
                                R16R17R18
  20593041.680   108217182.25409  20593038.560    84325083.69048
  21999267.840   115607098.82009  21999265.420    90083524.59347
  23461389.580   123290454.95308  23461385.840    96070487.73746
  22462658.900   118042078.06608  22462655.360    91980831.63746
  22342006.360   117408227.32809  22342002.720    91486981.27048
  21574440.500   113374541.41709  21574440.240    88343825.78648
  24657644.560   129576592.77608  24657653.840   100968710.99645
  22962007.200   122745090.84807  22962011.180    95468418.97705
  21737197.900   115993859.70209  21737201.160    90217461.01507
  23479228.800   125686148.93606  23479236.340    97755913.92806
  23535650.560   125458145.60006  23535666.920    97578555.80504
  20556166.580   109845916.65008  20556170.760    85435726.84208
  20959000.280   111959223.36308  20959003.120    87079402.33908
  20440045.060   109378806.84708  20440045.760    85072409.85408
  20855338.040   111327214.18809  20855341.160    86587845.58408
 15 03 04 00 33 30.0000000  0 15G16G18G19G21G22G27G31R01R02R03R14R15
                                R16R17R18
  20587187.420   108186417.66809  20587184.260    84301111.28248
  21995264.080   115586059.17409  21995261.640    90067130.07847
  23447591.520   123217946.79308  23447588.120    96013987.93246
  22475260.780   118108301.56608  22475257.220    92032434.36046
  22327123.100   117330015.44809  22327119.460    91426036.99748
  21565284.600   113326426.33609  21565284.340    88306333.52348
  24676149.220   129673835.09508  24676158.720   101044484.05145
  22969389.240   122784552.90307  22969393.140    95499111.67404
  21725399.160   115930899.40709  21725402.500    90168491.94108
  23456937.480   125566823.21307  23456944.820    97663106.08007
  23561422.020   125595521.03206  23561438.440    97685403.23004
  20572484.340   109933113.75308  20572488.500    85503546.76508
  20950322.000   111912866.55808  20950324.880    87043347.04208
  20446914.660   109415567.29308  20446915.260    85101001.31008
  20848635.120   111291434.58709  20848638.480    86560017.03508
 15 03 04 00 34  0.0000000  0 14G16G18G19G21G22G27G31R01R02R03R15R16
                                R17R18
  20581421.060   108156115.14209  20581417.900    84277498.92148
  21991348.680   115565483.87609  21991346.280    90051097.39547
  23433811.040   123145531.36708  23433807.780    95957560.38646
  22487892.580   118174682.12108  22487889.000    92084159.46547
  22312290.780   117252071.17409  22312287.100    91365301.24448
  21556154.820   113278448.35309  21556154.560    88268948.09348
  24694637.200   129770989.94308  24694646.940   101120189.24745
  22976903.480   122824721.48208  22976907.100    95530353.91304
  21713710.700   115868527.42209  21713714.040    90119980.43808
  23434644.900   125447491.69007  23434651.780    97570293.19006
  20588912.040   110020898.43008  20588916.180    85571823.69508
  20941788.600   111867282.99008  20941791.360    87007893.15808
  20453809.700   109452463.88208  20453810.380    85129698.65008
  20841969.740   111255855.00609  20841973.300    86532344.03908
 15 03 04 00 34 30.0000000  0 13G16G18G19G21G22G27R01R02R03R15R16R17
                                R18
  20575741.460   108126268.60609  20575738.380    84254241.89548
  21987520.520   115545366.91209  21987518.140    90035421.86748
  23420046.980   123073201.19508  23420043.540    95901199.24246
  22500552.420   118241210.39108  22500548.980    92135999.68646
  22297508.440   117174389.36409  22297504.700    91304770.02148
  21547049.660   113230599.93609  21547049.440    88231663.63348
  22984548.280   122865587.20708  22984551.620    95562138.47204
  21702131.600   115806739.27309  21702134.840    90071923.02608
  23412350.600   125328152.05307  23412357.580    97477474.36507
  20605447.380   110109258.18308  20605451.440    85640547.91408
  20933398.920   111822466.71908  20933401.640    86973036.06208
  20460728.540   109489487.76508  20460729.200    85158495.00408
  20835340.200   111220466.58309  20835343.840    86504819.72308
 15 03 04 00 35  0.0000000  0 13G16G18G19G21G22G27R01R02R03R15R16R17
                                R18
  20570152.460   108096898.31809  20570149.460    84231355.95648
  21983783.180   115525727.39709  21983780.820    90020118.36947
  23406302.640   123000974.75808  23406299.100    95844918.94646
  22513243.560   118307903.11108  22513240.240    92187968.02346
  22282780.080   117096991.39109  22282776.300    91244459.96848
  21537972.820   113182900.28909  21537972.500    88194495.09348
  22992326.860   122907167.95608  22992330.280    95594479.07105
  21690666.180   115745557.74409  21690669.420    90024337.44508
  23390059.160   125208827.51807  23390066.160    97384667.51407
  20622093.340   110198209.07708  20622097.400    85709731.88408
  20925156.880   111778438.94808  20925159.640    86938792.25108
  20467674.500   109526657.25408  20467675.160    85187404.60208
  20828750.060   111185287.87509  20828753.700    86477458.50408
 15 03 04 00 35 30.0000000  0 13G16G18G19G21G22G27R01R02R03R15R16R17
                                R18
  20564652.680   108067996.51909  20564649.660    84208835.06748
  21980135.120   115506556.94309  21980132.740    90005180.37248
  23392576.420   122928842.96908  23392572.680    95788712.37446
  22525963.980   118374749.41108  22525960.760    92240056.04147
  22268104.460   117019870.52509  22268100.660    91184365.83348
  21528922.500   113135340.28409  21528922.120    88157435.35348
  23000237.140   122949452.49508  23000241.000    95627367.01905
  21679313.360   115684977.12209  21679316.680    89977219.21408
  23367769.240   125089512.35507  23367776.380    97291868.14207
  20638847.240   110287736.64108  20638851.340    85779364.37808
  20917061.040   111735191.92209  20917063.780    86905155.68308
  20474645.780   109563961.94108  20474646.460    85216419.36308
  20822197.340   111150308.48009  20822200.880    86450252.32808
 15 03 04 00 36  0.0000000  0 13G16G18G19G21G22G27R01R02R03R15R16R17
                                R18
  20559243.260   108039569.46509  20559240.140    84186684.11448
  21976577.480   115487861.45309  21976575.080    89990612.47447
  23378869.060   122856810.25908  23378865.200    95732583.01246
  22538714.060   118441751.83608  22538711.020    92292265.71046
  22253482.840   116943033.48509  22253478.980    91124492.86648
  21519899.600   113087924.73009  21519899.260    88120488.18848
  23008279.700   122992443.92808  23008283.760    95660804.81805
  21668074.560   115625005.00909  21668077.960    89930574.27608
  23345482.580   124970214.78107  23345489.540    97199082.29207
  20655709.240   110377841.78708  20655713.400    85849446.10608
  20909112.720   111692732.38909  20909115.280    86872131.60308
  20481643.020   109601405.43108  20481643.700    85245542.07508
  20815682.720   111115532.20609  20815686.060    86423204.13608
 15 03 04 00 36 30.0000000  0 13G16G18G19G21G22G27R01R02R03R15R16R17
                                R18
  20553922.960   108011611.01309  20553919.760    84164898.31148
  21973108.900   115469634.08109  21973106.540    89976409.34447
  23365179.140   122784869.19908  23365175.420    95676525.11146
  22551492.100   118508901.62008  22551489.120    92344590.21546
  22238914.380   116866475.77609  22238910.460    91064837.57248
  21510902.820   113040646.39509  21510902.500    88083647.94848
  23016452.620   123036132.83707  23016456.520    95694785.16205
  21656949.040   115565637.43009  21656952.320    89884399.52408
  23323198.480   124850931.01107  23323205.200    97106306.94206
  20672677.000   110468512.07608  20672681.180    85919967.40508
  20901310.740   111651054.35509  20901313.120    86839715.36608
  20488664.540   109638979.46608  20488665.340    85274766.33108
  20809204.580   111080950.50209  20809207.540    86396307.27808
 15 03 04 00 37  0.0000000  0 13G16G18G19G21G22G27R01R02R03R15R16R17
                                R18
  20548692.820   107984126.32609  20548689.600    84143481.66848
  21969730.240   115451879.09809  21969727.820    89962574.31047
  23351507.420   122713023.55008  23351503.620    95620541.52346
  22564298.520   118576200.24408  22564295.740    92397030.69446
  22224400.220   116790203.47709  22224396.260    91005404.66748
  21501932.900   112993509.17609  21501932.620    88046917.65748
  23024756.040   123080521.55606  23024760.400    95729309.61305
  21645938.140   115506881.47309  21645941.140    89838700.48407
  23300918.600   124731669.51507  23300925.060    97013549.07507
  20689750.680   110559748.32008  20689754.780    85990928.87608
  20893656.060   111610163.28009  20893658.240    86807911.19208
  20495710.920   109676686.58508  20495711.900    85304094.07808
  20802763.400   111046566.08409  20802766.160    86369563.86908
 15 03 04 00 37 30.0000000  0 13G16G18G19G21G22G27R01R02R03R15R16R17
                                R18
  20543553.420   107957118.43909  20543550.160    84122436.56048
  21966442.040   115434599.37209  21966439.560    89949109.60748
  23337854.180   122641274.93508  23337850.120    95564633.54846
  22577133.180   118643647.36608  22577130.400    92449586.88046
  22209941.080   116714220.30209  22209937.080    90946197.04548
  21492990.180   112946514.99109  21492989.860    88010298.81848
  23033190.500   123125609.40208  23033195.180    95764377.93405
  21635042.720   115448742.01109  21635045.820    89793480.94408
  23278643.880   124612435.53007  23278650.020    96920812.44106
  20706929.580   110651546.77908  20706933.620    86062327.63408
  20886149.360   111570062.82609  20886151.320    86776721.95508
  20502782.360   109714527.80008  20502783.400    85333526.13608
  20796359.360   111012379.90709  20796361.920    86342974.65108
 15 03 04 00 38  0.0000000  0 13G16G18G19G21G22G27R01R02R03R15R16R17
                                R18
  20538504.460   107930586.09909  20538501.180    84101762.00748
  21963243.840   115417792.62609  21963241.280    89936013.45747
  23324218.880   122569620.60508  23324214.780    95508799.03646
  22589995.420   118711238.64408  22589992.660    92502255.40446
  22195537.000   116638526.44209  22195532.940    90887214.86048
  21484074.200   112899661.45009  21484073.840    87973789.57548
  23041755.100   123171392.25008  23041759.580    95799986.86304
  21624263.040   115391219.93609  21624266.260    89748741.57908
  23256374.720   124493231.38707  23256380.740    96828099.26706
  20724212.400   110743900.83208  20724216.420    86134158.51608
  20878790.360   111530751.66609  20878792.220    86746146.61408
  20509878.140   109752499.22308  20509879.180    85363059.45408
  20789991.680   110978388.35309  20789994.040    86316536.79708
 15 03 04 00 38 30.0000000  0 13G16G18G19G21G22G27R01R02R03R15R16R17
                                R18
  20533546.920   107904534.35209  20533543.700    84081461.95348
  21960136.460   115401463.08909  21960133.840    89923289.17048
  23310602.180   122498064.14808  23310598.040    95453040.80747
  22602885.440   118778975.99108  22602882.720    92555037.75047
  22181189.100   116563127.66409  22181184.960    90828462.61448
  21475185.660   112852952.29309  21475185.320    87937392.85248
  23050450.180   123217871.83408  23050454.420    95836137.68804
  21613600.260   115334321.75509  21613603.580    89704487.48008
  23234112.280   124374063.81907  23234118.260    96735414.44807
  20741598.980   110836809.45508  20741603.020    86206420.73508
  20871580.060   111492235.31109  20871581.900    86716189.44708
  20516998.740   109790603.76208  20516999.820    85392696.31808
  20783660.900   110944594.22009  20783663.080    86290252.49708
 15 03 04 00 39  0.0000000  0 13G16G18G19G21G22G27R01R02R03R15R16R17
                                R18
  20528681.040   107878964.00409  20528677.860    84061537.00048
  21957119.980   115385611.31409  21957117.300    89910937.15048
  23297003.720   122426604.76808  23296999.900    95397358.21246
  22615802.780   118846856.86608  22615800.120    92607931.91046
  22166897.720   116488026.07809  22166893.520    90769941.93148
  21466324.540   112806387.22209  21466324.220    87901108.38548
  23059275.240   123265045.81908  23059278.960    95872828.65504
  21603054.900   115278050.33409  21603058.380    89660720.85008
  23211857.380   124254936.40107  23211863.120    96642760.66807
  20759088.600   110930268.70808  20759092.740    86279111.21108
  20864518.680   111454514.61709  20864520.460    86686851.11908
  20524143.960   109828839.71908  20524144.960    85422435.39208
  20777366.760   110910995.95609  20777368.940    86264120.52708
 15 03 04 00 39 30.0000000  0 13G16G18G19G21G22G27R01R02R03R15R16R17
                                R18
  20523907.220   107853877.41309  20523904.160    84041989.00748
  21954194.720   115370239.05309  21954192.060    89898958.78548
  23283423.900   122355243.84608  23283420.440    95341752.33547
  22628747.360   118914880.52208  22628744.500    92660937.36346
  22152663.560   116413225.16809  22152659.360    90711655.55848
  21457491.080   112759967.55409  21457490.840    87864937.23048
  23068229.960   123312913.10908  23068233.620    95910058.79205
  21592627.900   115222410.21109  21592631.480    89617445.23408
  23189611.060   124135854.47607  23189616.760    96550142.18107
  20776680.540   111024274.61408  20776684.740    86352226.85908
  20857606.700   111417592.28009  20857608.560    86658133.73908
  20531313.920   109867207.49008  20531314.960    85452276.98508
  20771109.180   110877593.69809  20771111.700    86238141.02608
 15 03 04 00 40  0.0000000  0 13G16G18G19G21G22G27R01R02R03R15R16R17
                                R18
  20519224.980   107829272.07909  20519221.960    84022816.01948
  21951360.000   115355342.70109  21951357.400    89887351.25048
  23269862.020   122283977.00408  23269858.860    95286219.74847
  22641718.040   118983041.13108  22641714.880    92714049.51546
  22138486.300   116338723.28209  22138482.080    90653602.18248
  21448684.580   112713689.50209  21448684.340    87828876.41648
  23077313.200   123361467.80807  23077317.100    95947823.53106
  21582319.000   115167400.20409  21582322.640    89574659.70008
  23167373.280   124016817.68607  23167379.000    96457558.70607
  20794373.060   111118817.90808  20794377.340    86425760.47208
  20850843.680   111381465.55009  20850845.600    86630035.17008
  20538507.660   109905701.81908  20538508.620    85482217.01708
  20764887.360   110844382.57509  20764890.200    86212310.16508
 15 03 04 00 40 30.0000000  0 13G16G18G19G21G22G27R01R02R03R15R16R17
                                R18
  20514634.940   107805151.32409  20514631.900    84004020.63048
  21948616.380   115340924.96709  21948613.760    89876116.67548
  23256318.540   122212806.21708  23256315.680    95230762.03647
  22654714.780   119051339.00108  22654711.540    92767268.62446
  22124366.700   116264524.54109  22124362.460    90595785.03048
  21439905.440   112667555.20909  21439905.260    87792927.63348
  23086524.800   123410709.94407  23086528.980    95986122.92205
  21572129.160   115113025.28409  21572132.620    89532368.13708
  23145145.200   123897832.47507  23145150.800    96365015.29407
  20812165.940   111213897.56808  20812170.340    86499711.26508
  20844230.160   111346137.77809  20844232.200    86602558.02008
  20545725.300   109944324.12408  20545726.200    85512256.58808
  20758701.480   110811363.50409  20758704.680    86186628.69108
 15 03 04 00 41  0.0000000  0 13G16G18G19G21G22G27R01R02R03R15R16R17
                                R18
  20510137.680   107781518.07109  20510134.600    83985605.11048
  21945964.240   115326987.98009  21945961.600    89865256.71248
  23242793.780   122141733.24208  23242790.760    95175380.51046
  22667737.580   119119773.91708  22667734.280    92820594.54146
  22110305.520   116190632.79609  22110301.300    90538207.10648
  21431154.020   112621566.53909  21431153.980    87757092.33848
  23095864.820   123460638.86907  23095869.240    96024956.50605
  21562059.240   115059290.21809  21562062.640    89490574.23508
  23122928.040   123778904.74607  23122933.340    96272516.56607
  20830058.440   111309509.37208  20830062.780    86574075.96008
  20837766.720   111311612.08008  20837768.940    86575704.70408
  20552966.940   109983074.87208  20552967.620    85542396.06908
  20752551.760   110778537.19709  20752555.180    86161097.14408
 15 03 04 00 41 30.0000000  0 13G16G18G19G21G22G27R01R02R03R15R16R17
                                R18
  20505733.240   107758372.60409  20505730.120    83967569.68148
  21943403.600   115313531.86509  21943400.960    89854771.45448
  23229287.520   122070757.14608  23229284.200    95120074.48947
  22680785.920   119188343.18808  22680782.640    92874025.13646
  22096303.100   116117050.01009  22096298.900    90480869.91648
  21422430.300   112575722.94209  21422430.280    87721370.06548
  23105332.980   123511251.67208  23105337.340    96064322.06105
  21552109.640   115006197.50009  21552113.220    89449279.93108
  23100722.260   123660037.36007  23100727.180    96180064.67407
  20848049.800   111405649.57608  20848054.180    86648851.61007
  20831453.540   111277889.01008  20831455.980    86549475.64508
  20560232.340   110021952.61508  20560232.860    85572634.30708
  20746437.880   110745902.13209  20746441.480    86135714.32308
 15 03 04 00 42  0.0000000  0 13G16G18G19G21G22G27R01R02R03R15R16R17
                                R18
  20501421.760   107735716.07309  20501418.780    83949915.24348
  21940934.420   115300556.60209  21940931.820    89844660.87848
  23215799.600   121999877.70808  23215796.380    95064843.78746
  22693859.440   119257044.98908  22693856.020    92927558.99846
  22082359.940   116043778.43109  22082355.760    90423775.22848
  21413734.220   112530024.52809  21413734.180    87685760.93248
  23114928.700   123562546.27608  23114932.960    96104217.89905
  21542280.900   114953749.64909  21542284.700    89408487.18308
  23078528.600   123541234.46907  23078533.240    96087662.92807
  20866139.000   111502312.77708  20866143.460    86724034.05308
  20825290.840   111244969.74508  20825293.420    86523871.76808
  20567521.200   110060956.07908  20567521.520    85602970.35108
  20740359.680   110713457.20309  20740363.400    86110479.38908
 15 03 04 00 42 30.0000000  0 13G16G18G19G21G22G27R01R02R03R15R16R17
                                R18
  20497203.700   107713550.47009  20497200.800    83932643.34948
  21938557.020   115288063.63309  21938554.500    89834926.10948
  23202330.240   121929095.55708  23202327.100    95009688.91447
  22706957.900   119325877.86608  22706954.620    92981194.99046
  22068476.580   115970821.09209  22068472.360    90366925.39248
  21405065.880   112484472.21209  21405065.840    87650265.62948
  23124651.780   123614521.28308  23124655.720    96144642.95504
  21532573.780   114901950.74109  21532577.520    89368199.18308
  23056347.880   123422500.85607  23056352.420    95995315.04107
  20884325.300   111599494.90108  20884329.760    86799620.07908
  20819278.920   111212855.98608  20819281.640    86498894.40208
  20574833.420   110100085.29608  20574833.860    85633404.18608
  20734317.220   110681202.09309  20734321.060    86085392.09608
 15 03 04 00 43  0.0000000  0 13G16G18G19G21G22G27R01R02R03R15R16R17
                                R18
  20493079.160   107691876.18109  20493076.300    83915754.28448
  21936271.360   115276052.59809  21936268.820    89825566.88548
  23188879.360   121858409.95708  23188875.940    94954609.27247
  22720080.820   119394839.36808  22720077.500    93034931.23046
  22054653.200   115898179.16509  22054649.040    90310321.33848
  21396425.180   112439065.46309  21396425.180    87614883.76348
  23134501.500   123667173.56408  23134505.340    96185594.75804
  21522988.580   114850802.60009  21522992.220    89328417.32708
  23034180.720   123303840.15507  23034185.140    95903023.81707
  20902607.700   111697190.76808  20902612.300    86875605.70808
  20813417.940   111181548.40108  20813420.840    86474544.06208
  20582168.760   110139338.33708  20582169.420    85663934.31308
  20728310.140   110649135.21909  20728313.900    86060451.21708
 15 03 04 00 43 30.0000000  0 13G16G18G19G21G22G27R01R02R03R15R16R17
                                R18
  20489049.160   107670698.70609  20489046.420    83899252.35648
  21934078.280   115264528.13709  21934075.700    89816586.80048
  23175447.480   121787824.75608  23175444.020    94899607.85447
  22733228.640   119463931.76808  22733225.460    93088769.44546
  22040891.060   115825859.01509  22040887.000    90253968.02848
  21387813.000   112393808.42809  21387813.060    87579618.54548
  23144478.180   123720504.90907  23144481.960    96227074.73804
  21513526.740   114800312.53409  21513530.400    89289147.31308
  23012028.680   123185260.19907  23012032.960    95810795.37307
  20920986.300   111795400.63108  20920991.040    86951991.09907
  20807708.900   111151052.21808  20807711.940    86450824.81108
  20589527.960   110178718.59508  20589528.620    85694563.40008
  20722338.980   110617259.57409  20722342.540    86035659.05508
 15 03 04 00 44  0.0000000  0 13G16G18G19G21G22G27R01R02R03R15R16R17
                                R18
  20485113.020   107650014.46609  20485110.440    83883134.77248
  21931977.000   115253486.01209  21931974.400    89807982.57347
  23162033.880   121717335.33708  23162030.240    94844681.05746
  22746400.180   119533148.69308  22746396.720    93142704.71546
  22027189.800   115753858.89709  22027185.760    90197864.09148
  21379228.540   112348696.93309  21379228.600    87544466.74148
  23154580.540   123774508.50207  23154584.340    96269077.56005
  21504187.860   114750478.77209  21504191.640    89250387.75708
  22989891.660   123066760.56307  22989895.740    95718629.39107
  20939459.260   111894114.52908  20939464.080    87028768.52108
  20802151.060   111121363.65608  20802154.120    86427733.70908
  20596909.900   110218220.55908  20596910.520    85725287.15208
  20716402.620   110585569.75009  20716405.920    86011011.43008
 15 03 04 00 44 30.0000000  0 13G16G18G19G21G22G27R01R02R03R15R16R17
                                R18
  20481271.600   107629827.71209  20481269.040    83867404.83548
  21929968.220   115242929.96209  21929965.600    89799757.09647
  23148639.080   121646945.03508  23148635.260    94789831.51847
  22759595.680   119602491.29608  22759592.300    93196737.89646
  22013550.460   115682184.11509  22013546.480    90142013.65848
  21370672.400   112303734.36309  21370672.460    87509430.97548
  23164808.760   123829185.14607  23164812.900    96311603.80805
  21494973.120   114701307.19409  21494976.820    89212143.23008
  22967771.080   122948348.66008  22967775.040    95626531.61007
  20958026.340   111993331.14208  20958031.100    87105936.92907
  20796745.260   111092487.16308  20796748.380    86405274.21908
  20604314.880   110257846.62108  20604315.420    85756107.42508
  20710501.580   110554068.09209  20710504.460    85986510.15708
 15 03 04 00 45  0.0000000  0 13G16G18G19G21G22G27R01R02R03R15R16R17
                                R18
  20477525.260   107610140.26009  20477522.640    83852063.96348
  21928052.140   115232861.10109  21928049.540    89791911.25548
  23135263.160   121576654.39308  23135259.400    94735059.62447
  22772814.900   119671958.46108  22772811.620    93250868.15046
  21999973.540   115610837.29409  21999969.580    90086418.77648
  21362144.780   112258921.52609  21362144.840    87474511.89748
  23175162.580   123884532.78807  23175166.880    96354651.97505
  21485883.100   114652801.23809  21485886.660    89174416.40708
  22945667.760   122830029.18507  22945671.600    95534505.67907
  20976686.840   112093046.95608  20976691.560    87183493.60907
  20791491.800   111064424.28608  20791494.900    86383447.53608
  20611742.980   110297596.62908  20611743.500    85787024.09708
  20704635.660   110522754.26809  20704638.300    85962154.98708
 15 03 04 00 45 30.0000000  0 13G16G18G19G21G22G27R01R02R03R15R16R17
                                R18
  20473874.320   107590954.27309  20473871.640    83837113.84348
  21926228.960   115223280.33109  21926226.380    89784445.73848
  23121906.320   121506463.89908  23121902.700    94680365.77347
  22786057.640   119741549.52408  22786054.460    93305094.95146
  21986459.660   115539821.60409  21986455.740    90031081.92048
  21353645.940   112214259.59109  21353645.960    87439710.40048
  23185641.900   123940550.59608  23185646.320    96398221.41305
  21476918.540   114604964.64709  21476922.060    89137210.19808
  22923582.640   122711807.34407  22923586.420    95442555.67907
  20995440.080   112193258.29608  20995444.840    87261435.70407
  20786391.080   111037176.94709  20786394.140    86362255.16608
  20619194.220   110337470.50608  20619194.960    85818037.08408
  20698804.780   110491628.15409  20698807.280    85937945.79608
 15 03 04 00 46  0.0000000  0 13G16G18G19G21G22G27R01R02R03R15R16R17
                                R18
  20470318.300   107572267.28809  20470315.600    83822552.56048
  21924498.060   115214184.36909  21924495.480    89777357.99647
  23108567.960   121436370.31008  23108564.420    94625747.43747
  22799322.820   119811258.82808  22799319.580    93359413.87946
  21973008.600   115469136.12209  21973004.680    89976002.37148
  21345175.240   112169745.30509  21345175.180    87405023.96648
  23196245.460   123997232.18308  23196249.880    96442307.09805
  21468079.280   114557796.68409  21468082.880    89100524.03508
  22901515.820   122593683.42507  22901519.500    95350681.82807
  21014284.380   112293955.91508  21014289.120    87339756.00007
  20781442.620   111010742.36809  20781445.520    86341694.93008
  20626667.860   110377463.99008  20626668.780    85849143.13108
  20693008.180   110460685.28009  20693010.600    85913879.13308
 15 03 04 00 46 30.0000000  0 13G16G18G19G21G22G27R01R02R03R15R16R17
                                R18
  20466857.920   107554082.64809  20466855.200    83808382.69848
  21922860.060   115205576.82009  21922857.480    89770650.83047
  23095248.440   121366375.86708  23095244.980    94571206.35047
  22812610.740   119881087.25608  22812607.500    93413825.62846
  21959621.220   115398785.26209  21959617.320    89921183.55848
  21336733.220   112125381.41609  21336733.000    87370454.71548
  23206973.220   124054577.81207  23206977.480    96486909.26704
  21459366.260   114511302.53709  21459369.880    89064361.94608
  22879468.680   122475664.46107  22879472.240    95258889.58207
  21033219.380   112395138.10108  21033224.000    87418453.19507
  20776647.000   110985124.09009  20776649.720    86321769.59208
  20634164.300   110417578.99208  20634165.400    85880343.67608
  20687246.140   110429927.49009  20687248.520    85889956.42608
 15 03 04 00 47  0.0000000  0 13G16G18G19G21G22G27R01R02R03R15R16R17
                                R18
  20463494.000   107536404.76409  20463491.220    83794607.71748
  21921315.640   115197461.00409  21921313.100    89764326.83248
  23081948.340   121296483.64908  23081944.880    94516744.92447
  22825921.540   119951036.01908  22825918.380    93468331.15646
  21946298.480   115328774.00909  21946294.620    89866629.37348
  21328320.420   112081171.07309  21328320.040    87336005.10848
  23217825.200   124112588.11107  23217829.200    96532028.42504
  21450780.540   114465487.78309  21450784.260    89028728.27408
  22857442.320   122357757.19207  22857445.860    95167184.19407
  21052244.840   112496804.06808  21052249.480    87497526.64607
  20772004.900   110960325.87909  20772007.500    86302482.09008
  20641683.740   110457817.13608  20641684.980    85911640.00208
  20681519.020   110399356.58109  20681521.380    85866179.05008
 15 03 04 00 47 30.0000000  0 13G16G18G19G21G22G27R01R02R03R15R16R17
                                R18
  20460225.400   107519228.17309  20460222.600    83781223.36348
  21919863.580   115189830.41109  21919861.000    89758380.93448
  23068666.480   121226687.09808  23068662.880    94462358.03046
  22839253.620   120021096.72708  22839250.420    93522923.90546
  21933039.600   115259098.42409  21933035.780    89812336.75348
  21319935.720   112037108.17309  21319935.060    87301670.39348
  23228799.760   124171253.95007  23228803.760    96577657.44004
  21442321.440   114420348.65009  21442325.100    88993620.08408
  22835436.360   122239959.44407  22835440.040    95075563.98007
  21071358.620   112598942.08308  21071363.320    87576967.25407
  20767515.200   110936341.70909  20767517.660    86283827.73108
  20649224.840   110498171.60508  20649226.220    85943026.81108
  20675825.520   110368965.27809  20675828.000    85842541.38708
 15 03 04 00 48  0.0000000  0 13G16G18G19G21G22G27R01R02R03R15R16R17
                                R18
  20457053.620   107502560.36209  20457050.780    83768235.46048
  21918505.220   115182692.15809  21918502.620    89752818.66948
  23055404.100   121156993.06508  23055400.320    94408051.02447
  22852608.060   120091274.58608  22852604.940    93577607.95746
  21919846.420   115189767.79809  21919842.540    89758312.92948
  21311580.340   111993199.85609  21311579.460    87267456.12848
  23239897.860   124230579.56108  23239901.960    96623799.60505
  21433990.780   114375894.71109  21433994.420    88959044.81908
  22813453.040   122122282.84207  22813456.740    94984037.97307
  21090561.180   112701554.37808  21090565.860    87656776.74607
  20763179.400   110913179.61209  20763181.740    86265812.75508
  20656788.880   110538648.24708  20656790.000    85974508.63908
  20670166.780   110338759.78109  20670169.520    85819048.23708
 15 03 04 00 48 30.0000000  0 13G16G18G19G21G22G27R01R02R03R15R16R17
                                R18
  20453978.400   107486399.84309  20453975.540    83755642.84848
  21917239.940   115176043.09009  21917237.380    89747637.59748
  23042160.520   121087398.31308  23042156.820    94353821.40847
  22865983.800   120161564.85508  22865980.720    93632379.58146
  21906718.620   115120780.81709  21906714.640    89704556.88548
  21303253.740   111949443.24609  21303252.800    87233360.09148
  23251118.380   124290559.54007  23251122.520    96670450.71005
  21425788.400   114332125.46909  21425791.980    88925002.11008
  22791492.500   122004727.69007  22791496.140    94892606.41907
  21109851.160   112804633.53108  21109855.780    87736949.36007
  20758996.940   110890837.00209  20758999.160    86248435.17808
  20664375.080   110579243.51608  20664375.860    86006082.75208
  20664542.120   110308735.87709  20664544.960    85795696.32608
 15 03 04 00 49  0.0000000  0 13G16G18G19G21G22G27R01R02R03R15R16R17
                                R18
  20451000.140   107470748.91009  20450997.300    83743447.31848
  21916068.160   115169885.28409  21916065.620    89742839.32148
  23028936.080   121017904.31308  23028932.480    94299670.27647
  22879380.800   120231966.74708  22879377.580    93687238.19446
  21893657.040   115052141.77109  21893652.980    89651071.96248
  21294956.300   111905840.10109  21294955.340    87199383.62748
  23262460.980   124351192.42207  23262465.120    96717609.58904
  21417715.060   114289045.00409  21417718.580    88891495.11708
  22769555.740   121887299.75707  22769559.280    94801273.80707
  21129227.760   112908175.91808  21129232.400    87817482.25507
  20754968.140   110869315.99809  20754970.340    86231696.61708
  20671983.620   110619957.91708  20671984.260    86037749.50008
  20658951.700   110278894.05909  20658954.640    85772486.03608
 15 03 04 00 49 30.0000000  0 13G16G18G19G21G22G27R01R02R03R15R16R17
                                R18
  20448118.460   107455605.56909  20448115.560    83731647.31448
  21914989.380   115164216.14109  21914986.800    89738421.82248
  23015730.440   120948508.18008  23015726.800    94245595.40647
  22892798.100   120302475.48408  22892794.860    93742180.06346
  21880661.420   114983849.58009  21880657.340    89597857.31448
  21286687.500   111862387.67109  21286686.580    87165524.60748
  23273924.780   124412472.69608  23273928.740    96765272.07805
  21409770.760   114246652.63609  21409774.120    88858523.31208
  22747643.020   121770000.59207  22747646.620    94710041.35007
  21148689.760   113012174.25308  21148694.320    87898369.76807
  20751092.620   110848614.09109  20751094.840    86215595.13408
  20679613.560   110660787.35008  20679614.220    86069505.72808
  20653394.740   110249230.57609  20653397.760    85749414.45308
 15 03 04 00 50  0.0000000  0 13G16G18G19G21G22G27R01R02R03R15R16R17
                                R18
  20445334.100   107440973.77409  20445331.200    83720245.92249
  21914004.220   115159038.89609  21914001.620    89734387.62748
  23002544.120   120879213.00708  23002540.320    94191599.21547
  22906236.020   120373092.57408  22906232.880    93797206.36546
  21867732.760   114915909.24709  21867728.640    89544916.83448
  21278448.060   111819089.54209  21278447.240    87131785.81348
  23285509.760   124474400.70307  23285513.740    96813438.32905
  21401956.540   114204954.18509  21401959.740    88826091.21608
  22725755.600   121652837.22407  22725759.280    94618914.47207
  21168236.560   113116626.01708  21168241.060    87979609.94507
  20747371.080   110828735.00508  20747373.380    86200133.60808
  20687265.520   110701734.66008  20687266.280    86101353.62308
  20647871.720   110219747.93309  20647874.780    85726483.52308
 15 03 04 00 50 30.0000000  0 13G16G18G19G21G22G27R01R02R03R15R16R17
                                R18
  20442647.380   107426854.64709  20442644.420    83709243.99748
  21913112.720   115154353.88009  21913110.080    89730736.97548
  22989377.080   120810018.66208  22989372.920    94137681.58047
  22919694.320   120443816.83008  22919691.380    93852316.15546
  21854871.540   114848323.29709  21854867.380    89492252.49848
  21270237.980   111775945.95109  21270237.320    87098167.43848
  23297215.260   124536973.77107  23297219.320    96862106.24205
  21394272.780   114163952.01809  21394275.880    88794200.66208
  22703894.500   121535813.92507  22703898.080    94527896.53507
  21187867.460   113221527.30008  21187871.980    88061199.75407
  20743803.700   110809679.38009  20743806.060    86185312.55408
  20694939.440   110742799.27808  20694940.200    86133292.75808
  20642382.460   110190445.08709  20642385.440    85703692.42908
 15 03 04 00 51  0.0000000  0 13G16G18G19G21G22G27R01R02R03R15R16R17
                                R18
  20440058.220   107413248.21509  20440055.220    83698641.58248
  21912314.640   115150159.76509  21912311.960    89727468.85048
  22976229.140   120740924.38608  22976224.780    94083841.92047
  22933172.500   120514645.20208  22933169.680    93907507.07946
  21842077.940   114781092.50509  21842073.720    89439864.90248
  21262057.160   111732956.14509  21262056.700    87064668.89748
  23309040.800   124600188.51707  23309044.940    96911273.23904
  21386719.680   114123647.43409  21386722.800    88762852.67908
  22682060.160   121418934.07207  22682063.800    94436990.18307
  21207581.360   113326872.28708  21207585.920    88143134.66007
  20740390.420   110791446.43009  20740392.800    86171131.36808
  20702634.980   110783978.92408  20702635.560    86165321.36908
  20636926.520   110161319.99909  20636929.460    85681039.58808
 15 03 04 00 51 30.0000000  0 13G16G18G19G21G22G27R01R02R03R15R16R17
                                R18
  20437567.420   107400158.83109  20437564.400    83688442.06448
  21911610.680   115146460.46709  21911608.040    89724586.29948
  22963100.740   120671933.48708  22963096.240    94030082.82947
  22946670.820   120585579.51008  22946668.000    93962780.55446
  21829353.080   114714222.87509  21829348.800    89387758.74048
  21253906.420   111690124.19309  21253906.080    87031293.35848
  23320986.600   124664045.73107  23320990.780    96960939.95904
  21379298.520   114084046.83309  21379301.760    88732052.23708
  22660254.100   121302205.37707  22660257.780    94346201.38507
  21227378.040   113432659.87108  21227382.700    88225413.81307
  20737132.040   110774040.53009  20737134.400    86157593.43808
  20710352.560   110825276.99108  20710353.060    86197442.08008
  20631504.360   110132375.70009  20631507.440    85658527.37908
 15 03 04 00 52  0.0000000  0 13G16G18G19G21G22G27R01R02R03R15R16R17
                                R18
  20435174.460   107387583.64909  20435171.460    83678643.22348
  21911000.280   115143252.85109  21910997.680    89722086.87048
  22949991.240   120603042.31908  22949986.680    93976401.42647
  22960188.300   120656614.02608  22960185.380    94018132.12346
  21816696.560   114647712.53409  21816692.280    89335932.54648
  21245785.060   111647446.48909  21245784.820    86998038.00648
  23333051.380   124728538.58207  23333055.340    97011101.13404
  21372008.980   114045148.30409  21372012.280    88701797.85208
  22638476.360   121185628.28307  22638480.000    94255530.49107
  21247255.940   113538881.09108  21247260.600    88308030.24307
  20734027.820   110757457.91108  20734030.060    86144695.84308
  20718091.440   110866688.82508  20718091.920    86229651.29208
  20626115.060   110103607.39809  20626118.320    85636152.05108
 15 03 04 00 52 30.0000000  0 13G16G18G19G21G22G27R01R02R03R15R16R17
                                R18
  20432880.500   107375528.72909  20432877.480    83669249.76648
  21910484.380   115140541.72309  21910481.760    89719974.30948
  22936901.640   120534255.91708  22936896.980    93922801.67347
  22973725.460   120727752.25608  22973722.480    94073564.49146
  21804109.900   114581569.17909  21804105.560    89284392.29848
  21237694.120   111604928.57309  21237693.980    86964907.15048
  23345235.660   124793669.84907  23345239.260    97061758.85304
  21364852.480   114006959.65209  21364855.800    88672095.58608
  22616728.780   121069212.26407  22616732.320    94164984.86107
  21267215.240   113645537.23908  21267219.860    88390984.92707
  20731078.800   110741704.32909  20731080.980    86132443.04708
  20725852.440   110908219.03008  20725852.920    86261952.54808
  20620759.460   110075019.61509  20620762.860    85613917.11308
 15 03 04 00 53  0.0000000  0 13G16G18G19G21G22G27R01R02R03R15R16R17
                                R18
  20430685.180   107363992.37309  20430682.160    83660260.40448
  21910062.480   115138324.62609  21910059.800    89718246.72248
  22923831.360   120465571.65508  22923826.740    93869281.50847
  22987281.540   120798990.22408  22987278.600    94129074.58146
  21791592.940   114515792.37509  21791588.560    89233137.69348
  21229633.200   111562568.19709  21229633.140    86931899.06548
  23357538.240   124859433.74107  23357541.780    97112908.57604
  21357828.920   113969480.43809  21357832.140    88642945.10408
  22595011.520   120952958.76407  22595014.860    94074565.63007
  21287254.540   113752620.82208  21287259.180    88474272.05807
  20728284.500   110726777.38408  20728286.700    86120833.19608
  20733634.920   110949864.09008  20733635.320    86294343.15708
  20615436.940   110046608.79209  20615440.460    85591819.81708
 15 03 04 00 53 30.0000000  0 13G16G18G19G21G22G27R01R02R03R15R16R17
                                R18
  20428589.140   107352977.85809  20428586.140    83651677.66348
  21909735.120   115136604.29109  21909732.360    89716906.21548
  22910780.920   120396992.28608  22910776.300    93815843.06547
  23000856.740   120870328.51808  23000853.820    94184662.85946
  21779146.600   114450386.66709  21779142.180    89182172.24048
  21221602.840   111520368.32809  21221602.820    86899016.06048
  23369959.060   124925830.34507  23369962.760    97164550.37305
  21350939.200   113932715.55809  21350942.360    88614350.22908
  22573325.980   120836875.05807  22573329.200    93984278.46407
  21307373.220   113860128.62508  21307377.940    88557889.14507
  20725645.440   110712679.91109  20725647.660    86109868.48908
  20741439.280   110991626.43308  20741439.560    86326824.97708
  20610147.960   110018376.72009  20610151.380    85569861.56808
 15 03 04 00 54  0.0000000  0 14G04G16G18G19G21G22G27R01R02R03R15R16
                                R17R18
  24606538.860   129308233.36708                                
  20426591.840   107342482.13609  20426588.860    83643499.17748
  21909501.400   115135376.02909  21909498.560    89715949.14648
  22897749.580   120328513.56908  22897745.320    93762483.06947
  23014449.980   120941761.20608  23014447.080    94240324.68546
  21766770.480   114385349.80609  21766766.020    89131494.20048
  21213602.280   111478325.01209  21213602.240    86866255.03748
  23382496.800   124992852.06607  23382500.660    97216678.35705
  21344182.920   113896662.95609  21344186.080    88586309.33308
  22551672.260   120720960.92207  22551675.200    93894123.16207
  21327569.700   113968052.00108  21327574.440    88641829.45707
  20723160.840   110699407.71708  20723163.080    86099545.65708
  20749264.300   111033500.56308  20749264.700    86359393.73008
  20604891.560   109990318.28209  20604894.920    85548038.33808
 15 03 04 00 54 30.0000000  0 14G04G16G18G19G21G22G27R01R02R03R15R16
                                R17R18
  24587226.040   129206747.01908  24587237.680   100680608.19145
  20424697.580   107332527.93009  20424694.580    83635742.64248
  21909365.700   115134662.86509  21909362.840    89715393.44248
  22884741.800   120260157.82608  22884737.620    93709218.86647
  23028065.100   121013308.73908  23028062.020    94296076.00446
  21754469.120   114320705.83909  21754464.620    89081122.31448
  21205635.880   111436460.69109  21205635.740    86833633.49248
  23395155.140   125060518.80307  23395159.100    97269308.05804
  21337564.720   113861347.16009  21337567.780    88558841.50808
  22530055.160   120605242.93607  22530057.920    93804120.43407
  21347847.240   114076408.29208  21347851.920    88726106.47907
  20720834.960   110686983.50008  20720837.340    86089882.36708
  20757114.440   111075508.57208  20757114.920    86392066.60908
  20599671.780   109962455.08609  20599674.960    85526366.97808
 15 03 04 00 55  0.0000000  0 14G04G16G18G19G21G22G27R01R02R03R15R16
                                R17R18
  24567935.980   129105382.40007  24567947.860   100601624.31644
  20422898.640   107323074.61809  20422895.640    83628376.42548
  21909320.100   115134423.24109  21909317.260    89715206.74048
  22871749.600   120191883.57708  22871745.340    93656018.18147
  23041693.900   121084928.18808  23041690.660    94351883.35646
  21742235.080   114256415.81109  21742230.580    89031026.22848
  21197695.800   111394734.51109  21197695.520    86801119.59448
  23407925.760   125128785.60407  23407929.780    97322404.48404
  21331077.180   113826728.43009  21331080.240    88531915.85608
  22508467.620   120489683.37707  22508470.200    93714240.91807
  21368197.180   114185151.52008  21368201.860    88810684.45207
  20718659.980   110675365.23809  20718662.440    86080845.94108
  20764981.680   111117607.95208  20764982.140    86424810.58408
  20594480.640   109934744.44409  20594483.580    85504814.26908
 15 03 04 00 55 30.0000000  0 14G04G16G18G19G21G22G27R01R02R03R15R16
                                R17R18
  24548673.760   129004164.55808  24548685.820   100522754.85645
  20421199.800   107314147.20609  20421196.760    83621419.99248
  21909369.120   115134680.73509  21909366.260    89715407.40248
  22858777.380   120123714.52908  22858773.200    93602899.47547
  23055340.620   121156641.69208  23055337.160    94407764.01746
  21730073.340   114192505.57009  21730068.800    88981226.07148
  21189786.620   111353170.77009  21189786.140    86768732.26748
  23420812.660   125197673.53708  23420816.660    97375984.01604
  21324725.280   113792833.22409  21324728.380    88505552.92808
  22486914.960   120374311.36307  22486917.700    93624507.28007
  21388623.280   114294301.77508  21388627.980    88895578.98807
  20716640.500   110664577.45309  20716642.940    86072455.43108
  20772870.520   111159822.32408  20772870.840    86457643.97908
  20589322.620   109907209.85409  20589325.400    85483398.49608
 15 03 04 00 56  0.0000000  0 14G04G16G18G19G21G22G27R01R02R03R15R16
                                R17R18
  24529439.320   128903092.96808  24529451.300   100443999.46144
  20419600.960   107305745.22609  20419597.940    83614872.99548
  21909512.460   115135434.00209  21909509.560    89715994.38148
  22845825.000   120055649.70508  22845820.900    93549861.98247
  23069004.640   121228446.32908  23069001.160    94463715.68046
  21717984.040   114128976.04609  21717979.520    88931722.57848
  21181908.080   111311768.46809  21181907.440    86736470.75448
  23433814.980   125267178.58407  23433818.940    97430043.52704
  21318509.120   113759662.41109  21318512.260    88479753.42008
  22465397.860   120259129.11308  22465400.620    93534921.21907
  21409124.140   114403851.76508  21409128.920    88980784.42807
  20714776.200   110654618.76609  20714778.580    86064709.78408
  20780780.420   111202149.65008  20780780.620    86490565.22507
  20584197.220   109879849.19009  20584199.920    85462117.99108
 15 03 04 00 56 30.0000000  0 14G04G16G18G19G21G22G27R01R02R03R15R16
                                R17R18
  24510232.980   128802169.11608  24510244.800   100365359.16944
  20418102.320   107297869.69709  20418099.280    83608736.21448
  21909750.360   115136683.93609  21909747.400    89716968.36848
  22832892.520   119987689.63908  22832888.740    93496906.11547
  23082685.780   121300340.96808  23082682.480    94519737.47545
  21705967.600   114065829.59009  21705963.140    88882517.58448
  21174060.400   111270528.54709  21174059.700    86704335.77548
  23446932.320   125337298.22007  23446936.320    97484581.03604
  21312429.060   113727218.26409  21312432.280    88454519.09808
  22443917.180   120144141.86808  22443919.900    93445486.82807
  21429699.180   114513798.25708  21429704.020    89066298.27507
  20713067.180   110645489.54708  20713069.460    86057609.27308
  20788711.440   111244590.07308  20788711.640    86523574.43708
  20579104.340   109852662.04109  20579107.020    85440972.44808
 15 03 04 00 57  0.0000000  0 15G04G16G18G19G21G22G27R01R02R03R09R15
                                R16R17R18
  24491054.540   128701391.92108  24491065.960   100286833.06345
  20416703.640   107290519.51309  20416700.600    83603008.80048
  21910082.360   115138428.48209  21910079.340    89718327.77748
  22819979.700   119919832.45908  22819975.940    93444030.40347
  23096383.280   121372321.73808  23096380.080    94575826.38446
  21694024.160   114003066.52109  21694019.760    88833611.33148
  21166243.260   111229449.46209  21166242.520    86672326.11348
  23460163.720   125408027.52107  23460167.760    97539592.71204
  21306485.140   113695500.76009  21306488.360    88429849.95808
  22422473.360   120029351.89708  22422475.980    93356205.86607
  23585564.640   125945597.55608  23585566.260    97957694.09804
  21450347.020   114624133.75508  21450351.880    89152114.66307
  20711513.080   110637187.97109  20711515.360    86051152.48608
  20796663.060   111287140.75808  20796663.480    86556669.40408
  20574043.440   109825645.92809  20574046.040    85419959.93208
 15 03 04 00 57 30.0000000  0 15G04G16G18G19G21G22G27R01R02R03R09R15
                                R16R17R18
  24471904.820   128600765.88008  24471915.780   100208424.72744
  20415405.740   107283698.95709  20415402.700    83597694.07448
  21910509.080   115140670.85809  21910506.060    89720075.09148
  22807086.920   119852081.92708  22807083.320    93391237.82047
  23110097.620   121444391.13108  23110094.500    94631984.33245
  21682154.740   113940692.42909  21682150.360    88785008.17848
  21158457.480   111188535.33009  21158456.700    86640444.97748
  23473509.180   125479367.01407  23473513.240    97595078.99304
  21300678.540   113664515.87009  21300681.720    88405750.60708
  22401067.960   119914767.22508  22401070.460    93267084.57307
  23567319.840   125848171.13107  23567321.180    97881917.98804
  21471067.400   114734856.83008  21471072.280    89238232.49207
  20710114.580   110629717.51809  20710116.800    86045342.11208
  20804635.940   111329805.35608  20804636.500    86589852.97208
  20569015.080   109798803.73909  20569017.640    85399082.68808
 15 03 04 00 58  0.0000000  0 15G04G16G18G19G21G22G27R01R02R03R09R15
                                R16R17R18
  24452783.520   128500289.18408  24452794.120   100130132.72145
  20414208.120   107277405.48209  20414205.100    83592790.06748
  21911029.980   115143408.25809  21911026.920    89722208.14948
  22794213.780   119784434.98808  22794210.480    93338525.96047
  23123827.860   121516544.27808  23123824.640    94688207.57245
  21670359.100   113878706.04609  21670354.720    88736707.14148
  21150702.520   111147783.44209  21150701.840    86608690.27148
  23486967.740   125551310.69008  23486971.760    97651035.21404
  21295009.000   113634262.46309  21295012.220    88382220.20808
  22379701.140   119800388.98308  22379703.480    93178123.83507
  23549163.900   125751220.62307  23549165.380    97806512.05603
  21491858.960   114845960.08608  21491863.860    89324646.03607
  20708871.080   110623074.86209  20708873.260    86040175.59608
  20812629.420   111372579.72608  20812629.840    86623121.93508
  20564018.460   109772131.57809  20564021.120    85378337.68208
 15 03 04 00 58 30.0000000  0 15G04G16G18G19G21G22G27R01R02R03R09R15
                                R16R17R18
  24433691.360   128399965.38608  24433701.660   100051959.78044
  20413111.580   107271643.18109  20413108.580    83588299.95848
  21911645.500   115146643.21409  21911642.500    89724728.90848
  22781361.120   119716894.73208  22781358.080    93285897.21648
  23137574.200   121588782.34208  23137570.960    94744496.94846
  21658638.260   113817112.75809  21658633.840    88688712.40448
  21142979.060   111107197.07909  21142978.540    86577064.55648
  23500539.240   125623858.32807  23500543.240    97707461.15704
  21289477.400   113604745.09209  21289480.580    88359262.27808
  22358374.300   119686224.42008  22358376.500    93089329.29407
  23531098.480   125654752.34708  23531100.100    97731481.16803
  21512721.280   114957441.44308  21512726.180    89411353.65207
  20707783.060   110617262.64608  20707785.220    86035654.97208
  20820643.720   111415466.38108  20820644.180    86656478.21408
  20559054.120   109745631.65509  20559056.960    85357726.63808
 15 03 04 00 59  0.0000000  0 15G04G16G18G19G21G22G27R01R02R03R09R15
                                R16R17R18
  24414627.880   128299792.02108  24414637.820    99973904.06044
  20412115.480   107266408.97409  20412112.540    83584221.35548
  21912354.980   115150372.14209  21912352.060    89727634.57648
  22768528.160   119649457.43708  22768525.340    93233348.69348
  23151335.920   121661100.30908  23151332.840    94800848.61546
  21646991.920   113755911.02809  21646987.540    88641022.78948
  21135286.580   111066773.23409  21135286.100    86545565.46048
  23514222.500   125697003.01007  23514226.480    97764351.48204
  21284083.480   113575962.16309  21284086.680    88336875.58608
  22337087.500   119572274.43308  22337089.540    93000701.64007
  23513123.540   125558766.39608  23513125.120    97656825.43703
  21533652.680   115069292.07608  21533657.620    89498348.47007
  20706849.780   110612277.04509  20706851.900    86031777.27408
  20828678.280   111458461.43508  20828678.880    86689918.81107
  20554121.120   109719299.58309  20554124.200    85337246.14708
 15 03 04 00 59 30.0000000  0 15G04G16G18G19G21G22G27R01R02R03R09R15
                                R16R17R18
  24395594.340   128199775.47708  24395603.920    99895970.47744
  20411221.080   107261708.94909  20411218.180    83580558.99648
  21913159.500   115154600.41409  21913156.700    89730929.34948
  22755715.920   119582128.69808  22755713.120    93180884.76348
  23165113.420   121733501.41308  23165110.360    94857265.04546
  21635421.460   113695108.01309  21635417.100    88593643.85348
  21127626.140   111026517.67009  21127625.680    86514197.49948
  23528017.880   125770747.15307  23528021.820    97821708.05204
  21278828.560   113547920.87309  21278831.800    88315065.71908
  22315842.560   119458548.63208  22315844.320    92912248.34807
  23495240.540   125463271.63408  23495242.160    97582551.72104
  21554653.420   115181513.68808  21554658.420    89585631.83807
  20706072.240   110608123.35508  20706074.400    86028546.62808
  20836734.100   111501569.78708  20836734.800    86723447.52507
  20549220.460   109693140.19709  20549223.700    85316899.96708
 15 03 04 01 00  0.0000000  0 15G04G16G18G19G21G22G27R01R02R03R09R15
                                R16R17R18
  24376590.380   128099914.18508  24376599.500    99818157.80644
  20410428.000   107257541.27509  20410425.120    83577311.46248
  21914058.560   115159325.35609  21914055.800    89734611.13248
  22742923.740   119514906.18408  22742920.920    93128503.63248
  23178906.080   121805982.08408  23178902.960    94913743.47546
  21623926.780   113634703.23309  21623922.460    88546575.23048
  21119997.400   110986428.41009  21119996.920    86482959.13348
  23541924.460   125845085.40007  23541928.320    97879526.69504
  21273712.500   113520620.71209  21273715.660    88293832.28508
  22294639.800   119345048.84408  22294641.360    92823970.84307
  23477449.600   125368269.09007  23477451.340    97508660.88704
  21575722.120   115294098.26708  21575727.180    89673197.50307
  20705449.880   110604798.56909  20705452.040    86025960.67408
  20844810.520   111544788.26408  20844811.280    86757061.90307
  20544351.520   109667150.24609  20544354.640    85296685.57108
 15 03 04 01 00 30.0000000  0 15G04G16G18G19G21G22G27R01R02R03R09R15
                                R16R17R18
  24357616.220   128000209.16308  24357624.740    99740466.86444
  20409736.360   107253906.59009  20409733.440    83574479.23649
  21915052.080   115164546.56509  21915049.400    89738679.62048
  22730151.920   119447790.10908  22730149.040    93076205.40248
  23192713.580   121878540.95408  23192710.500    94970282.84746
  21612508.160   113574698.25509  21612503.860    88499818.13648
  21112400.440   110946505.95609  21112399.920    86451850.73548
  23555941.420   125920014.16207  23555945.300    97937804.62504
  21268735.640   113494063.38509  21268738.820    88273176.61808
  22273480.120   119231779.79008  22273481.640    92735872.79407
  23459751.340   125273762.31707  23459753.340    97435155.69104
  21596857.920   115407041.41608  21596863.100    89761042.05407
  20704982.640   110602302.38109  20704984.760    86024019.19308
  20852907.340   111588116.61008  20852908.120    86790761.71208
  20539514.200   109641329.15009  20539517.280    85276602.51508
 15 03 04 01 01  0.0000000  0 15G04G16G18G19G21G22G27R01R02R03R09R15
                                R16R17R18
  24338671.640   127900659.71008  24338679.720    99662897.09744
  20409145.980   107250803.95709  20409143.020    83572061.59148
  21916139.780   115170262.55609  21916137.140    89743133.64248
  22717400.120   119380779.05808  22717397.180    93023989.00348
  23206535.380   121951174.99608  23206532.360    95026880.78546
  21601165.860   113515094.37109  21601161.600    88453373.57848
  21104834.960   110906749.19009  21104834.540    86420871.44548
  23570067.920   125995528.78307  23570071.780    97996538.24404
  21263898.000   113468248.97909  21263901.200    88253098.76108
  22252364.000   119118743.76008  22252365.400    92647955.97807
  23442146.460   125179753.25608  23442148.320    97362037.51604
  21618059.600   115520336.46408  21618064.820    89849160.28807
  20704670.180   110600632.95009  20704672.240    86022720.73708
  20861024.320   111631552.61608  20861025.200    86824545.25807
  20534708.100   109615674.52409  20534711.120    85256648.91208
 15 03 04 01 01 30.0000000  0 15G04G16G18G19G21G22G27R01R02R03R09R15
                                R16R17R18
  24319757.820   127801271.71008  24319765.540    99585453.10245
  20408657.880   107248238.76909  20408654.880    83570062.74848
  21917322.480   115176478.03909  21917319.900    89747976.89148
  22704669.180   119313877.83008  22704666.400    92971858.21248
  23220372.060   122023887.03808  23220369.020    95083539.52146
  21589901.160   113455897.86309  21589896.860    88407246.46548
  21097301.980   110867163.46209  21097301.720    86390025.44048
  23584304.460   126071631.30908  23584308.320    98055729.12104
  21259200.820   113443184.03309  21259204.040    88233603.83208
  22231293.120   119005950.26508  22231294.500    92560227.81207
  23424636.560   125086250.45108  23424638.200    97289313.08904
  21639327.040   115633982.72108  21639332.280    89937551.70007
  20704513.240   110599794.46309  20704515.300    86022068.57808
  20869162.280   111675100.67608  20869163.140    86858415.97807
  20529934.040   109590190.59009  20529937.180    85236828.07908
 15 03 04 01 02  0.0000000  0 15G04G16G18G19G21G22G27R01R02R03R09R15
                                R16R17R18
  24300874.100   127702042.04508  24300881.600    99508132.43744
  20408271.460   107246207.86309  20408268.460    83568480.22248
  21918599.420   115183188.71709  21918596.840    89753206.00348
  22691958.360   119247082.65808  22691955.740    92919810.06448
  23234222.500   122096671.58008  23234219.420    95140254.75746
  21578713.600   113397106.93609  21578709.300    88361435.38848
  21089800.880   110827745.31009  21089800.720    86359310.00748
  23598649.640   126148314.21007  23598653.480    98115371.40204
  21254643.700   113418866.35709  21254646.920    88214690.10108
  22210267.700   118893399.61508  22210268.920    92472688.51807
  23407221.320   124993253.13808  23407222.840    97216981.85904
  21660658.940   115747973.42708  21660664.300    90026211.00807
  20704511.040   110599782.53509  20704513.120    86022059.29808
  20877320.520   111718756.83608  20877321.480    86892370.76507
  20525191.140   109564872.82009  20525194.260    85217136.48208
 15 03 04 01 02 30.0000000  0 15G04G16G18G19G21G22G27R01R02R03R09R15
                                R16R17R18
  24282021.540   127602975.93708  24282028.660    99430939.17545
  20407987.520   107244715.63809  20407984.560    83567317.44548
  21919971.360   115190398.35209  21919968.780    89758823.91948
  22679268.680   119180397.94508  22679265.980    92867847.97048
  23248087.180   122169531.10008  23248084.000    95197028.39846
  21567604.340   113338727.55609  21567600.080    88315944.99548
  21082332.580   110788499.30209  21082332.520    86328728.71848
  23613103.440   126225578.28507  23613107.220    98175465.71704
  21250227.680   113395301.44109  21250230.820    88196361.85608
  22189289.300   118781100.57108  22189290.380    92385344.91007
  23389902.000   124900768.84007  23389903.620    97145049.70304
  21682055.060   115862307.04408  21682060.460    90115137.02307
  20704664.160   110600600.50709  20704666.280    86022695.48608
  20885499.680   111762524.54208  20885500.600    86926412.32007
  20520480.020   109539724.56809  20520483.200    85197576.73708
 15 03 04 01 03  0.0000000  0 15G04G16G18G19G21G22G27R01R02R03R09R15
                                R16R17R18
  24263199.340   127504069.34608  24263206.360    99353870.14444
  20407805.280   107243757.90809  20407802.320    83566571.15548
  21921437.360   115198102.09509  21921434.800    89764826.84248
  22666599.180   119113819.07908  22666596.280    92815968.35448
  23261965.000   122242459.68808  23261961.880    95253855.85446
  21556572.840   113280756.79309  21556568.560    88270773.00448
  21074896.280   110749421.13209  21074896.260    86298278.20048
  23627664.600   126303415.80007  23627668.400    98236006.00904
  21245952.120   113372486.23109  21245955.140    88178616.71108
  22168357.760   118669052.50608  22168358.720    92298196.49607
  23372678.420   124808796.30308  23372680.160    97073515.57204
  21703513.320   115976972.52508  21703518.760    90204321.14907
  20704971.660   110602243.29808  20704973.860    86023973.20208
  20893698.640   111806398.36208  20893699.500    86960536.37607
  20515799.700   109514740.53409  20515802.820    85178144.71908
 15 03 04 01 03 30.0000000  0 15G04G16G18G19G21G22G27R01R02R03R09R15
                                R16R17R18
  24244408.820   127405329.21808  24244415.760    99276930.80745
  20407726.000   107243341.21309  20407723.000    83566246.45449
  21922998.420   115206305.29209  21922995.880    89771218.95848
  22653950.840   119047351.82408  22653948.040    92764175.72548
  23275856.780   122315461.55608  23275853.800    95310740.40746
  21545620.580   113223202.37509  21545616.240    88225925.43748
  21067493.160   110710517.34209  21067493.140    86267963.56949
  23642333.480   126381829.15107  23642337.240    98296994.17304
  21241818.460   113350428.36609  21241821.380    88161460.61808
  22147475.060   118557265.70508  22147475.920    92211251.29007
  23355552.500   124717345.00608  23355554.000    97002386.78603
  21725034.340   116091973.01108  21725039.660    90293765.84507
  20705434.500   110604716.17408  20705436.820    86025896.55008
  20901918.540   111850384.15908  20901919.300    86994747.54907
  20511151.200   109489925.93309  20511154.280    85158844.48808
 15 03 04 01 04  0.0000000  0 15G04G16G18G19G21G22G27R01R02R03R09R15
                                R16R17R18
  24225649.360   127306752.05208  24225656.000    99200118.40544
  20407748.900   107243461.57909  20407745.880    83566340.23348
  21924653.620   115215003.07709  21924651.060    89777996.46148
  22641322.940   118980991.89808  22641320.200    92712466.69648
  23289761.360   122388530.67208  23289758.320    95367677.38746
  21534747.000   113166061.62109  21534742.680    88181400.19448
  21060122.400   110671783.92909  21060122.380    86237781.68948
  23657108.580   126460810.52807  23657112.300    98358424.12304
  21237826.100   113329124.54409  21237829.040    88144891.00008
  22126641.100   118445739.94008  22126641.900    92124509.10107
  23338523.980   124626413.75008  23338525.180    96931662.40304
  21746616.000   116207297.96908  21746621.220    90383462.89307
  20706051.720   110608013.59908  20706054.140    86028461.20608
  20910158.420   111894476.92708  20910159.100    87029041.91507
  20506533.480   109465275.53609  20506536.540    85139671.96108
 15 03 04 01 04 30.0000000  0 14G04G16G18G19G21G22G27R02R03R09R15R16
                                R17R18
  24206921.240   127208338.96608  24206927.600    99123433.79745
  20407874.140   107244119.64109  20407871.140    83566853.01148
  21926403.020   115224195.81009  21926400.320    89785159.65448
  22628715.660   118914739.85608  22628712.780    92660841.76148
  23303678.520   122461665.83108  23303675.500    95424665.82546
  21523952.680   113109337.17109  21523948.400    88137199.36548
  21052784.160   110633221.55909  21052784.220    86207733.10948
  21233975.400   113308576.50809  21233978.420    88128909.22708
  22105856.700   118334480.07008  22105857.560    92037973.74207
  23321593.500   124536006.05408  23321594.860    96861345.33304
  21768257.380   116322942.27908  21768262.580    90473408.33107
  20706823.200   110612135.29208  20706825.800    86031666.96108
  20918418.180   111938676.45308  20918418.860    87063419.33507
  20501946.420   109440789.01209  20501949.400    85120626.90608
 15 03 04 01 05  0.0000000  0 14G04G16G18G19G21G22G27R02R03R09R15R16
                                R17R18
  24188225.400   127110095.30608  24188231.340    99046881.20245
  20408102.620   107245320.30109  20408099.580    83567788.58448
  21928247.340   115233887.25709  21928244.460    89792711.44148
  22616129.640   118848600.07908  22616126.720    92609304.30148
  23317608.740   122534869.78408  23317605.720    95481707.84346
  21513238.700   113053034.84909  21513234.420    88093327.45148
  21045479.420   110594835.18609  21045479.420    86177821.66048
  21230267.420   113288790.38509  21230270.520    88113520.04308
  22085123.660   118223494.79908  22085124.500    91951651.95107
  23304762.440   124446129.79208  23304764.240    96791441.66104
  21789958.800   116438907.31608  21789964.040    90563603.20107
  20707749.660   110617084.73208  20707752.400    86035516.52508
  20926698.620   111982986.81608  20926699.180    87097882.94907
  20497390.820   109416470.28609  20497393.540    85101712.35308
 15 03 04 01 05 30.0000000  0 14G04G16G18G19G21G22G27R02R03R09R15R16
                                R17R18
  24169561.420   127012018.85508  24169567.100    98970458.86245
  20408433.880   107247060.91609  20408430.780    83569144.90348
  21930185.900   115244074.32209  21930182.980    89800649.42848
  22603564.380   118782569.93808  22603561.600    92557852.27248
  23331551.180   122608138.27908  23331548.400    95538800.15246
  21502604.900   112997153.84309  21502600.580    88049783.83848
  21038207.740   110556622.43309  21038207.680    86148045.49748
  21226701.880   113269764.26809  21226705.060    88098721.97908
  22064442.240   118112785.66208  22064443.100    91865544.92507
  23288031.200   124356785.55908  23288033.120    96721951.74804
  21811718.520   116555184.13608  21811723.780    90654040.57607
  20708830.420   110622858.24908  20708833.160    86040007.04208
  20934999.100   112027404.65008  20934999.680    87132430.13707
  20492865.900   109392315.55509  20492868.480    85082925.35708
 15 03 04 01 06  0.0000000  0 14G04G16G18G19G21G22G27R02R03R09R15R16
                                R17R18
  24150929.800   126914112.38108  24150935.220    98894168.92245
  20408868.220   107249343.46409  20408865.100    83570923.50248
  21932218.920   115254757.95609  21932216.020    89808974.34448
  22591020.460   118716651.28608  22591017.680    92506487.10548
  23345505.800   122681470.91608  23345503.120    95595942.44346
  21492051.860   112941697.38509  21492047.540    88006571.03648
  21030969.500   110518585.35709  21030969.380    86118406.22748
  21223279.280   113251500.98409  21223282.400    88084517.22408
  22043813.460   118002358.29108  22043814.320    91779657.05207
  23271400.460   124267978.06908  23271402.220    96652879.23903
  21833535.860   116671768.90508  21833541.080    90744717.45507
  20710065.580   110629456.35908  20710068.300    86045138.89308
  20943319.980   112071931.44008  20943320.640    87167062.06607
  20488371.820   109368325.90709  20488374.460    85064266.74208
 15 03 04 01 06 30.0000000  0 14G04G16G18G19G21G22G27R02R03R09R15R16
                                R17R18
  24132330.340   126816374.80208  24132335.640    98818010.57045
  20409405.480   107252166.89509  20409402.380    83573123.57448
  21934345.980   115265935.89509  21934343.080    89817684.44548
  22578497.440   118650842.33208  22578494.620    92455207.40948
  23359472.260   122754864.80408  23359469.500    95653132.49045
  21481579.700   112886665.77909  21481575.360    87963689.29648
  21023764.520   110480722.87309  21023764.360    86088903.01448
  21219999.620   113234000.35409  21220002.760    88070905.66008
  22023237.780   117892215.56608  22023238.680    91693990.56407
  23254870.280   124179709.00407  23254871.600    96584225.48003
  21855410.000   116788656.90208  21855415.200    90835630.18507
  20711454.600   110636876.40108  20711457.300    86050910.03708
  20951660.780   112116565.01608  20951661.560    87201777.05907
  20483908.180   109344499.11009  20483910.800    85045734.82208
 15 03 04 01 07  0.0000000  0 14G04G16G18G19G21G22G27R02R03R09R15R16
                                R17R18
  24113763.620   126718809.13008  24113768.760    98741986.12145
  20410046.160   107255533.66209  20410043.080    83575747.02748
  21936567.420   115277610.06709  21936564.560    89826781.22048
  22565995.680   118585145.38408  22565992.940    92404015.00848
  23373450.500   122828320.66508  23373447.740    95710370.81046
  21471189.040   112832062.41809  21471184.720    87921141.25348
  21016593.300   110443037.42209  21016593.020    86059537.73748
  21216863.540   113217265.51809  21216866.640    88057889.71208
  22002716.460   117782363.91908  22002717.400    91608550.48007
  23238442.040   124091983.61308  23238443.600    96515994.70004
  21877340.020   116905843.47808  21877345.120    90926775.13607
  20712997.720   110645119.56708  20713000.420    86057321.38508
  20960021.820   112161307.03408  20960022.420    87236576.40207
  20479475.200   109320836.38909  20479477.940    85027330.49008
 15 03 04 01 07 30.0000000  0 14G04G16G18G19G21G22G27R02R03R09R15R16
                                R17R18
  24095229.900   126621416.91408  24095234.960    98666096.80745
  20410790.400   107259444.61409  20410787.320    83578794.51248
  21938883.320   115289780.55309  21938880.460    89836264.73047
  22553515.600   118519561.68508  22553512.900    92352910.85248
  23387440.420   122901837.66008  23387437.400    95767656.77645
  21460880.360   112777890.09409  21460876.080    87878929.08848
  21009456.060   110405530.43409  21009455.700    86030311.52548
  21213871.320   113201298.53109  21213874.440    88045470.97108
  21982250.560   117672808.56608  21982251.380    91523340.82507
  23222116.700   124004806.12408  23222118.340    96448189.98405
  21899325.320   117023325.87908  21899330.480    91018150.16607
  20714694.860   110654185.43008  20714697.540    86064372.59208
  20968403.240   112206157.80508  20968403.780    87271460.32807
  20475073.080   109297338.15209  20475075.880    85009054.09408
 15 03 04 01 08  0.0000000  0 14G04G16G18G19G21G22G27R02R03R09R15R16
                                R17R18
  24076729.200   126524197.57008  24076734.040    98590342.16645
  20411638.000   107263898.56409  20411634.860    83582265.12249
  21941293.280   115302445.43009  21941290.460    89846133.48048
  22541056.860   118454089.55809  22541054.120    92301893.63548
  23401441.240   122975412.68108  23401438.120    95824987.95345
  21450653.760   112724149.38709  21450649.540    87837053.24948
  21002352.540   110368200.73009  21002352.120    86001223.46449
  21211022.860   113186098.63709  21211025.880    88033648.84808
  21961840.540   117563552.16308  21961841.320    91438363.69607
  23205894.220   123918178.15607  23205895.980    96380812.71304
  21921364.600   117141096.47308  21921369.720    91109749.33007
  20716545.540   110664071.23508  20716548.260    86072061.54808
  20976804.720   112251115.34208  20976805.340    87306427.30807
  20470701.440   109274002.10509  20470704.260    84990903.86408
 15 03 04 01 08 30.0000000  0 14G04G16G18G19G21G22G27R02R03R09R15R16
                                R17R18
  24058261.740   126427153.32708  24058266.460    98514723.93245
  20412589.260   107268897.22309  20412586.060    83586160.17248
  21943797.480   115315605.51309  21943794.680    89856388.10048
  22528619.600   118388730.61909  22528616.640    92250964.61248
  23415453.080   123049045.55208  23415449.940    95882364.19645
  21440509.760   112670842.68109  21440505.540    87795515.58448
  20995283.080   110331050.42509  20995282.620    85972275.18748
  21208318.680   113171668.76909  21208321.560    88022425.63208
  21941487.360   117454600.33708  21941488.120    91353623.46107
  23189775.120   123832104.22307  23189776.820    96313866.37003
  21943457.440   117259153.31308  21943462.600    91201571.14407
  20718549.800   110674777.68308  20718552.460    86080388.76908
  20985226.380   112296180.99608  20985226.920    87341478.34907
  20466360.360   109250829.20309  20466363.180    84972880.50208
 15 03 04 01 09  0.0000000  0 14G04G16G18G19G21G22G27R02R03R09R15R16
                                R17R18
  24039827.460   126330283.16408  24039831.920    98439241.33245
  20413643.840   107274438.91809  20413640.620    83590478.37448
  21946395.480   115329258.36309  21946392.700    89867026.70948
  22516203.520   118323483.01609  22516200.240    92200122.34948
  23429475.380   123122732.98108  23429472.340    95939782.97246
  21430448.500   112617970.50809  21430444.240    87754316.51948
  20988247.500   110294078.19409  20988247.060    85943465.67548
  21205758.660   113158007.91309  21205761.440    88011800.56708
  21921191.600   117345956.01008  21921192.460    91269122.38707
  23173760.320   123746585.99909  23173761.480    96247352.10004
  21965602.440   117377489.03608  21965607.700    91293609.85907
  20720707.100   110686301.39208  20720709.700    86089351.65408
  20993667.900   112341352.41008  20993668.160    87376611.66107
  20462049.520   109227817.12009  20462052.200    84954982.22808
 15 03 04 01 09 30.0000000  0 14G04G16G18G19G21G22G27R02R03R09R15R16
                                R17R18
  24021426.960   126233590.56408  24021431.300    98363897.05745
  20414802.320   107280526.63209  20414799.080    83595222.04548
  21949087.700   115343406.36909  21949085.000    89878051.14447
  22503809.200   118258349.80809  22503805.700    92149369.21748
  23443508.260   123196476.16408  23443505.400    95997245.17845
  21420470.760   112565537.21409  21420466.480    87713459.43648
  20981246.400   110257287.22609  20981246.000    85914797.39848
  21203343.420   113145119.90909  21203346.180    88001776.58908
  21900954.460   117237625.70008  21900955.480    91184865.55007
  23157850.920   123661629.30709  23157852.040    96181274.65104
  21987799.220   117496101.66608  21987804.720    91385863.93907
  20723017.680   110698643.71108  20723020.140    86098951.22708
  21002129.540   112386632.18608  21002129.640    87411829.25807
  20457769.080   109204967.59009  20457771.660    84937210.38508
 15 03 04 01 10  0.0000000  0 14G04G16G18G19G21G22G27R02R03R09R15R16
                                R17R18
  24003060.340   126137075.49808  24003064.460    98288691.10145
  20416064.520   107287159.65809  20416061.320    83600390.62748
  21951873.780   115358047.58909  21951871.140    89889459.89548
  22491436.500   118193330.02609  22491432.880    92098704.47348
  23457551.440   123270272.79808  23457548.680    96054749.03646
  21410576.580   112513543.08409  21410572.280    87672944.55648
  20974279.700   110220677.06809  20974279.360    85886270.00248
  21201072.920   113133004.40309  21201075.700    87992353.43808
  21880776.700   117129613.04508  21880777.820    91100855.77207
  23142046.920   123577236.14607  23142048.100    96115635.55604
  22010046.580   117614984.43808  22010052.200    91478328.11007
  20725481.100   110711802.46908  20725483.420    86109185.80108
  21010611.120   112432019.17408  21010611.160    87447130.23807
  20453518.820   109182279.28509  20453521.280    84919563.93008
 15 03 04 01 10 30.0000000  0 14G04G16G18G19G21G22G27R02R03R09R15R16
                                R17R18
  23984727.420   126040737.16608  23984731.180    98213622.84845
  20417430.280   107294336.87509  20417427.040    83605983.25648
  21954753.360   115373180.01009  21954750.780    89901251.40247
  22479085.140   118128422.46409  22479081.180    92048127.17048
  23471604.160   123344119.89308  23471601.300    96112292.21745
  21400766.060   112461988.39009  21400761.720    87632772.09448
  20967347.160   110184246.65509  20967346.880    85857882.67448
  21198947.140   113121660.89809  21198949.940    87983530.73508
  21860658.820   117021920.73408  21860659.900    91017095.15008
  23126348.380   123493407.96908  23126349.860    96050435.97904
  22032343.620   117734132.40708  22032349.280    91570998.55207
  20728096.780   110725774.72408  20728099.060    86120053.10108
  21019112.300   112477511.16808  21019112.260    87482512.88407
  20449298.380   109159750.02609  20449300.860    84902041.18808
 15 03 04 01 11  0.0000000  0 14G04G16G18G19G21G22G27R02R03R09R15R16
                                R17R18
  23966429.240   125944581.27608  23966432.740    98138696.72345
  20418900.480   107302063.04409  20418897.280    83612003.64948
  21957727.200   115388808.02309  21957724.740    89913429.09348
  22466756.080   118063632.24609  22466751.920    91997641.29648
  23485667.020   123418020.79208  23485664.060    96169877.31945
  21391040.460   112410879.92809  21391036.060    87592947.34548
  20960449.880   110148001.57409  20960449.660    85829639.76648
  21196967.160   113111095.36709  21196970.040    87975313.12608
  21840602.580   116914558.37608  21840603.640    90933591.16507
  23110757.420   123410153.41908  23110758.420    95985682.34303
  22054690.120   117853544.49708  22054695.720    91663874.41107
  20730865.440   110740564.06408  20730867.680    86131555.91708
  21027634.020   112523112.88408  21027634.100    87517980.88907
  20445108.460   109137384.06809  20445111.100    84884645.44908
 15 03 04 01 11 30.0000000  0 14G04G16G18G19G21G22G27R02R03R09R15R16
                                R17R18
  23948165.600   125848607.07008  23948168.880    98063912.15245
  20420474.940   107310336.88209  20420471.820    83618450.78948
  21960794.980   115404929.54909  21960792.520    89925991.33248
  22454448.920   117998958.15709  22454444.900    91947245.93948
  23499739.560   123491972.47008  23499736.620    96227501.98745
  21381399.720   112360217.55509  21381395.320    87553470.20248
  20953587.700   110111940.92209  20953587.600    85801540.56348
  21195132.740   113101306.96609  21195135.780    87967699.94708
  21820608.480   116807528.71408  21820609.580    90850345.93907
  23095273.960   123327473.78707  23095275.060    95921375.99504
  22077084.980   117973214.61008  22077090.580    91756950.94807
  20733786.460   110756167.55208  20733788.700    86143691.95808
  21036175.960   112568822.74108  21036176.180    87553532.97307
  20440948.740   109115179.84109  20440951.660    84867375.50308
 15 03 04 01 12  0.0000000  0 14G04G16G18G19G21G22G27R02R03R09R15R16
                                R17R18
  23929936.380   125752813.69108  23929939.480    97989268.46245
  20422153.360   107319156.96509  20422150.260    83625323.57748
  21963956.220   115421542.00709  21963953.780    89938936.11848
  22442163.580   117934398.52209  22442159.660    91896939.75248
  23513821.260   123565971.78308  23513818.260    96285163.77546
  21371843.840   112310001.15909  21371839.440    87514340.57348
  20946760.420   110076063.54209  20946760.360    85773584.17148
  21193443.900   113092295.01609  21193447.000    87960690.67308
  21800676.920   116700834.12108  21800678.100    90767361.31707
  23079898.680   123245370.61708  23079899.960    95857518.00204
  22099527.020   118093137.09208  22099532.660    91850223.75907
  20736859.280   110772582.05008  20736861.580    86156458.77808
  21044737.620   112614638.54508  21044738.220    87589167.47107
  20436818.820   109093134.64009  20436821.920    84850229.24208
 15 03 04 01 12 30.0000000  0 14G04G16G18G19G21G22G27R02R03R09R15R16
                                R17R18
  23911742.020   125657203.89108  23911744.940    97914767.79945
  20423936.040   107328525.05409  20423932.940    83632623.38048
  21967211.160   115438646.73709  21967208.740    89952264.48547
  22429900.520   117869955.74609  22429896.520    91846724.61548
  23527912.220   123640019.55008  23527909.080    96342863.31945
  21362373.520   112260234.60109  21362369.180    87475561.46248
  20939968.540   110040371.89209  20939968.500    85745772.50448
  21191901.040   113084062.12609  21191904.200    87954287.33508
  21780809.200   116594481.03208  21780810.400    90684642.30707
  23064632.480   123163848.78908  23064633.420    95794112.03704
  22122015.440   118213307.50108  22122021.200    91943689.39907
  20740083.900   110789807.75208  20740086.240    86169856.54208
  21053319.480   112660561.82208  21053320.240    87624885.55207
  20432719.000   109071249.95509  20432722.240    84833207.83408
 15 03 04 01 13  0.0000000  0 14G04G16G18G19G21G22G27R02R03R09R15R16
                                R17R18
  23893582.820   125561778.82108  23893585.580    97840411.07245
  20425823.080   107338441.67109  20425819.980    83640350.61348
  21970559.780   115456243.52009  21970557.280    89965976.28347
  22417659.720   117805630.03109  22417655.720    91796600.72448
  23542012.080   123714114.46508  23542008.860    96400599.61045
  21352989.160   112210919.75609  21352984.800    87437134.33448
  20933212.240   110004866.89709  20933212.060    85718106.28248
  21190504.400   113076609.19609  21190507.460    87948490.63208
  21761006.160   116488474.08108  21761007.340    90602192.51408
  23049475.160   123082911.64405  23049476.500    95731160.94004
  22144549.680   118333722.80508  22144555.540    92037345.52107
  20743460.180   110807843.58308  20743462.620    86183884.39808
  21061921.620   112706593.16408  21061922.580    87660687.69408
  20428649.340   109049525.74009  20428652.600    84816311.23508
 15 03 04 01 13 30.0000000  0 14G04G16G18G19G21G22G27R02R03R09R15R16
                                R17R18
  23875458.900   125466539.09108  23875461.540    97766198.74845
  20427814.580   107348907.06109  20427811.460    83648505.45048
  21974001.960   115474331.54709  21973999.240    89980070.86148
  22405441.340   117741421.50409  22405437.340    91746568.11648
  23556120.540   123788254.88308  23556117.340    96458371.32445
  21343691.040   112162058.02409  21343686.680    87399060.27648
  20926491.620   109969549.11709  20926491.240    85690585.93048
  21189254.060   113069936.88809  21189257.120    87943301.07008
  21741268.620   116382817.65308  21741269.800    90520015.35308
  23034428.040   123002562.07508  23034430.040    95668666.97805
  22167128.600   118454376.58608  22167134.480    92131187.10507
  20746987.860   110826687.84308  20746990.420    86198541.02608
  21070543.820   112752731.81308  21070544.820    87696573.28607
  20424609.600   109027961.33109  20424612.760    84799538.92308
 15 03 04 01 14  0.0000000  0 14G04G16G18G19G21G22G27R02R03R09R15R16
                                R17R18
  23857370.580   125371486.54308  23857373.140    97692132.27045
  20429910.700   107359922.17009  20429907.600    83657088.64748
  21977537.600   115492910.95609  21977534.660    89994548.33147
  22393245.560   117677331.66409  22393241.440    91696628.00348
  23570237.620   123862440.66008  23570234.380    96516178.41845
  21334479.620   112113651.71409  21334475.280    87361341.10448
  20919806.860   109934420.10609  20919806.340    85663212.68148
  21188150.220   113064046.66709  21188153.260    87938719.82008
  21721597.480   116277516.98008  21721598.680    90438114.89108
  23019492.400   122922804.59609  23019494.480    95606633.37305
  22189751.660   118575266.45608  22189757.580    92225212.30007
  20750666.760   110846339.96608  20750669.340    86213825.99808
  21079186.140   112798978.80108  21079187.080    87732543.15207
  20420599.940   109006557.25909  20420603.100    84782891.32608
 15 03 04 01 14 30.0000000  0 14G04G16G18G19G21G22G27R02R03R09R15R16
                                R17R18
  23839317.660   125276619.65508  23839320.140    97618210.42346
  20432110.960   107371484.50109  20432107.900    83666098.25248
  21981166.080   115511978.44809  21981163.040    90009406.12748
  22381071.920   117613358.23409  22381067.580    91646778.59648
  23584362.600   123936667.73908  23584359.280    96574017.68246
  21325354.800   112065700.41709  21325350.460    87323976.47748
  20913157.660   109899478.02009  20913157.020    85635985.08348
  21187192.640   113058936.86309  21187195.740    87934745.54908
  21701993.140   116172573.70708  21701994.380    90356492.39807
  23004667.600   122843639.28008  23004669.020    95545060.32402
  22212417.440   118696384.64908  22212423.420    92319415.07907
  20754496.080   110866795.55908  20754498.640    86229735.88308
  21087848.320   112845331.56308  21087849.100    87768595.28807
  20416619.780   108985310.43509  20416622.860    84766366.02508
 15 03 04 01 15  0.0000000  0 14G04G16G18G19G21G22G27R02R03R09R15R16
                                R17R18
  23821300.560   125181940.90608  23821302.960    97544435.17945
  20434415.640   107383595.90709  20434412.600    83675535.70948
  21984887.660   115531535.33009  21984884.560    90024645.26947
  22368920.860   117549503.64609  22368916.380    91597021.79948
  23598495.580   124010937.05808  23598492.300    96631889.86745
  21316317.180   112018207.45609  21316312.840    87286969.00348
  20906544.580   109864725.65809  20906543.800    85608905.32948
  21186381.840   113054610.14509  21186384.900    87931380.33608
  21682456.760   116067994.61008  21682458.000    90275153.15908
  22989954.560   122765071.39608  22989955.000    95483951.82503
  22235125.360   118817727.94608  22235131.400    92413792.93007
  20758475.920   110888055.16908  20758478.400    86246271.12508
  21096530.480   112891791.76108  21096531.200    87804730.98307
  20412669.420   108964222.81709  20412672.360    84749964.56708
 15 03 04 01 15 30.0000000  0 14G04G16G18G19G21G22G27R02R03R09R15R16
                                R17R18
  23803319.500   125087451.50008  23803321.880    97470807.45445
  20436824.980   107396257.04009  20436821.920    83685401.52748
  21988702.300   115551581.40609  21988699.240    90040265.59647
  22356792.460   117485768.18309  22356787.860    91547357.82748
  23612636.340   124085247.40608  23612633.200    96689794.00745
  21307367.080   111971174.62509  21307362.720    87250320.06948
  20899967.720   109830163.82109  20899966.900    85581974.04648
  21185717.880   113051067.14109  21185720.920    87928624.68708
  21662989.340   115963784.17108  21662990.520    90194100.65808
  22975353.760   122687104.14207  22975354.360    95423310.67504
  22257874.720   118939292.56708  22257880.840    92508342.90507
  20762605.940   110910117.24808  20762608.440    86263430.51308
  21105232.800   112938359.66808  21105233.520    87840950.47007
  20408748.700   108943293.87009  20408751.560    84733686.51008
 15 03 04 01 16  0.0000000  0 14G04G16G18G19G21G22G27R02R03R09R15R16
                                R17R18
  23785375.140   124993154.89708  23785377.620    97397329.95445
  20439339.380   107409470.22509  20439336.280    83695697.50148
  21992610.260   115572118.19309  21992607.180    90056268.29747
  22344687.240   117422154.87509  22344682.360    91497789.04548
  23626785.080   124159599.68408  23626781.920    96747730.83345
  21298505.320   111924605.80209  21298500.920    87214032.70148
  20893427.680   109795795.66509  20893426.820    85555193.67548
  21185201.360   113048310.83309  21185204.240    87926480.91008
  21643592.040   115859949.25108  21643593.280    90113340.22008
  22960866.180   122609743.00908  22960867.240    95363140.96404
  22280664.960   119061075.69308  22280671.160    92603062.84107
  20766886.320   110932982.43308  20766888.860    86281214.53308
  21113955.700   112985037.39708  21113956.480    87877255.36307
  20404858.140   108922526.04809  20404861.000    84717533.75908
 15 03 04 01 16 30.0000000  0 14G04G16G18G19G21G22G27R02R03R09R15R16
                                R17R18
  23767466.720   124899047.17008  23767469.300    97323999.61845
  20441958.020   107423231.13509  20441954.960    83706420.28448
  21996610.560   115593140.44509  21996607.560    90072649.28047
  22332604.460   117358659.25309  22332599.560    91448311.96048
  23640940.700   124233988.15808  23640937.500    96805695.86745
  21289731.320   111878498.01809  21289726.880    87178104.58048
  20886923.760   109761617.34809  20886922.880    85528561.22648
  21184831.500   113046337.18609  21184834.380    87924945.87508
  21624264.860   115756489.84908  21624266.160    90032871.85708
  22946492.160   122532986.41308  22946493.400    95303441.36705
  22303494.400   119183068.11208  22303500.680    92697945.53707
  20771315.840   110956644.30408  20771318.420    86299618.19908
  21122698.280   113031820.38208  21122699.040    87913642.12107
  20400996.720   108901914.01709  20400999.720    84701502.18308
 15 03 04 01 17  0.0000000  0 14G04G16G18G19G21G22G27R02R03R09R15R16
                                R17R18
  23749594.920   124805132.25308  23749597.580    97250819.51345
  20444681.400   107437542.64809  20444678.460    83717572.10648
  22000703.660   115614650.36409  22000700.800    90089410.26747
  22320544.680   117295285.08609  22320539.740    91398929.51448
  23655103.540   124308414.79708  23655100.380    96863690.64345
  21281046.020   111832856.34809  21281041.520    87142539.66348
  20880456.660   109727632.66309  20880455.880    85502079.66248
  21184608.940   113045149.68909  21184611.880    87924022.27808
  21605009.240   115653413.16808  21605010.480    89952701.15108
  22932232.500   122456840.53308  22932234.080    95244216.85205
  22326362.580   119305267.86108  22326368.980    92792989.46607
  20775894.820   110981104.10008  20775897.380    86318642.47208
  21131461.100   113078711.61208  21131461.680    87950113.04607
  20397165.040   108881460.64409  20397168.160    84685594.01108
 15 03 04 01 17 30.0000000  0 14G04G16G18G19G21G22G27R02R03R09R15R16
                                R17R18
  23731760.380   124711413.03308  23731763.040    97177791.88445
  20447509.940   107452406.66609  20447506.960    83729154.45448
  22004889.800   115636649.11709  22004887.020    90106552.16847
  22308508.360   117232034.23409  22308503.560    91349643.16148
  23669273.720   124382880.05808  23669270.600    96921715.51145
  21272450.000   111787683.92409  21272445.440    87107340.40048
  20874026.880   109693844.15209  20874026.200    85475750.96048
  21184534.200   113044750.86709  21184537.120    87923712.11908
  21585826.320   115550725.33708  21585827.440    89872832.90108
  22918088.180   122381310.06408  22918089.800    95185470.92904
  22349269.160   119427672.62208  22349275.600    92888192.84907
  20780623.180   111006361.85908  20780625.700    86338287.37908
  21140244.480   113125712.80808  21140245.120    87986669.52507
  20393363.440   108861167.40709  20393366.460    84669810.39508
 15 03 04 01 18  0.0000000  0 14G04G16G18G19G21G22G27R02R03R09R15R16
                                R17R18
  23713962.500   124617886.18808  23713965.040    97104914.15345
  20450442.860   107467819.15409  20450439.760    83741164.17348
  22009168.120   115659132.16109  22009165.420    90124071.43447
  22296494.940   117168903.58309  22296490.180    91300450.47248
  23683450.220   124457378.86708  23683447.240    96979766.48645
  21263942.640   111742977.76309  21263938.100    87072504.45848
  20867633.860   109660248.82609  20867633.280    85449572.78648
  21184606.540   113045137.00509  21184609.400    87924012.46208
  21566716.200   115448427.13808  21566717.260    89793267.68708
  22904058.880   122306394.23708  22904060.160    95127203.01004
  22372212.480   119550273.53308  22372219.020    92983548.77407
  20785499.880   111032411.88508  20785502.320    86358548.48708
  21149047.700   113172820.24208  21149048.520    88023308.63407
  20389591.080   108841030.26109  20389594.060    84654148.17908
 15 03 04 01 18 30.0000000  0 15G04G16G18G19G21G22G27R02R03R09R15R16
                                R17R18R19
  23696202.520   124524558.55208  23696205.020    97032191.64245
  20453481.300   107483785.88309  20453478.120    83753605.77548
  22013539.560   115682104.45609  22013536.860    90141971.93247
  22284505.400   117105898.77909  22284500.860    91251355.85748
  23697633.940   124531915.43908  23697631.040    97037846.92446
  21255525.600   111698746.36609  21255521.160    87038038.46148
  20861278.800   109626852.91509  20861278.280    85423550.00448
  21184827.040   113046313.90409  21184829.840    87924927.85008
  21547680.720   115346528.72608  21547681.720    89714013.42908
  22890146.080   122232101.42008  22890147.400    95069419.75004
  22395192.700   119673071.69608  22395199.380    93079058.11407
  20790525.620   111059257.88308  20790527.960    86379428.69708
  21157871.700   113220039.60208  21157872.480    88060034.79707
  20385849.040   108821054.46409  20385851.740    84638611.46608
  23651509.420   126519628.05307                                
 15 03 04 01 19  0.0000000  0 15G04G16G18G19G21G22G27R02R03R09R15R16
                                R17R18R19
  23678478.540   124431420.14008  23678481.020    96959616.55745
  20456623.220   107500296.53709  20456620.060    83766471.21448
  22018001.940   115705554.60009  22017999.180    90160244.78847
  22272538.060   117043010.08009  22272533.600    91202351.70048
  23711822.880   124606478.67008  23711819.980    97095948.12645
  21247197.080   111654980.05309  21247192.740    87003934.86448
  20854959.860   109593646.96809  20854959.440    85397675.24349
  21185193.900   113048271.74509  21185196.700    87926450.62108
  21528718.800   115245023.93108  21528719.680    89635065.30308
  22876348.700   122158424.13508  22876349.900    95012115.18404
  22418207.100   119796052.59508  22418213.920    93174709.55707
  20795697.980   111086887.20208  20795700.340    86400918.16408
  21166714.720   113267360.38508  21166715.360    88096839.83807
  20382135.180   108801229.41109  20382137.820    84623191.99508
  23637990.180   126447312.10507  23637991.780    98347909.34006
 15 03 04 01 19 30.0000000  0 15G04G16G18G19G21G22G27R02R03R09R15R16
                                R17R18R19
  23660792.860   124338482.91708  23660795.300    96887198.24145
  20459870.680   107517361.97909  20459867.580    83779768.95648
  22022557.200   115729492.57109  22022554.380    90178897.76147
  22260594.880   116980248.88909  22260590.440    91153446.90148
  23726018.660   124681078.04208  23726015.900    97154077.48645
  21238959.400   111611691.12809  21238955.140    86970203.26348
  20848679.200   109560642.60509  20848678.960    85371957.55748
  21185709.200   113051021.69809  21185712.140    87928589.49408
  21509833.220   115143928.33108  21509834.180    89556435.45008
  22862669.180   122085376.49908  22862670.320    94955300.33304
  22441256.840   119919222.36508  22441263.760    93270507.90007
  20801018.660   111115308.84908  20801020.920    86423023.87508
  21175578.760   113314793.37508  21175579.400    88133732.16007
  20378451.520   108781565.78609  20378454.020    84607898.06908
  23624478.880   126375036.21507  23624480.580    98291694.81506
 15 03 04 01 20  0.0000000  0 16G04G07G16G18G19G21G22G27R02R03R09R15
                                R16R17R18R19
  23643144.380   124245740.84808  23643146.780    96814931.96846
  24530983.960   128911185.94907  24530982.800   100450275.57846
  20463222.280   107534974.74209  20463219.200    83793493.17848
  22027203.880   115753911.01109  22027200.980    90197925.12647
  22248674.660   116917608.55409  22248670.260    91104636.27448
  23740219.900   124755705.56208  23740217.380    97212228.77245
  21230811.680   111568874.46509  21230807.380    86936839.65948
  20842435.780   109527833.79809  20842435.680    85346392.26349
  21186371.800   113054557.12809  21186374.740    87931339.28708
  21491023.600   115043239.31608  21491024.680    89478121.82508
  22849106.860   122012954.33108  22849108.220    94898971.99905
  22464339.560   120042568.23808  22464346.620    93366443.18707
  20806486.000   111144513.99508  20806488.160    86445738.97208
  21184462.440   113362331.66708  21184463.140    88170706.37607
  20374796.660   108762056.20509  20374799.160    84592723.95608
  23610973.620   126302792.55507  23610975.180    98235505.37705
 15 03 04 01 20 30.0000000  0 16G04G07G16G18G19G21G22G27R02R03R09R15
                                R16R17R18R19
  23625532.520   124153190.93708  23625534.800    96742815.43245
  24526522.640   128887736.62208  24526520.340   100432003.33946
  20466677.400   107553131.51509  20466674.240    83807641.30048
  22031941.060   115778805.05709  22031938.200    90217323.09047
  22236776.880   116855085.95009  22236772.560    91055917.38448
  23754425.480   124830355.83508  23754422.680    97270397.81845
  21222753.400   111526527.64809  21222748.960    86903842.14848
  20836229.040   109495217.40109  20836228.940    85320976.88648
  21187180.840   113058874.15509  21187183.740    87934696.99608
  21472289.960   114942957.01908  21472291.040    89400124.54208
  22835661.580   121941156.61808  22835663.060    94843129.31705
  22487453.840   120166082.36908  22487461.060    93462509.32807
  20812098.860   111174496.64208  20812100.960    86469058.78608
  21193365.020   113409971.40908  21193365.760    88207759.49808
  20371169.880   108742696.63109  20371172.540    84577666.50408
  23597473.740   126230576.78908  23597475.140    98179337.58606
 15 03 04 01 21  0.0000000  0 16G04G07G16G18G19G21G22G27R02R03R09R15
                                R16R17R18R19
  23607959.960   124060847.44108  23607962.220    96670859.71945
  24522161.060   128864813.23508  24522157.960   100414140.93146
  20470238.540   107571845.47709  20470235.340    83822223.60048
  22036771.100   115804186.99409  22036768.340    90237101.21947
  22224904.120   116792694.90209  22224899.780    91007301.00248
  23768637.620   124905041.20008  23768634.860    97328594.17645
  21214787.380   111484665.66509  21214782.820    86871222.44648
  20830061.740   109462807.76809  20830061.540    85295722.62348
  21188138.940   113063986.67709  21188141.740    87938673.43508
  21453635.740   114843099.88608  21453636.820    89322457.94508
  22822336.140   121869999.69908  22822337.700    94787785.07404
  22510601.640   120289775.27508  22510608.880    93558714.49807
  20817859.420   111205268.31708  20817861.520    86492992.29808
  21202289.180   113457726.56508  21202289.920    88244902.38108
  20367573.640   108723500.61109  20367576.580    84562736.27808
  23583981.640   126158401.93007  23583983.020    98123201.63606
 15 03 04 01 21 30.0000000  0 16G04G07G16G18G19G21G22G27R02R03R09R15
                                R16R17R18R19
  23590425.540   123968704.38808  23590427.760    96599060.19245
  24517898.060   128842409.37408  24517894.420   100396683.33846
  20473904.400   107591109.63009  20473901.240    83837234.62648
  22041692.620   115830049.74609  22041689.880    90257254.03147
  22213055.100   116730428.80209  22213050.980    90958781.99248
  23782855.060   124979754.31708  23782852.300    97386812.17745
  21206912.460   111443282.66009  21206907.840    86838975.98348
  20823932.660   109430598.90409  20823932.360    85270624.82448
  21189244.820   113069887.79009  21189247.640    87943263.20008
  21435060.420   114743665.16908  21435061.500    89245119.88608
  22809129.880   121799479.70408  22809131.540    94732936.20104
  22533780.260   120413633.21408  22533787.700    93655048.01107
  20823766.020   111236819.93708  20823768.060    86517532.44308
  21211233.660   113505590.44508  21211234.340    88282129.83308
  20364006.740   108704460.72609  20364009.780    84547927.48908
  23570495.760   126086260.98207  23570496.660    98067092.07106
 15 03 04 01 22  0.0000000  0 16G04G07G16G18G19G21G22G27R02R03R09R15
                                R16R17R18R19
  23572929.920   123876765.55108  23572932.180    96527419.78546
  24513734.140   128820527.92108  24513730.220   100379632.84745
  20477675.500   107610926.65509  20477672.360    83852676.45848
  22046706.000   115856394.98009  22046703.180    90277782.79647
  22201230.540   116668290.98409  22201226.620    90910362.92748
  23797078.080   125054496.35808  23797075.300    97445052.71246
  21199129.600   111402383.56209  21199124.960    86807106.57548
  20817842.460   109398594.46409  20817842.000    85245686.30148
  21190499.040   113076580.64409  21190501.980    87948468.76408
  21416565.460   114644660.57808  21416566.520    89168116.36308
  22796043.880   121729602.17908  22796045.720    94678587.03604
  22556989.700   120537655.57008  22556997.120    93751509.37407
  20829818.700   111269152.03808  20829820.680    86542679.60508
  21220198.860   113553565.16208  21220199.580    88319443.49308
  20360469.760   108685579.91909  20360472.700    84533242.41208
  23557016.520   126014155.73908  23557016.940    98011010.25605
 15 03 04 01 22 30.0000000  0 16G04G07G16G18G19G21G22G27R02R03R09R15
                                R16R17R18R19
  23555472.680   123785028.41708  23555474.960    96455936.53845
  24509668.860   128799165.46908  24509665.000   100362986.72946
  20481551.160   107631293.07609  20481547.920    83868546.37848
  22051810.380   115883218.49709  22051807.520    90298684.24147
  22189429.920   116606279.02209  22189426.140    90862041.93648
  23811305.960   125129263.24008  23811303.100    97503312.61046
  21191438.440   111361966.50909  21191433.880    86775612.78648
  20811790.720   109366792.12409  20811790.160    85220905.25948
  21191900.960   113084061.76109  21191903.960    87954287.41608
  21398151.040   114546087.00008  21398152.120    89091448.07708
  22783078.320   121660366.88208  22783079.800    94624737.31404
  22580228.420   120661834.37908  22580235.840    93848092.40006
  20836016.460   111302259.32508  20836018.460    86568429.69208
  21229184.300   113601648.07208  21229185.180    88356841.30808
  20356961.960   108666854.74009  20356964.820    84518678.39108
  23543543.240   125942082.69807  23543543.840    97954953.51606
 15 03 04 01 23  0.0000000  0 16G04G07G16G18G19G21G22G27R02R03R09R15
                                R16R17R18R19
  23538054.060   123693493.79208  23538056.160    96384611.08345
  24505702.540   128778322.71408  24505698.860   100346745.58046
  20485531.280   107652208.68209  20485527.940    83884844.24648
  22057005.620   115910519.37309  22057002.620    90319957.65547
  22177653.260   116544393.23909  22177649.560    90813819.27548
  23825538.260   125204053.97208  23825535.380    97561591.05946
  21183839.240   111322032.62209  21183834.700    86744495.49248
  20805777.580   109335192.69709  20805776.960    85196282.33348
  21193450.680   113092331.44409  21193453.640    87960719.41208
  21379817.980   114447948.67608  21379818.980    89015118.30808
  22770233.380   121591776.12608  22770234.880    94571388.98604
  22603495.480   120786164.55308  22603502.960    93944793.13707
  20842358.800   111336139.21808  20842360.880    86594780.70508
  21238189.960   113649839.36508  21238190.840    88394323.40807
  20353483.300   108648284.89609  20353486.100    84504235.18308
  23530075.580   125870041.17907  23530076.660    97898921.27906
 15 03 04 01 23 30.0000000  0 16G04G07G16G18G19G21G22G27R02R03R09R15
                                R16R17R18R19
  23520674.540   123602164.31308  23520676.440    96313445.46846
  24501835.360   128758001.25508  24501832.260   100330910.68747
  20489616.240   107673675.22109  20489612.840    83901571.41348
  22062291.880   115938298.73609  22062288.880    90341603.92247
  22165901.100   116482636.02309  22165897.540    90765696.79548
  23839775.160   125278868.81908  23839772.000    97619888.34445
  21176332.560   111282584.89409  21176328.020    86713757.03148
  20799803.540   109303798.75609  20799802.920    85171819.52948
  21195148.500   113101391.30209  21195151.300    87967765.98808
  21361567.400   114350251.76908  21361568.320    88939131.88408
  22757510.220   121523834.75308  22757511.560    94518545.68004
  22626790.440   120910643.59508  22626798.000    94041609.66707
  20848845.740   111370791.51908  20848847.840    86621732.47508
  21247216.200   113698140.66208  21247217.080    88431891.06908
  20350034.060   108629872.06309  20350036.820    84489914.10808
  23516614.160   125798032.49607  23516615.540    97842914.58606
 15 03 04 01 24  0.0000000  0 16G04G07G16G18G19G21G22G27R02R03R09R15
                                R16R17R18R19
  23503334.600   123511042.57108  23503336.340    96242441.72246
  24498067.620   128738202.43608  24498064.920   100315483.05646
  20493806.320   107695693.99809  20493802.920    83918728.88848
  22067669.280   115966557.07509  22067666.260    90363623.41147
  22154173.880   116421009.51809  22154170.340    90717676.14448
  23854016.640   125353708.46708  23854013.480    97678204.94945
  21168919.060   111243626.83109  21168914.520    86683400.11748
  20793869.080   109272612.91309  20793868.460    85147518.87548
  21196994.700   113111243.01109  21196997.340    87975428.44408
  21343400.420   114253002.55308  21343401.340    88863493.65308
  22744909.480   121456547.05308  22744910.800    94466210.80404
  22650112.760   121035269.09408  22650120.520    94138540.09307
  20855477.140   111406215.38808  20855479.240    86649284.36008
  21256263.380   113746553.92108  21256264.340    88469545.80708
  20346614.580   108611617.84909  20346617.220    84475716.38108
  23503159.280   125726057.85107  23503160.800    97786934.38306
 15 03 04 01 24 30.0000000  0 16G04G07G16G18G19G21G22G27R02R03R09R15
                                R16R17R18R19
  23486033.360   123420123.99408  23486034.880    96171596.27846
  24494398.480   128718921.56108  24494395.760   100300458.94945
  20498100.360   107718259.23609  20498097.020    83936312.18648
  22073136.680   115995288.42709  22073133.720    90386011.48847
  22142470.700   116359509.04409  22142467.200    90669753.71348
  23868261.620   125428566.59908  23868258.840    97736535.91645
  21161597.960   111205154.28009  21161593.440    86653421.52348
  20787973.400   109241630.82109  20787972.720    85123376.98748
  21198988.220   113121881.00509  21198990.860    87983702.45208
  21325316.880   114156200.02508  21325317.740    88788202.84808
  22732430.580   121389910.50608  22732431.820    94414382.36804
  22673460.600   121160030.77208  22673468.460    94235576.46606
  20862251.560   111442403.12608  20862253.680    86677430.36008
  21265330.420   113795073.99708  21265331.380    88507283.61907
  20343223.680   108593516.76509  20343226.280    84461637.75808
  23489709.900   125654111.67808  23489711.260    97730976.28606
 15 03 04 01 25  0.0000000  0 16G04G07G16G18G19G21G22G27R02R03R09R15
                                R16R17R18R19
  23468772.100   123329415.42108  23468773.300    96100914.47045
  24490828.920   128700164.43707  24490826.140   100285842.96145
  20502499.660   107741377.65109  20502496.340    83954326.52548
  22078694.980   116024497.44809  22078692.000    90408771.77047
  22130792.800   116298141.10509  22130789.360    90621934.56148
  23882511.100   125503448.35608  23882508.260    97794885.33345
  21154370.680   111167174.67509  21154366.160    86623827.05448
  20782117.760   109210859.38609  20782117.080    85099399.25848
  21201130.200   113133311.24509  21201132.900    87992592.64708
  21307318.760   114059854.77608  21307319.600    88713267.71008
  22720075.120   121323933.83208  22720076.900    94363067.26005
  22696834.240   121284930.54408  22696842.160    94332720.23406
  20869169.620   111479358.41508  20869171.780    86706173.33908
  21274418.720   113843707.09908  21274419.700    88545109.34407
  20339862.580   108575574.90209  20339865.100    84447682.98408
  23476266.820   125582199.23707  23476267.640    97675044.43805
 15 03 04 01 25 30.0000000  0 16G04G07G16G18G19G21G22G27R02R03R09R15
                                R16R17R18R19
  23451549.840   123238912.12808  23451550.860    96030392.61445
  24487357.900   128681925.32807  24487355.440   100271630.66446
  20507002.960   107765042.58109  20506999.600    83972766.72448
  22084342.980   116054177.98009  22084340.040    90431899.46247
  22119139.180   116236900.55609  22119135.720    90574214.65848
  23896763.820   125578346.60808  23896760.980    97853247.57945
  21147236.320   111129683.20209  21147231.760    86594612.93848
  20776301.240   109180293.65109  20776300.600    85075581.81049
  21203419.480   113145527.79709  21203422.220    88002094.42208
  21289405.740   113963965.05008  21289406.580    88638686.86808
  22707842.720   121258613.69908  22707844.400    94312262.71204
  22720231.720   121409957.45908  22720239.600    94429962.81906
  20876229.800   111517072.94108  20876232.060    86735506.83308
  21283527.080   113892447.46008  21283527.980    88583018.50307
  20336530.080   108557786.13509  20336532.620    84433847.27208
  23462828.700   125510314.56208  23462828.380    97619134.17305
 15 03 04 01 26  0.0000000  0 16G04G07G16G18G19G21G22G27R02R03R09R15
                                R16R17R18R19
  23434367.660   123148619.26808  23434368.580    95960034.72545
  24483986.280   128664208.93007  24483984.340   100257825.67946
  20511611.140   107789258.46809  20511607.700    83991636.23648
  22090081.400   116084333.39709  22090078.460    90455397.20047
  22107510.740   116175792.29709  22107507.240    90526597.84648
  23911020.380   125653265.13908  23911017.360    97911625.64745
  21140196.020   111092686.26309  21140191.460    86565784.18148
  20770524.960   109149939.20209  20770524.400    85051928.99548
  21205856.980   113158535.04409  21205859.860    88012211.19308
  21271579.520   113868539.99008  21271580.340    88564467.42008
  22695734.780   121193957.47308  22695736.280    94261974.52605
  22743653.020   121535111.58108  22743660.920    94527304.40707
  20883432.540   111555549.00108  20883434.960    86765432.64508
  21292656.400   113941299.95508  21292657.260    88621014.88508
  20333227.080   108540155.14009  20333229.780    84420134.28208
  23449396.420   125438461.51008  23449395.840    97563248.49706
 15 03 04 01 26 30.0000000  0 16G04G07G16G18G19G21G22G27R02R03R09R15
                                R16R17R18R19
  23417225.320   123058535.83408  23417226.220    95889840.01846
  24480713.500   128647013.22407  24480712.160   100244426.43446
  20516323.720   107814023.10909  20516320.280    84010933.35248
  22095909.600   116114960.65609  22095906.600    90479262.60647
  22095907.300   116114815.22009  22095903.800    90479083.26748
  23925280.280   125728200.91808  23925277.140    97970017.16145
  21133249.720   111056183.39709  21133245.120    86537340.40748
  20764788.640   109119795.03409  20764788.220    85028440.03948
  21208442.300   113172330.74809  21208445.160    88022941.20408
  21253840.520   113773582.11408  21253841.400    88490611.35308
  22683751.400   121129965.94708  22683752.820    94212203.34704
  22767097.080   121660387.57608  22767105.120    94624740.74706
  20890776.900   111594781.86008  20890779.480    86795947.06208
  21301806.480   113990263.05508  21301807.240    88659097.26607
  20329953.320   108522679.88309  20329956.000    84406542.41808
  23435969.860   125366637.78308  23435969.340    97507385.65006
 15 03 04 01 27  0.0000000  0 16G04G07G16G18G19G21G22G27R02R03R09R15
                                R16R17R18R19
  23400123.380   122968664.44108  23400124.120    95819810.53145
  24477540.240   128630340.08507  24477539.300   100231434.38946
  20521140.820   107839337.47609  20521137.560    84030658.82648
  22101827.780   116146060.71209  22101824.740    90503496.42047
  22084329.260   116053971.43709  22084325.580    90431672.54548
  23939543.540   125803155.04708  23939540.560    98028422.90245
  21126397.960   111020177.52509  21126393.380    86509283.89848
  20759092.820   109089863.82309  20759092.520    85005117.02448
  21211175.620   113186916.30709  21211178.340    88034285.54408
  21236189.920   113679097.54608  21236190.800    88417123.39808
  22671893.160   121066643.46308  22671894.500    94162952.52404
  22790563.320   121785781.96108  22790571.480    94722269.09406
  20898262.800   111634771.01708  20898265.580    86827049.71208
  21310977.280   114039338.18208  21310978.200    88697266.79507
  20326709.220   108505362.25109  20326711.880    84393073.14108
  23422548.860   125294844.94308  23422548.800    97451546.80706
 15 03 04 01 27 30.0000000  0 16G04G07G16G18G19G21G22G27R02R03R09R15
                                R16R17R18R19
  23383061.180   122879002.17708  23383061.800    95749943.99145
  24474465.960   128614185.59607  24474465.080   100218846.42045
  20526061.800   107865197.69209  20526058.660    84050809.62948
  22107835.000   116177628.72709  22107831.900    90528094.87647
  22072776.140   115993258.37709  22072772.120    90384363.67048
  23953809.380   125878122.44508  23953806.400    98086839.05445
  21119640.280   110984665.83709  21119635.740    86481612.46848
  20753437.040   109060142.83009  20753436.820    84981957.80649
  21214056.200   113202287.78909  21214058.920    88046241.14308
  21218627.840   113585086.56608  21218628.660    88344003.78608
  22660160.060   121003988.73908  22660161.340    94114221.07404
  22814050.200   121911286.46708  22814058.540    94819883.03206
  20905889.080   111675509.91708  20905891.960    86858735.48608
  21320168.600   114088522.42508  21320169.400    88735521.18807
  20323493.940   108488198.21709  20323496.500    84379723.33608
  23409132.860   125223078.60108  23409133.180    97395728.59305
 15 03 04 01 28  0.0000000  0 16G04G07G16G18G19G21G22G27R02R03R09R15
                                R16R17R18R19
  23366039.660   122789553.95608  23366040.240    95680244.25145
  24471491.220   128598553.56007  24471490.040   100206665.61945
  20531087.460   107891608.04809  20531084.380    84071389.12248
  22113931.820   116209667.83009  22113928.840    90553060.41647
  22061248.700   115932680.48109  22061244.600    90337160.12648
  23968078.340   125953106.19708  23968075.360    98145267.93345
  21112977.820   110949654.24009  21112973.300    86454330.73048
  20747822.280   109030637.18009  20747822.080    84958966.39648
  21217084.780   113218449.04609  21217087.520    88058811.02808
  21201155.880   113491557.83408  21201156.740    88271259.26808
  22648553.200   120942008.42508  22648554.220    94066014.15404
  22837557.720   122036900.95108  22837566.080    94917582.54406
  20913656.040   111717000.33908  20913659.080    86891005.80208
  21329381.080   114137819.97508  21329381.740    88773863.70807
  20320308.280   108471192.13609  20320310.700    84366496.38908
  23395722.500   125151342.58908  23395722.460    97339933.95306
 15 03 04 01 28 30.0000000  0 16G04G07G16G18G19G21G22G27R02R03R09R15
                                R16R17R18R19
  23349058.260   122700316.63208  23349058.700    95610708.83445
  24468615.380   128583440.12307  24468614.120   100194888.89345
  20536217.000   107918564.02509  20536213.840    84092393.76448
  22120117.340   116242172.97509  22120114.320    90578389.09947
  22049746.300   115872234.27209  22049742.100    90290059.20148
  23982349.420   126028101.45108  23982346.540    98203705.75945
  21106409.900   110915139.68409  21106405.400    86427436.28148
  20742247.900   109001343.74109  20742247.720    84936140.33849
  21220260.500   113235395.33909  21220263.300    88071991.47808
  21183774.080   113398511.77508  21183774.920    88198890.14708
  22637072.120   120880700.95308  22637073.240    94018330.58505
  22861084.260   122162616.94908  22861092.700    95015360.97206
  20921562.540   111759235.35408  20921565.580    86923855.24808
  21338613.920   114187226.91408  21338614.560    88812291.32707
  20317151.420   108454339.91209  20317153.800    84353389.10308
  23382316.840   125079632.31607  23382317.480    97284159.36006
 15 03 04 01 29  0.0000000  0 16G04G07G16G18G19G21G22G27R02R03R09R15
                                R16R17R18R19
  23332117.900   122611294.91008  23332118.220    95541341.40546
  24465839.040   128568849.11508  24465837.280   100183519.24145
  20541451.040   107946068.94109  20541447.840    84113826.15048
  22126392.060   116275147.03009  22126388.920    90604083.17447
  22038269.720   115811924.09609  22038265.520    90243064.27648
  23996623.240   126103111.10808  23996620.400    98262154.81545
  21099937.440   110881127.15109  21099932.960    86400933.02248
  20736714.840   108972267.30409  20736714.620    84913483.37248
  21223584.000   113253130.25209  21223586.780    88085785.30508
  21166483.960   113305956.56108  21166484.760    88126902.80008
  22625718.320   120820072.85008  22625719.660    93971175.42504
  22884629.680   122288433.74208  22884638.240    95113217.85006
  20929608.740   111802216.30508  20929611.760    86957284.84708
  21347868.000   114236747.34408  21347868.680    88850807.17707
  20314024.040   108437645.32609  20314026.440    84340404.42108
  23368916.660   125007951.42608  23368917.360    97228407.57206
 15 03 04 01 29 30.0000000  0 16G04G07G16G18G19G21G22G27R02R03R09R15
                                R16R17R18R19
  23315218.060   122522486.36908  23315218.460    95472140.10046
  24463161.540   128554777.12808  24463159.120   100172554.02244
  20546788.860   107974119.09609  20546785.660    84135683.40948
  22132755.180   116308585.87409  22132752.120    90630139.42047
  22026818.680   115751747.92209  22026814.400    90196173.77448
  24010899.120   126178131.33708  24010896.280    98320612.11645
  21093560.200   110847614.92209  21093555.740    86374819.61648
  20731222.700   108943405.86409  20731222.460    84890993.94048
  21227054.620   113271650.14209  21227057.420    88100189.68108
  21149285.720   113213893.47008  21149286.500    88055298.21308
  22614491.780   120760123.44808  22614493.200    93924548.11605
  22908192.580   122414344.06908  22908201.160    95211147.42706
  20937793.480   111845937.25508  20937796.540    86991290.01808
  21357142.700   114286378.48208  21357143.440    88889409.17407
  20310925.580   108421105.33109  20310927.940    84327539.99008
  23355521.320   124936296.39307  23355522.160    97172675.93106
 15 03 04 01 30  0.0000000  0 16G04G07G16G18G19G21G22G27R02R03R09R15
                                R16R17R18R19
  23298359.700   122433895.79308  23298360.060    95403108.63045
  24460583.560   128541228.19608  24460580.860   100161996.39245
  20552231.160   108002718.32909  20552227.960    84157968.51148
  22139207.300   116342492.40609  22139204.260    90656560.09947
  22015393.980   115691710.45609  22015389.620    90149391.34948
  24025177.540   126253164.96208  24025174.800    98379079.84145
  21087279.240   110814608.35209  21087274.760    86349100.21748
  20725772.420   108914764.38909  20725772.160    84868675.90249
  21230672.940   113290958.59409  21230675.820    88115207.36808
  21132180.960   113122330.73608  21132181.840    87984082.79508
  22603393.620   120700859.27608  22603394.940    93878453.76204
  22931772.860   122540347.24008  22931781.620    95309149.19106
  20946117.020   111890399.68708  20946120.060    87025871.88408
  21366438.920   114336124.62608  21366439.620    88928100.58607
  20307856.760   108404724.15309  20307859.120    84314799.07708
  23342131.280   124864670.74607  23342133.120    97116967.17406
 15 03 04 01 30 30.0000000  0 16G04G07G16G18G19G21G22G27R02R03R09R15
                                R16R17R18R19
  23281541.660   122345517.22708  23281541.960    95334242.35645
  24458103.820   128528195.09408  24458101.060   100151840.69146
  20557776.520   108031859.38709  20557773.320    84180675.82348
  22145747.000   116376858.70909  22145743.940    90683339.05047
  22003994.320   115631804.95909  22003990.040    90102711.75848
  24039457.100   126328204.48008  24039454.340    98437552.19145
  21081093.380   110782101.33309  21081088.900    86323770.09548
  20720362.900   108886337.02709  20720362.580    84846524.71549
  21234437.640   113311047.91709  21234440.540    88130832.41608
  21115169.220   113031265.70408  21115170.200    87913254.48308
  22592422.760   120642275.58708  22592424.080    93832888.68704
  22955368.660   122666433.24408  22955377.640    95407215.37406
  20954577.520   111935593.67508  20954580.500    87061022.74608
  21375755.440   114385979.43908  21375756.360    88966876.53507
  20304816.260   108388494.76709  20304818.820    84302176.22508
  23328745.540   124793067.21307  23328747.540    97061275.58706
 15 03 04 01 31  0.0000000  0 16G04G07G16G18G19G21G22G27R02R03R09R15
                                R16R17R18R19
  23264765.760   122257360.17308  23264765.980    95265548.68146
  24455723.640   128515686.31207  24455721.400   100142093.60746
  20563426.460   108061550.13509  20563423.200    84203811.45348
  22152375.600   116411692.24509  22152372.580    90710482.06947
  21992621.620   115572041.09609  21992617.380    90056142.53248
  24053739.280   126403257.41108  24053736.580    98496034.95245
  21075004.480   110750104.00509  21075000.020    86298837.12748
  20714995.980   108858133.35709  20714995.560    84824547.83549
  21238350.320   113331926.59409  21238353.080    88147071.39707
  21098252.900   112940711.59408  21098253.940    87842823.55208
  22581581.460   120584383.67608  22581582.620    93787861.63304
  22978980.520   122792605.03808  22978989.860    95505348.14606
  20963176.120   111981525.11908  20963178.900    87096747.17708
  21385093.960   114435951.63608  21385094.960    89005743.78707
  20301805.900   108372425.97609  20301808.600    84289678.27408
  23315365.460   124721494.30507  23315367.480    97005607.81506
 15 03 04 01 31 30.0000000  0 16G04G07G16G18G19G21G22G27R02R03R09R15
                                R16R17R18R19
  23248031.480   122169421.80308  23248031.760    95197025.42745
  24453442.280   128503698.11808  24453440.460   100132752.19646
  20569180.160   108091786.10909  20569176.880    84227371.93948
  22159092.160   116446988.07709  22159089.180    90737985.32147
  21981275.220   115512415.58209  21981270.920    90009681.10948
  24068023.100   126478319.03508  24068020.260    98554524.49345
  21069012.120   110718614.01209  21069007.640    86274299.48648
  20709671.100   108830150.67709  20709670.600    84802743.15348
  21242410.080   113353589.81909  21242412.700    88163920.57807
  21081432.060   112850668.47308  21081432.960    87772790.05708
  22570869.320   120527181.97808  22570870.440    93743371.43804
  23002606.860   122918853.68508  23002616.420    95603540.65106
  20971911.520   112028187.60608  20971914.220    87133040.20208
  21394453.800   114486037.78708  21394454.740    89044699.65507
  20298825.040   108356514.20409  20298827.800    84277302.46208
  23301990.480   124649947.71608  23301992.360    96949960.52806
 15 03 04 01 32  0.0000000  0 16G04G07G16G18G19G21G22G27R02R03R09R15
                                R16R17R18R19
  23231338.240   122081699.29308  23231338.580    95128670.35246
  24451259.440   128492226.78308  24451257.500   100123813.46645
  20575037.060   108122564.36609  20575033.840    84251354.98648
  22165895.780   116482741.48609  22165892.820    90765845.12647
  21969954.720   115452926.11409  21969950.440    89963325.68748
  24082307.860   126553385.25108  24082304.700    98613017.65145
  21063115.880   110687628.85709  21063111.340    86250155.22348
  20704387.900   108802386.70609  20704387.340    84781108.89949
  21246616.100   113376033.69209  21246618.620    88181376.93208
  21064706.940   112761137.70308  21064707.840    87703155.04808
  22560286.060   120470669.42808  22560287.420    93699417.25504
  23026246.560   123045173.67808  23026256.320    95701788.61006
  20980782.500   112075574.62408  20980785.320    87169896.73808
  21403834.280   114536234.87708  21403835.340    89083741.80907
  20295872.940   108340755.95809  20295875.660    84265046.05108
  23288620.140   124578423.77008  23288621.460    96894330.83506
 15 03 04 01 32 30.0000000  0 16G04G07G16G18G19G21G22G27R02R03R09R15
                                R16R17R18R19
  23214686.720   121994195.60608  23214687.060    95060485.78446
  24449175.380   128481273.94308  24449173.180   100115278.75845
  20580997.380   108153886.11409  20580994.280    84275761.53348
  22172786.720   116518953.86209  22172783.680    90794062.56647
  21958660.500   115393575.29909  21958656.380    89917078.31648
  24096593.640   126628457.30608  24096590.300    98671515.33845
  21057316.280   110657151.66409  21057311.680    86226406.77648
  20699146.860   108774844.45009  20699146.240    84759647.40349
  21250968.620   113399259.55909  21250971.120    88199441.49808
  21048078.720   112672125.58008  21048079.640    87633923.43808
  22549832.780   120414850.31908  22549834.340    93656002.42105
  23049899.040   123171561.90808  23049908.900    95800089.68506
  20989789.000   112123685.27908  20989791.780    87207316.10308
  21413236.080   114586545.11808  21413236.980    89122871.97507
  20292949.980   108325153.50709  20292952.700    84252910.81708
  23275254.320   124506924.07808  23275255.140    96838719.97405
 15 03 04 01 33  0.0000000  0 16G04G07G16G18G19G21G22G27R02R03R09R15
                                R16R17R18R19
  23198077.680   121906915.37408  23198077.940    94992475.34045
  24447190.700   128470843.42808  24447187.860   100107151.04145
  20587061.700   108185754.52509  20587058.680    84300594.04148
  22179765.580   116555628.08409  22179762.540    90822639.88347
  21947393.520   115334367.71609  21947389.400    89870942.54748
  24110881.100   126703538.05208  24110877.740    98730019.78045
  21051614.320   110627187.47809  21051609.620    86203058.07648
  20693948.900   108747528.89109  20693948.260    84738362.55448
  21255468.280   113423270.45509  21255470.800    88218116.64308
  21031548.860   112583640.03108  21031549.800    87565101.37508
  22539510.660   120359731.06708  22539512.540    93613131.91605
  23073564.120   123298017.49307  23073574.160    95898443.23506
  20998931.180   112172520.88508  20998933.980    87245299.31508
  21422659.820   114636972.98308  21422660.580    89162093.61507
  20290056.900   108309710.99409  20290059.680    84240899.98208
  23261893.740   124435452.34507  23261893.600    96783130.86205
 15 03 04 01 33 30.0000000  0 16G04G07G16G18G19G21G22G27R02R03R09R15
                                R16R17R18R19
  23181510.440   121819854.83308  23181510.660    94924636.08546
  24445304.420   128460930.35308  24445301.240   100099426.52645
  20593228.980   108218164.29109  20593226.020    84325848.40048
  22186831.180   116592758.22609  22186828.180    90851572.46447
  21936153.020   115275299.45609  21936148.960    89824915.35248
  24125169.080   126778622.10108  24125166.000    98788526.77945
  21046009.300   110597732.70709  21046004.540    86180106.32548
  20688793.400   108720436.49009  20688792.780    84717251.60048
  21260114.020   113448061.05909  21260116.600    88237398.23908
  21015117.320   112495680.69708  21015118.160    87496688.60208
  22529319.240   120305309.14908  22529320.860    93570803.75005
  23097240.140   123424531.76708  23097250.320    95996842.51306
  21008207.560   112222073.34608  21008210.280    87283840.08908
  21432104.700   114687514.19808  21432105.520    89201403.43607
  20287193.020   108294423.90409  20287195.980    84229010.03208
  23248537.100   124364003.54107  23248537.000    96727559.59706
 15 03 04 01 34  0.0000000  0 16G04G07G16G18G19G21G22G27R02R03R09R15
                                R16R17R18R19
  23164985.480   121733016.22908  23164985.700    94856969.74246
  24443516.740   128451535.81107  24443513.740   100092106.06046
  20599499.500   108251116.47709  20599496.560    84351525.40648
  22193983.600   116630344.38609  22193980.660    90880860.39047
  21924939.560   115216372.88309  21924935.500    89778998.54448
  24139457.900   126853710.02108  24139454.820    98847036.82945
  21040501.680   110568789.73009  21040496.900    86157553.36948
  20683680.780   108693569.64109  20683680.200    84696316.38849
  21264905.900   113473631.96909  21264908.760    88257286.72208
  20998785.120   112408253.13308  20998785.860    87428689.41708
  22519259.160   120251588.30908  22519260.800    93529020.90005
  23120926.520   123551101.32207  23120936.820    96095284.69606
  21017617.980   112272341.57808  21017620.640    87322937.55708
  21441571.060   114738170.34508  21441571.860    89240802.64508
  20284358.700   108279293.85309  20284361.780    84217242.20608
  23235184.840   124292578.72907  23235184.760    96672007.00106
 15 03 04 01 34 30.0000000  0 16G04G07G16G18G19G21G22G27R02R03R09R15
                                R16R17R18R19
  23148503.200   121646402.03808  23148503.420    94789478.28146
  24441827.600   128442661.22507  24441825.300   100085190.84146
  20605873.560   108284612.70909  20605870.700    84377626.35348
  22201222.940   116668387.44309  22201220.000    90910504.32647
  21913753.520   115157590.46109  21913749.440    89733194.07448
  24153747.520   126928803.17208  24153744.560    98905550.96945
  21035092.140   110540362.10009  21035087.320    86135401.98648
  20678611.640   108666931.38209  20678611.100    84675559.31449
  21269844.200   113499984.25509  21269847.160    88277782.95108
  20982553.480   112321363.78708  20982554.160    87361108.85508
  22509331.080   120198572.51008  22509332.640    93487786.40805
  23144622.900   123677724.50808  23144633.500    96193768.72606
  21027162.100   112323324.22308  21027164.700    87362590.69008
  21451059.380   114788943.93308  21451060.120    89280293.19907
  20281554.120   108264322.76109  20281557.320    84205598.02708
  23221837.520   124221179.62607  23221837.600    96616474.45106
 15 03 04 01 35  0.0000000  0 16G04G07G16G18G19G21G22G27R02R03R09R15
                                R16R17R18R19
  23132063.460   121560011.20209  23132063.520    94722160.85745
  24440236.920   128434304.02908  24440235.460   100078678.78646
  20612350.600   108318649.99709  20612347.820    84404148.90148
  22208548.600   116706883.97509  22208545.720    90940501.62847
  21902594.660   115098950.76609  21902590.640    89687500.81548
  24168037.520   127003898.16708  24168034.660    98964066.51746
  21029780.360   110512448.36909  21029775.500    86113651.04148
  20673585.780   108640520.63609  20673585.280    84654979.51049
  21274928.380   113527114.67009  21274931.400    88298884.38708
  20966422.720   112235014.40508  20966423.320    87293948.25808
  22499535.060   120146261.70308  22499536.340    93447100.21904
  23168327.960   123804394.21508  23168338.660    96292288.81706
  21036838.900   112375015.93308  21036841.560    87402795.32608
  21460569.320   114839833.15208  21460570.000    89319873.67607
  20278778.980   108249508.71809  20278782.080    84194075.98908
  23208494.540   124149804.02508  23208495.260    96560960.13606
 15 03 04 01 35 30.0000000  0 16G04G07G16G18G19G21G22G27R02R03R09R15
                                R16R17R18R19
  23115666.000   121473842.62008  23115665.940    94655016.60045
  24438744.840   128426462.45208  24438743.580   100072568.45046
  20618930.160   108353225.89209  20618927.480    84431091.14448
  22215960.000   116745831.29509  22215957.160    90970850.19347
  21891462.860   115040453.03509  21891458.760    89641918.17448
  24182327.400   127078992.38007  24182324.720    99022581.48045
  21024566.160   110485047.85409  21024561.340    86092300.00548
  20668603.120   108614336.68609  20668602.640    84634576.43049
  21280157.980   113555020.67409  21280160.900    88320589.06707
  20950393.260   112149207.37808  20950393.780    87227209.49908
  22489871.000   120094656.17508  22489872.080    93406962.59304
  23192041.060   123931106.99407  23192052.100    96390842.52306
  21046647.620   112427411.96208  21046650.280    87443547.76608
  21470100.500   114890836.66808  21470101.100    89359543.03307
  20276033.020   108234850.20409  20276036.000    84182674.93208
  23195155.620   124078449.47708  23195156.660    96505462.17306
 15 03 04 01 36  0.0000000  0 16G04G07G16G18G19G21G22G27R02R03R09R15
                                R16R17R18R19
  23099312.020   121387902.62908  23099312.000    94588050.47145
  24437351.540   128419141.32607  24437350.440   100066863.71746
  20625613.220   108388345.38309  20625610.500    84458456.96548
  22223457.940   116785233.46409  22223455.160    91001553.17647
  21880359.380   114982103.42109  21880355.180    89596450.94848
  24196617.960   127154090.97807  24196615.440    99081099.81645
  21019450.800   110458166.97109  21019446.100    86071353.87148
  20663664.900   108588386.23309  20663664.480    84614355.30049
  21285533.760   113583706.91109  21285536.500    88342900.59707
  20934467.000   112063953.02208  20934467.560    87160900.59308
  22480340.540   120043764.07208  22480341.580    93367379.86804
  23215761.960   124057861.74007  23215773.240    96489428.92406
  21056588.680   112480514.84208  21056591.280    87484849.97107
  21479654.120   114941960.33408  21479654.780    89399305.86807
  20273317.320   108220353.13009  20273320.100    84171399.43808
  23181821.540   124007121.48007  23181822.380    96449984.90206
 15 03 04 01 36 30.0000000  0 16G04G07G16G18G19G21G22G27R02R03R09R15
                                R16R17R18R19
  23083000.600   121302186.33908  23083000.740    94521258.66846
  24436056.300   128412334.55707  24436054.820   100061559.65345
  20632398.460   108424001.88109  20632395.640    84486241.23548
  22231041.180   116825083.54109  22231038.380    91032605.19247
  21869283.180   114923897.14209  21869278.880    89551095.42448
  24210908.300   127229187.60007  24210905.680    99139616.64445
  21014433.460   110431800.93209  21014428.840    86050808.91948
  20658770.240   108562664.51609  20658769.860    84594312.40549
  21291054.460   113613166.40009  21291057.060    88365813.53507
  20918643.580   111979249.06108  20918644.080    87095019.77208
  22470942.980   119993581.15908  22470943.900    93328348.69504
  23239488.860   124184649.00707  23239500.520    96588040.66606
  21066660.380   112534315.52408  21066662.880    87526694.89407
  21489229.240   114993198.79408  21489230.000    89439157.99307
  20270630.800   108206011.66409  20270633.380    84160244.95808
  23168491.420   123935813.80208  23168492.460    96394523.43306
 15 03 04 01 37  0.0000000  0 16G04G07G16G18G19G21G22G27R02R03R09R15
                                R16R17R18R19
  23066732.580   121216697.90908  23066732.820    94454644.41345
  24434858.800   128406045.41006  24434857.820   100056659.11745
  20639286.500   108460198.48909  20639283.560    84514446.37248
  22238710.080   116865383.80909  22238707.280    91064008.00647
  21858235.080   114865838.22809  21858230.580    89505854.72448
  24225198.800   127304284.37108  24225195.940    99198133.59744
  21009515.020   110405954.36009  21009510.440    86030668.75648
  20653919.980   108537176.22809  20653919.600    84574451.40849
  21296720.460   113643401.38209  21296723.160    88389329.65108
  20902924.520   111895103.65708  20902925.000    87029573.38608
  22461679.260   119944113.13008  22461680.360    93289873.58905
  23263221.640   124311467.30307  23263233.540    96686676.49506
  21076862.800   112588814.30708  21076865.180    87569082.82608
  21498826.620   115044556.10208  21498827.460    89479102.53907
  20267974.160   108191829.76009  20267976.660    84149214.60408
  23155165.860   123864530.00108  23155166.600    96339080.51006
 15 03 04 01 37 30.0000000  0 16G04G07G16G18G19G21G22G27R02R03R09R15
                                R16R17R18R19
  23050507.580   121131435.41008  23050507.840    94388206.18045
  24433759.220   128400270.62007  24433758.780   100052159.27246
  20646276.640   108496931.67609  20646273.700    84543069.61648
  22246463.920   116906130.32709  22246461.080    91095758.53947
  21847214.640   114807924.79209  21847210.120    89460727.38648
  24239488.840   127379378.12707  24239485.880    99256648.21345
  21004695.120   110380625.74309  21004690.540    86010932.17848
  20649113.840   108511919.69909  20649113.440    84554770.99248
  21302531.220   113674408.50009  21302533.900    88413446.30008
  20887309.980   111811517.98108  20887310.420    86964562.33208
  22452549.240   119895359.24808  22452550.240    93251953.89405
  23286959.240   124438311.00807  23286971.320    96785332.14006
  21087194.740   112644005.45508  21087196.980    87612009.23207
  21508445.700   115096029.71308  21508446.400    89519137.54007
  20265346.860   108177804.87809  20265349.360    84138306.37308
  23141843.980   123793266.90207  23141844.380    96283653.70106
 15 03 04 01 38  0.0000000  0 16G04G07G16G18G19G21G22G27R02R03R09R15
                                R16R17R18R19
  23034325.660   121046399.36108  23034325.920    94321944.43345
  24432757.940   128395009.57207  24432757.780   100048059.74946
  20653368.640   108534200.01709  20653365.740    84572109.86548
  22254302.380   116947321.61709  22254299.600    91127855.64547
  21836222.020   114750157.54509  21836217.460    89415713.95948
  24253777.840   127454467.84907  24253775.200    99315159.62045
  20999973.880   110355815.47009  20999969.200    85991599.51248
  20644351.960   108486895.85609  20644351.540    84535271.90249
  21308486.340   113706186.33709  21308489.020    88438162.39808
  20871800.660   111728495.82608  20871801.160    86899989.57808
  22443553.360   119847321.36008  22443554.520    93214591.09705
  23310700.440   124565174.56307  23310712.560    96884003.20606
  21097655.560   112699885.34708  21097657.760    87655471.33507
  21518086.600   115147620.03608  21518087.320    89559263.32807
  20262748.900   108163937.01009  20262751.560    84127520.25608
  23128525.940   123722023.88708  23128526.340    96228242.55406
 15 03 04 01 38 30.0000000  0 17G04G07G11G16G18G19G21G22G27R02R03R09
                                R15R16R17R18R19
  23018187.220   120961591.78108  23018187.480    94255860.69445
  24431854.960   128390262.87207  24431854.520   100044360.95246
  24692203.880   129758403.07207  24692203.280   101110445.60444
  20660562.680   108572004.57709  20660559.800    84601567.95648
  22262225.540   116988957.79709  22262222.800    91160299.42947
  21825257.640   114692538.58009  21825253.060    89370816.07548
  24268066.240   127529553.69308  24268063.960    99373668.04145
  20995351.780   110331525.76909  20995346.940    85972672.48848
  20639634.820   108462107.01909  20639634.380    84515955.92249
  21314585.860   113738734.60109  21314588.560    88463477.73107
  20856397.580   111646042.39108  20856398.200    86835859.17208
  22434691.720   119800002.46708  22434693.240    93177787.54505
  23334444.860   124692055.64407  23334457.140    96982687.89506
  21108244.900   112756451.77008  21108247.020    87699467.41307
  21527749.700   115199328.82408  21527750.400    89599481.25607
  20260180.640   108150227.85609  20260183.480    84116857.59108
  23115211.780   123650802.25308  23115212.460    96172848.00706
 15 03 04 01 39  0.0000000  0 17G04G07G11G16G18G19G21G22G27R02R03R09
                                R15R16R17R18R19
  23002091.100   120877006.55908  23002091.380    94189950.22546
  24431048.460   128386023.01507  24431048.120   100041057.17747
  24674906.640   129667506.71607  24674906.160   101039617.49445
  20667857.220   108610337.43609  20667854.340    84631437.69948
  22270231.680   117031030.43109  22270228.940    91193083.29647
  21814320.280   114635061.87709  21814315.780    89326029.06448
  24282352.660   127604628.73507  24282350.200    99432168.07845
  20990827.540   110307750.41709  20990822.620    85954146.25048
  20634961.260   108437547.43709  20634960.840    84496818.59249
  21320828.300   113772045.31309  21320830.960    88489386.05207
  20841100.320   111564155.24908  20841100.940    86772169.20608
  22425964.020   119753397.62908  22425965.600    93141539.31804
  23358190.620   124818943.62707  23358202.940    97081377.92906
  21118960.840   112813694.66008  21118962.980    87743989.62107
  21537433.660   115251149.45208  21537434.320    89639786.16807
  20257640.720   108136670.39909  20257643.720    84106312.90208
  23101900.220   123579594.57808  23101901.100    96117464.26606
 15 03 04 01 39 30.0000000  0 17G04G07G11G16G18G19G21G22G27R02R03R09
                                R15R16R17R18R19
  22986040.660   120792661.23808  22986040.900    94124226.69345
  24430341.500   128382306.41707  24430341.380   100038161.13546
  24657627.520   129576705.89807  24657627.560   100968863.83845
  20675255.440   108649215.30709  20675252.480    84661732.13348
  22278323.860   117073555.35209  22278321.140    91226219.60647
  21803413.340   114577744.96809  21803408.780    89281366.55048
  24296640.040   127679709.00607  24296637.680    99490672.16445
  20986404.500   110284507.33209  20986399.620    85936034.77448
  20630334.760   108413235.09409  20630334.320    84477873.91349
  21327216.520   113806134.20109  21327219.200    88515899.63207
  20825912.720   111482855.19608  20825913.340    86708935.87108
  22417373.320   119707525.61308  22417375.160    93105861.12505
  23381939.900   124945850.16607  23381952.300    97180082.49906
  21129806.040   112871627.79508  21129808.140    87789048.70207
  21547141.820   115303099.56308  21547142.420    89680191.79307
  20255132.580   108123282.28209  20255135.640    84095899.92008
  23088594.380   123508417.87907  23088595.380    96062104.65606
 15 03 04 01 40  0.0000000  0 17G04G07G11G16G18G19G21G22G27R02R03R09
                                R15R16R17R18R19
  22970034.420   120708548.25209  22970034.600    94058684.20646
  24429731.820   128379104.42706  24429731.520   100035666.13745
  24640365.060   129485993.34707  24640365.380   100898178.96044
  20682755.580   108688628.80109  20682752.580    84692443.93248
  22286500.220   117116522.63709  22286497.480    91259700.61247
  21792535.360   114520580.55909  21792530.700    89236822.86448
  24310926.460   127754785.08307  24310924.200    99549172.96745
  20982081.300   110261789.32309  20982076.540    85918332.44348
  20625753.980   108389162.85409  20625753.460    84459116.33049
  21333748.840   113840991.89409  21333751.460    88543011.18307
  20810834.000   111402138.01008  20810834.600    86646155.87308
  22408919.020   119662380.29108  22408921.060    93070748.09905
  23405690.640   125072764.37307  23405703.180    97278793.08206
  21140778.140   112930239.18008  21140780.260    87834635.30507
  21556872.700   115355171.17308  21556873.320    89720691.92207
  20252654.700   108110055.41209  20252657.780    84085612.35708
  23075292.540   123437263.55007  23075293.820    96006762.46706
 15 03 04 01 40 30.0000000  0 17G04G07G11G16G18G19G21G22G27R02R03R09
                                R15R16R17R18R19
  22954071.540   120624662.76709  22954071.520    93993318.97845
  24429219.160   128376410.43307  24429218.120   100033566.84044
  24623118.500   129395363.26407  24623118.740   100827558.31444
  20690356.320   108728570.94909  20690353.340    84723567.66948
  22294759.480   117159925.36809  22294756.740    91293520.91547
  21781685.360   114463563.62609  21781680.760    89192394.10448
  24325210.900   127829850.64807  24325208.580    99607665.60745
  20977857.020   110239590.96509  20977852.300    85901035.04248
  20621218.000   108365325.97909  20621217.400    84440542.13949
  21340423.900   113876610.82609  21340426.340    88570714.80307
  20795863.840   111322001.85508  20795864.400    86583827.78208
  22400600.060   119617957.03608  22400601.680    93036196.64905
  23429440.600   125199674.89307  23429453.400    97377500.76506
  21151875.440   112989519.63508  21151877.680    87880742.29707
  21566625.160   115407358.54808  21566625.860    89761282.06507
  20250206.040   108096984.11109  20250209.180    84075445.79408
  23061993.680   123366125.33908  23061995.420    95951432.78507
 15 03 04 01 41  0.0000000  0 17G04G07G11G16G18G19G21G22G27R02R03R09
                                R15R16R17R18R19
  22938152.200   120541006.19708  22938152.060    93928132.12245
  24428803.420   128374224.81107  24428801.940   100031863.71944
  24605888.100   129304817.16808  24605887.840   100757003.08744
  20698057.700   108769041.88509  20698054.760    84755103.44048
  22303101.540   117203763.31509  22303098.740    91327680.35947
  21770863.720   114406696.00209  21770859.180    89148081.67248
  24339493.480   127904905.91007  24339491.100    99666150.19845
  20973732.100   110217914.30409  20973727.300    85884144.14548
  20616727.160   108341726.47909  20616726.580    84422152.92349
  21347241.440   113912990.48109  21347243.880    88599010.08407
  20781003.140   111242451.50908  20781003.720    86521955.32007
  22392416.840   119574258.59308  22392418.600    93002209.00904
  23453189.200   125326578.37307  23453202.180    97476202.99206
  21163097.600   113049466.69308  21163099.900    87927367.75307
  21576399.580   115459663.46308  21576400.380    89801963.65307
  20247786.740   108084069.56909  20247789.840    84065401.15408
  23048697.940   123295003.93307  23048700.280    95896116.19207
 15 03 04 01 41 30.0000000  0 17G04G07G11G16G18G19G21G22G27R02R03R09
                                R15R16R17R18R19
  22922277.520   120457584.30909  22922277.240    93863128.13946
  24428485.100   128372551.96307  24428482.940   100030560.22944
  24588674.600   129214360.46707  24588674.280   100686517.53044
  20705860.580   108810046.14309  20705857.620    84787054.79748
  22311527.180   117248039.93709  22311524.320    91362181.62747
  21760071.540   114349983.51009  21760067.140    89103890.14648
  24353774.860   127979955.15208  24353772.560    99724630.07645
  20969707.540   110196765.05609  20969702.740    85867664.22648
  20612282.680   108318370.58709  20612282.100    84403953.52249
  21354202.280   113950134.78509  21354204.780    88627900.11007
  20766253.560   111163496.09108  20766254.140    86460545.58708
  22384370.780   119531291.93608  22384372.220    92968790.46205
  23476936.820   125453476.53907  23476949.940    97574901.04706
  21174444.900   113110081.90108  21174447.340    87974512.88107
  21586196.980   115512091.54908  21586197.920    89842741.02607
  20245397.840   108071317.21009  20245400.700    84055482.66108
  23035406.440   123223904.25807  23035408.980    95840816.47606
 15 03 04 01 42  0.0000000  0 17G04G07G11G16G18G19G21G22G27R02R03R09
                                R15R16R17R18R19
  22906446.960   120374394.41408  22906446.700    93798304.93546
  24428263.760   128371387.98607  24428260.960   100029653.16445
  24571477.580   129123990.52308  24571477.540   100616099.60544
  20713764.060   108851579.23209  20713761.060    84819418.23048
  22320035.340   117292750.33009  22320032.380    91397020.89647
  21749308.380   114293423.78609  21749304.160    89059817.65348
  24368054.420   128054994.33408  24368051.980    99783102.16845
  20965782.800   110176140.60509  20965778.140    85851593.24048
  20607884.120   108295256.15009  20607883.600    84385942.27949
  21361305.420   113988038.81309  21361308.000    88657381.02307
  20751615.320   111085136.39508  20751615.840    86399599.18608
  22376461.480   119489055.39108  22376462.820    92935939.82005
  23500682.040   125580361.93807  23500695.300    97673589.18006
  21185916.000   113171358.36208  21185918.560    88022172.32007
  21596016.900   115564639.72408  21596017.900    89883611.81207
  20243038.740   108058724.30209  20243041.500    84045688.18308
  23022118.580   123152822.69707  23022120.520    95785530.84806
 15 03 04 01 42 30.0000000  0 17G04G07G11G16G18G19G21G22G27R02R03R09
                                R15R16R17R18R19
  22890661.000   120291438.75309  22890660.700    93733664.23346
  24428139.720   128370733.83108  24428137.380   100029143.42145
  24554297.540   129033709.34708  24554297.500   100545750.80944
  20721768.300   108893641.78709  20721765.220    84852194.22248
  22328626.040   117337894.71409  22328623.060    91432198.32446
  21738574.720   114237018.95809  21738570.740    89015865.83248
  24382332.320   128130024.29607  24382329.880    99841567.02845
  20961958.300   110156043.06909  20961953.800    85835932.82048
  20603531.940   108272385.65309  20603531.500    84368121.10849
  21368550.980   114026702.52509  21368553.580    88687452.78507
  20737089.300   111007377.52408  20737089.800    86339120.09108
  22368689.300   119447551.90808  22368690.440    92903659.33205
  23524424.420   125707231.80807  23524437.700    97772265.31806
  21197510.620   113233294.24408  21197513.300    88070344.63707
  21605859.580   115617310.12008  21605860.660    89924577.62808
  20240709.700   108046292.22009  20240712.600    84036018.78408
  23008834.340   123081760.75108  23008835.360    95730260.44006
 15 03 04 01 43  0.0000000  0 18G04G07G11G16G18G19G21G22G27R02R03R04
                                R09R15R16R17R18R19
  22874919.780   120208718.47209  22874919.520    93669206.96846
  24428112.520   128370588.74507  24428110.500   100029030.37944
  24537134.340   128943517.18907  24537134.460   100475471.36744
  20729873.160   108936233.14509  20729870.080    84885382.28748
  22337299.120   117383472.22509  22337296.120    91467713.28246
  21727870.740   114180770.47709  21727867.020    88972035.85948
  24396608.400   128205044.80907  24396605.820    99900024.53445
  20958234.400   110136473.80809  20958229.900    85820684.06448
  20599226.500   108249760.56809  20599226.100    84350491.18049
  21375938.760   114066124.87409  21375941.220    88718114.63207
  20722676.360   110930223.79108  20722676.760    86279111.66608
  23566371.100   126196844.55308  23566379.180    98153125.67606
  22361054.700   119406783.52508  22361056.080    92871950.60305
  23548163.260   125834083.37407  23548176.660    97870927.36206
  21209228.100   113295886.15208  21209230.760    88119027.20007
  21615725.120   115670103.24908  21615726.320    89965638.92808
  20238411.000   108034022.04309  20238414.100    84026475.31308
  22995553.920   123010718.36708  22995554.740    95675005.29507
 15 03 04 01 43 30.0000000  0 18G04G07G11G16G18G19G21G22G27R02R03R04
                                R09R15R16R17R18R19
  22859223.600   120126234.90809  22859223.360    93604934.13246
  24428181.840   128370952.77407  24428179.660   100029314.01244
  24519988.500   128853415.98808  24519988.620   100405262.80944
  20738078.540   108979352.65809  20738075.480    84918981.88548
  22346054.440   117429481.71609  22346051.360    91503564.82946
  21717196.820   114124679.72609  21717193.220    88928328.78748
  24410882.580   128280055.77707  24410880.000    99958474.59544
  20954611.320   110117434.42009  20954606.720    85805848.19248
  20594968.140   108227382.90609  20594967.760    84333054.04549
  21383468.460   114106304.76109  21383471.000    88749365.65407
  20708377.280   110853679.83308  20708377.660    86219577.49908
  23541638.460   126064403.94207  23541646.780    98050116.79506
  22353558.060   119366752.63508  22353559.600    92840815.49705
  23571897.660   125960911.50207  23571911.240    97969571.16506
  21221067.900   113359131.33908  21221070.440    88168217.86107
  21625614.040   115723020.65708  21625615.100    90006796.89108
  20236142.880   108021914.80109  20236146.040    84017058.56908
  22982277.260   122939696.29308  22982278.200    95619765.94306
 15 03 04 01 44  0.0000000  0 18G04G07G11G16G18G19G21G22G27R02R03R04
                                R09R15R16R17R18R19
  22843572.040   120043985.81508  22843571.800    93540843.99946
  24428347.320   128371822.36707  24428344.620   100029991.61044
  24502859.700   128763403.38408  24502859.680   100335123.30044
  20746383.880   109022997.43609  20746380.880    84952990.78648
  22354891.220   117475919.25609  22354888.060    91539749.93346
  21706552.640   114068744.75509  21706549.020    88884743.10148
  24425154.240   128355053.34608  24425151.320   100016914.26445
  20951088.500   110098922.34909  20951083.940    85791423.21448
  20590756.560   108205250.83509  20590756.120    84315808.27749
  21391139.380   114147237.88909  21391141.820    88781202.54307
  20694192.280   110777746.87508  20694192.720    86160518.56308
  23516901.520   125931941.20107  23516910.080    97947090.93106
  22346199.320   119327457.74608  22346200.860    92810252.80205
  23595626.540   126087710.12007  23595640.280    98068191.96906
  21233028.740   113423023.23508  21233031.200    88217911.51807
  21635525.700   115776059.78008  21635526.880    90048049.51308
  20233904.840   108009967.87709  20233908.100    84007766.51908
  22969003.620   122868691.41107  22969004.520    95564539.94607
 15 03 04 01 44 30.0000000  0 18G04G07G11G16G18G19G21G22G27R02R03R04
                                R09R15R16R17R18R19
  22827965.520   119961973.50009  22827965.280    93476938.37645
  24428609.140   128373198.46908  24428605.340   100031063.89143
  24485748.040   128673481.23508  24485747.900   100265054.24644
  20754789.300   109067167.95809  20754786.320    84987409.35948
  22363809.500   117522785.19909  22363806.360    91576268.85246
  21695938.800   114012968.67609  21695935.060    88841281.23048
  24439423.700   128430039.08408  24439420.520   100075344.73644
  20947666.460   110080939.76209  20947662.000    85777410.81948
  20586592.280   108183367.14909  20586591.800    84298756.06149
  21398951.440   114188924.10609  21398953.780    88813625.15207
  20680122.400   110702430.00208  20680122.860    86101938.79808
  23492161.560   125799462.51907  23492170.120    97844052.84306
  22338979.140   119288902.21908  22338980.720    92780265.18305
  23619349.380   126214476.61907  23619363.240    98166787.73805
  21245110.260   113487559.92908  21245112.640    88268106.67907
  21645460.420   115829222.84308  21645461.780    90089398.54507
  20231697.220   107998183.45109  20231700.500    83998600.85908
  22955733.460   122797705.19807  22955734.260    95509328.49606
 15 03 04 01 45  0.0000000  0 18G04G07G11G16G18G19G21G22G27R02R03R04
                                R09R15R16R17R18R19
  22812404.080   119880197.95408  22812403.820    93413217.23245
  24428967.280   128375079.35408  24428962.720   100032529.41844
  24468653.320   128583648.74508  24468653.080   100195055.06344
  20763294.320   109111861.95909  20763291.340    85022235.83748
  22372808.840   117570077.12609  22372805.680    91613119.70046
  21685355.180   113957350.90709  21685351.240    88797942.71748
  24453690.560   128505011.48208  24453687.560   100133764.75645
  20944345.240   110063486.42309  20944340.760    85763810.82848
  20582475.340   108161732.23909  20582474.840    84281897.69549
  21406904.120   114231360.99109  21406906.560    88846631.61707
  20666168.200   110627732.26208  20666168.760    86043840.58508
  23467418.960   125666970.34007  23467427.640    97741004.23806
  22331897.500   119251086.28508  22331898.980    92750852.78604
  23643065.340   126341205.91107  23643079.360    98265354.50106
  21257311.560   113552736.87008  21257313.860    88318799.82007
  21655418.280   115882509.50208  21655419.540    90130843.70007
  20229519.960   107986560.94309  20229523.300    83989561.14008
  22942466.480   122726736.69707  22942467.520    95454130.79307
 15 03 04 01 45 30.0000000  0 17G04G07G11G16G18G19G21G22G27R02R03R04
                                R09R16R17R18R19
  22796887.840   119798660.02009  22796887.560    93349681.26445
  24429421.620   128377465.03208  24429417.180   100034388.34744
  24451576.040   128493907.40308  24451575.720   100125126.90944
  20771898.760   109157078.43309  20771895.740    85057469.44148
  22381889.080   117617794.06709  22381886.080    91650301.72447
  21674801.960   113901892.86809  21674797.820    88754728.68348
  24467954.760   128579969.90208  24467952.000   100192173.88945
  20941124.960   110046563.44309  20941120.420    85750624.10748
  20578406.000   108140347.61809  20578405.480    84265234.34849
  21414997.260   114274547.24909  21414999.680    88880220.94707
  20652330.380   110553657.94108  20652331.020    85986227.25108
  23442674.720   125534469.30007  23442683.260    97637948.78906
  22324954.700   119214011.91808  22324956.040    92722017.17105
  21269632.060   113618550.65808  21269634.320    88369988.27807
  21665399.520   115935920.78908  21665400.720    90172385.78208
  20227373.200   107975101.24009  20227376.440    83980648.04608
  22929202.820   122655785.94507  22929204.120    95398946.88807
 15 03 04 01 46  0.0000000  0 17G04G07G11G16G18G19G21G22G27R02R03R04
                                R09R16R17R18R19
  22781417.620   119717363.91708  22781417.380    93286333.71246
  24429972.300   128380357.41408  24429968.260   100036642.14145
  24434516.820   128404260.89708  24434516.300   100055272.62345
  20780603.220   109202820.57409  20780600.180    85093112.64948
  22391050.540   117665937.67309  22391047.600    91687816.22247
  21664279.960   113846598.86709  21664275.600    88711642.45648
  24482216.700   128654917.41507  24482214.220   100250574.49645
  20938006.400   110030175.36309  20938001.800    85737854.18948
  20574385.160   108119217.76709  20574384.600    84248769.53349
  21423231.120   114318484.38409  21423233.460    88914394.27207
  20638610.400   110480214.38108  20638611.100    85929104.50708
  23417930.120   125401966.85507  23417938.660    97534892.37506
  22318151.720   119177683.87408  22318152.800    92693761.99304
  21282071.740   113685001.07508  21282074.060    88421671.89007
  21675404.700   115989460.58408  21675405.840    90214027.79707
  20225257.700   107963808.19909  20225260.860    83971864.56208
  22915942.720   122584856.38707  22915944.640    95343779.51007
 15 03 04 01 46 30.0000000  0 17G04G07G11G16G18G19G21G22G27R02R03R04
                                R09R16R17R18R19
  22765992.520   119636304.93709  22765992.280    93223170.94746
  24430618.060   128383750.63808  24430614.160   100039286.18745
  24417474.640   128314704.43308  24417474.100    99985488.52944
  20789406.380   109249081.43209  20789403.360    85129160.05048
  22400291.960   117714501.32909  22400288.900    91725658.03447
  21653788.320   113791464.41209  21653783.800    88668680.56448
  24496475.320   128729848.07507  24496473.000   100308961.95945
  20934988.600   110014316.81709  20934983.920    85725496.88448
  20570412.000   108098338.55509  20570411.420    84232500.01549
  21431604.300   114363165.47909  21431606.800    88949146.22907
  20625007.940   110407399.80308  20625008.620    85872470.96908
  23393184.980   125269461.56707  23393193.320    97431833.83506
  22311487.720   119142098.35808  22311488.880    92666084.37905
  21294628.820   113752079.09808  21294631.280    88473843.64207
  21685432.980   116043123.93308  21685434.200    90255765.92507
  20223172.520   107952676.96909  20223175.400    83963206.93908
  22902685.660   122513942.48707  22902687.900    95288624.29107
 15 03 04 01 47  0.0000000  0 17G04G07G11G16G18G19G21G22G27R02R03R04
                                R09R16R17R18R19
  22750612.860   119555484.61509  22750612.540    93160194.14046
  24431358.960   128387644.44608  24431355.680   100042320.30646
  24400449.800   128225239.04908  24400449.300    99915775.36144
  20798308.220   109295860.77209  20798305.280    85165611.46448
  22409613.140   117763484.33209  22409610.040    91763826.60647
  21643327.380   113736491.27309  21643322.700    88625844.36248
  24510730.840   128804761.68807  24510728.380   100367336.22145
  20932071.820   109998989.00809  20932067.140    85713553.14749
  20566486.920   108077711.94709  20566486.280    84216427.32749
  21440116.640   114408589.23908  21440119.240    88984475.81407
  20611523.920   110335218.89008  20611524.600    85816330.28008
  23368440.160   125136958.00807  23368448.180    97328776.66106
  22304962.920   119107257.23208  22304964.060    92638985.72405
  21307302.760   113819781.60108  21307305.480    88526501.10907
  21695484.640   116096912.17208  21695485.900    90297601.19808
  20221117.800   107941708.59809  20221120.480    83954675.97308
  22889432.040   122443044.81907  22889434.040    95233481.71107
 15 03 04 01 47 30.0000000  0 17G04G07G11G16G18G19G21G22G27R02R03R04
                                R09R16R17R18R19
  22735279.080   119474905.17009  22735278.760    93097405.03646
  24432195.360   128392039.85508  24432192.840   100045745.31946
  24383442.760   128135867.45108  24383442.260    99846135.32844
  20807308.900   109343159.47009  20807305.980    85202467.58248
  22419014.140   117812886.83109  22419011.040    91802322.06647
  21632897.740   113681682.13809  21632892.840    88583135.95348
  24524983.620   128879660.55807  24524981.140   100425698.97545
  20929256.600   109984194.68609  20929251.920    85702025.12249
  20562610.420   108057340.83909  20562609.760    84200553.73349
  21448768.140   114454755.45309  21448770.760    89020382.87107
  20598159.240   110263676.64208  20598159.960    85760686.34308
  23343696.600   125004461.89807  23343704.480    97225725.19506
  22298578.140   119073163.62208  22298579.500    92612468.47105
  21320093.320   113888106.74608  21320096.140    88579642.84707
  21705560.040   116150827.64808  21705561.240    90339535.42907
  20219094.000   107930905.46709  20219096.620    83946273.54008
  22876181.800   122372165.18407  22876183.840    95178353.16107
 15 03 04 01 48  0.0000000  0 17G04G07G11G16G18G19G21G22G27R02R03R04
                                R09R16R17R18R19
  22719991.280   119394567.28609  22719990.960    93034804.14846
  24433127.000   128396935.90808  24433124.880   100049560.42346
  24366453.480   128046589.65908  24366452.880    99776568.36444
  20816408.200   109390976.43109  20816405.280    85239727.53748
  22428494.720   117862707.69609  22428491.620    91841143.52347
  21622499.620   113627038.61609  21622494.620    88540556.59448
  24539233.360   128954543.13408  24539230.900   100484048.97545
  20926542.960   109969934.30609  20926538.320    85690913.14848
  20558782.780   108037226.43909  20558782.080    84184880.17049
  21457558.500   114501662.51709  21457561.020    89056866.15607
  20584914.600   110192777.02008  20584915.280    85705542.22208
  23318955.380   124871977.50008  23318962.980    97122682.73406
  22292333.420   119039818.59608  22292334.840    92586533.45405
  21332999.720   113957050.57608  21333002.600    88633265.78007
  21715659.320   116204870.97308  21715660.440    90381569.10107
  20217101.180   107920267.96009  20217103.800    83937999.92608
  22862935.380   122301303.61808  22862936.640    95123238.62706
 15 03 04 01 48 30.0000000  0 17G04G07G11G16G18G19G21G22G27R02R03R04
                                R09R16R17R18R19
  22704748.940   119314468.43209  22704748.640    92972389.53146
  24434153.200   128402328.68608  24434150.960   100053762.57145
  24349481.700   127957403.37008  24349480.900    99707072.67744
  20825605.240   109439307.13609  20825602.280    85277387.81348
  22438053.900   117912941.70809  22438050.900    91880286.90747
  21612132.400   113572557.91609  21612127.380    88498104.12548
  24553479.260   129029405.37307  24553476.580   100542383.18845
  20923930.380   109956205.07109  20923925.680    85680215.04749
  20555003.600   108017366.72709  20555002.940    84169405.07049
  21466486.740   114549305.10809  21466489.180    89093921.50007
  20571790.120   110122520.68908  20571790.720    85650898.43708
  23294216.400   124739505.40407  23294223.840    97019649.76306
  22286228.660   119007220.35908  22286230.340    92561179.28005
  21346020.620   114026606.09208  21346023.640    88687364.46507
  21725782.060   116259039.46008  21725783.080    90423700.11707
  20215138.960   107909793.31309  20215141.520    83929852.96908
  22849691.640   122230456.40207  22849692.340    95068135.27707
 15 03 04 01 49  0.0000000  0 18G04G07G11G16G18G19G21G22G27G32R02R03
                                R04R09R16R17R18R19
  22689552.640   119234611.37109  22689552.280    92910163.31946
  24435274.340   128408219.37608  24435271.880   100058352.69145
  24332527.840   127868311.06708  24332526.940    99637650.22945
  20834900.300   109488152.91409  20834897.340    85315449.43748
  22447691.840   117963589.56309  22447688.960    91919752.75447
  21601796.640   113518243.11009  21601791.640    88455780.92048
  24567721.580   129104249.54907  24567718.860   100600703.29245
  20921419.380   109943009.82709  20921414.640    85669933.04748
  20551273.500   107997765.03509  20551272.840    84154131.01849
  24501775.800                                                  
  21475552.840   114597683.53109  21475555.280    89131549.17107
  20558786.820   110052913.05108  20558787.360    85596759.18708
  23269480.900   124607051.91708  23269488.160    96916631.22906
  22280264.400   118975372.09708  22280266.240    92536408.42305
  21359155.760   114096771.76208  21359158.800    88741937.72207
  21735928.700   116313335.82908  21735929.800    90465930.59308
  20213207.740   107899484.26809  20213210.340    83921834.82308
  22836451.000   122159626.05608  22836451.360    95013045.00507
 15 03 04 01 49 30.0000000  0 18G04G07G11G16G18G19G21G22G27G32R02R03
                                R04R09R16R17R18R19
  22674402.020   119154994.26809  22674401.420    92848124.07946
  24436489.300   128414604.07608  24436487.240   100063327.79845
  24315591.580   127779310.66508  24315590.960    99568299.40144
  20844292.540   109537509.53409  20844289.620    85353909.12948
  22457407.760   118014647.44309  22457404.960    91959538.11947
  21591492.160   113464092.93609  21591487.280    88413585.98548
  24581959.980   129179072.42508  24581957.460   100659006.80145
  20919009.520   109930346.01909  20919004.740    85660065.15548
  20547592.240   107978420.00109  20547591.620    84139056.96249
  24479229.520   128639216.80406  24479236.440   100238366.58741
  21484755.880   114646793.23609  21484758.560    89169745.59607
  20545904.940   109983955.43808  20545905.480    85543125.51408
  23244749.260   124474618.63108  23244756.160    96813628.32506
  22274440.560   118944272.48308  22274442.500    92512219.85205
  21372403.960   114167541.03608  21372406.980    88796980.45407
  21746098.900   116367758.35608  21746100.100    90508259.18407
  20211307.120   107889338.78109  20211309.700    83913943.89708
  22823212.920   122088809.53408  22823212.880    94957965.54207
 15 03 04 01 50  0.0000000  0 18G04G07G11G16G18G19G21G22G27G32R02R03
                                R04R09R16R17R18R19
  22659298.280   119075623.40809  22659297.440    92786276.73446
  24437799.100   128421487.64408  24437796.480   100068691.57245
  24298674.020   127690408.46508  24298673.240    99499025.09544
  20853782.820   109587381.35609  20853779.900    85392770.27648
  22467202.380   118066119.00808  22467199.680    91999645.83847
  21581220.100   113410113.65009  21581215.440    88371524.22948
  24596195.340   129253878.83307  24596192.640   100717297.51245
  20916702.020   109918220.23009  20916697.300    85650616.50449
  20543961.120   107959338.36009  20543960.540    84124188.16949
  24456685.380   128520747.35508  24456687.600   100146047.20555
  21494096.620   114696637.66809  21494099.480    89208513.49807
  20533146.300   109915656.89008  20533146.760    85490004.45508
  23220023.220   124342215.07607  23220029.880    96710648.53406
  22268758.240   118913927.95408  22268760.000    92488618.54305
  21385765.480   114238915.54408  21385768.440    88852493.92007
  21756293.760   116422312.73208  21756294.940    90550690.35207
  20209438.320   107879362.89009  20209440.920    83906184.88208
  22809978.620   122018012.69908  22809978.020    94902901.38007
 15 03 04 01 50 30.0000000  0 18G04G07G11G16G18G19G21G22G27G32R02R03
                                R04R09R16R17R18R19
  22644240.740   118996495.17509  22644239.660    92724618.42846
  24439202.920   128428865.03308  24439200.120   100074440.17145
  24281774.340   127601600.45208  24281773.280    99429824.17944
  20863370.260   109637763.76909  20863367.380    85432029.28948
  22477074.760   118117998.87009  22477072.140    92040071.70047
  21570980.000   113356302.11609  21570975.520    88329593.16348
  24610426.620   129328664.13107  24610423.380   100775571.78344
  20914496.120   109906628.41309  20914491.440    85641583.93249
  20540379.600   107940517.27209  20540378.960    84109522.37849
  24434142.720   128402285.35006  24434148.440   100053730.81441
  21503573.960   114747210.88009  21503576.840    89247848.20707
  20520510.620   109848016.94508  20520511.000    85437395.63608
  23195302.980   124209841.71507  23195309.280    96607692.16506
  22263216.840   118884335.75308  22263218.160    92465602.37205
  21399238.840   114310887.33408  21399241.720    88908471.94007
  21766512.740   116476995.79808  21766513.700    90593221.61507
  20207600.660   107869553.15809  20207603.200    83898555.09608
  22796746.820   121947231.09807  22796746.020    94847849.03707
 15 03 04 01 51  0.0000000  0 18G04G07G11G16G18G19G21G22G27G32R02R03
                                R04R09R16R17R18R19
  22629229.740   118917611.53309  22629228.580    92663150.70846
  24440700.660   128436736.31407  24440697.340   100080573.57745
  24264892.800   127512888.25108  24264891.820    99360697.90544
  20873054.760   109688656.23909  20873051.900    85471685.74148
  22487024.700   118170286.64309  22487022.140    92080815.41846
  21560772.220   113302660.50309  21560767.960    88287794.51048
  24624653.840   129403429.04706  24624650.520   100833830.10844
  20912392.200   109895572.26209  20912387.500    85632968.75448
  20536848.140   107921959.21709  20536847.460    84095061.55849
  24411603.220   128283837.05608  24411608.900    99961448.18745
  21513187.680   114798511.94609  21513190.560    89287749.02607
  20507998.780   109781040.20108  20507999.220    85385302.63208
  23170589.340   124077503.37308  23170595.280    96504763.00706
  22257816.620   118855498.08908  22257817.820    92443173.08805
  21412823.540   114383453.91708  21412826.240    88964912.57407
  21776756.060   116531809.34008  21776756.900    90635854.34307
  20205794.420   107859911.40609  20205797.080    83891055.95808
  22783517.980   121876466.37107  22783517.560    94792809.84407
 15 03 04 01 51 30.0000000  0 18G04G07G11G16G18G19G21G22G27G32R02R03
                                R04R09R16R17R18R19
  22614265.580   118838974.10509  22614264.320    92601874.83946
  24442292.060   128445101.13007  24442289.400   100087091.59745
  24248029.960   127424273.89408  24248028.780    99291647.87844
  20882836.380   109740059.01509  20882833.500    85511739.82748
  22497052.360   118222982.09709  22497049.680    92121876.81147
  21550597.160   113249191.04009  21550593.120    88246130.00348
  24638877.240   129478174.05407  24638874.400   100892072.91545
  20910390.460   109885052.97909  20910385.700    85624771.91848
  20533367.180   107903666.47309  20533366.420    84080807.45749
  24389066.780   128165406.44208  24389074.000    99869153.13045
  21522937.640   114850539.89908  21522940.540    89328215.21007
  20495611.680   109714731.39608  20495612.280    85333729.14308
  23145883.220   123945205.64808  23145888.800    96401865.40706
  22252558.140   118827416.98908  22252559.120    92421332.21605
  21426519.000   114456612.21308  21426521.640    89021813.41107
  21787023.980   116586754.86108  21787024.840    90678589.72607
  20204019.860   107850439.21009  20204022.560    83883688.69208
  22770292.440   121805719.41807  22770292.240    94737784.48207
 15 03 04 01 52  0.0000000  0 18G04G07G11G16G18G19G21G22G27G32R02R03
                                R04R09R16R17R18R19
  22599348.020   118760581.69509  22599346.740    92540789.90646
  24443976.780   128453957.27307  24443975.280   100093992.51745
  24231185.420   127335756.26408  24231184.540    99222673.21744
  20892714.460   109791968.76709  20892711.580    85552188.97548
  22507156.900   118276081.76908  22507154.220    92163253.16646
  21540454.860   113195893.66109  21540451.040    88204599.58048
  24653096.560   129552896.54108  24653094.020   100950298.21645
  20908490.640   109875069.44909  20908485.840    85616992.55948
  20529936.520   107885638.44009  20529935.840    84066759.64249
  24366534.060   128046995.18208  24366539.040    99776901.34646
  21532823.080   114903290.41308  21532826.000    89369243.39207
  20483349.660   109649092.30808  20483350.380    85282676.54708
  23121185.080   123812950.83207  23121190.420    96299001.14206
  22247441.020   118800091.58908  22247441.620    92400079.11304
  21440324.180   114530356.44308  21440326.760    89079169.98207
  21797316.400   116641831.28608  21797317.240    90721426.92107
  20202276.940   107841135.41909  20202279.620    83876452.40608
  22757069.780   121734988.24508  22757069.460    94682771.37907
 15 03 04 01 52 30.0000000  0 18G04G07G11G16G18G19G21G22G27G32R02R03
                                R04R09R16R17R18R19
  22584477.000   118682434.05309  22584475.660    92479895.69646
  24445754.500   128463302.37607  24445753.780   100101274.39345
  24214359.120   127247334.52708  24214358.120    99153773.29444
  20902688.560   109844383.02709  20902685.680    85593031.23748
  22517337.820   118329582.93309  22517335.100    92204942.39146
  21530345.260   113142767.67809  21530341.480    88163202.71048
  24667311.580   129627595.83507  24667308.960   101008505.44545
  20906692.640   109865621.12709  20906687.900    85609630.23548
  20526556.280   107867875.32509  20526555.620    84052918.25149
  24344005.280   127928604.45407  24344011.720    99684658.29844
  21542843.400   114956760.84108  21542846.300    89410831.49407
  20471213.260   109584125.27308  20471213.960    85232146.66008
  23096495.600   123680741.94007  23096500.740    96196172.58306
  22242465.280   118773521.67708  22242465.960    92379413.61304
  21454238.100   114604681.77508  21454240.640    89136978.52407
  21807633.180   116697038.28308  21807633.920    90764365.68207
  20200565.480   107831999.52709  20200568.260    83869346.70608
  22743849.920   121664271.94308  22743849.860    94627769.84407
 15 03 04 01 53  0.0000000  0 18G04G07G11G16G18G19G21G22G27G32R02R03
                                R04R09R16R17R18R19
  22569653.000   118604533.69809  22569651.740    92419194.18546
  24447625.760   128473137.25707  24447625.020   100108937.89745
  24197551.720   127159010.91808  24197550.800    99084949.79544
  20912758.820   109897302.62709  20912756.000    85634267.26648
  22527595.180   118383485.85508  22527592.380    92246944.67246
  21520268.860   113089815.81209  21520265.080    88121941.51648
  24681522.160   129702273.61206  24681519.440   101066695.86845
  20904996.940   109856710.19509  20904992.220    85602686.66248
  20523227.060   107850380.30809  20523226.420    84039285.76449
  24321481.320   127810239.08607                                
  21552998.600   115010950.39009  21553001.360    89452978.91607
  20459203.500   109519835.85208  20459204.120    85182143.79108
  23071815.860   123548585.07807  23071820.780    96093384.45406
  22237631.380   118747710.18908  22237632.380    92359338.01305
  21468260.380   114679586.09408  21468262.960    89195237.38907
  21817974.900   116752378.36008  21817975.640    90807407.93007
  20198885.940   107823034.17509  20198888.840    83862373.65008
  22730633.220   121593572.44107  22730633.220    94572781.36107
 15 03 04 01 53 30.0000000  0 18G04G07G11G16G18G19G21G22G27G32R02R03
                                R04R09R16R17R18R19
  22554875.080   118526875.75909  22554874.000    92358681.57746
  24449589.220   128483455.66608  24449588.820   100116978.24246
  24180762.040   127070780.98008  24180761.060    99016199.31444
  20922923.980   109950720.88709  20922921.160    85675891.87248
  22537927.720   118437783.78208  22537925.080    92289254.73746
  21510224.900   113037034.55409  21510221.120    88080813.27748
  24695727.240   129776923.06007  24695724.480   101124864.26444
  20903402.500   109848331.28809  20903397.760    85596157.65848
  20519948.080   107833149.17009  20519947.460    84025858.90649
  24298962.200   127691904.49808  24298967.480    99500194.47544
  21563287.140   115065851.75408  21563289.740    89495679.99207
  20447319.880   109456221.70808  20447320.460    85132666.15308
  23047145.720   123416479.34107  23047150.300    95990636.06606
  22232938.420   118722652.30308  22232940.040    92339848.56905
  21482389.220   114755059.69308  21482391.800    89253939.02107
  21828340.420   116807846.69608  21828341.100    90850549.94007
  20197237.420   107814234.41309  20197240.380    83855529.39708
  22717418.560   121522884.20408  22717418.780    94517801.64407
 15 03 04 01 54  0.0000000  0 18G04G07G11G16G18G19G21G22G27G32R02R03
                                R04R09R16R17R18R19
  22540144.460   118449466.37809  22540143.440    92298362.63646
  24451645.760   128494261.83707  24451645.280   100125398.57046
  24163991.460   126982650.76608  24163990.400    98947526.50944
  20933184.840   110004641.93909  20933182.000    85717908.26048
  22548336.140   118492480.40408  22548333.480    92331875.48346
  21500214.520   112984429.90209  21500210.740    88039822.64548
  24709928.160   129851549.85307  24709925.660   101183015.02044
  20901910.420   109840490.45909  20901905.680    85590047.92649
  20516720.580   107816188.68009  20516720.000    84012642.93149
  24276448.580   127573594.05607  24276454.240    99408004.32442
  21573709.620   115121468.15308  21573712.200    89538937.18107
  20435564.040   109393291.95608  20435564.660    85083720.81308
  23022486.860   123284434.08608  23022491.180    95887934.68806
  22228388.060   118698354.63308  22228390.000    92320950.35205
  21496624.900   114831104.27108  21496627.600    89313084.75007
  21838731.080   116863449.43108  21838731.880    90893796.49307
  20195621.100   107805606.47809  20195624.040    83848818.79508
  22704207.300   121452212.96807  22704207.660    94462835.15607
 15 03 04 01 54 30.0000000  0 18G04G07G11G16G18G19G21G22G27G32R02R03
                                R04R09R16R17R18R19
  22525461.400   118372306.96009  22525460.420    92238238.46946
  24453794.820   128505554.89007  24453794.420   100134198.31746
  24147239.980   126894621.57608  24147238.980    98878932.44344
  20943541.260   110059065.15409  20943538.440    85760315.93448
  22558820.260   118547574.71608  22558817.560    92374806.09746
  21490238.160   112932003.86309  21490234.300    87998971.18648
  24724124.840   129926153.92307  24724122.600   101241148.06045
  20900520.900   109833188.82909  20900516.200    85584358.34848
  20513545.020   107799500.92309  20513544.420    83999639.47249
  24253942.300                                                  
  21584265.860   115177798.03209  21584268.460    89582749.31107
  20423936.820   109331050.85008  20423937.400    85035311.08008
  22997840.340   123152454.40808  22997844.520    95785284.30206
  22223980.440   118674818.61308  22223982.460    92302644.55504
  21510966.920   114907716.86408  21510969.740    89372672.27806
  21849147.220   116919187.99508  21849148.060    90937148.69307
  20194037.280   107797151.92009  20194040.120    83842243.02608
  22690999.420   121381559.59308  22690999.660    94407882.54406
 15 03 04 01 55  0.0000000  0 18G04G07G11G16G18G19G21G22G27G32R02R03
                                R04R09R16R17R18R19
  22510825.580   118295395.42709  22510824.460    92178307.45646
  24456036.100   128517331.79208  24456035.640   100143375.09745
  24130507.400   126806691.03308  24130506.200    98810415.23344
  20953992.520   110113986.75509  20953989.700    85803111.96748
  22569379.360   118603062.88208  22569376.600    92418043.64046
  21480295.520   112879754.73709  21480291.480    87958257.59248
  24738316.680   130000732.67106  24738314.520   101299261.31345
  20899233.540   109826423.82009  20899228.880    85579086.92048
  20510421.020   107783084.41309  20510420.440    83986847.37849
  24231441.820   127337086.98908  24231447.700    99223712.35544
  21594954.800   115234836.35209  21594957.520    89627112.44307
  20412438.320   109269498.76008  20412438.900    84987437.25608
  22973206.340   123020542.07408  22973210.460    95682686.27806
  22219715.220   118652042.31708  22219717.120    92284929.64505
  21525413.900   114984890.27808  21525416.820    89432695.98507
  21859588.340   116975060.59308  21859589.260    90980605.13107
  20192485.640   107788868.75809  20192488.400    83835800.56208
  22677794.420   121310921.39408  22677794.660    94352941.70807
 15 03 04 01 55 30.0000000  0 18G04G07G11G16G18G19G21G22G27G32R02R03
                                R04R09R16R17R18R19
  22496236.620   118218730.32409  22496235.420    92118568.47846
  24458368.920   128529588.77908  24458368.280   100152925.97146
  24113793.240   126718857.70008  24113792.120    98741973.79344
  20964538.000   110169403.51309  20964535.180    85846293.84148
  22580012.700   118658941.16409  22580009.800    92461585.15646
  21470386.360   112827681.54009  21470382.220    87917681.08948
  24752503.160   130075283.20807  24752501.200   101357352.60245
  20898048.000   109820193.63409  20898043.320    85574232.24249
  20507348.500   107766938.41909  20507348.000    83974266.08649
  24208948.440   127218883.29808  24208954.680    99131605.56844
  21605775.720   115292578.75309  21605778.320    89672023.20507
  20401068.840   109208637.19608  20401069.420    84940100.51308
  22948585.320   122888698.93908  22948589.220    95580142.04106
  22215592.140   118630024.27708  22215594.000    92267804.50105
  21539964.720   115062618.56408  21539967.640    89493151.27207
  21870054.240   117031065.50008  21870055.200    91024164.47407
  20190965.880   107780755.43109  20190968.540    83829490.19908
  22664591.700   121240296.59307  22664592.240    94298011.33407
 15 03 04 01 56  0.0000000  0 18G04G07G11G16G18G19G21G22G27G32R02R03
                                R04R09R16R17R18R19
  22481694.980   118142313.72409  22481693.640    92059023.11946
  24460793.280   128542326.53308  24460792.360   100162851.45745
  24097097.880   126631123.43008  24097096.640    98673609.51744
  20975177.680   110225315.54509  20975174.880    85889861.64648
  22590720.340   118715209.80108  22590717.180    92505430.84946
  21460511.280   112775787.31309  21460506.980    87877244.03548
  24766684.640   130149806.74507  24766682.380   101415422.91244
  20896964.620   109814500.41809  20896959.920    85569795.97449
  20504328.040   107751065.72609  20504327.560    83961897.75249
  24186462.900   127100720.72508  24186469.300    99039531.00646
  21616728.500   115351024.44609  21616731.180    89717480.96407
  20389829.200   109148470.71008  20389829.820    84893304.37408
  22923978.300   122756931.08907  22923982.060    95477656.35406
  22211611.460   118608766.82108  22211613.000    92251270.91405
  21554618.900   115140899.05708  21554621.980    89554036.04407
  21880545.360   117087205.14808  21880546.100    91067828.63407
  20189478.380   107772814.35009  20189480.960    83823313.79108
  22651391.760   121169686.67307  22651392.520    94243092.52607
 15 03 04 01 56 30.0000000  0 18G04G07G11G16G18G19G21G22G27G32R02R03
                                R04R09R16R17R18R19
  22467201.280   118066149.11109  22467199.920    91999674.12346
  24463309.220   128555546.20808  24463307.620   100173152.47445
  24080422.100   126543492.06908  24080420.740    98605325.40744
  20985911.800   110281723.82109  20985909.000    85933816.12648
  22601502.300   118771869.25408  22601499.100    92549581.06446
  21450670.900   112724075.70409  21450666.540    87836949.29148
  24780861.500   130224305.91907  24780859.000   101473474.23444
  20895983.920   109809346.81509  20895979.140    85565780.19049
  20501360.360   107735470.30009  20501359.880    83949745.47149
  24163986.100   126982604.56707  24163992.380    98947492.75745
  21627813.000   115410173.62208  21627815.660    89763485.87207
  20378720.600   109089005.44908  20378721.220    84847053.62508
  22899386.560   122625245.28608  22899390.260    95375234.46006
  22207773.820   118588273.26908  22207775.300    92235331.48305
  21569376.300   115219730.79108  21569379.480    89615349.55307
  21891062.240   117143483.04308  21891062.920    91111600.31207
  20188023.640   107765048.77709  20188026.320    83817273.90108
  22638194.780   121099094.28607  22638195.880    94188187.37607
 15 03 04 01 57  0.0000000  0 18G04G07G11G16G18G19G21G22G27G32R02R03
                                R04R09R16R17R18R19
  22452755.220   117990234.76909  22452753.880    91940520.14346
  24465916.040   128569244.37507  24465914.020   100183826.34945
  24063765.420   126455961.45008  24063764.240    98537119.81444
  20996739.740   110338624.96409  20996736.880    85978154.65648
  22612357.900   118828915.87208  22612354.720    92594032.97446
  21440865.000   112672545.27809  21440860.660    87796795.73148
  24795032.880   130298777.21606  24795030.700   101531503.80145
  20895105.520   109804730.62409  20895100.620    85562183.16648
  20498445.260   107720151.12309  20498444.780    83937808.44249
  24141518.100   126864535.51808  24141524.320    98855491.38044
  21639028.400   115470021.74508  21639031.100    89810034.41107
  20367743.160   109030242.09908  20367743.700    84801348.81608
  22874810.620   122493643.70508  22874814.220    95272878.05606
  22204078.900   118568541.86308  22204080.100    92219984.82505
  21584235.680   115299107.01808  21584238.860    89677086.57206
  21901604.580   117199897.11108  21901605.380    91155477.89707
  20186601.380   107757457.23609  20186604.280    83811369.36608
  22625000.900   121028517.59307  22625001.980    94133294.41107
 15 03 04 01 57 30.0000000  0 17G04G11G16G18G19G21G22G27G32R02R03R04
                                R09R16R17R18R19
  22438357.340   117914573.65409  22438356.100    91881563.48346
  24047128.440   126368534.43608  24047127.460    98468994.98744
  21007661.600   110396019.56309  21007658.700    86022877.70448
  22623287.320   118886350.53008  22623284.280    92638787.24746
  21431094.340   112621199.96609  21431089.940    87756786.40748
  24809199.340   130373223.53006  24809197.540   101589513.83845
  20894329.940   109800654.72409  20894325.000    85559007.15049
  20495583.460   107705111.98609  20495582.920    83926089.63849
  24119059.980   126746519.00008  24119066.240    98763531.06145
  21650374.900   115530568.86808  21650377.680    89857126.61507
  20356897.960   108972186.81908  20356898.440    84756194.73908
  22850251.640   122362133.19008  22850255.200    95170592.46506
  22200527.220   118549575.79608  22200528.500    92205233.44005
  21599196.700   115379026.28808  21599199.980    89739245.94907
  21912173.100   117256451.04108  21912174.040    91199464.26007
  20185212.320   107750042.95609  20185215.400    83805602.71008
  22611810.560   120957959.15807  22611811.780    94078415.64907
 15 03 04 01 58  0.0000000  0 17G04G11G16G18G19G21G22G27G32R02R03R04
                                R09R16R17R18R19
  22424006.780   117839161.09909  22424005.600    91822800.50546
  24030510.540   126281206.86908  24030509.440    98400947.58944
  21018676.160   110453901.39309  21018673.220    86067980.40448
  22634289.260   118944166.07309  22634286.300    92683838.30746
  21421358.120   112570035.61609  21421353.660    87716918.09148
  24823360.220   130447639.56707  24823358.340   101647500.28444
  20893656.180   109797113.64109  20893651.180    85556247.86549
  20492774.140   107690348.67109  20492773.580    83914585.74849
  24096611.340   126628552.70308  24096617.520    98671610.13545
  21661850.860   115591806.81309  21661853.560    89904756.11807
  20346184.580   108914836.99708  20346184.980    84711589.33108
  22825709.480   122230712.45407  22825712.940    95068376.67206
  22197117.880   118531369.96908  22197119.160    92191073.32305
  21614257.560   115459478.64308  21614260.880    89801819.93807
  21922766.780   117313139.81008  21922767.500    91243555.49107
  20183855.620   107742801.25009  20183858.660    83799970.26408
  22598622.780   120887413.51307  22598624.320    94023546.85807
 15 03 04 01 58 30.0000000  0 17G04G11G16G18G19G21G22G27G32R02R03R04
                                R09R16R17R18R19
  22409703.680   117763997.87509  22409702.620    91764231.81446
  24013911.540   126193979.14508  24013910.380    98332978.02645
  21029783.080   110512268.61709  21029780.160    86113461.34248
  22645363.400   119002360.96108  22645360.440    92729184.98346
  21411656.520   112519053.33809  21411652.100    87677191.64348
  24837515.160   130522023.84707  24837513.020   101705462.08644
  20893084.260   109794107.80109  20893079.200    85553905.66649
  20490017.600   107675862.69309  20490017.000    83903297.96749
  24074172.600   126510639.47608  24074178.780    98579730.76345
  21673455.940   115653733.34109  21673458.720    89952921.19107
  20335603.540   108858195.96908  20335603.960    84667535.22208
  22801184.960   122099386.08907  22801188.340    94966234.28006
  22193850.840   118513924.84708  22193852.220    92177504.91305
  21629417.540   115540460.27608  21629420.900    89864805.60107
  21933385.780   117369964.54508  21933386.440    91287752.50107
  20182531.420   107735732.95209  20182534.540    83794472.69908
  22585437.600   120816880.69307  22585439.220    93968688.04207
 15 03 04 01 59  0.0000000  0 17G04G11G16G18G19G21G22G27G32R02R03R04
                                R09R16R17R18R19
  22395448.940   117689088.50309  22395447.840    91705860.93046
  23997332.460   126106855.64108  23997331.360    98265089.67844
  21040982.920   110571124.32609  21040980.080    86159322.92148
  22656510.200   119060937.81708  22656507.140    92774829.29146
  21401990.500   112468258.24109  21401986.160    87637611.06248
  24851664.900   130596380.56806  24851662.700   101763402.46444
  20892615.000   109791641.40209  20892609.840    85551983.80149
  20487314.860   107661659.25409  20487314.160    83892230.34449
  24051744.980   126392786.02808  24051751.260    98487898.02545
  21685190.360   115716350.09908  21685193.200    90001623.11807
  20325156.180   108802270.61208  20325156.620    84624037.74308
  22776679.540   121968162.17408  22776682.820    94864171.55606
  22190727.200   118497245.21908  22190728.700    92164531.85505
  21644676.620   115621971.19208  21644680.000    89928202.92207
  21944031.080   117426929.55908  21944031.780    91332058.59008
  20181240.640   107728842.96909  20181243.820    83789113.82108
  22572255.880   120746365.31008  22572257.140    93913842.74307
 15 03 04 01 59 30.0000000  0 17G04G11G16G18G19G21G22G27G32R02R03R04
                                R09R16R17R18R19
  22381242.420   117614432.46809  22381241.280    91647687.44046
  23980773.220   126019836.22108  23980771.880    98197282.41844
  21052275.180   110630465.69009  21052272.340    86205562.92648
  22667729.180   119119894.08108  22667726.120    92820769.22646
  21392360.280   112417650.81309  21392355.940    87598176.71248
  24865809.080   130670708.61506  24865806.980   101821320.35944
  20892248.100   109789713.14609  20892242.860    85550481.27049
  20484665.920   107647738.84909  20484665.180    83881383.27749
  24029329.040   126274994.29508  24029335.300    98396113.39245
  21697053.380   115779653.43708  21697056.100    90050859.06207
  20314842.960   108747063.33908  20314843.420    84581098.77608
  22752194.020   121837044.42707  22752197.080    94762191.40306
  22187746.800   118481330.28408  22187748.220    92152153.57405
  21660033.840   115704006.17908  21660037.140    89992007.85107
  21954702.620   117484034.97508  21954703.560    91376473.88907
  20179983.360   107722131.22909  20179986.380    83783893.58108
  22559077.180   120675866.70108  22559078.060    93859010.49507
 15 03 04 02 00  0.0000000  0 17G04G11G16G18G19G21G22G27G32R02R03R04
                                R09R16R17R18R19
  22367083.760   117540027.90809  22367082.540    91589709.91046
  23964233.340   125932918.39708  23964231.740    98129554.30945
  21063659.160   110690288.99009  21063656.320    86252178.46448
  22679019.460   119179225.20008  22679016.440    92867001.25946
  21382765.400   112367229.37809  21382761.140    87558887.29548
  24879947.380   130745005.53607  24879945.480   101879213.97645
  20891983.200   109788321.10009  20891977.920    85549396.56749
  20482070.520   107634100.06409  20482069.820    83870755.64849
  24006924.920   126157264.67708  24006930.940    98304377.16945
  21709044.120   115843638.24308  21709046.960    90100625.01807
  20304664.020   108692574.77008  20304664.460    84538718.79208
  22727728.620   121706034.41308  22727731.500    94660295.01506
  22184909.040   118466177.79408  22184910.660    92140368.30405
  21675487.920   115786558.47308  21675491.180    90056215.12907
  21965399.860   117541278.60008  21965400.900    91420996.70107
  20178759.140   107715595.67809  20178761.840    83778810.36808
  22545901.160   120605382.20208  22545901.660    93804189.22607
 15 03 04 02 00 30.0000000  0 17G04G11G16G18G19G21G22G27G32R02R03R04
                                R09R16R17R18R19
  22352973.340   117465876.74609  22352972.060    91531929.83246
  23947713.300   125846104.46008  23947711.640    98061907.16144
  21075134.840   110750593.98809  21075132.000    86299169.35348
  22690381.060   119238930.39808  22690378.080    92913524.79846
  21373206.460   112316996.68309  21373202.140    87519744.94348
  24894079.700   130819270.91407  24894077.660   101937083.09744
  20891820.560   109787466.56809  20891815.320    85548730.71048
  20479529.180   107620745.51309  20479528.600    83860349.50349
  23984533.360   126039601.32408  23984539.200    98212692.52945
  21721162.220   115908303.09908  21721165.120    90150919.89807
  20294620.160   108638809.16308  20294620.580    84496901.11508
  22703284.400   121575137.94007  22703287.200    94558486.92806
  22182214.500   118451789.44308  22182216.360    92129177.35004
  21691038.260   115869624.94308  21691041.340    90120822.32306
  21976123.400   117598662.63208  21976124.500    91465628.70307
  20177568.360   107709238.60209  20177570.800    83773865.96808
  22532727.960   120534913.49408  22532728.220    93749380.25707
 15 03 04 02 01  0.0000000  0 17G04G11G16G18G19G21G22G27G32R02R03R04
                                R09R16R17R18R19
  22338910.960   117391977.98109  22338909.520    91474346.41846
  23931212.720   125759393.55008  23931211.100    97994340.29444
  21086701.600   110811377.51409  21086698.740    86346533.11748
  22701813.300   119299007.26408  22701810.340    92960337.92646
  21363683.360   112266952.48109  21363679.100    87480749.48048
  24908205.980   130893504.26507  24908203.440   101994927.26044
  20891759.860   109787147.92709  20891754.720    85548482.42248
  20477041.880   107607675.03909  20477041.440    83850164.71649
  23962154.740   125922005.70408  23962160.440    98121060.62045
  21733407.020   115973643.85508  21733409.760    90201740.49607
  20284711.620   108585767.63608  20284711.900    84455646.61008
  22678861.860   121444357.58508  22678864.640    94456769.14507
  22179662.880   118438164.08408  22179664.660    92118579.82805
  21706683.840   115953200.38508  21706686.860    90185825.38107
  21986873.180   117656186.41808  21986874.160    91510369.41808
  20176410.820   107703059.36709  20176413.300    83769059.89208
  22519557.320   120464458.96708  22519557.580    93694582.31107
 15 03 04 02 01 30.0000000  0 17G04G11G16G18G19G21G22G27G32R02R03R04
                                R09R16R17R18R19
  22324897.180   117318334.62009  22324895.660    91416962.02246
  23914732.140   125672788.54508  23914730.560    97926855.95644
  21098359.540   110872640.31009  21098356.680    86394270.34248
  22713316.380   119359456.47308  22713313.440    93007441.20245
  21354196.780   112217100.13509  21354192.560    87441903.50448
  24922326.260   130967706.93206  24922323.760   102052747.52043
  20891801.580   109787367.49809  20891796.500    85548653.52348
  20474609.320   107594892.29209  20474608.940    83840204.13148
  23939790.040   125804483.13908  23939795.620    98029485.57845
  21745778.480   116039660.29308  21745781.200    90253086.61507
  20274939.380   108533455.97108  20274939.620    84414959.77808
  22654462.380   121313700.34208  22654465.020    94355147.10906
  22177254.600   118425304.19308  22177256.500    92108577.71104
  21722424.280   116037282.48908  21722427.120    90251222.50706
  21997649.660   117713852.99108  21997650.540    91555221.17607
  20175287.120   107697061.03609  20175289.780    83764394.52708
  22506389.880   120394021.54708  22506390.020    93639797.66507
 15 03 04 02 02  0.0000000  0 17G04G11G16G18G19G21G22G27G32R02R03R04
                                R09R16R17R18R19
  22310931.700   117244945.35209  22310930.200    91359775.62046
  23898271.520   125586288.30108  23898269.900    97859453.23044
  21110108.080   110934379.06309  21110105.180    86442378.44548
  22724889.640   119420274.50208  22724886.680    93054831.86546
  21344746.600   112167439.01509  21344742.420    87403206.53948
  24936440.260   131041877.55306  24936437.880   102110542.84943
  20891945.360   109788123.35609  20891940.300    85549242.51348
  20472231.440   107582396.75309  20472231.140    83830467.34649
  23917439.460   125687034.73008  23917444.900    97937968.25345
  21758275.740   116106348.03508  21758278.500    90304954.86107
  20265303.620   108481874.93408  20265303.840    84374841.21308
  22630086.280   121183168.40808  22630088.840    94253622.52406
  22174989.540   118413208.32708  22174991.020    92099169.77804
  21738258.460   116121865.25408  21738261.280    90317009.03606
  22008452.460   117771661.10108  22008453.440    91600183.01407
  20174197.060   107691242.71009  20174199.840    83759869.16108
  22493225.120   120323599.47108  22493225.220    93585024.95407
 15 03 04 02 02 30.0000000  0 17G04G11G16G18G19G21G22G27G32R02R03R04
                                R09R16R17R18R19
  22297014.640   117171810.75809  22297013.160    91302787.66147
  23881830.820   125499893.22708  23881829.300    97792132.46344
  21121946.760   110996591.82809  21121943.960    86490855.90648
  22736532.620   119481458.86108  22736529.760    93102507.98546
  21335333.060   112117970.51809  21335328.860    87364659.66348
  24950548.100   131116014.98907  24950545.940   102168312.27945
  20892191.280   109789415.84709  20892186.240    85550249.65048
  20469908.460   107570189.67609  20469908.200    83820955.33449
  23895103.660   125569663.41908  23895108.820    97846510.96045
  21770898.280   116173704.14108  21770901.000    90357342.93507
  20255804.900   108431027.60908  20255805.140    84335293.31208
  22605734.460   121052766.72208  22605736.980    94152199.23007
  22172867.520   118401876.27908  22172869.160    92090355.99605
  21754185.580   116206944.55708  21754188.580    90383181.77207
  22019281.920   117829611.74708  22019283.140    91645255.70808
  20173140.940   107685605.25109  20173143.840    83755484.47108
  22480063.320   120253193.12808  22480063.420    93530264.48407
 15 03 04 02 03  0.0000000  0 17G04G11G16G18G19G21G22G27G32R02R03R04
                                R09R16R17R18R19
  22283146.040   117098931.19809  22283144.600    91245998.43946
  23865410.160   125413603.45108  23865408.820    97724893.76244
  21133875.500   111059277.56709  21133872.740    86539701.92448
  22748245.120   119543008.55608  22748242.200    93150468.78946
  21325956.320   112068695.63709  21325952.120    87326263.66848
  24964649.860   131190119.61007  24964647.760   102226056.16545
  20892539.260   109791244.51309  20892534.220    85551674.60248
  20467640.640   107558272.25409  20467640.380    83811669.03549
  23872783.140   125452372.14108  23872788.220    97755115.97545
  21783645.520   116241725.70908  21783648.220    90410248.59907
  20246443.660   108380916.49608  20246444.000    84296318.02508
  22581407.740   120922499.03408  22581410.120    94050880.14606
  22170888.680   118391308.41808  22170890.160    92082136.52805
  21770204.720   116292515.71908  21770207.680    90449737.06206
  22030138.180   117887705.24408  22030139.260    91690439.54507
  20172118.900   107680149.27309  20172121.740    83751240.93908
  22466904.340   120182802.23108  22466904.580    93475516.05907
 15 03 04 02 03 30.0000000  0 17G04G11G16G18G19G21G22G27G32R02R03R04
                                R09R16R17R18R19
  22269325.660   117026305.11809  22269324.320    91189406.72647
  23849009.520   125327417.72408  23849008.380    97657736.11844
  21145893.520   111122432.52509  21145890.780    86588913.55748
  22760026.340   119604919.38508  22760023.580    93198710.97746
  21316616.140   112019613.26209  21316612.000    87288017.66848
  24978744.680   131264188.35307  24978742.420   102283772.06645
  20892988.900   109793607.23009  20892983.860    85553515.69549
  20465427.740   107546643.55609  20465427.540    83802607.71049
  23850478.020   125335161.61208  23850482.900    97663783.86945
  21796516.560   116310407.85008  21796519.240    90463668.03807
  20237220.040   108331542.27108  20237220.460    84257915.86708
  22557106.540   120792367.76608  22557108.620    93949667.16207
  22169052.400   118381502.19208  22169053.720    92074509.44305
  21786314.720   116378572.37608  21786317.740    90516669.95007
  22041020.620   117945939.97808  22041021.760    91735733.20907
  20171130.540   107674873.44209  20171133.420    83747137.51208
  22453747.860   120112425.14108  22453748.480    93420778.34908
 15 03 04 02 04  0.0000000  0 17G04G11G16G18G19G21G22G27G32R02R03R04
                                R09R16R17R18R19
  22255554.580   116953938.19809  22255553.320    91133016.96746
  23832629.900   125241341.86108  23832628.680    97590664.10044
  21158001.440   111186059.98709  21157998.660    86638493.38048
  22771877.020   119667194.93708  22771874.280    93247237.37946
  21307313.920   111970730.16809  21307309.740    87249926.95748
  24992833.580   131338226.61306  24992831.360   102341464.15343
  20893541.140   109796509.12109  20893536.080    85555776.92148
  20463271.060   107535310.14009  20463270.840    83793776.48549
  23828189.920   125218040.18008  23828194.700    97572521.16345
  21809511.860   116379753.13008  21809514.460    90517603.26607
  20228135.620   108282913.01308  20228136.140    84220093.13108
  22532832.680   120662382.85308  22532834.560    93848568.00707
  22167359.740   118372463.19908  22167360.940    92067479.10605
  21802515.820   116465115.58908  21802518.860    90583981.26306
  22051930.740   118004322.35708  22051931.700    91781141.71707
  20170177.040   107669784.03709  20170179.940    83743179.09508
  22440595.160   120042067.55408  22440595.820    93366055.80407
 15 03 04 02 04 30.0000000  0 17G04G11G16G18G19G21G22G27G32R02R03R04
                                R09R16R17R18R19
  22241831.960   116881825.95609  22241830.720    91076825.65446
  23816270.480   125155371.59108  23816269.020    97523674.33445
  21170198.000   111250153.15909  21170195.180    86688436.09448
  22783795.760   119729828.18808  22783793.000    93296042.50246
  21298048.860   111922042.49009  21298044.700    87211988.51948
  25006915.640   131412229.17907  25006913.740   102399128.52945
  20894194.980   109799945.09709  20894189.900    85558454.31149
  20461169.880   107524268.24309  20461169.660    83785172.40649
  23805918.420   125101005.61608  23805922.920    97481326.09545
  21822629.860   116449753.36708  21822632.520    90572047.88007
  20219189.920   108235026.27208  20219190.560    84182847.90908
  22508585.880   120532543.24008  22508587.760    93747581.85507
  22165809.740   118364186.20808  22165811.000    92061041.44105
  21818806.240   116552135.84808  21818809.200    90651663.62307
  22062867.600   118062847.69908  22062868.580    91826661.42107
  20169257.800   107664876.70609  20169260.520    83739362.28608
  22427445.400   119971724.41108  22427445.840    93311344.49508
 15 03 04 02 05  0.0000000  0 17G04G11G16G18G19G21G22G27G32R02R03R04
                                R09R16R17R18R19
  22228158.000   116809969.24209  22228156.760    91020833.44446
  23799931.180   125069507.30408  23799929.540    97456767.16145
  21182482.900   111314710.47909  21182480.060    86738740.48148
  22795782.300   119792817.56608  22795779.520    93345125.13146
  21288821.200   111873551.41409  21288817.160    87174203.26548
  25020991.000   131486195.15607  25020988.800   102456764.38844
  20894950.400   109803915.01109  20894945.300    85561547.75649
  20459124.460   107513519.33109  20459124.240    83776796.63049
  23783664.160   124984061.22408  23783668.380    97390201.24145
  21835870.080   116520406.07209  21835872.840    90626999.97207
  20210383.440   108187884.87008  20210384.160    84146182.39708
  22484367.080   120402853.53908  22484368.860    93646712.29107
  22164402.420   118356671.25408  22164403.620    92055196.47405
  21835185.240   116639628.92308  21835188.120    90719713.72806
  22073831.400   118121517.16708  22073832.420    91872293.19907
  20168372.900   107660152.70009  20168375.480    83735688.05708
  22414298.580   119901396.19508  22414298.860    93256644.78408
 15 03 04 02 05 30.0000000  0 17G04G11G16G18G19G21G22G27G32R02R03R04
                                R09R16R17R18R19
  22214532.880   116738369.55709  22214531.680    90965041.51347
  23783612.300   124983750.75408  23783610.640    97389943.93645
  21194856.140   111379732.03409  21194853.300    86789406.60748
  22807836.540   119856162.96208  22807833.780    93394485.16646
  21279631.480   111825259.64009  21279627.540    87136573.32048
  25035059.820   131560126.28707  25035057.340   102514373.10344
  20895807.600   109808420.04509  20895802.560    85565058.18348
  20457135.260   107503065.98609  20457135.020    83768651.17049
  23761427.920   124867211.23808  23761431.880    97299149.91446
  21849232.380   116591709.59908  21849235.140    90682458.26607
  20201717.000   108141492.80508  20201717.660    84110099.69208
  22460177.340   120273319.49508  22460179.060    93545963.80107
  22163138.080   118349919.72008  22163139.200    92049945.26605
  21851652.180   116727592.21408  21851655.100    90788129.53506
  22084822.540   118180332.67508  22084823.400    91918038.60407
  20167522.660   107655614.07509  20167525.200    83732158.02708
  22401154.760   119831084.56708  22401154.820    93201957.98507
 15 03 04 02 06  0.0000000  0 17G04G11G16G18G19G21G22G27G32R02R03R04
                                R09R16R17R18R19
  22200957.000   116667028.37008  22200955.740    90909451.01847
  23767314.080   124898103.56808  23767312.680    97323205.96844
  21207317.400   111445216.35209  21207314.620    86840433.32648
  22819958.400   119919863.21708  22819955.540    93444121.74046
  21270480.160   111777169.21009  21270476.180    87099100.25848
  25049121.920   131634022.76406  25049119.480   102571954.77545
  20896766.780   109813460.90309  20896761.800    85568986.12749
  20455202.700   107492910.23609  20455202.380    83760737.59449
  23739210.360   124750459.38908  23739214.100    97208175.03345
  21862716.160   116663661.85708  21862718.700    90738421.14307
  20193191.180   108095853.53508  20193191.840    84074602.49708
  22436017.560   120143946.24708  22436019.320    93445340.35607
  22162016.720   118343931.99508  22162018.020    92045288.14305
  21868206.420   116816021.68208  21868209.360    90856907.93807
  22095841.120   118239295.60108  22095841.980    91963898.63307
  20166707.480   107651262.52209  20166710.000    83728773.48008
  22388014.200   119760790.69608  22388013.900    93147285.00407
 15 03 04 02 06 30.0000000  0 17G04G11G16G18G19G21G22G27G32R02R03R04
                                R09R16R17R18R19
  22187430.460   116595946.35109  22187429.200    90854062.47146
  23751036.820   124812566.69608  23751035.640    97256553.93544
  21219866.520   111511162.38909  21219863.800    86891819.83448
  22832147.360   119983916.78908  22832144.520    93494033.60046
  21261367.440   111729281.66909  21261363.420    87061785.30148
  25063177.240   131707884.78106  25063175.320   102629509.57144
  20897827.920   109819037.62109  20897823.040    85573331.63548
  20453327.020   107483053.63609  20453326.740    83753057.13549
  23717012.080   124633809.01608  23717015.620    97117279.19946
  21876321.060   116736259.93208  21876323.660    90794886.31107
  20184806.560   108050969.85808  20184807.180    84039692.99608
  22411888.740   120014738.78908  22411890.640    93344845.85707
  22161038.480   118338708.23708  22161040.120    92041225.21805
  21884847.160   116904913.32308  21884850.200    90926045.79806
  22106887.460   118298407.25008  22106888.560    92009874.35907
  20165927.580   107647099.30409  20165930.160    83725535.42308
  22374877.020   119690515.19208  22374876.280    93092626.29107
 15 03 04 02 07  0.0000000  0 17G04G11G16G18G19G21G22G27G32R02R03R04
                                R09R16R17R18R19
  22173952.820   116525121.03209  22173951.580    90798873.95046
  23734779.840   124727137.26908  23734778.800    97189985.64144
  21232502.520   111577565.05409  21232499.840    86943562.15448
  22844402.680   120048318.85908  22844399.760    93544217.03046
  21252292.980   111681595.07309  21252288.960    87024626.92348
  25077225.320   131781708.97207  25077223.540   102687034.87244
  20898990.420   109825146.89609  20898985.640    85578092.11848
  20451507.940   107473494.52209  20451507.720    83745608.47949
  23694833.160   124517260.08008  23694836.520    97026462.37945
  21890045.800   116809498.13808  21890048.420    90851849.34107
  20176562.940   108006841.20808  20176563.580    84005370.73308
  22387791.200   119885698.20208  22387793.080    93244481.14807
  22160202.540   118334245.24008  22160204.280    92037753.99605
  21901573.100   116994259.79008  21901576.100    90995537.41806
  22117961.200   118357665.21908  22117962.560    92055963.86607
  20165182.480   107643122.10709  20165185.120    83722442.04808
  22361742.680   119620255.32908  22361741.860    93037979.75407
 15 03 04 02 07 30.0000000  0 17G04G11G16G18G19G21G22G27G32R02R03R04
                                R09R16R17R18R19
  22160524.180   116454553.19709  22160522.900    90743886.05746
  23718543.700   124641816.35508  23718542.640    97123501.85545
  21245225.220   111644423.52009  21245222.600    86995659.64348
  22856724.060   120113068.02508  22856721.160    93594670.91146
  21243257.100   111634111.07209  21243253.100    86987626.41348
  25091266.440   131855495.73707  25091264.500   102744531.07144
  20900254.300   109831788.79309  20900249.540    85583267.63648
  20449745.740   107464234.31609  20449745.620    83738392.73949
  23672674.220   124400815.80908  23672677.320    96935727.08345
  21903890.040   116883373.73208  21903892.740    90909308.15007
  20168460.940   107963470.53108  20168461.580    83971638.00708
  22363725.680   119756829.21908  22363727.480    93144249.90007
  22159509.200   118330543.01608  22159510.920    92034874.47605
  21918383.320   117084056.73608  21918386.400    91065379.41206
  22129062.420   118417070.25008  22129063.820    92102167.75007
  20164472.480   107639332.44709  20164475.140    83719494.53108
  22348611.080   119550011.41108  22348610.600    92983345.62007
 15 03 04 02 08  0.0000000  0 16G04G11G16G18G19G22G27G32R02R03R04R09
                                R16R17R18R19
  22147143.880   116384239.67709  22147142.600    90689096.33646
  23702327.640   124556600.83108  23702326.500    97057100.23644
  21258033.520   111711731.77709  21258030.920    87048107.61448
  22869110.460   120178158.65208  22869107.360    93645390.89445
  21234259.360   111586827.22509  21234255.200    86950781.86248
  20901618.780   109838959.29209  20901614.000    85588855.04048
  20448039.960   107455270.65509  20448039.900    83731408.07049
  23650535.100   124284475.43108  23650538.020    96845072.73245
  21917852.400   116957879.76908  21917855.040    90967257.27307
  20160500.220   107920856.21308  20160500.780    83938493.55408
  22339692.400   119628132.60008  22339693.980    93044152.70207
  22158957.440   118327597.27108  22158959.400    92032583.34105
  21935276.340   117174296.17408  21935279.580    91135565.54807
  22140190.720   118476619.39208  22140191.800    92148483.74307
  20163797.080   107635727.17209  20163799.700    83716690.43208
  22335481.560   119479780.28708  22335481.700    92928721.45907
 15 03 04 02 08 30.0000000  0 16G04G11G16G18G19G22G27G32R02R03R04R09
                                R16R17R18R19
  22133814.040   116314191.24709  22133812.760    90634513.17746
  23686133.840   124471501.58308  23686132.380    96990789.18744
  21270929.080   111779498.53109  21270926.500    87100912.85848
  22881563.440   120243599.56108  22881560.440    93696383.79646
  21225302.000   111539755.26009  21225297.720    86914102.40548
  20903085.820   109846668.60209  20903081.020    85594862.29748
  20446392.860   107446615.28109  20446392.860    83724663.62649
  23628418.320   124168252.53608  23628421.060    96754509.90646
  21931934.400   117033024.07508  21931936.980    91025702.83607
  20152683.280   107879011.52408  20152683.760    83905947.71208
  22315694.100   119499623.39008  22315695.700    92944201.27407
  22158549.460   118325418.45608  22158551.360    92030888.69105
  21952253.380   117264984.26308  21952256.720    91206100.64507
  22151348.040   118536324.20308  22151349.040    92194920.80407
  20163158.460   107632318.03109  20163161.120    83714038.89008
  22322356.420   119409572.88608  22322356.960    92874115.72707
 15 03 04 02 09  0.0000000  0 17G01G04G11G16G18G19G22G27G32R02R03R04
                                R09R16R17R18R19
  24596916.340   129257665.18308                                
  22120533.220   116244400.33008  22120531.960    90580130.68547
  23669960.800   124386511.16708  23669959.040    96924562.95045
  21283910.000   111847713.86509  21283907.500    87154067.64348
  22894081.080   120309380.21708  22894078.100    93747641.44246
  21216383.620   111492888.32609  21216379.360    86877582.72748
  20904653.780   109854908.10609  20904648.960    85601282.69649
  20444803.080   107438261.21409  20444803.160    83718153.96249
  23606322.880   124052141.82008  23606325.420    96664034.47046
  21946133.840   117108794.89008  21946136.480    91084635.68207
  20145008.960   107837930.35008  20145009.420    83873995.70608
  22291730.020   119371297.68408  22291731.680    92844392.55407
  22158283.440   118323997.77208  22158285.300    92029783.71205
  21969312.080   117356108.24008  21969315.500    91276974.77207
  22162532.760   118596176.79508  22162533.940    92241472.76207
  20162555.180   107629097.60709  20162557.860    83711534.11208
  22309234.680   119339381.01808  22309235.400    92819522.05907
 15 03 04 02 09 30.0000000  0 17G01G04G11G16G18G19G22G27G32R02R03R04
                                R09R16R17R18R19
  24580826.600   129173113.94608  24580831.700   100654396.60945
  22107301.960   116174869.59408  22107300.700    90525950.92447
  23653809.040   124301632.66408  23653807.260    96858423.92045
  21296976.480   111916378.74709  21296974.000    87207572.72948
  22906663.580   120375502.06008  22906660.840    93799164.94246
  21207504.980   111446230.13309  21207500.580    86841225.70348
  20906323.100   109863680.06109  20906318.260    85608117.99349
  20443271.340   107430212.18709  20443271.520    83711881.99049
  23584249.840   123936148.80208  23584252.280    96573650.73045
  21960450.700   117185191.81208  21960453.160    91144055.52807
  20137478.160   107797617.60708  20137478.600    83842641.37608
  22267801.460   119243162.41008  22267803.240    92744731.96307
  22158159.780   118323337.15408  22158161.560    92029269.91105
  21986452.020   117447666.26608  21986455.460    91348186.49407
  22173745.900   118656180.55408  22173747.340    92288142.32007
  20161987.880   107626069.13909  20161990.580    83709178.63908
  22296116.460   119269207.59608  22296117.360    92764942.76108
 15 03 04 02 10  0.0000000  0 17G01G04G11G16G18G19G22G27G32R02R03R04
                                R09R16R17R18R19
  24564764.540   129088708.63307  24564769.620   100588626.71445
  22094120.380   116105599.85808  22094119.140    90471974.54347
  23637678.760   124216866.71408  23637677.140    96792372.58245
  21310128.120   111985491.28609  21310125.680    87261426.63848
  22919310.580   120441962.78008  22919307.860    93850952.51246
  21198666.340   111399782.20409  21198661.860    86805032.51848
  20908093.700   109872984.18309  20908088.780    85615367.96849
  20441797.960   107422469.68509  20441798.180    83705848.87249
  23562199.760   123820276.57608  23562202.060    96483361.10145
  21974884.260   117262212.00008  21974886.740    91203960.09607
  20130091.400   107758075.67608  20130091.840    83811886.56108
  22243909.380   119115222.17008  22243911.140    92645223.03707
  22158178.380   118323436.36808  22158180.160    92029347.07205
  22003672.400   117539653.95308  22003675.820    91419732.38606
  22184987.540   118716336.43608  22184988.820    92334930.22307
  20161456.760   107623234.13409  20161459.420    83706973.63308
  22283001.860   119199053.54008  22283002.800    92710378.53908
 15 03 04 02 10 30.0000000  0 17G01G04G11G16G18G19G22G27G32R02R03R04
                                R09R16R17R18R19
  24548730.140   129004449.44607  24548735.580   100522970.66445
  22080988.460   116036591.28208  22080987.220    90418201.66347
  23621569.820   124132213.49508  23621568.120    96726409.08745
  21323364.500   112055049.05409  21323362.120    87315627.46948
  22932021.780   120508761.01808  22932019.080    93903003.07846
  21189867.840   111353545.48309  21189863.340    86769003.91448
  20909965.400   109882819.85209  20909960.440    85623032.12849
  20440383.100   107415034.59109  20440383.380    83700055.28649
  23540173.200   123704527.88008  23540175.520    96393167.70745
  21989433.960   117339851.88608  21989436.480    91264346.67807
  20122849.020   107719306.46908  20122849.420    83781732.74908
  22220054.420   118987481.08008  22220056.240    92545869.00607
  22158339.160   118324294.60608  22158340.840    92030014.57305
  22020972.300   117632066.48708  22020975.800    91491608.71506
  22196257.660   118776644.79308  22196258.800    92381836.71007
  20160961.940   107620593.07209  20160964.660    83704919.46308
  22269891.020   119128918.58708  22269891.660    92655829.14807
 15 03 04 02 11  0.0000000  0 17G01G04G11G16G18G19G22G27G32R02R03R04
                                R09R16R17R18R19
  24532723.040   128920333.74607  24532728.600   100457426.40945
  22067905.700   115967841.04508  22067904.520    90364630.08947
  23605481.680   124047670.36608  23605479.980    96660531.39844
  21336684.660   112125046.96909  21336682.360    87370171.28348
  22944796.180   120575891.10308  22944793.600    93955312.21546
  21181109.060   111307517.78309  21181104.560    86733138.18048
  20911937.500   109893183.48009  20911932.600    85631107.69949
  20439026.440   107407904.98709  20439026.640    83694499.75449
  23518170.160   123588902.48808  23518172.260    96303070.37845
  22004098.560   117418104.85208  22004101.000    91325210.09607
  20115750.780   107681309.16108  20115751.140    83752179.30708
  22196236.920   118859940.31108  22196238.760    92446670.77607
  22158641.220   118325908.01208  22158643.020    92031269.43505
  22038350.220   117724896.19508  22038353.760    91563809.51806
  22207555.760   118837103.25708  22207557.020    92428859.91607
  20160503.020   107618143.64609  20160505.840    83703014.34808
  22256783.200   119058799.85108  22256783.640    92601292.36508
 15 03 04 02 11 30.0000000  0 17G01G04G11G16G18G19G22G27G32R02R03R04
                                R09R16R17R18R19
  24516744.020   128836364.84608  24516749.280   100391996.49445
  22054872.680   115899352.29108  22054871.420    90311262.26847
  23589415.040   123963240.65108  23589413.540    96594742.07845
  21350088.780   112195486.02209  21350086.520    87425058.83248
  22957633.900   120643353.77208  22957631.260    94007880.52346
  21172390.820   111261703.38309  21172386.360    86697438.65248
  20914010.420   109904077.18709  20914005.660    85639596.30649
  20437728.660   107401084.90209  20437728.800    83689185.39249
  23496191.640   123473406.18808  23496193.580    96213073.62246
  22018878.000   117496970.93608  22018880.660    91386550.34407
  20108797.600   107644088.43908  20108797.980    83723229.87408
  22172458.260   118732607.28008  22172460.040    92347634.11507
  22159085.100   118328278.70108  22159087.000    92033113.29205
  22055805.980   117818141.49108  22055809.580    91636333.54806
  22218882.580   118897714.82308  22218883.900    92476002.21207
  20160080.760   107615889.64109  20160083.580    83701261.22308
  22243678.880   118988700.69808  22243679.380    92546770.84208
 15 03 04 02 12  0.0000000  0 17G01G04G11G16G18G19G22G27G32R02R03R04
                                R09R16R17R18R19
  24500792.940   128752542.89708  24500798.160   100326681.08745
  22041889.400   115831125.03108  22041888.120    90258098.19547
  23573370.000   123878924.32208  23573368.640    96529041.10345
  21363576.560   112266364.61109  21363574.260    87480288.88348
  22970534.500   120711147.23208  22970531.860    94060706.58746
  21163713.260   111216103.07809  21163708.860    86661905.95748
  20916184.160   109915500.60209  20916179.520    85648497.67449
  20436489.980   107394575.22909  20436490.040    83684112.91849
  23474238.200   123358041.57808  23474240.060    96123179.46845
  22033771.720   117576446.32708  22033774.280    91448364.55607
  20101989.880   107607646.19408  20101990.260    83694885.92208
  22148719.100   118605486.01608  22148720.820    92248762.15807
  22159670.640   118331405.65008  22159672.780    92035545.35705
  22073338.620   117911797.38108  22073342.200    91709176.92707
  22230238.200   118958480.41608  22230239.180    92523264.32907
  20159695.220   107613831.67509  20159698.140    83699660.58608
  22230578.380   118918621.25708  22230578.720    92492264.60408
 15 03 04 02 12 30.0000000  0 17G01G04G11G16G18G19G22G27G32R02R03R04
                                R09R16R17R18R19
  24484869.580   128668866.62008  24484874.840   100261479.17545
  22028955.600   115763158.04208  22028954.380    90205136.93347
  23557346.480   123794720.47108  23557345.040    96463427.77345
  21377147.160   112337678.38509  21377144.820    87535858.03148
  22983497.360   120779267.65808  22983494.720    94113787.42446
  21155076.400   111170716.54009  21155072.080    86626539.82548
  20918458.280   109927451.30109  20918453.660    85657809.91249
  20435310.220   107388375.39109  20435310.240    83679281.87149
  23452310.040   123242809.89508  23452311.920    96033388.89545
  22048778.520   117656526.27208  22048781.160    91510648.92507
  20095327.580   107571982.42908  20095327.880    83667147.45108
  22125020.040   118478579.15508  22125021.720    92150056.95407
  22160397.240   118335286.31808  22160399.560    92038563.64205
  22090946.940   118005857.57508  22090950.440    91782334.75807
  22241622.220   119019398.45708  22241622.980    92570645.00707
  20159346.140   107611968.87008  20159349.120    83698211.73008
  22217481.100   118848559.91408  22217481.340    92437772.48707
 15 03 04 02 13  0.0000000  0 17G01G04G11G16G18G19G22G27G32R02R03R04
                                R09R16R17R18R19
  24468974.220   128585337.35108  24468979.460   100196391.80145
  22016071.520   115695452.25408  22016070.380    90152379.21047
  23541344.740   123710630.51008  23541343.060    96397903.17745
  21390800.300   112409425.95209  21390797.980    87591765.20348
  22996522.280   120847713.99808  22996519.660    94167122.22246
  21146480.640   111125545.87609  21146476.380    86591341.90248
  20920832.720   109939929.38009  20920828.120    85667533.08849
  20434189.800   107382487.43109  20434189.760    83674693.85149
  23430407.900   123127714.90008  23430409.800    95943704.81246
  22063898.100   117737207.89608  22063900.920    91573401.29507
  20088811.340   107537100.44908  20088811.520    83640017.03808
  22101361.960   118351891.72308  22101363.760    92051522.40407
  22161264.940   118339920.74107  22161267.540    92042168.18105
  22108630.320   118100318.47508  22108633.900    91855804.24307
  22253035.160   119080470.88008  22253036.140    92618145.74307
  20159033.960   107610303.24409  20159037.080    83696916.24708
  22204387.420   118778517.99108  22204387.800    92383295.46708
 15 03 04 02 13 30.0000000  0 17G01G04G11G16G18G19G22G27G32R02R03R04
                                R09R16R17R18R19
  24453106.820   128501954.90208  24453112.000   100131418.81246
  22003237.100   115628007.48708  22003236.040    90099824.88247
  23525364.680   123626654.19208  23525362.840    96332467.14845
  21404535.660   112481605.62209  21404533.320    87648009.08348
  23009608.760   120916483.50208  23009606.020    94220708.85546
  21137926.080   111080591.62809  21137921.880    86556312.62548
  20923307.340   109952933.83009  20923302.720    85677666.44049
  20433128.840   107376911.92509  20433128.820    83670349.30349
  23408532.260   123012758.97808  23408534.000    95854129.09146
  22079129.980   117818487.70508  22079132.880    91636618.92407
  20082441.360   107503001.48708  20082441.580    83613495.64408
  22077745.640   118225427.83008  22077747.440    91953161.73207
  22162273.500   118345307.49208  22162276.040    92046357.86804
  22126387.780   118195174.86708  22126391.320    91929581.34307
  22264476.940   119141697.51608  22264477.940    92665766.43507
  20158758.840   107608834.89609  20158762.000    83695774.20108
  22191297.460   118708495.20808  22191298.060    92328833.31708
 15 03 04 02 14  0.0000000  0 17G01G04G11G16G18G19G22G27G32R02R03R04
                                R09R16R17R18R19
  24437267.820   128418721.84508  24437272.740   100066562.23146
  21990452.840   115560826.43508  21990451.840    90047476.05047
  23509406.740   123542794.16308  23509404.680    96267121.71845
  21418353.160   112554216.69609  21418350.800    87704589.11948
  23022756.820   120985576.93208  23022754.340    94274547.87346
  21129413.340   111035857.13709  21129409.160    86521454.59148
  20925882.440   109966466.09009  20925877.780    85688211.06649
  20432127.940   107371652.13409  20432127.940    83666250.77249
  23386684.060   122897947.08708  23386685.680    95764665.57946
  22094473.620   117900364.01708  22094476.460    91700300.49607
  20076218.400   107469689.34509  20076218.600    83587586.22108
  22054172.180   118099193.77208  22054174.060    91854979.79907
  22163423.380   118351447.80108  22163425.700    92051133.62805
  22144218.780   118290424.30708  22144222.460    92003664.13107
  22275947.840   119203081.17908  22275948.760    92713509.24407
  20158521.380   107607567.07309  20158524.520    83694788.11408
  22178211.620   118638494.18308  22178212.100    92274388.10908
 15 03 04 02 14 30.0000000  0 17G01G04G11G16G18G19G22G27G32R02R03R04
                                R09R16R17R18R19
  24421457.240   128335638.35008  24421462.220   100001822.20745
  21977718.760   115493909.05808  21977717.860    89995332.67647
  23493470.900   123459050.65808  23493468.600    96201867.09045
  21432252.380   112627257.04909  21432250.000    87761503.65548
  23035966.060   121054991.67008  23035963.440    94328637.27146
  21120942.680   110991343.60509  21120938.420    86486768.72448
  20928557.780   109980525.19709  20928553.160    85699166.21648
  20431187.320   107366709.02209  20431187.280    83662398.99049
  23364863.780   122783282.02108  23364865.380    95675316.46545
  22109928.360   117982833.51408  22109931.240    91764443.42507
  20070142.700   107437165.56208  20070142.900    83562289.96408
  22030642.500   117973193.82908  22030644.320    91756979.95907
  22164714.180   118358340.49707  22164716.560    92056494.61805
  22162122.400   118386061.71108  22162126.180    92078048.67507
  22287448.260   119264622.15508  22287449.160    92761374.43807
  20158321.620   107606500.45709  20158324.720    83693958.52208
  22165129.920   118568515.06108  22165130.000    92219959.90507
 15 03 04 02 15  0.0000000  0 17G01G04G11G16G18G19G22G27G32R02R03R04
                                R09R16R17R18R19
  24405674.740   128252702.54207  24405679.500    99937197.20945
  21965034.520   115427253.40308  21965033.800    89943393.23947
  23477556.920   123375421.88208  23477554.520    96136701.87645
  21446232.480   112700722.51809  21446230.100    87818749.45948
  23049235.600   121124723.48908  23049232.820    94382973.76446
  21112513.820   110947049.50309  21112509.440    86452253.85348
  20931332.880   109995108.47709  20931328.320    85710529.81849
  20430306.740   107362081.34509  20430306.640    83658793.01549
  23343071.540   122668764.34608  23343073.060    95586082.20246
  22125493.100   118065890.23208  22125495.980    91829043.06606
  20064214.180   107405429.77308  20064214.420    83537606.59608
  22007156.960   117847430.07308  22007158.720    91659163.82207
  22166145.340   118365982.09808  22166147.300    92062438.07604
  22180097.420   118482080.39508  22180101.180    92152729.76907
  22298977.840   119326318.69708  22298978.980    92809360.61807
  20158159.300   107605633.52309  20158162.280    83693284.24008
  22152051.920   118498555.77508  22152051.700    92165547.17008
 15 03 04 02 15 30.0000000  0 17G01G04G11G16G18G19G22G27G32R02R03R04
                                R09R16R17R18R19
  24389920.600   128169915.24408  24389925.320    99872687.91545
  21952400.220   115360859.84508  21952399.540    89891658.02347
  23461664.880   123291908.37808  23461662.440    96071626.47145
  21460293.120   112774611.16509  21460290.700    87876324.99748
  23062565.140   121194770.81308  23062562.420    94437556.07346
  21104127.100   110902976.75809  21104122.620    86417911.45048
  20934207.680   110010215.58209  20934203.100    85722301.58449
  20429486.520   107357770.69209  20429486.340    83655434.04649
  23321307.940   122554397.24608  23321309.400    95496965.25446
  22141167.420   118149531.39608  22141170.320    91894097.32107
  20058433.260   107374484.03409  20058433.520    83513537.70208
  21983716.340   117721907.40408  21983718.160    91561535.18407
  22167716.700   118374372.18908  22167718.700    92068963.70405
  22198142.960   118578475.96308  22198146.800    92227703.97407
  22310536.500   119388171.98108  22310537.720    92857468.67807
  20158034.600   107604967.76209  20158037.700    83692766.41708
  22138977.920   118428617.24308  22138977.540    92111150.52708
 15 03 04 02 16  0.0000000  0 17G01G04G11G16G18G19G22G27G32R02R03R04
                                R09R16R17R18R19
  24374195.000   128087277.80608  24374199.660    99808295.39946
  21939816.140   115294730.14508  21939815.420    89840128.41447
  23445795.160   123208512.05308  23445792.420    96006642.35845
  21474434.100   112848922.14909  21474431.620    87934229.63748
  23075954.600   121265132.78008  23075951.840    94492383.55346
  21095782.940   110859127.73009  21095778.400    86383743.38748
  20937182.240   110025846.63509  20937177.580    85734481.63349
  20428727.000   107353779.23309  20428726.820    83652323.81649
  23299573.820   122440184.81708  23299575.220    95407968.82046
  22156950.760   118233754.37108  22156953.760    91959604.04607
  20052800.440   107344330.94709  20052800.680    83490085.31809
  21960321.760   117596630.93008  21960323.580    91464098.04107
  22169428.160   118383510.35008  22169429.920    92076071.13805
  22216258.380   118675245.05008  22216262.280    92302968.70907
  22322124.820   119450183.72708  22322125.960    92905700.00507
  20157947.960   107604505.07409  20157951.120    83692406.54708
  22125907.760   118358700.75408  22125907.600    92056771.06608
 15 03 04 02 16 30.0000000  0 17G01G04G11G16G18G19G22G27G32R02R03R04
                                R09R16R17R18R19
  24358497.620   128004788.74508  24358502.340    99744018.50146
  21927281.920   115228862.27408  21927281.180    89788802.84348
  23429947.380   123125231.29608  23429944.500    95941748.31245
  21488654.660   112923651.45709  21488652.120    87992460.24249
  23089403.180   121335805.30008  23089400.380    94547453.05646
  21087481.260   110815501.82109  21087476.660    86349749.17849
  20940256.040   110041999.02509  20940251.280    85747067.91949
  20428028.080   107350106.21309  20428027.860    83649461.71649
  23277869.320   122326127.99808  23277870.740    95319093.62746
  22172842.200   118318553.94508  22172845.260    92025559.23907
  20047315.740   107314970.77909  20047316.000    83467249.64908
  21936973.600   117471603.46008  21936975.520    91366854.55607
  22171279.260   118393393.95408  22171280.700    92083758.36904
  22234442.480   118772380.88808  22234446.440    92378518.69106
  22333742.600   119512352.49108  22333743.860    92954053.46507
  20157899.180   107604244.57409  20157902.280    83692203.92308
  22112841.380   118288805.00408  22112841.420    92002407.72407
 15 03 04 02 17  0.0000000  0 17G01G04G11G16G18G19G22G27G32R02R03R04
                                R09R16R17R18R19
  24342829.180   127922451.46208  24342833.560    99679859.85645
  21914798.240   115163259.67809  21914797.380    89737683.96447
  23414122.140   123042069.43508  23414119.200    95876946.91045
  21502954.940   112998799.78309  21502952.360    88051017.35748
  23102911.100   121406789.58908  23102908.220    94602765.48246
  21079222.740   110772103.00809  21079218.060    86315931.93248
  20943429.460   110058675.04209  20943424.640    85760062.22649
  20427390.480   107346755.72609  20427390.280    83646850.94149
  23256195.540   122212232.59008  23256196.900    95230344.20646
  22188841.620   118403929.70508  22188844.520    92091962.60006
  20041979.900   107286407.41509  20041980.120    83445033.72108
  21913673.320   117346832.07108  21913675.300    91269810.23907
  22173270.280   118404024.56608  22173271.400    92092026.60104
  22252694.940   118869881.96508  22252699.000    92454352.75806
  22345390.300   119574682.03108  22345391.900    93002531.93607
  20157889.020   107604190.12609  20157892.040    83692161.56608
  22099779.480   118218933.33408  22099779.540    91948063.10608
 15 03 04 02 17 30.0000000  0 17G01G04G11G16G18G19G22G27G32R02R03R04
                                R09R16R17R18R19
  24327189.220   127840263.83708  24327193.440    99615817.79445
  21902364.700   115097919.99309  21902363.640    89686769.94747
  23398319.100   122959024.78208  23398316.260    95812236.83845
  21517334.100   113074362.69709  21517331.500    88109897.52348
  23116477.460   121478080.92108  23116474.520    94658317.15645
  21071007.180   110728930.04909  21071002.500    86282290.66748
  20946701.920   110075871.59109  20946697.040    85773462.13649
  20426814.000   107343726.44209  20426813.860    83644490.45649
  23234552.600   122098499.25808  23234553.840    95141721.05746
  22204947.760   118489875.15408  22204950.360    92158809.07906
  20036792.760   107258640.24809  20036792.960    83423437.04608
  21890421.340   117222318.81608  21890423.120    91172966.69507
  22175400.440   118415398.53208  22175401.420    92100873.00704
  22271014.440   118967741.18408  22271018.500    92530465.34807
  22357067.720   119637170.38208  22357069.000    93051133.96807
  20157917.160   107604340.35509  20157920.220    83692278.41108
  22086721.660   118149083.60408  22086721.800    91893735.56608
 15 03 04 02 18  0.0000000  0 17G01G04G11G16G18G19G22G27G32R02R03R04
                                R09R16R17R18R19
  24311577.860   127758226.55008  24311581.840    99551892.89846
  21889981.360   115032844.03609  21889980.100    89636061.44547
  23382538.540   122876097.87408  23382535.620    95747618.52144
  21531791.700   113150337.91609  21531789.100    88169098.96848
  23130101.980   121549677.86808  23130099.020    94714106.97845
  21062834.940   110685984.70609  21062830.260    86248826.77848
  20950073.340   110093588.27309  20950068.420    85787267.35849
  20426298.900   107341019.70209  20426298.780    83642381.30449
  23212941.080   121984931.09208  23212942.320    95053226.60746
  22221159.980   118576387.63808  22221162.720    92226096.53107
  20031754.600   107231670.94709  20031754.800    83402460.95308
  21867218.340   117098068.16908  21867220.040    91076327.40007
  22177669.600   118427514.96708  22177670.580    92110296.87804
  22289400.120   119065954.00708  22289404.180    92606852.96906
  22368775.040   119699818.26908  22368776.040    93099860.09507
  20157983.860   107604696.43909  20157987.040    83692555.37108
  22073668.140   118079256.58308  22073668.200    91839425.67008
 15 03 04 02 18 30.0000000  0 17G01G04G11G16G18G19G22G27G32R02R03R04
                                R09R16R17R18R19
  24295995.480   127676341.33508  24295999.300    99488086.48845
  21877648.440   114968033.42609  21877647.020    89585559.70447
  23366780.840   122793290.75108  23366778.100    95683093.53445
  21546327.760   113226725.30609  21546325.180    88228621.59648
  23143784.500   121621579.48608  23143781.600    94770134.21146
  21054706.580   110643269.70209  21054701.880    86215542.36748
  20953543.820   110111825.42909  20953538.800    85801478.14349
  20425845.660   107338638.16209  20425845.580    83640525.56049
  23191361.820   121871532.45808  23191363.060    94964864.25946
  22237478.380   118663464.86608  22237481.200    92293823.27907
  20026866.060   107205502.72608  20026866.340    83382107.91508
  21844065.520   116974086.36508  21844067.160    90979897.21807
  22180077.720   118440373.91308  22180078.760    92120298.26204
  22307851.480   119164517.36608  22307855.520    92683513.23907
  22380512.640   119762627.88708  22380513.540    93148712.01307
  20158089.680   107605260.90709  20158092.640    83692994.41108
  22060619.260   118009454.37408  22060619.600    91785135.07408
 15 03 04 02 19  0.0000000  0 17G01G04G11G16G18G19G22G27G32R02R03R04
                                R09R16R17R18R19
  24280441.800   127594607.12208  24280445.540    99424397.72145
  21865365.640   114903486.62108  21865364.160    89535263.52147
  23351045.800   122710602.23708  23351043.120    95618660.96945
  21560941.480   113303520.88709  21560938.940    88288462.27548
  23157524.300   121693782.48608  23157521.240    94826396.28345
  21046621.940   110600784.42409  21046617.260    86182436.96048
  20957112.840   110130580.74009  20957107.780    85816092.67349
  20425454.300   107336581.38609  20425454.180    83638922.86749
  23169815.140   121758304.79408  23169816.320    94876635.11146
  22253901.520   118751101.87508  22253904.360    92361985.34706
  20022127.100   107180135.23809  20022127.360    83362377.65808
  21820963.360   116850375.94908  21820965.000    90883678.10007
  22182624.240   118453972.62008  22182625.140    92130875.02404
  22326367.260   119263424.94708  22326371.400    92760441.22007
  22392280.260   119825598.34608  22392281.380    93197688.99307
  20158234.400   107606033.18209  20158237.180    83693595.06508
  22047574.660   117939675.81708  22047575.340    91730862.90008
 15 03 04 02 19 30.0000000  0 17G01G04G11G16G18G19G22G27G32R02R03R04
                                R09R16R17R18R19
  24264916.860   127513024.23307  24264920.720    99360826.87646
  21853133.040   114839204.08708  21853131.560    89485173.25147
  23335333.420   122628032.94208  23335330.800    95554321.31345
  21575632.480   113380722.50509  21575629.960    88348619.36348
  23171321.040   121766284.91808  23171317.900    94882891.67645
  21038581.220   110558530.46809  21038576.680    86149511.80848
  20960780.280   110149853.42509  20960775.240    85831110.36248
  20425124.920   107334850.43509  20425124.800    83637574.07049
  23148301.600   121645250.94108  23148302.740    94788541.40846
  22270428.720   118839294.85308  22270431.560    92430579.89806
  20017538.040   107155569.95108  20017538.280    83343271.34308
  21797912.780   116726941.41608  21797914.400    90787673.56107
  22185309.120   118468309.51907  22185309.840    92142025.92204
  22344946.660   119362672.21408  22344950.860    92837633.42107
  22404078.000   119888730.01908  22404079.200    93246791.37607
  20158418.180   107607014.22309  20158421.020    83694358.10708
  22034534.800   117869921.33208  22034535.080    91676609.41007
