     2.11           OBSERVATION DATA    G                   RINEX VERSION / TYPE
SPIDER V4,0,0,3554                      2015 03 21 01:32    PGM / RUN BY / DATE 
CNGR                                                        MARKER NAME         
CNGR                                                        MARKER NUMBER       
                                                            OBSERVER / AGENCY   
496521              LEICA GRX1200+GNSS  8.10/4.007          REC # / TYPE / VERS 
10321004            LEIAR25         NONE                    ANT # / TYPE        
  5218738.7445   688113.1521  3590185.5476                  APPROX POSITION XYZ 
        0.0720        0.0000        0.0000                  ANTENNA: DELTA H/E/N
     1     1                                                WAVELENGTH FACT L1/2
     4    C1    L1    P2    L2                              # / TYPES OF OBSERV 
    30.000                                                  INTERVAL            
  2015    02    27    00    00    0.0000000     GPS         TIME OF FIRST OBS   
  2015    02    27    23    59   30.0000000     GPS         TIME OF LAST OBS    
    16                                                      LEAP SECONDS        
    30                                                      # OF SATELLITES     
   G 1   815   815   815   815                              PRN / # OF OBS      
   G 2   943   943   943   943                              PRN / # OF OBS      
   G 3   860   860   860   860                              PRN / # OF OBS      
   G 4   843   843   843   843                              PRN / # OF OBS      
   G 5   628   628   628   628                              PRN / # OF OBS      
   G 6   829   829   829   829                              PRN / # OF OBS      
   G 7   677   677   677   677                              PRN / # OF OBS      
   G 9   817   817   817   817                              PRN / # OF OBS      
   G10   743   742   742   742                              PRN / # OF OBS      
   G11   777   776   776   776                              PRN / # OF OBS      
   G12   841   841   841   841                              PRN / # OF OBS      
   G13   761   761   761   761                              PRN / # OF OBS      
   G14   941   936   936   935                              PRN / # OF OBS      
   G15   658   654   654   654                              PRN / # OF OBS      
   G16   666   666   666   666                              PRN / # OF OBS      
   G17   939   939   938   938                              PRN / # OF OBS      
   G18   903   900   901   899                              PRN / # OF OBS      
   G19   755   755   755   755                              PRN / # OF OBS      
   G20   760   758   760   758                              PRN / # OF OBS      
   G21   721   720   717   717                              PRN / # OF OBS      
   G22   668   667   667   667                              PRN / # OF OBS      
   G23   761   761   761   761                              PRN / # OF OBS      
   G24   820   810   805   804                              PRN / # OF OBS      
   G25   867   866   866   866                              PRN / # OF OBS      
   G27   808   808   808   808                              PRN / # OF OBS      
   G28   854   853   854   853                              PRN / # OF OBS      
   G29   747   747   747   747                              PRN / # OF OBS      
   G30   725   725   725   725                              PRN / # OF OBS      
   G31   862   861   861   861                              PRN / # OF OBS      
   G32   777   777   777   777                              PRN / # OF OBS      
BIT 2 OF LLI FLAGS DATA COLLECTED UNDER A/S CONDITION       COMMENT             
SNR is mapped to RINEX snr flag value [2-9]                 COMMENT             
Lx:     = 25dBHz -> 1; 26-27dBHz -> 2; 28-31dBHz -> 3       COMMENT             
       32-35dBHz -> 4; 36-38dBHz -> 5; 39-41dBHz -> 6       COMMENT             
       42-44dBHz -> 7; 45-48dBHz -> 8; >=49dBHz -> 9        COMMENT             
                                                            END OF HEADER       
 15 02 27 00 00  0.0000000  0  8G16G18G21G22G25G27G29G31
  21983787.020   115525589.94309  21983783.140    90019932.93348
  22438445.100   117914972.25909  22438442.220    91881855.78747
  21203856.220   111427245.41108  21203852.080    86826526.57048
  23892076.740   125553823.02908  23892074.280    97834188.32946
  24624091.600   129400653.79908  24624093.100   100831760.52444
  23233003.860   122090268.84508  23233003.600    95135274.12447
  23652514.740   124295283.73308  23652514.380    96853674.43447
  22838266.000   120015914.68709  22838262.860    93518882.88347
 15 02 27 00 00 30.0000000  0  8G16G18G21G22G25G27G29G31
  21969314.580   115449537.09909  21969310.800    89960670.99547
  22426723.940   117853377.59609  22426721.100    91833859.96647
  21210663.500   111463017.80909  21210659.400    86854401.16848
  23873991.520   125458785.78108  23873988.760    97760133.70146
  24643361.460   129501915.40107  24643362.440   100910665.48344
  23220396.140   122024014.43508  23220395.760    95083647.32746
  23665823.620   124365221.28909  23665823.360    96908171.16847
  22854750.300   120102540.43909  22854747.180    93586383.43447
 15 02 27 00 01  0.0000000  0  8G16G18G21G22G25G27G29G31
  21954889.100   115373731.62609  21954885.480    89901601.80148
  22415060.000   117792083.25209  22415057.080    91786098.16647
  21217532.480   111499114.17709  21217528.340    86882528.20248
  23855908.180   125363758.48008  23855905.200    97686086.84145
  24662659.260   129603324.14008  24662659.940   100989684.97545
  23207803.480   121957838.99308  23207802.920    95032082.07047
  23679139.800   124435197.68608  23679138.600    96962698.24446
  22871273.300   120189369.56109  22871270.220    93654042.45747
 15 02 27 00 01 30.0000000  0  8G16G18G21G22G25G27G29G31
  21940510.320   115298171.27809  21940506.840    89842723.61447
  22403452.880   117731087.26409  22403449.860    91738568.84347
  21224461.920   111535528.18109  21224457.700    86910902.74448
  23837826.280   125268738.52408  23837823.300    97612045.65846
  24681983.920   129704873.86208  24681984.380   101068814.38745
  23195225.020   121891738.00408  23195224.260    94980574.82047
  23692462.380   124505208.21108  23692461.040    97017251.87447
  22887833.600   120276394.59309  22887830.580    93721854.13647
 15 02 27 00 02  0.0000000  0  8G16G18G21G22G25G27G29G31
  21926179.480   115222862.42409  21926176.040    89784041.40247
  22391903.840   117670396.15509  22391900.620    91691277.08747
  21231452.380   111572262.84709  21231448.060    86939527.15948
  23819747.060   125173732.60108  23819743.840    97538015.40746
  24701335.940   129806567.26408  24701335.860   101148055.73145
  23182661.440   121825715.63308  23182660.580    94929128.83147
  23705792.560   124575257.45308  23705791.200    97071835.64846
  22904431.460   120363616.82509  22904428.460    93789819.46947
 15 02 27 00 02 30.0000000  0  8G16G18G21G22G25G27G29G31
  21911896.400   115147804.46109  21911892.940    89725554.67848
  22380412.640   117610008.79509  22380409.360    91644222.01547
  21238502.780   111609312.89608  21238498.460    86968397.32748
  23801670.400   125078740.16008  23801667.100    97463995.66146
  24720714.360   129908399.45408  24720714.320   101227405.18445
  23170112.080   121759768.45808  23170111.280    94877741.44747
  23719129.120   124645341.74808  23719127.220    97126446.77546
  22921065.660   120451029.82109  22921062.620    93857933.46147
 15 02 27 00 03  0.0000000  0  8G16G18G21G22G25G27G29G31
  21897661.520   115072999.75909  21897658.100    89667265.30848
  22368979.900   117549928.55509  22368976.480    91597406.25247
  21245613.000   111646677.37009  21245608.720    86997512.50248
  23783596.960   124983764.69508  23783593.660    97389989.11246
  24740119.100   130010369.39508  24740119.060   101306861.95345
  23157577.140   121693897.15408  23157576.420    94826413.16647
  23732472.700   124715462.08009  23732470.240    97181085.96846
  22937735.780   120538631.47509  22937732.660    93926194.44547
 15 02 27 00 03 30.0000000  0  8G16G18G21G22G25G27G29G31
  21883474.920   114998448.59109  21883471.560    89609173.49548
  22357605.580   117490155.85909  22357602.080    91550830.14747
  21252782.380   111684352.74309  21252778.120    87026869.93548
  23765526.940   124888807.02708  23765523.500    97315996.41746
  24759549.340   130112473.65708  24759549.220   101386423.37844
  23145056.240   121628099.71408  23145055.640    94775142.44647
  23745822.840   124785616.37808  23745820.520    97235751.64047
  22954440.880   120626416.79809  22954437.660    93994598.56647
 15 02 27 00 04  0.0000000  0  8G16G18G21G22G25G27G29G31
  21869338.440   114924161.06909  21869335.100    89551287.12448
  22346291.580   117430700.51409  22346288.200    91504501.32347
  21260011.980   111722344.65508  21260007.820    87056474.02048
  23747462.040   124793876.99708  23747458.660    97242025.27646
  24779005.980   130214718.21208  24779006.200   101466094.07145
  23132550.840   121562383.68208  23132550.340    94723935.16747
  23759180.380   124855812.18308  23759178.700    97290449.55146
  22971181.720   120714390.17009  22971178.480    94063149.20447
 15 02 27 00 04 30.0000000  0  8G16G18G21G22G25G27G29G31
  21855250.940   114850131.05109  21855247.660    89493601.40048
  22335036.660   117371555.90109  22335033.300    91458414.63947
  21267299.900   111760643.05908  21267295.840    87086316.93548
  23729401.340   124698968.55208  23729397.960    97168070.89846
  24798487.180   130317092.94008  24798488.060   101545866.18345
  23120059.320   121496740.55608  23120058.840    94672784.69147
  23772544.420   124926040.77608  23772542.080    97345173.20046
  22987956.160   120802540.38109  22987952.920    94131837.65247
 15 02 27 00 05  0.0000000  0  8G16G18G21G22G25G27G29G31
  21841213.940   114776366.56709  21841210.780    89436122.59448
  22323842.560   117312730.56609  22323839.140    91412576.72447
  21274646.920   111799252.08309  21274642.960    87116401.88548
  23711346.360   124604090.41408  23711343.000    97094140.16346
  24817993.940   130419602.01608  24817995.320   101625742.98445
  23107582.780   121431176.15908  23107582.340    94621695.56947
  23785915.860   124996308.67008  23785914.100    97399927.33947
  23004764.720   120890870.10209  23004761.620    94200665.95747
 15 02 27 00 05 30.0000000  0  7G16G18G21G22G27G29G31
  21827228.360   114702872.14209  21827225.260    89378854.21748
  22312710.160   117254229.37309  22312706.580    91366991.39547
  21282053.100   111838172.05009  21282049.160    87146729.13248
  23693297.980   124509247.10008  23693294.640    97020236.53446
  23095121.580   121365692.55208  23095121.260    94570669.39647
  23799295.040   125066617.68608  23799293.400    97454713.56346
  23021607.240   120979378.34409  23021604.260    94269633.37947
 15 02 27 00 06  0.0000000  0  7G16G18G21G22G27G29G31
  21813292.100   114629636.67809  21813288.960    89321787.62648
  22301637.280   117196040.87509  22301633.540    91321649.72947
  21289515.620   111877388.00209  21289511.640    87177287.01048
  23675254.260   124414428.31708  23675251.040    96946352.02246
  23082673.280   121300276.53908  23082673.060    94519695.89647
  23812679.800   125136954.56508  23812677.480    97509521.53146
  23038480.680   121068049.12009  23038477.860    94338727.45747
 15 02 27 00 06 30.0000000  0  7G16G18G21G22G27G29G31
  21799407.960   114556674.82509  21799404.760    89264934.24448
  22290626.760   117138179.93109  22290622.780    91276563.29347
  21297036.380   111916910.02809  21297032.340    87208083.38848
  23657217.980   124319648.71808  23657214.880    96872498.02246
  23070240.200   121234940.36008  23070239.980    94468784.60447
  23826071.880   125207331.68208  23826069.600    97564360.77946
  23055386.840   121156891.69309  23055384.180    94407955.39747
 15 02 27 00 07  0.0000000  0  7G16G18G21G22G27G29G31
  21785575.380   114483983.56109  21785572.020    89208291.70148
  22279677.920   117080643.13909  22279673.800    91231729.45247
  21304614.240   111956732.11209  21304610.200    87239113.57748
  23639188.640   124224905.89908  23639185.760    96798672.66846
  23057821.300   121169678.70708  23057821.080    94417931.37647
  23839470.960   125277744.09408  23839469.220    97619227.56546
  23072324.100   121245897.46809  23072321.500    94477310.50447
 15 02 27 00 07 30.0000000  0  7G16G18G21G22G27G29G31
  21771795.040   114411566.79009  21771791.560    89151863.04348
  22268791.560   117023434.72109  22268787.340    91187151.47047
  21312249.080   111996853.54809  21312245.020    87270377.02548
  23621167.120   124130203.96408  23621164.400    96724879.18246
  23045416.920   121104493.32108  23045416.720    94367137.57947
  23852877.020   125348193.13908  23852875.020    97674122.87646
  23089292.280   121335065.46708  23089289.700    94546792.02347
 15 02 27 00 08  0.0000000  0  7G16G18G21G22G27G29G31
  21758066.720   114339423.83109  21758063.180    89095647.76148
  22257967.420   116966553.89409  22257963.200    91142828.76647
  21319939.980   112037269.62608  21319935.920    87301870.07148
  23603153.480   124035542.62708  23603150.600    96651117.29846
  23033026.500   121039381.17508  23033026.340    94316400.86447
  23866289.520   125418676.02108  23866287.240    97729044.57546
  23106290.220   121424389.63308  23106287.580    94616395.21747
 15 02 27 00 08 30.0000000  0  7G16G18G21G22G27G29G31
  21744391.700   114267561.01409  21744388.140    89039650.76548
  22247206.800   116910006.54309  22247202.640    91098765.91247
  21327687.400   112077982.69808  21327683.380    87333594.53748
  23585148.780   123940928.11708  23585145.900    96577391.93346
  23020650.780   120974346.00108  23020650.540    94265724.10847
  23879709.140   125489196.55808  23879707.060    97783995.60246
  23123318.000   121513870.65009  23123315.300    94686120.62847
 15 02 27 00 09  0.0000000  0  7G16G18G21G22G27G29G31
  21730770.000   114195978.67309  21730766.460    88983872.32248
  22236509.720   116853793.11109  22236505.600    91054963.24347
  21335490.600   112118989.02008  21335486.620    87365547.50848
  23567153.260   123846361.41808  23567150.020    96503703.77446
  23008289.380   120909386.00108  23008288.980    94215105.93247
  23893135.720   125559752.98708  23893134.100    97838974.59747
  23140374.660   121603503.59409  23140371.880    94755964.43347
 15 02 27 00 09 30.0000000  0  7G16G18G21G22G27G29G31
  21717202.880   114124683.03909  21717199.380    88928317.29348
  22225877.500   116797920.37009  22225873.480    91011426.06547
  21343350.120   112160291.17108  21343346.120    87397731.00748
  23549168.220   123751849.33708  23549164.860    96430058.18947
  22995943.080   120844505.45008  22995942.520    94164549.67447
  23906569.760   125630349.50108  23906568.480    97893984.83146
  23157460.500   121693289.87109  23157457.660    94825927.72547
 15 02 27 00 10  0.0000000  0  7G16G18G21G22G27G29G31
  21703689.360   114053669.17309  21703685.860    88872981.80848
  22215309.180   116742383.45809  22215305.240    90968150.54947
  21351264.240   112201880.28608  21351260.220    87430138.11048
  23531192.700   123657387.31908  23531189.160    96356451.59846
  22983610.480   120779697.08408  22983609.880    94114049.65747
  23920010.180   125700978.97208  23920008.900    97949020.80146
  23174573.560   121783219.28008  23174570.660    94896002.52647
 15 02 27 00 10 30.0000000  0  7G16G18G21G22G27G29G31
  21690231.640   113982948.71609  21690228.160    88817874.97348
  22204806.740   116687192.76909  22204802.860    90925144.83847
  21359234.320   112243763.43409  21359230.320    87462774.33148
  23513228.960   123562986.99408  23513225.300    96282893.08146
  22971293.340   120714969.88908  22971292.700    94063612.89147
  23933458.440   125771650.59208  23933457.640    98004089.53047
  23191714.900   121873297.62209  23191712.000    94966193.40547
 15 02 27 00 11  0.0000000  0  7G16G18G21G22G27G29G31
  21676829.000   113912517.72409  21676825.520    88762993.68548
  22194369.440   116632344.80509  22194365.680    90882406.18347
  21367258.660   112285931.62009  21367254.680    87495632.64548
  23495276.180   123468644.73208  23495272.320    96209379.81946
  22958990.360   120650317.51108  22958989.800    94013234.43047
  23946913.340   125842357.76408  23946912.500    98059186.01346
  23208882.780   121963515.61109  23208879.860    95036493.07147
 15 02 27 00 11 30.0000000  0  7G16G18G21G22G27G29G31
  21663482.040   113842379.38909  21663478.580    88708340.44748
  22183998.000   116577842.97209  22183994.360    90839937.22247
  21375337.460   112328385.91609  21375333.520    87528713.91548
  23477335.100   123374364.31209  23477331.020    96135914.71246
  22946701.880   120585741.34208  22946701.360    93962915.35047
  23960375.340   125913102.08708  23960374.560    98114311.42346
  23226076.900   122053871.63709  23226074.060    95106900.31947
 15 02 27 00 12  0.0000000  0  7G16G18G21G22G27G29G31
  21650191.080   113772535.27509  21650187.680    88653916.46448
  22173692.620   116523688.38109  22173689.080    90797738.86247
  21383470.240   112371123.51409  21383466.260    87562015.94648
  23459406.200   123280147.90508  23459402.020    96062499.50046
  22934427.760   120521240.66008  22934427.240    93912655.08147
  23973844.520   125983882.71108  23973843.880    98169465.10146
  23243296.600   122144361.85808  23243293.860    95177412.12447
 15 02 27 00 12 30.0000000  0  7G16G18G21G22G27G29G31
  21636956.700   113702988.22509  21636953.300    88599723.96248
  22163453.900   116469883.84909  22163450.460    90755813.25747
  21391656.500   112414142.17809  21391652.540    87595536.97448
  23441490.000   123185998.33008  23441485.820    95989136.33646
  22922168.060   120456815.81008  22922167.520    93862453.90247
  23987320.820   126054700.23408  23987319.800    98224647.58446
  23260541.280   122234983.48108  23260538.620    95248026.31847
 15 02 27 00 13  0.0000000  0  7G16G18G21G22G27G29G31
  21623779.920   113633743.83109  21623776.560    88545767.30548
  22153282.800   116416434.74109  22153279.420    90714164.61847
  21399896.600   112457443.82009  21399892.620    87629278.52248
  23423587.640   123091921.61008  23423583.380    95915829.94846
  22909923.400   120392470.13608  22909922.880    93812314.42747
  24000804.700   126125557.94408  24000803.760    98279861.34546
  23277811.120   122325737.08908  23277808.560    95318743.35947
 15 02 27 00 13 30.0000000  0  7G16G18G21G22G27G29G31
  21610660.480   113564800.58009  21610657.140    88492045.29348
  22143179.000   116363339.43109  22143175.720    90672791.66447
  21408189.560   112501023.47709  21408185.540    87663236.69248
  23405698.960   122997916.86308  23405694.500    95842579.63247
  22897693.060   120328199.97508  22897692.680    93762233.79647
  24014295.480   126196452.46708  24014294.860    98335103.76746
  23295104.820   122416615.96208  23295102.300    95389558.00647
 15 02 27 00 14  0.0000000  0  7G16G18G21G22G27G29G31
  21597598.720   113496160.42909  21597595.380    88438559.47448
  22133142.980   116310599.91409  22133139.780    90631695.94447
  21416534.840   112544878.36409  21416530.840    87697409.33348
  23387824.480   122903986.23108  23387819.920    95769387.07046
  22885477.080   120264004.99808  22885476.860    93712211.74847
  24027793.180   126267383.16708  24027792.340    98390374.48146
  23312421.740   122507616.60708  23312419.220    95460467.53447
 15 02 27 00 14 30.0000000  0  7G16G18G21G22G27G29G31
  21584595.800   113427829.36509  21584592.440    88385314.48348
  22123175.720   116258221.63809  22123172.580    90590881.71347
  21424932.940   112589010.71409  21424928.960    87731798.17348
  23369965.260   122810135.78009  23369960.700    95696256.97846
  22873276.220   120199888.79608  22873276.020    93662251.08047
  24041298.400   126338353.64508  24041297.560    98445676.08346
  23329761.900   122598739.50808  23329759.420    95531472.32247
 15 02 27 00 15  0.0000000  0  7G16G18G21G22G27G29G31
  21571651.500   113359806.37109  21571648.120    88332309.56048
  22113277.000   116206203.29309  22113273.860    90550347.95447
  21433382.800   112633415.19908  21433378.820    87766399.06448
  23352121.180   122716364.77509  23352116.520    95623188.79146
  22861089.760   120135848.00708  22861089.400    93612349.17247
  24054810.660   126409360.81208  24054809.600    98501006.31046
  23347124.160   122689978.42008  23347121.700    95602567.50447
 15 02 27 00 15 30.0000000  0  7G16G18G21G22G27G29G31
  21558766.420   113292094.40109  21558762.980    88279546.99248
  22103447.340   116154547.89909  22103444.220    90510097.01247
  21441884.300   112678091.22709  21441880.400    87801211.55848
  23334292.980   122622677.15908  23334288.240    95550185.57146
  22848917.840   120071883.70208  22848917.360    93562506.87547
  24068330.140   126480405.56008  24068328.800    98556365.86446
  23364508.080   122781331.16508  23364505.560    95673751.39647
 15 02 27 00 16  0.0000000  0  7G16G18G21G22G27G29G31
  21545941.060   113224696.32409  21545937.560    88227029.01748
  22093687.280   116103258.27509  22093684.160    90470131.07847
  21450437.120   112723037.13508  21450433.340    87836234.34248
  23316481.220   122529075.98109  23316476.420    95477249.71146
  22836760.580   120007996.53108  22836759.980    93512724.66447
  24081856.960   126551488.65608  24081855.660    98611755.24546
  23381913.240   122872795.48608  23381910.660    95745022.20947
 15 02 27 00 16 30.0000000  0  7G16G18G21G22G27G29G31
  21533175.780   113157614.09109  21533172.240    88174757.15148
  22083997.020   116052335.86209  22083993.980    90430451.29247
  21459040.960   112768251.07209  21459037.300    87871465.98448
  23298686.300   122435563.56509  23298681.500    95404383.00846
  22824617.920   119944186.06709  22824617.260    93463002.24347
  24095391.080   126622609.92508  24095389.900    98667174.39346
  23399338.980   122964367.86608  23399336.320    95816377.24347
 15 02 27 00 17  0.0000000  0  7G16G18G21G22G27G29G31
  21520471.260   113090851.22009  21520467.680    88122734.14048
  22074377.180   116001783.60309  22074374.220    90391059.94447
  21467695.720   112813732.28408  21467692.080    87906905.88448
  23280908.940   122342143.36808  23280904.180    95331588.15546
  22812490.100   119880453.46508  22812489.360    93413340.48548
  24108932.660   126693770.41508  24108931.280    98722624.13445
  23416784.940   123056046.42608  23416782.200    95887815.01247
 15 02 27 00 17 30.0000000  0  7G16G18G21G22G27G29G31
  21507828.000   113024410.18009  21507824.340    88070961.90448
  22064828.400   115951604.57009  22064825.360    90351959.40047
  21476401.100   112859479.39708  21476397.440    87942552.98148
  23263149.740   122248818.92208  23263145.020    95258867.90246
  22800377.180   119816799.22508  22800376.340    93363739.78748
  24122481.620   126764970.22908  24122480.180    98778104.50646
  23434250.600   123147828.42408  23434247.760    95959333.35047
 15 02 27 00 18  0.0000000  0  7G16G18G21G22G27G29G31
  21495246.320   112958292.71909  21495242.620    88019441.80248
  22055350.880   115901799.84809  22055347.820    90313150.53847
  21485156.580   112905489.65209  21485152.840    87978405.12048
  23245409.120   122155591.88909  23245404.420    95186223.57446
  22788278.920   119753222.67408  22788278.080    93314199.63748
  24136038.020   126836209.04508  24136036.520    98833615.21446
  23451735.280   123239710.46008  23451732.380    96030929.66246
 15 02 27 00 18 30.0000000  0  7G16G18G21G22G27G29G31
  21482726.880   112892502.49709  21482723.140    87968176.70248
  22045945.220   115852372.87609  22045942.140    90274636.03147
  21493962.180   112951763.08809  21493958.360    88014462.34448
  23227687.860   122062466.52608  23227683.140    95113658.43946
  22776195.680   119689725.26808  22776194.880    93264721.16247
  24149602.040   126907488.48808  24149600.680    98889157.62946
  23469238.700   123331690.81708  23469235.760    96102602.61447
 15 02 27 00 19  0.0000000  0  7G16G18G21G22G27G29G31
  21470269.340   112827037.76109  21470265.620    87917165.22848
  22036611.000   115803321.42109  22036607.980    90236414.13347
  21502816.660   112998293.46609  21502812.800    88050719.77148
  23209985.660   121969441.44109  23209981.000    95041171.46746
  22764126.780   119626303.12808  22764126.060    93215301.31947
  24163173.080   126978804.66408  24163171.780    98944728.67346
  23486759.480   123423762.53008  23486756.500    96174346.68946
 15 02 27 00 19 30.0000000  0  7G16G18G21G22G27G29G31
  21457874.820   112761904.46809  21457871.220    87866412.02348
  22027349.300   115754651.01409  22027346.360    90198489.15747
  21511720.520   113045082.96709  21511716.500    88087179.12348
  23192303.780   121876522.72908  23192299.140    94968767.35547
  22752072.900   119562959.83708  22752072.240    93165942.92247
  24176751.800   127050160.98808  24176750.440    99000330.95746
  23504297.700   123515925.97308  23504294.700    96246162.26946
 15 02 27 00 20  0.0000000  0  7G16G18G21G22G27G29G31
  21445543.880   112697105.33309  21445540.320    87815919.19048
  22018160.720   115706364.64809  22018157.820    90160863.42947
  21520673.460   113092130.60009  21520669.360    88123839.61048
  23174642.760   121783713.72408  23174638.060    94896448.73447
  22740034.120   119499696.27508  22740033.500    93116646.64547
  24190338.340   127121558.12508  24190336.780    99055965.07346
  23521852.940   123608178.98508  23521849.920    96318047.63147
 15 02 27 00 20 30.0000000  0  7G16G18G21G22G27G29G31
  21433276.360   112632639.58709  21433272.840    87765686.14848
  22009044.980   115658460.81909  22009042.040    90123535.78447
  21529674.500   113139431.19509  21529670.420    88160697.21948
  23157002.560   121691014.02008  23156997.760    94824215.27747
  22728009.880   119436509.23208  22728009.240    93067409.99447
  24203932.120   127192993.41908  24203930.300    99111628.93546
  23539424.020   123700515.34708  23539420.960    96389997.95347
 15 02 27 00 21  0.0000000  0  7G16G18G21G22G27G29G31
  21421073.340   112568512.26609  21421069.780    87715716.80948
  22000002.880   115610944.10309  21999999.860    90086509.78447
  21538723.820   113186985.92408  21538719.820    88197752.84648
  23139384.260   121598429.30308  23139379.360    94752071.41447
  22716000.840   119373401.64008  22716000.140    93018235.25747
  24217533.700   127264469.42408  24217531.780    99167324.50346
  23557010.900   123792934.82108  23557007.820    96462013.02646
 15 02 27 00 21 30.0000000  0  7G16G18G21G22G27G29G31
  21408934.520   112504722.14209  21408930.860    87666010.22248
  21991034.140   115563812.94809  21991031.000    90049784.22347
  21547820.340   113234788.99009  21547816.480    88235001.99448
  23121787.600   121505958.55908  23121782.720    94680016.36746
  22704006.340   119310370.06208  22704005.540    92969119.74847
  24231142.340   127335982.72408  24231140.200    99223049.14045
  23574612.340   123885430.91008  23574609.380    96534087.81146
 15 02 27 00 22  0.0000000  0  7G16G18G21G22G27G29G31
  21396860.860   112441274.34109  21396857.120    87616570.37048
  21982139.660   115517072.25109  21982136.500    90013362.91147
  21556964.360   113282841.66008  21556960.600    88272445.63348
  23104213.700   121413607.36709  23104208.900    94608054.47147
  22692026.960   119247417.51408  22692026.060    92920065.81947
  24244758.600   127407536.45708  24244756.480    99278805.28846
  23592228.420   123978003.80608  23592225.540    96606222.42347
 15 02 27 00 22 30.0000000  0  7G16G18G21G22G27G29G31
  21384853.180   112378173.35709  21384849.380    87567400.77848
  21973320.300   115470726.36409  21973317.120    89977249.24347
  21566156.020   113331144.71408  21566152.400    88310084.36848
  23086663.520   121321380.44609  23086658.700    94536189.38747
  22680063.060   119184546.29408  22680062.140    92871075.26748
  24258382.880   127479132.76008  24258380.840    99334594.57946
  23609858.940   124070652.44108  23609856.020    96678416.06847
 15 02 27 00 23  0.0000000  0  7G16G18G21G22G27G29G31
  21372911.260   112315418.29109  21372907.480    87518500.73548
  21964575.780   115424773.83509  21964572.580    89941442.10047
  21575394.380   113379692.92809  21575390.800    88347914.14548
  23069136.920   121229277.55209  23069132.140    94464420.95547
  22668114.000   119121753.36808  22668113.080    92822145.72147
  24272014.740   127550768.68608  24272012.680    99390414.77346
  23627502.680   124163370.67408  23627499.700    96750663.92746
 15 02 27 00 23 30.0000000  0  7G16G18G21G22G27G29G31
  21361035.720   112253012.20409  21361032.020    87469872.61948
  21955906.620   115379217.07109  21955903.340    89905943.33547
  21584679.320   113428485.44409  21584675.660    88385934.28548
  23051634.500   121137302.11109  23051629.780    94392751.84047
  22656179.940   119059039.70308  22656179.160    92773277.94747
  24285654.280   127622445.33308  24285652.380    99446266.71846
  23645159.320   124256156.69908  23645156.340    96822964.62947
 15 02 27 00 24  0.0000000  0  7G16G18G21G22G27G29G31
  21349227.460   112190959.65509  21349223.820    87421519.98748
  21947313.700   115334060.77709  21947310.320    89870756.62547
  21594010.900   113477522.75409  21594007.120    88424145.17548
  23034157.280   121045459.15109  23034152.520    94321185.96147
  22644261.440   118996407.72909  22644260.800    92724473.82547
  24299301.920   127694164.90108  24299300.260    99502152.08146
  23662828.660   124349009.55708  23662825.740    96895317.39146
 15 02 27 00 24 30.0000000  0  7G16G18G21G22G27G29G31
  21337486.340   112129259.71909  21337482.680    87373442.11348
  21938796.660   115289303.01209  21938793.160    89835880.45347
  21603388.120   113526799.89509  21603384.260    88462542.93648
  23016705.040   120953747.78409  23016700.320    94249722.61147
  22632357.940   118933854.26708  22632357.260    92675730.86847
  24312957.100   127765923.90808  24312955.840    99558068.14446
  23680509.500   124441922.95108  23680506.700    96967717.31246
 15 02 27 00 25  0.0000000  0  7G16G18G21G22G27G29G31
  21325813.040   112067916.12409  21325809.340    87325641.90948
  21930356.100   115244947.23109  21930352.520    89801317.52747
  21612810.940   113576316.76409  21612807.000    88501127.51048
  22999278.720   120862172.67609  22999274.060    94178365.44447
  22620469.720   118871381.10508  22620468.980    92627050.49047
  24326620.260   127837724.61908  24326618.960    99614016.73746
  23698201.660   124534895.78208  23698199.040    97040163.55146
 15 02 27 00 25 30.0000000  0  7G16G18G21G22G27G29G31
  21314207.740   112006930.04209  21314204.060    87278120.28748
  21921992.300   115200994.68209  21921988.540    89767068.78347
  21622278.800   113626070.53409  21622274.840    88539896.67948
  22981878.680   120770735.42209  22981873.960    94107115.66847
  22608596.600   118808987.23608  22608595.800    92578431.89747
  24340291.060   127909565.87308  24340289.560    99669996.90245
  23715904.340   124627923.79408  23715901.920    97112652.77546
 15 02 27 00 26  0.0000000  0  7G16G18G21G22G27G29G31
  21302670.700   111946302.88909  21302667.100    87230878.35848
  21913705.440   115157446.33109  21913701.540    89733135.01847
  21631791.080   113676057.85509  21631787.120    88578847.84048
  22964505.180   120679437.73609  22964500.480    94035974.68547
  22596738.460   118746672.05508  22596737.600    92529874.62848
  24353969.480   127981446.77808  24353967.920    99726008.01846
  23733616.900   124721003.44408  23733614.620    97185182.26946
 15 02 27 00 26 30.0000000  0  7G16G18G21G22G27G29G31
  21291202.860   111886039.20909  21291199.300    87183919.64648
  21905496.120   115114305.71209  21905492.140    89699518.96148
  21641347.960   113726279.45709  21641343.980    88617981.54148
  22947159.200   120588284.43709  22947154.460    93964946.19447
  22584895.660   118684437.83408  22584894.820    92481380.43048
  24367655.980   128053369.71108  24367654.180    99782051.87245
  23751339.080   124814133.58008  23751336.800    97257751.07247
 15 02 27 00 27  0.0000000  0  7G16G18G21G22G27G29G31
  21279804.740   111826141.83709  21279801.200    87137246.37148
  21897364.840   115071575.30809  21897360.820    89666222.54448
  21650949.340   113776734.83409  21650945.360    88657297.42048
  22929841.500   120497279.22809  22929836.580    93894033.07147
  22573068.460   118622285.68108  22573067.620    92432950.18048
  24381350.720   128125335.83708  24381348.800    99838129.34046
  23769070.520   124907312.45008  23769068.320    97330357.84146
 15 02 27 00 27 30.0000000  0  7G16G18G21G22G27G29G31
  21268476.160   111766609.67909  21268472.600    87090857.68748
  21889311.260   115029253.77409  21889307.300    89633244.74547
  21660594.240   113827418.98909  21660590.260    88696791.56248
  22912551.840   120406421.20709  22912546.820    93823234.68347
  22561256.180   118560212.18808  22561255.480    92384581.25148
  24395052.940   128197341.22908  24395050.800    99894237.41345
  23786809.980   125000533.57608  23786807.880    97402997.53646
 15 02 27 00 28  0.0000000  0  7G16G18G21G22G27G29G31
  21257218.080   111707447.93509  21257214.500    87044757.63948
  21881336.200   114987345.30309  21881332.420    89600588.81347
  21670282.680   113878332.09809  21670278.720    88736464.11748
  22895291.220   120315716.03209  22895286.100    93752555.37647
  22549459.460   118498220.36308  22549458.880    92336275.95448
  24408763.240   128269389.18408  24408761.020    99950378.66445
  23804557.500   125093796.88208  23804555.400    97475670.11746
 15 02 27 00 28 30.0000000  0  7G16G18G21G22G27G29G31
  21246030.740   111648657.68609  21246027.060    86998947.05148
  21873439.900   114945850.79409  21873436.280    89568255.44648
  21680014.240   113929471.63309  21680010.260    88776313.09548
  22878059.900   120225165.04709  22878054.900    93681996.21447
  22537678.120   118436309.25909  22537677.620    92288033.55548
  24422481.540   128341479.19008  24422479.320   100006552.70346
  23822312.300   125187098.23708  23822310.100    97548372.34346
 15 02 27 00 29  0.0000000  0  7G16G18G21G22G27G29G31
  21234914.600   111590241.96509  21234910.920    86953428.31448
  21865622.920   114904772.87809  21865619.380    89536246.69548
  21689788.800   113980837.23509  21689784.760    88816338.23348
  22860858.560   120134771.90409  22860853.560    93611560.04747
  22525912.420   118374479.98309  22525911.920    92239854.91948
  24436207.840   128413611.83808  24436205.760   100062759.92045
  23840074.000   125280435.54408  23840071.680    97621102.57346
 15 02 27 00 29 30.0000000  0  7G16G18G21G22G27G29G31
  21223870.200   111532203.39609  21223866.520    86908203.46148
  21857885.680   114864113.64909  21857882.100    89504564.19547
  21699606.020   114032427.12909  21699601.980    88856538.14748
  22843687.940   120044539.89209  22843682.940    93541249.42547
  22514162.480   118312733.26609  22514162.000    92191740.60448
  24449942.340   128485787.53808  24449940.560   100119000.70146
  23857842.080   125373806.45708  23857839.860    97693858.98746
 15 02 27 00 30  0.0000000  0  7G16G18G21G22G27G29G31
  21212897.760   111474542.97109  21212894.080    86863273.25848
  21850228.220   114823873.31709  21850224.620    89473208.09847
  21709465.280   114084238.07709  21709461.280    88896910.30848
  22826548.240   119954470.29009  22826543.280    93471065.35847
  22502427.980   118251067.82109  22502427.460    92143689.63748
  24463684.960   128558005.40708  24463683.080   100175274.35344
  23875615.640   125467206.57508  23875613.340    97766638.15646
 15 02 27 00 30 30.0000000  0  7G16G18G21G22G27G29G31
  21201997.780   111417263.15009  21201994.100    86818639.63948
  21842650.860   114784053.92209  21842647.280    89442180.01047
  21719366.400   114136269.06609  21719362.480    88937453.93948
  22809439.980   119864566.12309  22809434.980    93401010.21647
  22490709.080   118189484.33909  22490708.520    92095702.52248
  24477435.680   128630265.70508  24477433.500   100231581.11745
  23893394.300   125560633.58408  23893391.940    97839438.26346
 15 02 27 00 31  0.0000000  0  7G16G18G21G22G27G29G31
  21191170.740   111360366.49809  21191167.020    86774304.58948
  21835154.080   114744657.95609  21835150.500    89411481.86848
  21729309.000   114188518.20409  21729305.200    88978167.55648
  22792363.840   119774830.63309  22792358.760    93331086.49347
  22479005.840   118127983.31908  22479005.160    92047779.66048
  24491194.620   128702568.86508  24491192.380   100287921.23845
  23911177.540   125654084.88608  23911175.220    97912257.27946
 15 02 27 00 31 30.0000000  0  7G16G18G21G22G27G29G31
  21180417.500   111303857.58209  21180413.720    86730271.67748
  21827738.500   114705688.73609  21827734.860    89381116.26447
  21739293.280   114240986.16509  21739289.560    89019051.69048
  22775320.680   119685268.43309  22775315.580    93261297.79247
  22467318.600   118066567.09909  22467317.960    91999922.89448
  24504962.080   128774917.14608  24504959.780   100344296.49146
  23928965.240   125747559.33908  23928963.040    97985094.36446
 15 02 27 00 32  0.0000000  0  7G16G18G21G22G27G29G31
  21169738.000   111247736.25809  21169734.160    86686540.77648
  21820404.060   114667145.87009  21820400.360    89351082.85847
  21749318.540   114293669.40109  21749314.840    89060103.55248
  22758310.540   119595879.68909  22758305.400    93191644.25347
  22455647.100   118005233.84909  22455646.520    91952130.76348
  24518737.760   128847308.66208  24518735.580   100400705.41146
  23946756.560   125841052.60808  23946754.600    98057946.08546
 15 02 27 00 32 30.0000000  0  7G16G18G21G22G27G29G31
  21159132.340   111192003.08609  21159128.460    86643112.34948
  21813150.680   114629029.14609  21813146.960    89321381.54148
  21759384.100   114346564.19709  21759380.340    89101320.28848
  22741333.680   119506666.03109  22741328.480    93122127.17747
  22443991.220   117943982.05709  22443990.660    91904402.11448
  24532521.340   128919741.93208  24532519.260   100457146.91245
  23964550.480   125934559.71308  23964548.720    98130808.60946
 15 02 27 00 33  0.0000000  0  7G16G18G21G22G27G29G31
  21148601.600   111136663.55009  21148597.660    86599990.63748
  21805979.360   114591343.79709  21805975.560    89292016.34448
  21769490.220   114399671.89609  21769486.400    89142702.90648
  22724391.200   119417633.03709  22724386.120    93052750.83847
  22432351.680   117882815.30409  22432351.020    91856739.72048
  24546313.360   128992220.34608  24546311.600   100513623.58046
  23982347.120   126028081.27708  23982345.420    98203682.37346
 15 02 27 00 33 30.0000000  0  6G16G18G21G22G27G31
  21138149.620   111081738.16109  21138145.620    86557191.63948
  21798893.880   114554109.62409  21798890.040    89263002.71148
  21779639.880   114453008.60609  21779636.080    89184263.97548
  22707487.180   119328802.07009  22707482.200    92983531.94447
  22420731.860   117821752.12609  22420731.120    91809158.02948
  24000149.480   126121632.50108  24000147.840    98276579.24146
 15 02 27 00 34  0.0000000  0  6G16G18G21G22G27G31
  21127768.840   111027186.79109  21127764.800    86514684.08048
  21791886.500   114517285.78009  21791882.660    89234308.81948
  21789824.920   114506531.46609  21789821.200    89225970.09148
  22690614.100   119240133.56209  22690609.240    92914439.62947
  22409123.680   117760750.52309  22409122.960    91761624.32948
  24017948.960   126215168.39908  24017947.340    98349464.18046
 15 02 27 00 34 30.0000000  0  6G16G18G21G22G27G31
  21117464.380   110973036.49609  21117460.320    86472489.04948
  21784962.260   114480898.74809  21784958.420    89205955.29647
  21800049.760   114560263.44109  21800046.100    89267839.16548
  22673777.200   119151655.06909  22673772.300    92845495.37947
  22397531.880   117699835.73108  22397531.280    91714158.28248
  24035749.780   126308710.97008  24035748.140    98422354.30746
 15 02 27 00 35  0.0000000  0  6G16G18G21G22G27G31
  21107237.080   110919291.63509  21107233.020    86430609.93948
  21778121.840   114444952.19009  21778118.000    89177945.00148
  21810314.380   114614204.25709  21810310.720    89309870.96648
  22656977.360   119063371.32709  22656972.560    92776702.89647
  22385957.000   117639010.09108  22385956.500    91666761.68948
  24053551.620   126402259.38808  24053550.040    98495248.97946
 15 02 27 00 35 30.0000000  0  6G16G18G21G22G27G31
  21097086.240   110865948.52709  21097082.240    86389043.88848
  21771364.400   114409441.82409  21771360.520    89150274.60447
  21820617.400   114668346.78009  21820613.720    89352059.94748
  22640214.020   118975279.22809  22640209.200    92708059.72247
  22374398.000   117578267.92609  22374397.580    91619430.15548
  24071352.920   126495805.01808  24071351.360    98568141.48546
 15 02 27 00 36  0.0000000  0  6G16G18G21G22G27G31
  21087012.400   110813010.09609  21087008.480    86347793.16548
  21764690.360   114374369.78009  21764686.480    89122945.75647
  21830958.740   114722690.59409  21830954.920    89394405.77448
  22623487.760   118887381.98909  22623482.940    92639568.39647
  22362855.160   117517610.34708  22362854.720    91572164.51748
  24089153.300   126589345.98208  24089151.720    98641030.34546
 15 02 27 00 36 30.0000000  0  7G16G18G19G21G22G27G31
  21077015.760   110760477.34609  21077011.940    86306858.55448
  21758099.840   114339736.59509  21758096.000    89095958.86247
  24524892.380   128879181.60004  24524890.180   100425333.97843
  21841337.700   114777232.01409  21841333.780    89436905.56148
  22606798.880   118799681.33509  22606794.060    92571230.25147
  22351328.340   117457036.61008  22351327.940    91524964.20848
  24106952.000   126682878.21908  24106950.440    98713912.40546
 15 02 27 00 37  0.0000000  0  7G16G18G19G21G22G27G31
  21067097.180   110708354.67709  21067093.360    86266243.49048
  21751593.540   114305545.96009  21751589.760    89069316.82747
  24510139.260   128801654.35104  24510134.100   100364924.09944
  21851754.420   114831971.92909  21851750.420    89479560.03648
  22590148.320   118712182.32009  22590143.580    92503049.24147
  22339818.000   117396549.18409  22339817.580    91477831.15748
  24124748.960   126776401.00808  24124747.400    98786787.08946
 15 02 27 00 37 30.0000000  0  7G16G18G19G21G22G27G31
  21057248.100   110656597.64409  21057244.340    86225913.34648
  21745162.800   114271752.18009  21745159.040    89042984.02848
  24495385.640   128724122.99804  24495380.060   100304510.06143
  21862199.660   114886862.06209  21862195.680    89522331.56848
  22573527.680   118624840.62409  22573523.020    92434990.80547
  22328315.360   117336101.68509  22328314.760    91430729.21848
  24142534.700   126869864.80708  24142533.240    98859615.80846
 15 02 27 00 38  0.0000000  0  7G16G18G19G21G22G27G31
  21047487.480   110605305.45009  21047483.720    86185945.39748
  21738826.460   114238454.46509  21738822.740    89017037.77348
  24480649.740   128646684.99705  24480644.500   100244168.85643
  21872691.440   114941996.91609  21872687.500    89565293.78648
  22556956.000   118537756.23109  22556951.540    92367132.86347
  22316838.840   117275791.62709  22316838.140    91383734.36848
  24160327.240   126963364.16608  24160325.760    98932472.22446
 15 02 27 00 38 30.0000000  0  7G16G18G19G21G22G27G31
  21037805.640   110554427.43909  21037801.880    86146300.19848
  21732574.700   114205601.16109  21732571.100    88991437.80448
  24465921.600   128569287.37405  24465916.740   100183859.03444
  21883219.600   114997322.61609  21883215.620    89608404.72148
  22540423.660   118450879.07609  22540419.340    92299436.40147
  22305378.440   117215566.50309  22305377.680    91336805.70648
  24178115.860   127056843.13308  24178114.460    99005312.75346
 15 02 27 00 39  0.0000000  0  7G16G18G19G21G22G27G31
  21028202.980   110503965.33009  21028199.180    86106979.07248
  21726407.800   114173193.67209  21726404.220    88966185.23448
  24451201.120   128491929.59205  24451196.600   100123580.23544
  21893783.840   115052837.89809  21893779.800    89651663.38048
  22523931.240   118364211.71709  22523927.020    92231903.42547
  22293934.140   117155426.35609  22293933.420    91289943.26448
  24195900.040   127150298.96008  24195898.740    99078135.23546
 15 02 27 00 39 30.0000000  0  7G16G18G19G21G22G27G31
  21018680.420   110453923.84309  21018676.520    86067985.70148
  21720326.440   114141235.61009  21720322.860    88941282.85648
  24436488.780   128414614.82005  24436484.000   100063334.98245
  21904384.160   115108542.62209  21904379.980    89695069.65948
  22507479.800   118277759.40209  22507475.660    92164538.02248
  22282506.620   117095374.15909  22282505.920    91243149.35748
  24213679.840   127243731.67508  24213678.500    99150939.73146
 15 02 27 00 40  0.0000000  0  7G16G18G19G21G22G27G31
  21009238.560   110404306.00309  21009234.620    86029322.44748
  21714331.020   114109728.89509  21714327.380    88916732.18748
  24421784.640   128337343.45906  24421779.760   100003123.57144
  21915020.500   115164436.76909  21915016.240    89738623.54848
  22491070.040   118191525.43409  22491065.780    92097342.74748
  22271096.020   117035410.96509  22271095.320    91196424.80648
  24231454.780   127337138.97708  24231453.520    99223724.40246
 15 02 27 00 40 30.0000000  0  7G16G18G19G21G22G27G31
  20999877.340   110355112.01509  20999873.360    85990989.46648
  21708421.500   114078673.73009  21708417.880    88892533.36348
  24407088.440   128260113.76605  24407083.460    99942944.57344
  21925692.120   115220516.39209  21925687.780    89782321.95848
  22474702.060   118105510.71709  22474697.640    92030318.31047
  22259702.080   116975535.21409  22259701.320    91149768.38148
  24249224.020   127430516.03008  24249223.040    99296485.48946
 15 02 27 00 41  0.0000000  0  7G16G18G19G21G22G27G31
  20990597.820   110306347.53809  20990593.880    85952991.17648
  21702598.680   114048074.54409  21702595.060    88868689.85648
  24392400.820   128182929.37305  24392395.980    99882800.95444
  21936399.280   115276783.03409  21936394.940    89826166.09248
  22458376.960   118019721.04909  22458372.300    91963469.24148
  22248325.440   116915750.79109  22248324.700    91103183.13948
  24266987.660   127523863.52408  24266986.560    99369223.56446
 15 02 27 00 41 30.0000000  0  7G16G18G19G21G22G27G31
  20981400.060   110258013.21209  20981396.280    85915328.05848
  21696862.520   114017931.07709  21696858.860    88845201.45348
  24377721.380   128105789.00206  24377716.740    99822691.60744
  21947141.540   115333234.13109  21947137.220    89870153.95848
  22442095.000   117934158.20909  22442090.080    91896796.91647
  22236965.960   116856056.72809  22236965.260    91056668.29948
  24284744.880   127617177.57508  24284743.900    99441935.55646
 15 02 27 00 42  0.0000000  0  7G16G18G19G21G22G27G31
  20972283.620   110210106.62109  20972280.000    85877998.25248
  21691212.520   113988240.81209  21691208.880    88822066.18848
  24363049.560   128028688.16506  24363044.880    99762613.02444
  21957917.740   115389863.49709  21957913.440    89914280.74648
  22425855.840   117848820.41609  22425850.820    91830299.95647
  22225623.000   116796449.15209  22225622.260    91010220.84148
  24302494.480   127710451.16808  24302493.700    99514616.00546
 15 02 27 00 42 30.0000000  0  7G16G18G19G21G22G27G31
  20963250.060   110162635.78409  20963246.620    85841007.99748
  21685650.080   113959010.61009  21685646.440    88799289.42148
  24348386.420   127951632.89706  24348382.040    99702570.04244
  21968728.600   115446675.10509  21968724.340    89958549.53048
  22409661.060   117763716.04209  22409656.000    91763984.90247
  22214297.640   116736934.04409  22214296.880    90963845.44748
  24320236.800   127803687.02908  24320236.140    99587267.06846
 15 02 27 00 43  0.0000000  0  7G16G18G19G21G22G27G31
  20954299.080   110115598.68909  20954295.740    85804355.72148
  21680174.720   113930237.77209  21680171.020    88776869.03847
  24333731.060   127874619.12206  24333726.700    99642559.31144
  21979573.080   115503663.42909  21979568.880    90002956.01648
  22393510.400   117678843.73009  22393505.240    91697850.64747
  22202989.200   116677507.93509  22202988.440    90917539.39648
  24337970.800   127896878.81208  24337969.940    99659883.77145
 15 02 27 00 43 30.0000000  0  7G16G18G19G21G22G27G31
  20945431.440   110068999.24509  20945428.140    85768044.45848
  21674787.020   113901925.55409  21674783.340    88754807.58247
  24319084.060   127797648.99406  24319079.820    99582582.64544
  21990451.100   115560828.31109  21990446.940    90047500.06848
  22377404.780   117594208.29409  22377399.620    91631900.97547
  22191698.120   116618173.15709  22191697.360    90871304.51448
  24355696.200   127990025.47708  24355695.400    99732465.29945
 15 02 27 00 44  0.0000000  0  7G16G18G19G21G22G27G31
  20936647.700   110022840.54009  20936644.400    85732076.63648
  21669487.340   113874075.62109  21669483.640    88733106.34048
  24304445.640   127720723.22306  24304441.200    99522640.51443
  22001362.620   115618169.55609  22001358.620    90092181.56148
  22361344.800   117509812.81309  22361339.660    91566138.29147
  22180424.560   116558930.90809  22180423.920    90825141.73748
  24373412.760   128083125.21208  24373411.880    99805010.27045
 15 02 27 00 44 30.0000000  0  7G16G18G19G21G22G27G31
  20927947.800   109977122.35609  20927944.520    85696452.07548
  21664275.540   113846687.31709  21664271.780    88711764.81648
  24289815.340   127643839.77806  24289810.640    99462731.30845
  22012307.000   115675683.35508  22012303.200    90136997.50848
  22345330.580   117425658.05209  22345325.440    91500563.16947
  22169168.300   116499779.41209  22169167.820    90779049.67948
  24391119.380   128176172.97408  24391118.640    99877514.74245
 15 02 27 00 45  0.0000000  0  7G16G18G19G21G22G27G31
  20919332.380   109931848.06909  20919329.120    85661173.40948
  21659152.120   113819763.40009  21659148.360    88690785.14548
  24275193.260   127567000.10106  24275188.360    99402856.28645
  22023284.240   115733369.44209  22023280.480    90181947.70548
  22329362.980   117341748.37309  22329357.980    91435179.02448
  22157929.740   116440720.48009  22157929.260    90733029.74448
  24408815.900   128269167.52208  24408815.180    99949977.73345
 15 02 27 00 45 30.0000000  0  7G16G18G19G21G22G27G31
  20910801.840   109887019.96809  20910798.620    85626242.43048
  21654117.260   113793304.79309  21654113.520    88670168.07148
  24260579.480   127490204.61206  24260574.720    99343015.67244
  22034293.960   115791226.14309  22034290.280    90227030.84648
  22313442.480   117258086.32209  22313437.540    91369987.84847
  22146709.020   116381754.78409  22146708.480    90687082.47148
  24426501.860   128362106.33208  24426501.060   100022397.31145
 15 02 27 00 46  0.0000000  0  7G16G18G19G21G22G27G31
  20902356.560   109842640.15509  20902353.460    85591660.76048
  21649171.180   113767312.97809  21649167.440    88649914.71248
  24245974.000   127413453.42407  24245969.380    99283209.58444
  22045335.860   115849251.86309  22045332.240    90272245.68748
  22297569.620   117174674.65509  22297564.800    91304991.76648
  22135506.160   116322882.86809  22135505.520    90641208.25548
  24444176.600   128454986.91308  24444175.980   100094771.46245
 15 02 27 00 46 30.0000000  0  7G16G18G19G21G22G27G31
  20893997.200   109798711.51609  20893994.140    85557430.65448
  21644314.360   113741790.19809  21644310.720    88630026.83848
  24231377.160   127336747.46907  24231373.000    99223438.72045
  22056409.820   115907445.90509  22056406.300    90317591.68848
  22281745.100   117091516.81609  22281740.340    91240193.47348
  22124321.340   116264106.04309  22124320.580    90595408.13948
  24461839.960   128547807.41908  24461839.500   100167098.83746
 15 02 27 00 47  0.0000000  0  7G16G18G19G21G22G27G31
  20885723.480   109755232.74609  20885720.440    85523551.09448
  21639546.340   113716734.74109  21639542.840    88610503.12448
  24216788.460   127260083.58207  24216784.460    99163700.63345
  22067514.900   115965803.67108  22067511.440    90363065.28148
  22265968.840   117008612.26509  22265964.060    91175592.55347
  22113154.080   116205421.59309  22113153.200    90549680.01548
  24479490.820   128640561.87508  24479490.520   100239374.72645
 15 02 27 00 47 30.0000000  0  7G16G18G19G21G22G27G31
  20877536.200   109712207.97809  20877533.080    85490025.30548
  21634867.680   113692149.01809  21634864.340    88591345.42848
  24202208.240   127183463.98307  24202204.280    99103997.07945
  22078651.220   116024325.31208  22078647.740    90408666.57048
  22250241.780   116925965.72109  22250236.900    91111192.66148
  22102004.860   116146831.86209  22102003.760    90504025.68248
  24497129.020   128733249.62508  24497128.760   100311598.59445
 15 02 27 00 48  0.0000000  0  7G16G18G19G21G22G27G31
  20869436.080   109669641.13509  20869432.820    85456856.33448
  21630278.940   113668035.86709  21630275.700    88572555.96448
  24187636.860   127106890.88507  24187632.580    99044329.71845
  22089818.920   116083011.63209  22089815.380    90454396.15648
  22234564.760   116843581.94109  22234559.700    91046997.52847
  22090874.120   116088339.40509  22090872.880    90458447.14448
  24514754.400   128825869.91708  24514754.080   100383769.92846
 15 02 27 00 48 30.0000000  0  7G16G18G19G21G22G27G31
  20861422.940   109627531.41609  20861419.580    85424043.57148
  21625779.960   113644394.25409  21625776.880    88554133.94648
  24173073.720   127030361.29607  24173069.260    98984696.30944
  22101017.140   116141857.99809  22101013.520    90500250.46948
  22218937.680   116761460.60609  22218932.400    90983006.88748
  22079761.420   116029941.98309  22079760.240    90412942.67548
  24532365.900   128918417.56108  24532365.780   100455884.60945
 15 02 27 00 49  0.0000000  0  7G16G18G19G21G22G27G31
  20853497.060   109585880.36509  20853493.620    85391588.20648
  21621370.880   113621224.94709  21621367.900    88536079.94948
  24158518.800   126953875.07807  24158514.380    98925096.66045
  22112245.460   116200862.40309  22112241.680    90546227.91948
  22203360.940   116679603.83009  22203355.380    90919222.40747
  22068666.780   115971639.69809  22068665.780    90367512.33148
  24549963.080   129010889.45608  24549962.740   100527940.32745
 15 02 27 00 49 30.0000000  0  7G16G18G19G21G22G27G31
  20845659.020   109544690.94009  20845655.500    85359492.54648
  21617052.140   113598530.14609  21617049.180    88518395.70048
  24143972.440   126877433.94207  24143968.080    98865532.15945
  22123503.760   116260024.63509  22123499.840    90592328.36248
  22187835.300   116598015.67909  22187829.640    90855647.23348
  22057590.460   115913434.13108  22057589.760    90322157.36948
  24567545.440   129103284.18808  24567545.360   100599935.81546
 15 02 27 00 50  0.0000000  0  7G16G18G19G21G22G27G31
  20837909.500   109503966.41709  20837905.940    85327759.15648
  21612824.060   113576311.79809  21612821.200    88501082.72348
  24129434.800   126801038.51707  24129430.480    98806003.26945
  22134791.840   116319344.09808  22134787.980    90638551.30448
  22172361.500   116516700.04009  22172355.760    90792284.41248
  22046532.900   115855326.90808  22046532.320    90276879.02348
  24585112.780   129195600.37608  24585112.900   100671870.15945
 15 02 27 00 50 30.0000000  0  7G16G18G19G21G22G27G31
  20830248.420   109463706.56009  20830244.820    85296387.84348
  21608686.420   113554568.69009  21608683.640    88484140.05348
  24114905.600   126724687.29507  24114901.200    98746508.82545
  22146109.060   116378817.00609  22146105.260    90684893.82548
  22156939.620   116435657.38809  22156933.880    90729134.31147
  22035493.840   115797316.42909  22035493.280    90231676.07348
  24602664.220   129287832.83108  24602664.380   100743739.25845
 15 02 27 00 51  0.0000000  0  7G16G18G19G21G22G27G31
  20822676.140   109423913.47709  20822672.500    85265380.25248
  21604639.500   113533302.20209  21604636.820    88467568.77248
  24100384.840   126648380.33807  24100380.460    98687048.88345
  22157455.320   116438442.42809  22157451.660    90731355.19948
  22141570.080   116354890.14909  22141564.440    90666198.82548
  22024473.460   115739403.64409  22024472.800    90186549.23848
  24620199.320   129379979.35008  24620199.700   100815541.39346
 15 02 27 00 51 30.0000000  0  7G16G18G19G21G22G27G31
  20815192.920   109384588.55709  20815189.260    85234737.46348
  21600683.520   113512512.88509  21600680.740    88451369.30848
  24085872.380   126572117.56107  24085868.220    98627623.36345
  22168830.200   116498217.92809  22168826.600    90777933.50947
  22126253.420   116274400.89409  22126247.920    90603479.94148
  22013471.700   115681588.54809  22013471.000    90141498.51648
  24637717.560   129472037.17908  24637718.220   100887274.38546
 15 02 27 00 52  0.0000000  0  7G16G18G19G21G22G27G31
  20807799.360   109345735.09509  20807795.680    85204462.04248
  21596818.720   113492202.36209  21596815.760    88435542.93548
  24071368.680   126495900.63407  24071364.840    98568233.56845
  22180233.680   116558143.73309  22180230.060    90824628.93947
  22110990.420   116194193.51609  22110985.020    90540980.70248
  22002488.840   115623872.83809  22002488.180    90096525.23948
  24655218.780   129564005.11108  24655219.460   100958937.34245
 15 02 27 00 52 30.0000000  0  7G16G18G19G21G22G27G31
  20800495.260   109307351.84809  20800491.520    85174553.02548
  21593044.760   113472369.09409  21593041.560    88420088.46348
  24056873.220   126419726.42707  24056869.540    98508877.07245
  22191664.940   116618214.88709  22191661.220    90871437.62147
  22095781.000   116114267.48809  22095775.600    90478700.71747
  21991524.400   115566254.07809  21991523.760    90051627.51848
  24672701.840   129655877.08308  24672702.420   101030525.53646
 15 02 27 00 53  0.0000000  0  7G16G18G19G21G22G27G31
  20793281.920   109269445.53009  20793278.040    85145015.63048
  21589362.720   113453019.09709  21589359.360    88405010.53948
  24042386.800   126343599.42907  24042383.080    98449557.36045
  22203124.480   116678434.39809  22203120.600    90918361.89547
  22080626.500   116034629.92409  22080621.100    90416645.48548
  21980579.380   115508737.52509  21980578.800    90006809.42648
  24690167.040   129747655.28908  24690167.480   101102040.62646
 15 02 27 00 53 30.0000000  0  6G16G18G19G21G22G27
  20786157.820   109232008.25809  20786153.820    85115843.73648
  21585770.800   113434143.11509  21585767.400    88390301.99448
  24027907.680   126267510.58607  24027903.860    98390267.38745
  22214610.200   116738791.42909  22214606.220    90965393.34948
  22065525.560   115955273.75409  22065520.100    90354809.53148
  21969652.060   115451314.17109  21969651.500    89962063.97348
 15 02 27 00 54  0.0000000  0  6G16G18G19G21G22G27
  20779126.200   109195056.96109  20779122.120    85087050.50948
  21582272.040   113415757.11209  21582268.680    88375975.25448
  24013438.660   126191474.75008  24013434.800    98331018.69646
  22226124.580   116799299.39409  22226120.560    91012542.39748
  22050481.640   115876216.93709  22050476.060    90293206.83348
  21958745.380   115393999.58309  21958744.900    89917403.26748
 15 02 27 00 54 30.0000000  0  6G16G18G19G21G22G27
  20772186.260   109158587.59509  20772182.180    85058632.82248
  21578865.620   113397856.39309  21578862.280    88362026.64348
  23998978.540   126115486.24908  23998974.480    98271806.92645
  22237666.220   116859950.89109  22237662.160    91059803.29347
  22035494.020   115797456.06609  22035488.320    90231834.73248
  21947858.340   115336788.30909  21947857.960    89872823.06648
 15 02 27 00 55  0.0000000  0  6G16G18G19G21G22G27
  20765337.960   109122599.87009  20765333.960    85030590.43448
  21575551.220   113380439.33509  21575547.940    88348454.92148
  23984527.100   126039543.60007  23984523.040    98212630.85746
  22249234.440   116920742.28109  22249230.340    91107173.20547
  22020562.720   115718991.45209  22020556.940    90170693.49948
  21936990.780   115279679.07909  21936990.460    89828322.37648
 15 02 27 00 55 30.0000000  0  6G16G18G19G21G22G27
  20758581.900   109087096.92109  20758578.020    85002925.79348
  21572329.280   113363508.13609  21572326.000    88335261.77748
  23970084.620   125963648.22108  23970080.540    98153491.63146
  22260829.280   116981673.73409  22260825.140    91154652.26648
  22005688.460   115640826.80709  22005682.700    90109785.99748
  21926143.000   115222673.82109  21926142.740    89783902.70648
 15 02 27 00 56  0.0000000  0  6G16G18G19G21G22G27
  20751917.900   109052077.68309  20751914.200    84975638.08048
  21569199.460   113347060.96509  21569196.120    88322445.82948
  23955650.700   125887797.40708  23955646.600    98094387.12546
  22272449.860   117042740.58309  22272445.700    91202236.81847
  21990871.320   115562962.53409  21990865.620    90049112.56048
  21915314.640   115165770.27409  21915314.360    89739562.29448
 15 02 27 00 56 30.0000000  0  6G16G18G19G21G22G27
  20745346.760   109017546.50809  20745343.240    84948730.67448
  21566162.360   113331101.05709  21566159.000    88310009.54348
  23941225.840   125811993.80408  23941221.600    98035319.41946
  22284096.380   117103943.70309  22284092.160    91249927.55447
  21976112.280   115485403.65209  21976106.700    89988677.08248
  21904506.300   115108971.56909  21904505.820    89695303.57248
 15 02 27 00 57  0.0000000  0  6G16G18G19G21G22G27
  20738868.540   108983503.64709  20738865.200    84922203.76548
  21563217.900   113315627.87109  21563214.460    88297952.51948
  23926809.720   125736236.17508  23926805.400    97976287.52146
  22295768.400   117165280.71709  22295764.100    91297722.61147
  21961411.540   115408151.03309  21961406.100    89928480.25348
  21893717.760   115052276.78409  21893717.040    89651125.81548
 15 02 27 00 57 30.0000000  0  6G16G18G19G21G22G27
  20732484.140   108949953.65409  20732480.880    84896060.90948
  21560366.720   113300644.95309  21560363.240    88286277.52848
  23912402.860   125660527.45908  23912398.420    97917293.75446
  22307466.100   117226752.34509  22307461.640    91345622.56147
  21946770.060   115331209.80509  21946764.700    89868526.07148
  21882949.620   114995689.36109  21882948.720    89607031.72148
 15 02 27 00 58  0.0000000  0  6G16G18G19G21G22G27
  20726193.400   108916895.58409  20726190.160    84870301.37448
  21557608.380   113286149.91009  21557604.860    88274982.69148
  23898004.720   125584865.19108  23898000.380    97858336.19946
  22319188.660   117288354.53509  22319184.080    91393624.25747
  21932187.820   115254579.81909  21932182.560    89808814.40448
  21872201.520   114939207.34709  21872200.520    89563019.75848
 15 02 27 00 58 30.0000000  0  6G16G18G19G21G22G27
  20719997.240   108884334.39609  20719993.960    84844929.02048
  21554943.720   113272147.03509  21554940.240    88264071.37248
  23883616.040   125509252.83208  23883611.920    97799417.52946
  22330936.380   117350089.43608  22330931.800    91441729.37147
  21917665.980   115178267.17609  21917660.820    89749350.03448
  21861474.160   114882834.50309  21861473.200    89519092.87948
 15 02 27 00 59  0.0000000  0  6G16G18G19G21G22G27
  20713895.300   108852268.28609  20713891.960    84819942.43648
  21552372.200   113258633.41209  21552368.760    88253541.27648
  23869236.260   125433687.30308  23869232.280    97740535.34046
  22342708.280   117411951.56409  22342703.820    91489933.61847
  21903204.320   115102270.44509  21903199.120    89690131.80848
  21850766.980   114826568.01009  21850766.080    89475248.86548
 15 02 27 00 59 30.0000000  0  6G16G18G19G21G22G27
  20707888.160   108820700.39709  20707884.820    84795344.08148
  21549894.140   113245610.75009  21549890.660    88243393.75848
  23854865.720   125358169.96308  23854861.680    97681690.69446
  22354504.480   117473941.51208  22354500.160    91538237.47847
  21888803.600   115026593.75209  21888798.260    89631162.97048
  21840080.400   114770409.83709  21840079.600    89431489.25848
 15 02 27 01 00  0.0000000  0  6G16G18G19G21G22G27
  20701975.920   108789630.91909  20701972.520    84771134.09949
  21547509.520   113233079.29909  21547506.060    88233628.99748
  23840504.220   125282700.09708  23840500.240    97622883.04546
  22366324.440   117536056.31809  22366320.340    91586638.62147
  21874464.040   114951238.75509  21874458.620    89572444.80448
  21829414.340   114714359.59009  21829413.560    89387813.75248
 15 02 27 01 00 30.0000000  0  6G16G18G19G21G22G27
  20696159.300   108759063.96009  20696155.860    84747315.68749
  21545218.780   113221041.47609  21545215.380    88224248.87948
  23826152.260   125207280.14608  23826148.120    97564114.27446
  22378168.240   117598296.31208  22378164.300    91635137.31348
  21860186.480   114876209.93909  21860181.060    89513980.81248
  21818769.360   114658420.24109  21818768.620    89344224.65448
 15 02 27 01 01  0.0000000  0  6G16G18G19G21G22G27
  20690438.360   108728999.62909  20690434.840    84723888.93149
  21543021.700   113209496.03909  21543018.400    88215252.44748
  23811809.380   125131908.25208  23811805.280    97505382.95946
  22390035.440   117660658.91309  22390031.600    91683731.54447
  21845971.060   114801507.94409  21845965.700    89455771.46948
  21808145.180   114602590.33209  21808144.440    89300720.83748
 15 02 27 01 01 30.0000000  0  6G16G18G19G21G22G27
  20684813.080   108699437.98109  20684809.460    84700853.87949
  21540918.200   113198442.30409  21540914.960    88206639.14748
  23797475.580   125056583.51708  23797471.380    97446688.38146
  22401925.480   117723141.21708  22401921.720    91732419.04947
  21831818.000   114727133.74009  21831812.720    89397817.56448
  21797541.760   114546869.47509  21797541.120    89257301.99348
 15 02 27 01 02  0.0000000  0  6G16G18G19G21G22G27
  20679284.360   108670384.06209  20679280.660    84678214.46148
  21538909.120   113187884.56909  21538905.880    88198412.35148
  23783151.480   124981309.57408  23783147.160    97388033.39346
  22413838.660   117785744.96909  22413834.860    91781201.20047
  21817728.520   114653093.63009  21817723.340    89340123.99048
  21786959.900   114491261.80709  21786959.240    89213971.36348
 15 02 27 01 02 30.0000000  0  6G16G18G19G21G22G27
  20673851.580   108641834.41009  20673847.780    84655967.97649
  21536993.620   113177818.36009  21536990.380    88190568.55448
  23768836.200   124906081.88108  23768831.780    97329414.44046
  22425773.800   117848464.11509  22425770.000    91830073.25147
  21803702.180   114579385.04109  21803697.080    89282688.73748
  21776398.800   114435763.02209  21776398.180    89170725.56748
 15 02 27 01 03  0.0000000  0  6G16G18G19G21G22G27
  20668515.880   108613795.21009  20668512.060    84634119.25248
  21535172.600   113168248.23909  21535169.280    88183111.32248
  23754530.540   124830904.87308  23754526.140    97270834.97846
  22437731.420   117911301.44609  22437727.580    91879037.40947
  21789740.240   114506014.43609  21789735.180    89225516.84648
  21765859.440   114380378.19109  21765858.820    89127568.56848
 15 02 27 01 03 30.0000000  0  6G16G18G19G21G22G27
  20663277.240   108586266.49109  20663273.480    84612668.29849
  21533445.840   113159173.56809  21533442.440    88176040.15648
  23740234.220   124755777.40908  23740230.040    97212294.11046
  22449711.020   117974254.10909  22449707.140    91928091.41447
  21775842.940   114432983.29809  21775837.880    89168609.47648
  21755341.700   114325106.55309  21755340.980    89084499.75748
 15 02 27 01 04  0.0000000  0  6G16G18G19G21G22G27
  20658135.900   108559249.06109  20658132.220    84591615.75348
  21531813.220   113150593.92109  21531809.720    88169354.73048
  23725947.360   124680699.37708  23725943.280    97153791.78046
  22461712.180   118037320.22609  22461708.300    91977233.84347
  21762010.600   114360293.22709  21762005.520    89111967.87148
  21744845.540   114269948.22709  21744844.720    89041519.25548
 15 02 27 01 04 30.0000000  0  6G16G18G19G21G22G27
  20653092.460   108532745.96209  20653088.840    84570963.99048
  21530275.180   113142511.31409  21530271.540    88163056.59848
  23711670.200   124605672.08508  23711666.020    97095328.98546
  22473734.840   118100499.51709  22473730.940    92026464.45647
  21748243.900   114287947.93209  21748238.660    89055594.92848
  21734371.320   114214905.37209  21734370.360    88998628.72348
 15 02 27 01 05  0.0000000  0  6G16G18G19G21G22G27
  20648147.520   108506760.29209  20648143.960    84550715.41848
  21528832.020   113134927.53509  21528828.300    88157147.16948
  23697403.020   124530697.55008  23697398.720    97036907.28747
  22485779.060   118163792.33408  22485775.200    92075783.53247
  21734543.520   114215951.34709  21734538.200    88999493.70648
  21723919.400   114159980.22409  21723918.400    88955829.92248
 15 02 27 01 05 30.0000000  0  6G16G18G19G21G22G27
  20643301.240   108481292.77709  20643297.640    84530870.59749
  21527483.720   113127842.46809  21527480.080    88151626.34748
  23683145.680   124455775.15708  23683141.280    96978526.22147
  22497844.420   118227196.35508  22497840.540    92125189.26648
  21720909.760   114144305.08409  21720904.320    88943665.46148
  21713489.780   114105172.69809  21713488.760    88913122.77048
 15 02 27 01 06  0.0000000  0  6G16G18G19G21G22G27
  20638553.440   108456342.62609  20638549.780    84511428.91649
  21526229.940   113121254.31709  21526226.420    88146492.73148
  23668897.920   124380902.98008  23668893.440    96920184.28547
  22509930.260   118290708.19108  22509926.380    92174678.99047
  21707342.660   114073009.72909  21707337.220    88888110.65748
  21703082.240   114050481.38909  21703081.220    88870506.17048
 15 02 27 01 06 30.0000000  0  6G16G18G19G21G22G27
  20633904.200   108431910.32309  20633900.440    84492390.75949
  21525070.700   113115162.78509  21525067.280    88141746.08948
  23654659.660   124306080.75708  23654655.120    96861881.27647
  22522036.140   118354325.82308  22522032.400    92224251.18047
  21693842.580   114002066.80009  21693837.200    88832830.46348
  21692696.880   113995906.42509  21692695.920    88827980.23648
 15 02 27 01 07  0.0000000  0  6G16G18G19G21G22G27
  20629354.360   108408000.68509  20629350.580    84473759.86348
  21524006.620   113109571.08509  21524003.200    88137388.93148
  23640431.560   124231311.85008  23640427.040    96803619.82047
  22534162.380   118418050.58308  22534158.800    92273906.83047
  21680410.540   113931481.57609  21680405.240    88777829.00648
  21682334.440   113941451.57409  21682333.540    88785547.88548
 15 02 27 01 07 30.0000000  0  6G16G18G19G21G22G27
  20624903.700   108384612.47109  20624899.920    84455535.28648
  21523037.280   113104476.97009  21523033.720    88133419.49648
  23626213.220   124156593.91408  23626208.760    96745398.08846
  22546308.300   118481878.81608  22546304.880    92323643.11447
  21667046.560   113861253.82109  21667041.320    88723106.10148
  21671994.560   113887114.97809  21671993.700    88743207.69048
 15 02 27 01 08  0.0000000  0  6G16G18G19G21G22G27
  20620552.500   108361747.18909  20620548.820    84437718.18149
  21522162.660   113099880.77609  21522159.000    88129838.05548
  23612004.600   124081926.93008  23612000.060    96687216.02547
  22558473.820   118545809.42308  22558470.340    92373459.16547
  21653751.120   113791385.94109  21653745.840    88668663.61148
  21661677.300   113832897.27609  21661676.440    88700960.13948
 15 02 27 01 08 30.0000000  0  6G16G18G19G21G22G27
  20616301.520   108339408.27809  20616297.900    84420311.23549
  21521383.240   113095785.09909  21521379.520    88126646.63448
  23597806.180   124007313.66408  23597801.660    96629075.84446
  22570658.960   118609842.85808  22570655.500    92423355.33847
  21640525.060   113721882.42109  21640519.740    88614505.03548
  21651383.220   113778801.56809  21651382.420    88658807.64348
 15 02 27 01 09  0.0000000  0  6G16G18G19G21G22G27
  20612150.380   108317594.07109  20612146.840    84403313.15249
  21520698.520   113092187.25709  21520694.820    88123843.13248
  23583617.500   123932751.49508  23583612.840    96570975.48446
  22582862.800   118673974.36508  22582859.300    92473327.94547
  21627368.160   113652742.49509  21627362.800    88560629.79248
  21641111.880   113724825.48609  21641111.100    88616748.37648
 15 02 27 01 09 30.0000000  0  6G16G18G19G21G22G27
  20608100.400   108296311.28509  20608096.920    84386729.15949
  21520109.600   113089092.99809  21520106.000    88121432.02548
  23569439.660   123858246.33008  23569434.840    96512919.51546
  22595086.220   118738208.75209  22595082.720    92523380.71247
  21614281.860   113583973.83709  21614276.520    88507043.83148
  21630864.500   113670975.54509  21630863.820    88574787.39248
 15 02 27 01 10  0.0000000  0  6G16G18G19G21G22G27
  20604150.480   108275554.33409  20604147.080    84370554.90949
  21519615.180   113086495.18709  21519611.560    88119407.77148
  23555271.280   123783791.11108  23555266.460    96454902.48847
  22607327.560   118802537.12909  22607324.060    92573506.73047
  21601265.360   113515571.97509  21601260.040    88453743.69548
  21620639.880   113617245.09309  21620639.200    88532919.52448
 15 02 27 01 10 30.0000000  0  6G16G18G19G21G22G27
  20600302.120   108255330.92109  20600298.760    84354796.40749
  21519216.560   113084400.76909  21519212.940    88117775.76748
  23541113.780   123709392.52108  23541108.960    96396929.58947
  22619587.860   118866964.85909  22619584.300    92623710.14447
  21588320.280   113447545.56209  21588315.000    88400736.11148
  21610439.420   113563641.57209  21610438.760    88491150.55448
 15 02 27 01 11  0.0000000  0  6G16G18G19G21G22G27
  20596554.500   108235637.00809  20596551.160    84339450.50149
  21518912.700   113082804.34709  21518909.120    88116531.81648
  23526966.120   123635045.86908  23526961.280    96338997.15047
  22631865.820   118931485.27609  22631862.080    92673985.78547
  21575446.000   113379891.29009  21575440.860    88348018.51048
  21600262.300   113510160.46309  21600261.620    88449476.97148
 15 02 27 01 11 30.0000000  0  6G16G18G19G21G22G27
  20592908.740   108216478.38109  20592905.380    84324521.68949
  21518704.540   113081710.87609  21518701.100    88115679.75548
  23512829.140   123560756.12608  23512824.300    96281109.06147
  22644162.100   118996101.71509  22644158.260    92724336.23947
  21562644.040   113312616.82009  21562638.940    88295596.84548
  21590109.580   113456807.38109  21590108.880    88407903.14748
 15 02 27 01 12  0.0000000  0  6G16G18G19G21G22G27
  20589364.560   108197853.55309  20589361.100    84310008.83548
  21518591.540   113081117.43109  21518588.300    88115217.34448
  23498702.520   123486520.37908  23498697.800    96223263.03047
  22656475.740   119060809.64409  22656471.760    92774757.99847
  21549914.140   113245720.57809  21549909.020    88243469.91248
  21579980.800   113403579.88309  21579980.020    88366427.18348
 15 02 27 01 12 30.0000000  0  6G16G18G19G21G22G27
  20585922.060   108179762.93309  20585918.460    84295912.24449
  21518573.660   113081023.37109  21518570.500    88115144.06348
  23484586.160   123412338.29608  23484581.560    96165458.83647
  22668806.500   119125607.58709  22668802.360    92825249.88547
  21537256.620   113179204.48109  21537251.440    88191639.19348
  21569876.040   113350478.21809  21569875.120    88325049.27248
 15 02 27 01 13  0.0000000  0  6G16G18G19G21G22G27
  20582582.340   108162212.47809  20582578.620    84282236.56549
  21518651.860   113081433.73409  21518648.640    88115463.83648
  23470480.900   123338214.72508  23470476.280    96107700.23247
  22681154.960   119190498.76709  22681150.740    92875814.44147
  21524672.680   113113075.20909  21524667.440    88140109.90248
  21559796.300   113297507.89909  21559795.200    88283773.70348
 15 02 27 01 13 30.0000000  0  6G16G18G19G21G22G27
  20579344.540   108145197.48009  20579340.700    84268978.12149
  21518824.920   113082342.44009  21518821.620    88116171.92748
  23456385.920   123264145.03208  23456381.180    96049983.60947
  22693519.700   119255475.76208  22693515.500    92926445.86747
  21512161.740   113047329.84909  21512156.500    88088879.77048
  21549740.580   113244664.20809  21549739.420    88242596.81048
 15 02 27 01 14  0.0000000  0  6G16G18G19G21G22G27
  20576209.500   108128722.73409  20576205.680    84256140.65849
  21519093.600   113083753.76909  21519090.200    88117271.67048
  23442301.780   123190132.70308  23442297.020    95992311.68647
  22705901.180   119320541.14109  22705897.180    92977146.14647
  21499724.820   112981973.71909  21499719.600    88037952.91848
  21539709.680   113191951.41009  21539708.500    88201521.91048
 15 02 27 01 14 30.0000000  0  6G16G18G19G21G22G27
  20573177.240   108112788.16009  20573173.460    84243724.09949
  21519457.540   113085665.90809  21519454.060    88118761.66148
  23428228.500   123116176.95908  23428223.660    95934683.84947
  22718298.920   119385692.23009  22718295.120    93027913.21247
  21487362.180   112917007.88809  21487357.020    87987330.20348
  21529703.520   113139369.02309  21529702.420    88160548.62848
 15 02 27 01 15  0.0000000  0  6G16G18G19G21G22G27
  20570247.720   108097393.63609  20570244.040    84231728.36649
  21519916.600   113088078.06909  21519913.120    88120641.27148
  23414165.780   123042276.93008  23414161.020    95877099.43547
  22730712.620   119450927.13908  22730709.040    93078745.59147
  21475073.980   112852433.18809  21475068.880    87937012.26648
  21519722.120   113086916.94509  21519721.140    88119676.88748
 15 02 27 01 15 30.0000000  0  6G16G18G19G21G22G27
  20567421.700   108082543.10309  20567418.160    84220156.52549
  21520471.240   113090992.52209  21520467.720    88122912.27448
  23400114.180   122968435.59708  23400109.480    95819560.75447
  22743142.440   119516246.35309  22743138.900    93129643.65647
  21462861.160   112788254.43309  21462856.120    87887002.85948
  21509766.180   113034598.43009  21509765.300    88078909.22148
 15 02 27 01 16  0.0000000  0  6G16G18G19G21G22G27
  20564699.140   108068236.22409  20564695.720    84209008.29749
  21521121.260   113094408.28209  21521117.740    88125573.91548
  23386073.580   122894651.85108  23386068.760    95762066.93647
  22755588.000   119581648.00209  22755584.460    93180605.96247
  21450723.920   112724472.80909  21450718.900    87837302.90948
  21499835.680   112982413.31109  21499834.840    88038245.49148
 15 02 27 01 16 30.0000000  0  6G16G18G19G21G22G27
  20562080.740   108054476.80009  20562077.420    84198286.66948
  21521867.120   113098327.93209  21521863.620    88128628.19248
  23372044.320   122820928.95308  23372039.800    95704620.56747
  22768049.540   119647133.37409  22768045.960    93231633.51547
  21438663.140   112661092.69009  21438657.980    87787915.81448
  21489931.180   112930365.03509  21489930.420    87997688.40048
 15 02 27 01 17  0.0000000  0  6G16G18G19G21G22G27
  20559565.420   108041259.21409  20559562.200    84187987.25049
  21522707.600   113102744.95709  21522704.100    88132070.04248
  23358025.560   122747260.68908  23358021.360    95647216.74047
  22780525.480   119712694.41909  22780521.840    93282720.02047
  21426678.000   112598109.84509  21426672.680    87738838.28848
  21480051.560   112878447.74709  21480050.880    87957233.37848
 15 02 27 01 17 30.0000000  0  6G16G18G19G21G22G27
  20557154.420   108028589.73309  20557151.280    84178114.92349
  21523643.620   113107664.18509  21523640.120    88135903.21548
  23344018.300   122673652.79308  23344014.060    95589859.96247
  22793016.560   119778335.19809  22793012.860    93333868.65947
  21414769.880   112535531.72109  21414764.360    87690076.12048
  21470198.040   112826667.74609  21470197.420    87916885.33648
 15 02 27 01 18  0.0000000  0  6G16G18G19G21G22G27
  20554846.940   108016464.27209  20554843.860    84168666.51049
  21524674.220   113113080.56109  21524670.740    88140123.77848
  23330021.940   122600100.58108  23330017.500    95532546.54647
  22805521.580   119844049.79808  22805517.960    93385074.83947
  21402938.220   112473355.36009  21402932.520    87641627.01848
  21460369.980   112775021.01009  21460369.320    87876641.13548
 15 02 27 01 18 30.0000000  0  6G16G18G19G21G22G27
  20552644.520   108004890.37409  20552641.420    84159647.89249
  21525800.620   113119000.30909  21525797.180    88144736.57648
  23316037.500   122526610.88308  23316032.760    95475281.86547
  22818041.580   119909842.98608  22818037.920    93436342.26447
  21391184.540   112411588.94509  21391178.720    87593497.35848
  21450568.700   112723514.58209  21450567.940    87836506.25748
 15 02 27 01 19  0.0000000  0  6G16G18G19G21G22G27
  20550546.820   107993866.61309  20550543.600    84151057.94249
  21527022.400   113125421.02109  21527019.020    88149739.73748
  23302064.600   122453181.78708  23302059.680    95418064.39947
  22830575.900   119975711.05909  22830572.220    93487668.04447
  21379508.780   112350232.32309  21379502.900    87545687.01248
  21440793.920   112672147.06209  21440793.040    87796479.62049
 15 02 27 01 19 30.0000000  0  6G16G18G19G21G22G27
  20548554.820   107983397.99409  20548551.460    84142900.57348
  21528340.320   113132346.72209  21528336.920    88155136.39548
  23288103.840   122379817.57108  23288099.060    95360897.50347
  22843125.000   120041657.31108  22843121.220    93539054.72347
  21367912.140   112289291.78409  21367906.280    87498200.88148
  21431046.540   112620923.60909  21431045.560    87756565.24548
 15 02 27 01 20  0.0000000  0  6G16G18G19G21G22G27
  20546667.700   107973480.62809  20546664.220    84135172.75549
  21529753.440   113139772.61809  21529750.080    88160922.81148
  23274154.620   122306514.38508  23274149.980    95303778.16247
  22855687.900   120107676.02708  22855684.160    93590497.86947
  21356394.180   112228764.80009  21356388.400    87451037.00648
  21421325.840   112569840.63909  21421324.820    87716760.34848
 15 02 27 01 20 30.0000000  0  6G16G18G19G21G22G27
  20544885.260   107964113.50309  20544881.700    84127873.69349
  21531261.180   113147695.97109  21531257.920    88167096.86148
  23260216.600   122233269.84508  23260211.960    95246704.51147
  22868263.840   120173763.26708  22868260.060    93641994.40847
  21344954.760   112168650.87309  21344949.200    87404194.98748
  21411631.500   112518896.40409  21411630.480    87677063.54249
 15 02 27 01 21  0.0000000  0  6G16G18G19G21G22G27
  20543208.200   107955300.13609  20543204.580    84121006.13049
  21532864.120   113156119.36209  21532860.860    88173660.55348
  23246290.520   122160087.79608  23246285.940    95189679.55747
  22880853.200   120239921.07809  22880849.520    93693545.93047
  21333594.880   112108955.11809  21333589.600    87357678.82948
  21401964.260   112468094.99909  21401963.340    87637478.04448
 15 02 27 01 21 30.0000000  0  6G16G18G19G21G22G27
  20541636.620   107947041.18609  20541632.980    84114570.58449
  21534562.200   113165042.47809  21534558.940    88180613.63448
  23232376.400   122086968.43108  23232371.680    95132703.44747
  22893455.640   120306147.43408  22893452.040    93745150.87447
  21322314.920   112049679.28009  21322309.880    87311489.87648
  21392324.300   112417437.12209  21392323.440    87598004.37949
 15 02 27 01 22  0.0000000  0  6G16G18G19G21G22G27
  20540170.700   107939337.46709  20540167.020    84108567.68849
  21536355.420   113174465.42909  21536352.060    88187956.21048
  23218474.280   122013911.95008  23218469.480    95075776.33447
  22906071.200   120372442.21308  22906067.520    93796809.16047
  21311115.320   111990825.40209  21311110.400    87265629.72448
  21382711.880   112366923.74209  21382711.000    87558643.31249
 15 02 27 01 22 30.0000000  0  6G16G18G19G21G22G27
  20538810.480   107932188.90609  20538806.720    84102997.37949
  21538243.480   113184386.75209  21538240.020    88195687.10748
  23204583.940   121940918.15208  23204579.140    95018898.06047
  22918699.320   120438802.80109  22918695.500    93848518.67247
  21299996.260   111932394.48709  21299991.360    87220099.14048
  21373127.000   112316555.03409  21373126.100    87519394.96649
 15 02 27 01 23  0.0000000  0  6G16G18G19G21G22G27
  20537556.420   107925598.29509  20537552.620    84097861.83649
  21540226.660   113194807.90009  21540223.080    88203807.48848
  23190706.000   121867989.41308  23190701.220    94962070.47947
  22931340.020   120505229.79208  22931336.180    93900279.95347
  21288958.540   111874390.58209  21288953.580    87174901.29948
  21363570.200   112266333.85309  21363569.280    87480261.57848
 15 02 27 01 23 30.0000000  0  6G16G18G19G21G22G27
  20536408.720   107919566.61009  20536404.860    84093161.82049
  21542304.860   113205728.81809  21542301.200    88212317.29848
  23176840.560   121795126.27608  23176835.920    94905294.02547
  22943993.120   120571722.12308  22943989.280    93952092.14747
  21278002.400   111816815.38609  21277997.320    87130037.52248
  21354041.680   112216261.18709  21354040.740    87441243.91749
 15 02 27 01 24  0.0000000  0  6G16G18G19G21G22G27
  20535366.160   107914087.52609  20535362.220    84088892.39949
  21544476.660   113217141.85909  21544472.960    88221210.58348
  23162986.360   121722322.08208  23162981.620    94848563.49447
  22956657.080   120638271.78508  22956653.140    94003949.01847
  21267126.900   111759664.19309  21267121.860    87085504.13148
  21344540.240   112166330.99109  21344539.340    87402337.27849
 15 02 27 01 24 30.0000000  0  6G16G18G19G21G22G27
  20534431.040   107909173.23009  20534427.060    84085063.07649
  21546744.380   113229059.13909  21546740.700    88230496.77948
  23149145.760   121649589.44008  23149141.040    94791888.72547
  22969333.980   120704889.56708  22969330.080    94055858.98347
  21256334.660   111702950.56009  21256329.640    87041311.70248
  21335068.400   112116556.23809  21335067.600    87363551.77549
 15 02 27 01 25  0.0000000  0  6G16G18G19G21G22G27
  20533602.160   107904817.51209  20533598.180    84081669.00649
  21549106.540   113241472.86509  21549102.900    88240169.82348
  23135317.400   121576921.59108  23135312.800    94735264.44147
  22982022.320   120771567.58009  22982018.600    94107815.86247
  21245624.760   111646669.60109  21245619.720    86997456.41548
  21325625.000   112066930.86709  21325624.320    87324882.65949
 15 02 27 01 25 30.0000000  0  6G16G18G19G21G22G27
  20532879.680   107901021.11109  20532875.700    84078710.77049
  21551562.960   113254382.00609  21551559.400    88250228.89448
  23121501.420   121504318.45208  23121496.880    94678690.58747
  22994721.800   120838304.05608  22994718.100    94159818.29047
  21234997.340   111590822.07409  21234992.280    86953938.87848
  21316210.160   112017455.29209  21316209.480    87286330.26749
 15 02 27 01 26  0.0000000  0  6G16G18G19G21G22G27
  20532264.480   107897788.62109  20532260.520    84076191.94249
  21554114.300   113267789.98509  21554110.820    88260676.68048
  23107698.640   121431784.68408  23107694.280    94622170.78947
  23007432.920   120905101.42109  23007429.280    94211868.18547
  21224453.660   111535414.53009  21224448.480    86910764.17748
  21306824.800   111968134.68709  21306824.060    87247898.64348
 15 02 27 01 26 30.0000000  0  6G16G18G19G21G22G27
  20531755.900   107895116.45109  20531752.000    84074109.72549
  21556759.840   113281692.98309  21556756.460    88271510.19148
  23093908.480   121359316.79908  23093904.100    94565702.32747
  23020154.680   120971954.66908  23020150.980    94263961.61447
  21213993.220   111480444.36509  21213987.960    86867930.29148
  21297468.300   111918965.91409  21297467.460    87209585.31148
 15 02 27 01 27  0.0000000  0  6G16G18G19G21G22G27
  20531353.900   107893004.42409  20531350.100    84072463.98549
  21559499.340   113296089.65709  21559496.060    88282728.38548
  23080130.920   121286914.92008  23080126.460    94509285.29747
  23032886.840   121038862.47908  23032883.140    94316097.56847
  21203616.260   111425912.97509  21203610.920    86825438.30048
  21288140.760   111869949.42609  21288139.800    87171390.64148
 15 02 27 01 27 30.0000000  0  7G04G16G18G19G21G22G27
  24564978.040   129089829.58906  24564977.320   100589475.49542
  20531059.060   107891455.47609  20531055.380    84071257.00549
  21562333.000   113310981.13709  21562329.840    88294332.14448
  23066366.460   121214581.52408  23066361.880    94452921.62747
  23045629.560   121105825.68808  23045625.820    94368276.66347
  21193323.600   111371824.71409  21193318.260    86783291.62148
  21278842.840   111821088.48209  21278841.780    87133317.18449
 15 02 27 01 28  0.0000000  0  7G04G16G18G19G21G22G27
  24547107.740   128995920.44206  24547106.680   100516299.74844
  20530874.980   107890488.66509  20530871.480    84070503.63949
  21565264.440   113326386.22409  21565261.360    88306336.10948
  23052618.560   121142335.46509  23052613.800    94396626.00847
  23058386.060   121172861.45108  23058382.280    94420512.31347
  21183119.080   111318199.75409  21183113.780    86741505.94348
  21269578.260   111772402.67809  21269577.200    87095380.19249
 15 02 27 01 28 30.0000000  0  7G04G16G18G19G21G22G27
  24529262.180   128902141.70206  24529261.200   100443225.53544
  20530794.840   107890067.92309  20530791.460    84070175.78549
  21568286.640   113342267.97909  21568283.580    88318711.50548
  23038880.560   121070141.25709  23038875.500    94340370.78747
  23071149.460   121239933.46308  23071145.660    94472776.21046
  21172996.180   111265003.57709  21172990.880    86700054.38648
  21260340.220   111723856.76209  21260339.300    87057552.20848
 15 02 27 01 29  0.0000000  0  7G04G16G18G19G21G22G27
  24511445.160   128808512.95306  24511444.260   100370268.23643
  20530822.460   107890213.19309  20530819.160    84070288.97649
  21571403.000   113358644.34309  21571399.940    88331472.32148
  23025156.040   120998018.33608  23025151.020    94284171.11747
  23083922.880   121307058.46908  23083918.960    94525081.41247
  21162958.820   111212256.50509  21162953.460    86658952.78448
  21251132.460   111675470.53709  21251131.780    87019848.67348
 15 02 27 01 29 30.0000000  0  7G04G16G18G19G21G22G27
  24493656.960   128715035.84606  24493656.200   100297429.11343
  20530958.000   107890925.44009  20530954.720    84070843.97549
  21574613.640   113375515.90309  21574610.560    88344618.99048
  23011445.240   120925967.85108  23011440.200    94228027.89647
  23096706.380   121374236.52508  23096702.440    94577427.94546
  21153007.460   111159961.20109  21153001.940    86618203.20448
  21241955.440   111627245.86809  21241954.960    86982271.02648
 15 02 27 01 30  0.0000000  0  7G04G16G18G19G21G22G27
  24475897.280   128621708.48406  24475896.560   100224706.59143
  20531201.100   107892202.69409  20531197.740    84071839.22749
  21577917.900   113392879.43009  21577914.760    88358149.01848
  22997747.820   120853987.84808  22997742.840    94171939.58647
  23109499.340   121441464.18408  23109495.180    94629813.09646
  21143141.880   111108116.81309  21143136.240    86577804.98048
  21232808.960   111579181.23209  21232808.540    86944818.06849
 15 02 27 01 30 30.0000000  0  7G04G16G18G19G21G22G27
  24458166.740   128528534.36707  24458166.320   100152103.55343
  20531552.260   107894047.91309  20531548.820    84073277.05549
  21581316.120   113410736.81309  21581312.880    88372063.86448
  22984064.280   120782081.41708  22984059.500    94115908.61147
  23122302.020   121508742.59808  23122297.640    94682237.84946
  21133362.900   111056727.94709  21133357.220    86537761.71848
  21223693.740   111531280.36209  21223693.200    86907492.71049
 15 02 27 01 31  0.0000000  0  7G04G16G18G19G21G22G27
  24440465.160   128435512.42507  24440464.740   100079619.04544
  20532011.220   107896459.80109  20532007.740    84075156.43849
  21584807.840   113429085.65309  21584804.520    88386361.66548
  22970394.580   120710247.62808  22970390.040    94059934.24247
  23135113.840   121576069.16109  23135109.340    94734700.07946
  21123670.420   111005794.25409  21123664.800    86498073.13748
  21214609.580   111483542.56609  21214608.900    86870294.43448
 15 02 27 01 31 30.0000000  0  7G04G16G18G19G21G22G27
  24422792.220   128342641.26007  24422791.780   100007252.00643
  20532577.660   107899436.50809  20532574.160    84077475.94449
  21588392.540   113447923.17909  21588389.120    88401040.26548
  22956738.360   120638484.38508  22956733.880    94004014.84347
  23147934.260   121643440.50008  23147929.700    94787197.20247
  21114064.500   110955315.44709  21114058.920    86458739.00848
  21205556.200   111435966.71709  21205555.460    86833222.34648
 15 02 27 01 32  0.0000000  0  7G04G16G18G19G21G22G27
  24405148.600   128249924.13107  24405148.120    99935004.99344
  20533252.100   107902980.55909  20533248.560    84080237.53049
  21592070.520   113467250.86009  21592067.020    88416100.78848
  22943096.320   120566795.31008  22943091.940    93948153.24247
  23160763.540   121710858.41109  23160759.080    94839730.63946
  21104545.960   110905295.53709  21104540.440    86419762.46048
  21196534.300   111388556.36609  21196533.580    86796279.21948
 15 02 27 01 32 30.0000000  0  7G04G16G18G19G21G22G27
  24387534.820   128157363.71007  24387534.360    99862880.09444
  20534035.100   107907095.08909  20534031.560    84083443.65749
  21595842.080   113487070.29209  21595838.480    88431544.50348
  22929468.860   120495182.62608  22929464.380    93892351.17147
  23173601.700   121778323.73408  23173597.420    94892300.99647
  21095115.460   110855738.09009  21095109.980    86381146.27648
  21187544.500   111341314.59009  21187543.820    86759467.45849
 15 02 27 01 33  0.0000000  0  7G04G16G18G19G21G22G27
  24369950.480   128064958.01507  24369950.020    99790875.77644
  20534926.200   107911777.48909  20534922.600    84087092.27249
  21599706.560   113507378.22209  21599702.960    88447368.87648
  22915855.660   120423644.42008  22915851.000    93836607.11747
  23186448.120   121845832.30808  23186444.100    94944905.07146
  21085772.720   110806641.73909  21085767.240    86342889.38548
  21178586.440   111294239.71109  21178585.860    86722785.74149
 15 02 27 01 33 30.0000000  0  7G04G16G18G19G21G22G27
  24352395.920   127972708.82907  24352395.520    99718993.41144
  20535925.520   107917028.56209  20535921.860    84091184.01349
  21603663.900   113528174.58609  21603660.440    88463573.83148
  22902256.880   120352181.91309  22902252.080    93780922.06247
  23199302.740   121913384.45608  23199298.980    94997543.07846
  21076518.280   110758009.45509  21076512.860    86304994.11348
  21169660.580   111247333.75909  21169660.020    86686235.65449
 15 02 27 01 34  0.0000000  0  7G04G16G18G19G21G22G27
  24334871.160   127880616.18708  24334870.800    99647232.98144
  20537032.940   107922847.99609  20537029.260    84095718.63749
  21607713.980   113549458.16209  21607710.640    88480158.44648
  22888672.560   120280795.22009  22888667.540    93725296.07247
  23212165.500   121980978.78708  23212162.000    95050213.99246
  21067352.380   110709842.39109  21067347.020    86267461.34248
  21160767.080   111200597.37309  21160766.380    86649817.69749
 15 02 27 01 34 30.0000000  0  7G04G16G18G19G21G22G27
  24317376.060   127788679.23107  24317375.620    99575593.90944
  20538248.320   107929234.80009  20538244.640    84100695.36249
  21611856.360   113571226.61609  21611853.020    88497120.88648
  22875102.460   120209483.34809  22875097.260    93669728.39247
  23225035.700   122048612.39508  23225032.340    95102915.47146
  21058274.980   110662140.31909  21058269.640    86230290.91548
  21151905.780   111154029.94509  21151904.860    86613531.39149
 15 02 27 01 35  0.0000000  0  7G04G16G18G19G21G22G27
  24299911.420   127696902.23107  24299910.740    99504079.46645
  20539572.420   107936193.01709  20539568.760    84106117.33849
  21616091.560   113593482.74209  21616088.200    88514463.32648
  22861547.440   120138250.69309  22861542.140    93614222.43147
  23237913.920   122116287.97408  23237910.780    95155649.68747
  21049287.080   110614908.26209  21049281.700    86193486.71948
  21143077.500   111107636.27609  21143076.420    86577380.47949
 15 02 27 01 35 30.0000000  0  7G04G16G18G19G21G22G27
  24282477.020   127605284.02208  24282476.340    99432688.72544
  20541004.800   107943720.38509  20541001.200    84111982.80849
  21620419.000   113616223.77409  21620415.620    88532183.60048
  22848007.160   120067095.71809  22848001.860    93558776.99847
  23250799.560   122184002.23208  23250796.280    95208414.01746
  21040388.540   110568145.84309  21040383.100    86157048.46248
  21134282.040   111061415.27609  21134280.800    86541364.11349
 15 02 27 01 36  0.0000000  0  7G04G16G18G19G21G22G27
  24265072.940   127513825.08008  24265071.960    99361422.13644
  20542545.460   107951816.65209  20542541.860    84118291.58848
  21624838.480   113639448.66409  21624835.060    88550280.93348
  22834481.640   119996018.92508  22834476.500    93503392.50147
  23263692.320   122251754.36708  23263689.180    95261207.87446
  21031579.560   110521854.29609  21031574.100    86120977.15148
  21125519.580   111015368.20109  21125518.220    86505483.28348
 15 02 27 01 36 30.0000000  0  7G04G16G18G19G21G22G27
  24247699.540   127422527.61708  24247698.480    99290281.31744
  20544194.800   107960484.07409  20544191.180    84125045.41649
  21629350.180   113663157.88909  21629346.720    88568755.64848
  22820971.380   119925022.39308  22820966.440    93448070.53147
  23276592.360   122319544.59808  23276589.040    95314031.44547
  21022860.720   110476036.72709  21022855.260    86085275.15248
  21116790.600   110969497.51909  21116789.160    86469739.88949
 15 02 27 01 37  0.0000000  0  7G04G16G18G19G21G22G27
  24230356.680   127331390.73508  24230355.560    99219265.64544
  20545952.480   107969720.97609  20545948.900    84132242.99648
  21633953.580   113687349.15809  21633950.160    88587605.99848
  22807476.180   119854105.07408  22807471.420    93392810.30147
  23289499.120   122387370.46508  23289495.980    95366882.72346
  21014232.040   110430693.10209  21014226.580    86049942.46548
  21108095.020   110923802.57409  21108093.640    86434133.44849
 15 02 27 01 37 30.0000000  0  7G04G16G18G19G21G22G27
  24213044.700   127240415.94208  24213043.540    99148376.28844
  20547818.760   107979528.61909  20547815.220    84139885.31048
  21638648.660   113712022.45109  21638645.320    88606831.93848
  22793996.420   119783268.68308  22793991.820    93337613.12448
  23302412.820   122455232.09408  23302409.760    95419761.92946
  21005693.940   110385825.60409  21005688.540    86014980.77848
  21099433.320   110878285.68509  21099432.140    86398665.74249
 15 02 27 01 38  0.0000000  0  7G04G16G18G19G21G22G27
  24195763.520   127149603.01708  24195762.340    99077613.04844
  20549793.380   107989905.46209  20549789.880    84147971.15349
  21643435.160   113737175.94909  21643431.900    88626432.07748
  22780531.940   119712512.50208  22780527.440    93282478.46048
  23315332.880   122523127.28308  23315329.640    95472667.23846
  20997246.520   110341434.78509  20997241.240    85980390.54448
  21090805.560   110832946.85209  21090804.560    86363336.78849
 15 02 27 01 38 30.0000000  0  7G04G16G18G19G21G22G27
  24178513.620   127058954.55408  24178512.500    99006977.95945
  20551876.860   108000853.98209  20551873.340    84156502.46349
  21648313.320   113762810.77109  21648310.040    88646407.26748
  22767083.380   119641839.91408  22767078.840    93227408.92747
  23328259.760   122591057.43508  23328256.520    95525599.83247
  20988890.540   110297524.54409  20988885.380    85946174.77648
  21082212.360   110787789.44109  21082211.520    86328149.20749
 15 02 27 01 39  0.0000000  0  7G04G16G18G19G21G22G27
  24161294.840   126968469.54608  24161293.740    98936470.23145
  20554068.840   108012372.49609  20554065.260    84165477.92749
  21653282.580   113788924.10909  21653279.240    88666755.32748
  22753650.400   119571249.09609  22753645.880    93172403.11347
  23341192.680   122659019.61808  23341189.060    95578557.35146
  20980625.820   110254093.69109  20980620.780    85912332.56748
  21073653.560   110742812.60709  21073652.740    86293102.32849
 15 02 27 01 39 30.0000000  0  7G04G16G18G19G21G22G27
  24144107.720   126878150.98308  24144106.680    98866092.20244
  20556369.740   108024463.27409  20556366.100    84174899.30449
  21658343.200   113815517.32409  21658339.820    88687477.31648
  22740233.640   119500743.43809  22740228.980    93117463.64847
  23354132.020   122727015.44408  23354128.260    95631541.08746
  20972453.200   110211146.58009  20972448.200    85878867.28848
  21065129.840   110698020.07209  21065128.960    86258199.06249
 15 02 27 01 40  0.0000000  0  7G04G16G18G19G21G22G27
  24126951.580   126787995.15608  24126950.600    98795840.97144
  20558778.580   108037121.43309  20558774.900    84184762.81049
  21663494.180   113842585.34209  21663490.820    88708569.28448
  22726832.360   119430319.03408  22726827.540    93062587.49948
  23367076.520   122795039.22208  23367072.680    95684546.62646
  20964372.080   110168679.77909  20964367.020    85845776.28448
  21056640.480   110653408.32909  21056639.540    86223436.67749
 15 02 27 01 40 30.0000000  0  7G04G16G18G19G21G22G27
  24109827.640   126698008.68308  24109826.780    98725721.71345
  20561296.660   108050353.80109  20561292.980    84195073.74149
  21668736.440   113870133.18909  21668733.080    88730035.13748
  22713447.880   119359982.91009  22713443.000    93007780.13947
  23380027.280   122863096.48008  23380023.200    95737578.24746
  20956383.880   110126700.90609  20956378.700    85813065.49048
  21048186.980   110608984.91309  21048185.980    86188821.03449
 15 02 27 01 41  0.0000000  0  7G04G16G18G19G21G22G27
  24092735.040   126608186.87608  24092734.080    98655730.75245
  20563922.940   108064155.03309  20563919.280    84205827.94749
  21674068.740   113898154.17809  21674065.280    88751869.68348
  22700079.220   119289730.31109  22700074.280    92953037.86547
  23392983.140   122931180.81608  23392979.400    95790630.95946
  20948487.820   110085205.96809  20948482.480    85780731.77548
  21039768.540   110564745.63809  21039767.520    86154348.87449
 15 02 27 01 41 30.0000000  0  7G04G16G18G19G21G22G27
  24075674.860   126518535.31708  24075673.740    98585872.46044
  20566658.200   108078529.21009  20566654.600    84217028.59649
  21679491.840   113926652.50609  21679488.280    88774076.17248
  22686727.560   119219566.93209  22686722.640    92898365.11547
  23405945.000   122999296.27108  23405941.160    95843707.93046
  20940685.100   110044201.34709  20940679.540    85748780.12448
  21031386.240   110520696.50109  21031385.320    86120024.87449
 15 02 27 01 42  0.0000000  0  7G04G16G18G19G21G22G27
  24058645.960   126429048.05908  24058644.760    98516142.17844
  20569501.280   108093469.89109  20569497.700    84228670.67349
  21685004.240   113955620.51609  21685000.600    88796648.64948
  22673391.660   119149486.67509  22673386.740    92843757.13147
  23418911.420   123067435.28408  23418907.940    95896803.26546
  20932974.560   110003681.40309  20932968.840    85717206.14248
  21023039.040   110476831.97709  21023038.240    86085844.73149
 15 02 27 01 42 30.0000000  0  7G04G16G18G19G21G22G27
  24041649.200   126339729.81608  24041648.140    98446543.60045
  20572452.960   108108981.35509  20572449.400    84240757.52448
  21690606.560   113985061.36309  21690602.880    88819589.57548
  22660072.600   119079494.59009  22660067.660    92789217.85147
  23431883.100   123135601.37308  23431879.420    95949919.68646
  20925357.240   109963651.78009  20925351.500    85686014.24048
  21014728.120   110433157.69209  21014727.340    86051812.83749
 15 02 27 01 43  0.0000000  0  7G04G16G18G19G21G22G27
  24024685.140   126250583.26808  24024684.080    98377078.81745
  20575513.560   108125064.93709  20575510.000    84253290.16949
  21696298.780   114014975.03809  21696295.200    88842898.93248
  22646770.760   119009592.93809  22646765.820    92734749.03647
  23444860.160   123203795.26909  23444856.460    96003057.76446
  20917833.700   109924115.52609  20917828.040    85655206.77748
  21006454.020   110389676.54909  21006453.140    86017931.42449
 15 02 27 01 43 30.0000000  0  7G04G16G18G19G21G22G27
  24007753.700   126161608.27608  24007752.600    98307747.70245
  20578683.040   108141720.50209  20578679.420    84266268.51949
  21702080.820   114045360.85109  21702077.420    88866576.19348
  22633486.220   118939782.04909  22633481.240    92680350.94748
  23457842.180   123272015.48608  23457838.400    96056216.36046
  20910404.120   109885073.21309  20910398.660    85624784.19848
  20998216.800   110346389.14009  20998215.820    85984200.97249
 15 02 27 01 44  0.0000000  0  7G04G16G18G19G21G22G27
  23990854.500   126072802.71708  23990853.440    98238548.61445
  20581960.680   108158944.37409  20581957.040    84279689.71449
  21707951.980   114076214.79109  21707948.760    88890618.22648
  22620218.520   118870060.00409  22620213.680    92626022.09948
  23470828.460   123340258.42708  23470824.720    96109392.65846
  20903068.220   109846523.11909  20903062.920    85594745.16848
  20990016.100   110303293.84209  20990015.080    85950620.23149
 15 02 27 01 44 30.0000000  0  7G04G16G18G19G21G22G27
  23973987.880   125984168.32008  23973986.760    98169482.91545
  20585346.660   108176737.63309  20585342.980    84293554.58549
  21713912.320   114107536.93609  21713909.220    88915025.09748
  22606968.020   118800428.51709  22606963.240    92571763.81247
  23483819.080   123408524.61208  23483815.380    96162587.07746
  20895826.500   109808467.77109  20895821.280    85565091.66248
  20981852.400   110260393.16509  20981851.360    85917191.13749
 15 02 27 01 45  0.0000000  0  7G04G16G18G19G21G22G27
  23957153.900   125895705.28608  23957152.800    98100550.73545
  20588840.820   108195099.54109  20588837.160    84307862.55349
  21719961.500   114139325.50209  21719958.520    88939795.41048
  22593734.880   118730888.16209  22593730.200    92517576.54548
  23496813.840   123476812.21108  23496809.960    96215798.17946
  20888679.100   109770908.23009  20888673.980    85535824.49648
  20973725.820   110217687.88009  20973724.780    85883914.28449
 15 02 27 01 45 30.0000000  0  7G04G16G18G19G21G22G27
  23940352.740   125807414.68708  23940351.580    98031752.92645
  20592443.300   108214030.65709  20592439.660    84322614.06649
  21726099.340   114171579.71909  21726096.420    88964928.57048
  22580519.380   118661439.97009  22580514.540    92463461.07547
  23509812.640   123545121.48708  23509808.800    96269026.18246
  20881626.340   109733845.93909  20881621.240    85506944.79448
  20965636.720   110175179.70409  20965635.680    85850791.03649
 15 02 27 01 46  0.0000000  0  7G04G16G18G19G21G22G27
  23923584.960   125719299.24508  23923583.720    97963091.59245
  20596154.420   108233532.60609  20596150.800    84337810.38149
  21732326.000   114204300.39709  21732323.060    88990425.20148
  22567321.960   118592086.82109  22567317.020    92409419.67847
  23522815.640   123613453.65908  23522812.100    96322272.00846
  20874668.820   109697283.81909  20874663.660    85478454.83948
  20957585.740   110132871.92309  20957584.720    85817823.93249
 15 02 27 01 46 30.0000000  0  7G04G16G18G19G21G22G27
  23906850.180   125631357.49808  23906848.880    97894565.61345
  20599973.760   108253603.14209  20599970.140    84353449.75649
  21738640.880   114237484.78809  21738637.900    89016283.16748
  22554142.360   118522827.62908  22554137.360    92355451.49747
  23535822.580   123681805.61108  23535819.020    96375533.25746
  20867806.440   109661221.28309  20867801.140    85450354.16848
  20949572.740   110090763.80209  20949571.800    85785012.41749
 15 02 27 01 47  0.0000000  0  7G04G16G18G19G21G22G27
  23890148.560   125543590.06908  23890147.220    97826175.45845
  20603901.260   108274241.98609  20603897.560    84369531.97049
  21745043.760   114271131.77109  21745040.720    89042501.59348
  22540980.680   118453663.02009  22540975.660    92301557.01547
  23548833.060   123750176.71008  23548829.460    96428809.41746
  20861039.420   109625659.77209  20861033.980    85422643.90848
  20941598.060   110048856.71509  20941597.180    85752357.55449
 15 02 27 01 47 30.0000000  0  7G04G16G18G19G21G22G27
  23873479.900   125455995.72208  23873478.540    97757920.19045
  20607936.380   108295446.58809  20607932.680    84386055.02648
  21751533.960   114305237.83109  21751530.860    89069077.75148
  22527836.800   118384592.01609  22527831.920    92247735.47048
  23561846.740   123818564.22808  23561843.140    96482098.36846
  20854367.500   109590597.97909  20854361.900    85395323.03448
  20933661.560   110007149.91809  20933660.640    85719858.75049
 15 02 27 01 48  0.0000000  0  7G04G16G18G19G21G22G27
  23856845.280   125368580.24808  23856843.900    97689804.30245
  20612080.100   108317221.79109  20612076.360    84403022.71748
  21758112.300   114339807.33809  21758109.180    89096015.02748
  22514712.080   118315620.79209  22514707.100    92193991.66748
  23574864.420   123886972.69508  23574860.940    96535403.66946
  20847791.880   109556042.38909  20847786.140    85368396.61148
  20925764.520   109965650.15409  20925763.480    85687521.26549
 15 02 27 01 48 30.0000000  0  7G04G16G18G19G21G22G27
  23840247.040   125281356.11408  23840245.640    97621837.49945
  20616334.700   108339579.76809  20616330.920    84420444.50748
  21764780.840   114374850.81609  21764777.680    89123321.65348
  22501608.780   118246761.99009  22501603.800    92140335.47448
  23587888.140   123955413.22108  23587884.800    96588733.94046
  20841315.040   109522006.18409  20841309.220    85341874.89448
  20917909.360   109924370.38709  20917908.180    85655355.20349
 15 02 27 01 49  0.0000000  0  7G04G16G18G19G21G22G27
  23823679.220   125194291.90508  23823677.880    97553995.30845
  20620693.820   108362487.30109  20620690.100    84438294.52448
  21771533.280   114410335.18009  21771530.040    89150971.79548
  22488520.880   118177984.21109  22488515.900    92086742.40448
  23600911.580   124023852.52508  23600908.100    96642063.26246
  20834931.060   109488458.22409  20834925.180    85315733.62348
  20910090.120   109883279.91409  20910088.940    85623336.65449
 15 02 27 01 49 30.0000000  0  7G04G16G18G19G21G22G27
  23807145.160   125107405.02808  23807143.880    97486291.29946
  20625160.800   108385961.56809  20625157.120    84456586.15148
  21778372.500   114446275.52109  21778369.220    89178977.24747
  22475451.720   118109305.45409  22475446.820    92033226.51348
  23613938.180   124092307.73008  23613935.080    96695404.92946
  20828643.320   109455416.29509  20828637.460    85289986.66948
  20902310.320   109842397.08409  20902309.160    85591479.89549
 15 02 27 01 50  0.0000000  0  7G04G16G18G19G21G22G27
  23790645.160   125020697.15508  23790643.860    97418726.77445
  20629735.660   108410002.86109  20629732.000    84475319.62248
  21785298.640   114482672.49609  21785295.340    89207338.53248
  22462401.600   118040727.31509  22462396.840    91979789.03748
  23626967.720   124160778.65108  23626964.480    96748758.87746
  20822452.260   109422882.53909  20822446.440    85264635.69448
  20894570.360   109801724.03409  20894569.320    85559786.61249
 15 02 27 01 50 30.0000000  0  7G04G16G18G19G21G22G27
  23774179.320   124934168.97608  23774177.980    97351302.28246
  20634418.320   108434610.45509  20634414.660    84494494.36148
  21792311.420   114519524.59609  21792308.080    89236054.44648
  22449370.900   117972251.13608  22449366.280    91926431.00148
  23640000.160   124229264.74808  23639996.940    96802124.63146
  20816358.120   109390858.09009  20816352.340    85239681.58748
  20886870.600   109761262.31509  20886869.760    85528258.00449
 15 02 27 01 51  0.0000000  0  7G04G16G18G19G21G22G27
  23757747.140   124847817.51908  23757745.740    97284015.48746
  20639207.920   108459779.93409  20639204.240    84514106.93949
  21799409.860   114556826.78209  21799406.460    89265121.08948
  22436359.020   117903873.99208  22436354.520    91873150.14748
  23653034.860   124297761.59508  23653031.240    96855498.83046
  20810360.420   109359340.36309  20810354.700    85215122.32348
  20879210.660   109721009.56109  20879209.920    85496892.22749
 15 02 27 01 51 30.0000000  0  7G04G16G18G19G21G22G27
  23741349.740   124761648.82108  23741348.300    97216871.07846
  20644105.680   108485517.61009  20644101.920    84534162.25548
  21806594.720   114594583.35009  21806591.320    89294541.78747
  22423367.300   117835602.40508  22423362.780    91819951.52548
  23666072.440   124366274.06708  23666068.980    96908885.12546
  20804460.360   109328335.72509  20804454.680    85190962.86748
  20871591.880   109680972.75409  20871591.140    85465694.71449
 15 02 27 01 52  0.0000000  0  7G04G16G18G19G21G22G27
  23724986.520   124675659.65908  23724985.160    97149866.58745
  20649110.600   108511818.42409  20649106.760    84554656.38848
  21813865.000   114632789.26309  21813861.640    89324312.62447
  22410395.220   117767433.71709  22410390.620    91766833.08547
  23679112.180   124434797.61508  23679108.440    96962280.09746
  20798657.480   109297841.63209  20798651.860    85167201.23848
  20864013.840   109641149.51009  20864013.000    85434663.60849
 15 02 27 01 52 30.0000000  0  7G04G16G18G19G21G22G27
  23708657.600   124589850.74108  23708656.240    97083002.54545
  20654222.500   108538681.35409  20654218.640    84575588.53648
  21821220.540   114671443.11509  21821217.240    89354432.51347
  22397442.860   117699368.44509  22397438.200    91713795.24048
  23692153.860   124503331.63508  23692150.200    97015683.21546
  20792951.940   109267858.83209  20792946.320    85143838.03248
  20856476.740   109601541.03009  20856475.740    85403799.86249
 15 02 27 01 53  0.0000000  0  7G04G16G18G19G21G22G27
  23692363.320   124504223.95108  23692361.880    97016280.41846
  20659441.700   108566108.34809  20659437.820    84596960.21648
  21828661.360   114710545.04609  21828658.080    89384901.55448
  22384510.740   117631409.13409  22384505.960    91660839.94248
  23705197.680   124571877.05108  23705194.100    97069095.21346
  20787344.200   109238389.71809  20787338.520    85120875.09448
  20848981.020   109562150.14109  20848979.940    85373105.66249
 15 02 27 01 53 30.0000000  0  7G04G16G18G19G21G22G27
  23676103.780   124418779.55708  23676102.240    96949700.41445
  20664767.980   108594097.94109  20664764.080    84618770.28548
  21836187.140   114750093.53609  21836183.940    89415718.57648
  22371598.880   117563556.30209  22371593.940    91607967.61848
  23718243.440   124640432.71808  23718239.600    97122515.19946
  20781834.300   109209434.92209  20781828.600    85098312.93148
  20841526.840   109522977.93709  20841525.760    85342581.86949
 15 02 27 01 54  0.0000000  0  7G04G16G18G19G21G22G27
  23659878.800   124333516.89608  23659877.240    96883262.02346
  20670200.880   108622647.92409  20670196.980    84641017.02048
  21843797.400   114790086.00409  21843794.280    89446881.53848
  22358707.240   117495809.71709  22358702.220    91555178.08448
  23731290.900   124708996.75208  23731286.740    97175941.72546
  20776422.160   109180994.00009  20776416.520    85076151.18448
  20834114.260   109484024.56909  20834113.240    85312228.60849
 15 02 27 01 54 30.0000000  0  7G04G16G18G19G21G22G27
  23643688.440   124248436.03208  23643686.860    96816965.29646
  20675740.280   108651757.88009  20675736.460    84663700.08548
  21851491.880   114830520.89809  21851488.760    89478389.22948
  22345835.920   117428170.22409  22345830.800    91502471.98448
  23744339.780   124777568.42308  23744335.860    97229374.16346
  20771107.800   109153067.21509  20771102.240    85054390.05348
  20826743.420   109445291.13509  20826742.520    85282046.70949
 15 02 27 01 55  0.0000000  0  7G04G16G18G19G21G22G27
  23627533.200   124163539.69908  23627531.580    96750812.37046
  20681386.400   108681428.61709  20681382.640    84686820.14149
  21859270.640   114871398.52309  21859267.540    89510241.93748
  22332985.420   117360640.46509  22332980.340    91449851.41048
  23757390.260   124846149.03208  23757386.340    97282813.58946
  20765891.860   109125657.73809  20765886.380    85033032.03748
  20819415.060   109406780.92909  20819414.220    85252038.77249
 15 02 27 01 55 30.0000000  0  7G04G16G18G19G21G22G27
  23611413.120   124078828.15208  23611411.460    96684803.40945
  20687139.140   108711659.80309  20687135.500    84710376.89848
  21867133.360   114912717.46409  21867130.200    89542438.51847
  22320155.900   117293221.28909  22320150.960    91397317.00248
  23770442.200   124914737.71508  23770438.500    97336259.26745
  20760774.460   109098766.06409  20760769.040    85012077.49248
  20812129.440   109368495.12109  20812128.600    85222205.67349
 15 02 27 01 56  0.0000000  0  7G04G16G18G19G21G22G27
  23595328.000   123994300.33608  23595326.260    96618937.61846
  20692997.960   108742448.37009  20692994.420    84734367.97748
  21875079.420   114954474.53809  21875076.360    89574976.50448
  22307347.260   117225911.92109  22307342.420    91344868.15148
  23783495.180   124983331.94008  23783491.560    97389709.32046
  20755755.460   109072391.56109  20755750.080    84991525.94448
  20804886.460   109330433.38309  20804885.600    85192547.17849
 15 02 27 01 56 30.0000000  0  7G04G16G18G19G21G22G27
  23579278.500   123909959.84108  23579276.760    96553217.80146
  20698963.460   108773797.46309  20698960.020    84758795.83348
  21883109.060   114996671.31209  21883106.140    89607857.11147
  22294560.340   117158716.78009  22294555.680    91292508.33148
  23796549.840   125051934.31808  23796546.080    97443165.71346
  20750835.620   109046537.82209  20750830.240    84971380.17748
  20797687.080   109292600.37009  20797686.180    85163066.90049
 15 02 27 01 57  0.0000000  0  7G04G16G18G19G21G22G27
  23563264.220   123825804.52108  23563262.500    96487642.27646
  20705034.940   108805703.37209  20705031.580    84783657.57448
  21891221.700   115039304.06709  21891218.920    89641077.44547
  22281794.800   117091633.94309  22281790.140    91240236.00848
  23809605.260   125120541.43708  23809601.520    97496625.75245
  20746014.580   109021203.11209  20746009.180    84951638.84548
  20790531.040   109254994.76309  20790530.100    85133763.82849
 15 02 27 01 57 30.0000000  0  7G04G16G18G19G21G22G27
  23547285.080   123741833.99408  23547283.480    96422210.73146
  20711212.040   108838164.09109  20711208.700    84808951.63549
  21899416.840   115082370.28309  21899414.120    89674635.53847
  22269050.720   117024663.43009  22269046.080    91188051.19748
  23822661.560   125189152.20208  23822657.900    97550088.71446
  20741292.200   108996387.04009  20741286.840    84932301.65648
  20783418.320   109217616.92309  20783417.380    85104638.25249
 15 02 27 01 58  0.0000000  0  7G04G16G18G19G21G22G27
  23531342.080   123658053.34408  23531340.540    96356927.15146
  20717495.480   108871183.50509  20717492.100    84834681.04248
  21907695.040   115125873.05409  21907692.340    89708533.80547
  22256329.200   116957811.14109  22256324.340    91135958.51748
  23835719.040   125257770.49208  23835715.780    97603557.44246
  20736669.520   108972095.06009  20736664.260    84913372.84548
  20776350.120   109180473.08709  20776349.180    85075695.00349
 15 02 27 01 58 30.0000000  0  7G04G16G18G19G21G22G27
  23515434.000   123574456.10908  23515432.460    96291786.48746
  20723883.840   108904754.03809  20723880.380    84860839.88848
  21916054.780   115169803.80809  21916051.980    89742765.56747
  22243629.040   116891070.84009  22243624.040    91083953.09148
  23848776.720   125326388.74308  23848773.080    97657026.22646
  20732145.360   108948320.95609  20732140.240    84894847.56948
  20769325.340   109143557.50809  20769324.400    85046929.62649
 15 02 27 01 59  0.0000000  0  7G04G16G18G19G21G22G27
  23499562.180   123491049.33708  23499560.600    96226794.22646
  20730378.060   108938881.08109  20730374.560    84887432.38248
  21924497.020   115214167.76509  21924494.080    89777334.88748
  22230951.620   116824450.09109  22230946.320    91032040.81548
  23861835.300   125395012.69107  23861831.680    97710499.42346
  20727721.060   108925071.19509  20727716.000    84876730.88248
  20762345.500   109106878.08809  20762344.480    85018348.26849
 15 02 27 01 59 30.0000000  0  7G04G16G18G19G21G22G27
  23483725.240   123407825.82908  23483723.740    96161944.76146
  20736976.580   108973556.50609  20736973.060    84914452.18348
  21933019.920   115258955.51109  21933016.860    89812234.43347
  22218295.600   116757942.08109  22218290.340    90980216.39448
  23874893.800   125463634.13407  23874889.500    97763970.70744
  20723395.480   108902339.58309  20723390.380    84859017.94648
  20755409.440   109070428.50009  20755408.260    84989945.99149
 15 02 27 02 00  0.0000000  0  7G04G16G18G19G21G22G27
  23467925.040   123324795.31708  23467923.560    96097245.69646
  20743680.920   109008788.41309  20743677.440    84941905.60948
  21941625.080   115304175.27209  21941621.860    89847470.59847
  22205662.940   116691557.19909  22205657.700    90928487.92548
  23887953.260   125532262.26208  23887949.080    97817447.09846
  20719170.360   108880135.79109  20719165.220    84841716.30849
  20748519.180   109034219.49509  20748517.880    84961731.18949
 15 02 27 02 00 30.0000000  0  7G04G16G18G19G21G22G27
  23452160.540   123241952.35008  23452159.000    96032692.76846
  20750489.800   109044569.88709  20750486.380    84969787.26748
  21950310.980   115349819.25709  21950307.580    89883037.34047
  22193052.760   116625290.66609  22193047.660    90876851.66948
  23901012.740   125600890.07408  23901008.940    97870923.28546
  20715044.600   108858454.11109  20715039.380    84824821.50149
  20741673.800   108998246.53909  20741672.480    84933700.31149
 15 02 27 02 01  0.0000000  0  7G04G16G18G19G21G22G27
  23436432.060   123159298.62408  23436430.480    95968287.29646
  20757403.280   109080901.13709  20757399.920    84998097.32148
  21959077.560   115395887.31009  21959073.900    89918934.52847
  22180465.480   116559144.68309  22180460.520    90825309.35148
  23914072.100   125669518.54908  23914068.220    97924399.96145
  20711018.620   108837297.07309  20711013.380    84808335.50649
  20734873.840   108962512.50009  20734872.620    84905855.61249
 15 02 27 02 01 30.0000000  0  7G04G16G18G19G21G22G27
  23420739.540   123076833.87308  23420737.880    95904029.07046
  20764421.080   109117780.39309  20764417.760    85026834.39348
  21967924.360   115442376.94509  21967920.480    89955160.22247
  22167901.200   116493119.55309  22167896.360    90773861.21648
  23927131.540   125738145.99908  23927128.000    97977875.92746
  20707092.320   108816663.82809  20707087.060    84792257.66549
  20728119.380   108927017.68909  20728118.220    84878197.32649
 15 02 27 02 02  0.0000000  0  7G04G16G18G19G21G22G27
  23405083.860   122994562.66408  23405082.120    95839921.65546
  20771543.820   109155210.75709  20771540.500    85056000.91148
  21976851.900   115489290.79409  21976847.860    89991716.47247
  22155360.980   116427220.40509  22155356.260    90722511.24748
  23940191.320   125806776.09208  23940187.420    98031353.88945
  20703266.600   108796559.19509  20703261.300    84776591.72748
  20721411.560   108891767.81209  20721410.360    84850729.90049
 15 02 27 02 02 30.0000000  0  7G04G16G18G19G21G22G27
  23389463.800   122912478.81508  23389462.100    95775960.25646
  20778770.100   109193184.86009  20778766.740    85085591.10748
  21985858.540   115536620.61709  21985854.520    90028596.85248
  22142843.780   116361441.79109  22142839.000    90671255.18848
  23953250.560   125875401.97308  23953246.640    98084828.54445
  20699540.280   108776976.91709  20699534.880    84761332.81149
  20714749.340   108856757.77509  20714748.100    84823449.34949
 15 02 27 02 03  0.0000000  0  7G04G16G18G19G21G22G27
  23373880.520   122830588.25708  23373878.820    95712149.43846
  20786100.680   109231706.90509  20786097.260    85115608.26648
  21994945.060   115584370.26309  21994941.040    90065804.36647
  22130350.760   116295790.14109  22130345.940    90620098.05348
  23966309.560   125944028.19908  23966306.000    98138303.49246
  20695914.480   108757923.16509  20695909.000    84746485.73648
  20708134.020   108821994.18109  20708132.720    84796360.83449
 15 02 27 02 03 30.0000000  0  7G04G16G18G19G21G22G27
  23358333.680   122748889.24308  23358331.980    95648487.89346
  20793535.020   109270774.05309  20793531.500    85146050.20048
  22004110.720   115632536.15509  22004106.700    90103336.22247
  22117881.680   116230264.35509  22117876.760    90569039.01548
  23979368.360   126012652.06208  23979364.980    98191776.57945
  20692388.880   108739396.35609  20692383.400    84732049.27848
  20701565.560   108787476.58609  20701564.220    84769464.00349
 15 02 27 02 04  0.0000000  0  7G04G16G18G19G21G22G27
  23342822.800   122667379.08408  23342821.060    95584973.51446
  20801072.220   109310381.72809  20801068.620    85176913.31148
  22013354.600   115681113.32009  22013350.700    90141188.55447
  22105436.160   116164862.39609  22105431.140    90518076.45648
  23992426.060   126081270.35307  23992422.340    98245245.42646
  20688962.960   108721393.49509  20688957.480    84718021.07948
  20695043.500   108753203.12609  20695042.300    84742757.41749
 15 02 27 02 04 30.0000000  0  7G04G16G18G19G21G22G27
  23327349.800   122586068.22508  23327348.080    95521614.42346
  20808713.860   109350538.38409  20808710.220    85208204.20348
  22022678.360   115730110.20909  22022674.520    90179367.95247
  22093016.220   116099595.25509  22093011.100    90467218.94348
  24005484.280   126149892.36108  24005480.220    98298717.06845
  20685638.760   108703925.27909  20685633.300    84704409.48848
  20688570.060   108719185.27709  20688569.000    84716250.00249
 15 02 27 02 05  0.0000000  0  7G04G16G18G19G21G22G27
  23311912.440   122504944.58708  23311910.780    95458401.22246
  20816457.400   109391230.70309  20816453.740    85239912.49648
  22032079.300   115779512.88909  22032075.620    90217863.53947
  22080619.700   116034451.66509  22080614.680    90416457.71648
  24018540.800   126218505.35208  24018537.560    98352181.62546
  20682413.940   108686979.20909  20682408.500    84691204.76648
  20682143.100   108685411.91309  20682142.160    84689933.09749
 15 02 27 02 05 30.0000000  0  7G04G16G18G19G21G22G27
  23296512.340   122424016.82008  23296510.760    95395340.65946
  20824304.260   109432466.22809  20824300.580    85272044.07848
  22041558.580   115829327.50409  22041555.080    90256680.13447
  22068248.400   115969440.94909  22068243.620    90365800.03448
  24031596.880   126287116.85808  24031593.560    98405645.16145
  20679290.180   108670564.06809  20679284.760    84678413.75548
  20675764.480   108651892.69809  20675763.660    84663814.24349
 15 02 27 02 06  0.0000000  0  7G04G16G18G19G21G22G27
  23281148.240   122343278.08008  23281146.700    95332427.37946
  20832252.800   109474236.10909  20832249.100    85304592.02548
  22051114.580   115879545.16709  22051111.220    90295810.77247
  22055901.200   115904556.89709  22055896.680    90315241.04548
  24044651.640   126355719.17008  24044648.280    98459101.55046
  20676266.180   108654672.87209  20676260.740    84666031.00948
  20669433.220   108618621.85509  20669432.400    84637888.91449
 15 02 27 02 06 30.0000000  0  7G04G16G18G19G21G22G27
  23265822.500   122262740.92208  23265820.960    95269671.17146
  20840305.060   109516551.15809  20840301.340    85337564.79048
  22060749.400   115930176.67409  22060746.140    90335263.90147
  22043580.700   115839812.69809  22043576.360    90264791.04048
  24057706.340   126424323.58208  24057703.200    98512559.46745
  20673344.240   108639318.00809  20673338.780    84654066.19848
  20663151.900   108585613.04609  20663151.040    84612167.76849
 15 02 27 02 07  0.0000000  0  7G04G16G18G19G21G22G27
  23250532.820   122182393.36908  23250531.280    95207062.71245
  20848458.560   109559398.21809  20848454.860    85370952.10848
  22070460.360   115981207.97409  22070457.200    90375028.55047
  22031284.740   115775197.08909  22031280.420    90214441.23748
  24070759.380   126492917.40508  24070756.220    98566009.12444
  20670522.100   108624487.50909  20670516.620    84642509.97849
  20656918.420   108552855.18009  20656917.440    84586642.16349
 15 02 27 02 07 30.0000000  0  7G04G16G18G19G21G22G27
  23235280.560   122102242.23308  23235278.960    95144607.30046
  20856714.200   109602782.01709  20856710.520    85404757.65548
  22080248.380   116032643.87209  22080245.160    90415108.47947
  22019014.820   115710717.89809  22019010.440    90164197.72048
  24083811.720   126561507.16308  24083808.960    98619455.71146
  20667801.100   108610188.57909  20667795.620    84631367.96049
  20650734.240   108520356.29609  20650733.140    84561318.35549
 15 02 27 02 08  0.0000000  0  7G04G16G18G19G21G22G27
  23220065.520   122022286.57408  23220063.820    95082304.21246
  20865071.560   109646700.31709  20865067.880    85438979.69348
  22090112.720   116084480.79309  22090109.400    90455500.87747
  22006770.760   115646374.52709  22006766.220    90114060.02648
  24096862.740   126630090.63108  24096859.720    98672897.31145
  20665180.940   108596419.54009  20665175.480    84620638.83549
  20644599.320   108488116.26009  20644598.080    84536196.24349
 15 02 27 02 08 30.0000000  0  7G04G16G18G19G21G22G27
  23204887.020   121942522.92908  23204885.280    95020150.74145
  20873529.520   109691147.26809  20873525.840    85473613.67248
  22100052.420   116136713.62309  22100049.000    90496201.78947
  21994552.160   115582164.76209  21994547.360    90064026.44948
  24109912.060   126698663.66008  24109909.020    98726330.80345
  20662660.960   108583176.97909  20662655.560    84610319.96549
  20638513.180   108456132.77909  20638511.840    84511274.04849
 15 02 27 02 09  0.0000000  0  7G04G16G18G19G21G22G27
  23189746.260   121862957.43008  23189744.460    94958151.66345
  20882089.060   109736128.01209  20882085.360    85508663.59248
  22110068.120   116189346.12909  22110064.500    90537214.13647
  21982360.220   115518095.06709  21982355.220    90014102.02448
  24122960.000   126767231.40508  24122956.700    98779760.25546
  20660242.340   108570466.89009  20660236.940    84600416.00849
  20632477.200   108424413.03309  20632475.780    84486557.36049
 15 02 27 02 09 30.0000000  0  7G04G16G18G19G21G22G27
  23174642.340   121783585.54508  23174640.500    94896303.46346
  20890749.020   109781636.31709  20890745.340    85544124.60548
  22120158.660   116242372.30909  22120155.080    90578533.21947
  21970194.300   115454162.00109  21970189.100    89964284.05048
  24136006.440   126835788.25308  24136002.840    98833181.15845
  20657924.160   108558284.64609  20657918.780    84590923.36249
  20626490.680   108392953.78109  20626489.280    84462043.66449
 15 02 27 02 10  0.0000000  0  7G04G16G18G19G21G22G27
  23159576.460   121704413.76408  23159574.580    94834611.18746
  20899510.180   109827676.59109  20899506.540    85580000.13448
  22130324.760   116295795.81709  22130321.260    90620161.93647
  21958055.720   115390373.09909  21958050.440    89914578.43148
  24149051.620   126904340.49608  24149048.000    98886598.43945
  20655707.600   108546636.33209  20655702.200    84581846.75849
  20620555.120   108361762.29209  20620553.720    84437738.61049
 15 02 27 02 10 30.0000000  0  7G04G16G18G19G21G22G27
  23144547.820   121625437.79608  23144545.920    94773071.49446
  20908371.400   109874242.68009  20908367.800    85616285.38948
  22140565.260   116349610.33609  22140561.860    90662095.32247
  21945943.780   115326724.24809  21945938.520    89864981.93048
  24162094.860   126972882.60909  24162090.520    98940007.91646
  20653591.820   108535517.57009  20653586.340    84573182.79649
  20614669.940   108330835.60509  20614668.560    84413639.88849
 15 02 27 02 11  0.0000000  0  7G04G16G18G19G21G22G27
  23129557.800   121546664.79908  23129555.940    94711689.95446
  20917333.780   109921340.33409  20917330.220    85652984.84748
  22150881.160   116403820.90609  22150877.860    90704337.32247
  21933859.940   115263223.04909  21933854.660    89815500.48648
  24175136.940   127041420.72607  24175133.720    98993414.09046
  20651577.960   108524934.70409  20651572.480    84564936.41649
  20608836.660   108300181.70609  20608835.320    84389753.73549
 15 02 27 02 11 30.0000000  0  8G04G16G18G19G21G22G27G32
  23114604.340   121468083.87608  23114602.540    94650458.09946
  20926394.920   109968957.00109  20926391.400    85690088.74048
  22161270.000   116458414.89709  22161266.860    90746878.08847
  21921802.420   115199860.24309  21921797.200    89766126.87948
  24188176.300   127109943.81108  24188171.760    99046808.79444
  20649664.080   108514877.57509  20649658.700    84557099.69949
  20603053.440   108269791.10509  20603052.140    84366072.75049
  24502109.720   128759459.44607  24502112.720   100332049.93745
 15 02 27 02 12  0.0000000  0  8G04G16G18G19G21G22G27G32
  23099686.840   121389691.82908  23099685.080    94589373.41146
  20935553.800   110017087.39009  20935550.340    85727592.93748
  22171730.740   116513386.43809  22171727.640    90789713.05747
  21909770.700   115136633.11509  21909765.420    89716859.00148
  24201212.380   127178448.39807  24201207.920    99100188.99846
  20647849.440   108505342.33409  20647844.220    84549669.66649
  20597319.880   108239661.45909  20597318.620    84342595.11049
  24479477.820   128640527.20508  24479479.920   100239375.78545
 15 02 27 02 12 30.0000000  0  8G04G16G18G19G21G22G27G32
  23084809.620   121311511.49408  23084807.820    94528453.69346
  20944814.360   110065751.99009  20944810.880    85765513.39648
  22182267.280   116568756.17509  22182264.260    90832858.30747
  21897769.220   115073565.23509  21897763.960    89667715.20748
  24214248.460   127246955.32108  24214245.020    99153570.90145
  20646138.320   108496351.09509  20646133.240    84542663.49949
  20591640.540   108209816.64609  20591639.340    84319339.39949
  24456855.560   128521645.73508  24456857.120   100146741.13645
 15 02 27 02 13  0.0000000  0  8G04G16G18G19G21G22G27G32
  23069969.060   121233524.00708  23069967.180    94467684.24846
  20954172.900   110114931.38709  20954169.420    85803834.99648
  22192875.740   116624503.87909  22192872.700    90876298.06647
  21885794.700   115010639.15409  21885789.540    89618681.89748
  24227282.040   127315445.37808  24227277.780    99206939.83645
  20644527.240   108487885.08809  20644522.200    84536066.62149
  20586012.120   108180239.35209  20586011.000    84296292.15549
  24434239.820   128402799.14308  24434241.220   100054133.74645
 15 02 27 02 13 30.0000000  0  8G04G16G18G19G21G22G27G32
  23055167.880   121155743.63308  23055166.060    94407076.18546
  20963631.640   110164637.26209  20963628.120    85842566.82848
  22203558.340   116680641.17709  22203555.260    90920041.42747
  21873850.000   114947869.73909  21873844.960    89569770.66548
  24240314.340   127383932.65808  24240310.320    99260306.48045
  20643018.900   108479958.41309  20643013.760    84529889.99349
  20580437.460   108150944.67309  20580436.440    84273465.12849
  24411633.640   128284003.31208  24411634.840    99961565.72744
 15 02 27 02 14  0.0000000  0  8G04G16G18G19G21G22G27G32
  23040403.120   121078154.57908  23040401.440    94346617.20346
  20973187.220   110214851.93409  20973183.660    85881695.13848
  22214311.580   116737149.84209  22214308.480    90964074.14747
  21861932.260   114885241.82909  21861927.280    89520969.71348
  24253343.540   127452400.09208  24253340.320    99313657.68846
  20641610.080   108472554.49709  20641604.800    84524120.71449
  20574913.780   108121917.86009  20574912.920    84250846.83249
  24389034.580   128165245.21508  24389035.580    99869027.29845
 15 02 27 02 14 30.0000000  0  8G04G16G18G19G21G22G27G32
  23025677.300   121000770.18308  23025675.640    94286317.70246
  20982841.760   110265586.52709  20982838.140    85921228.58148
  22225137.640   116794041.50009  22225134.500    91008405.29547
  21850044.280   114822769.83909  21850039.240    89472290.24448
  24266371.140   127520860.79707  24266367.040    99367003.70644
  20640303.200   108465686.33409  20640297.780    84518768.90448
  20569443.900   108093173.50909  20569443.080    84228448.63749
  24366445.560   128046540.34308  24366446.720    99776530.27245
 15 02 27 02 15  0.0000000  0  8G04G16G18G19G21G22G27G32
  23010988.940   120923582.46408  23010987.220    94226171.45646
  20992593.440   110316831.69109  20992589.800    85961159.86448
  22236034.700   116851306.03909  22236031.500    91053027.01647
  21838184.680   114760446.83409  21838179.580    89423726.85548
  24279396.000   127589305.69508  24279391.760    99420337.38346
  20639096.800   108459346.38309  20639091.300    84513828.68149
  20564026.500   108064704.78309  20564025.620    84206265.20349
  24343865.560   127927883.00108  24343866.540    99684070.23245
 15 02 27 02 15 30.0000000  0  8G04G16G18G19G21G22G27G32
  22996338.760   120846595.39008  22996337.000    94166181.55346
  21002442.700   110368589.86509  21002439.120    86001490.90648
  22247002.960   116908945.07109  22246999.680    91097940.54547
  21826354.340   114698277.80209  21826349.200    89375283.45748
  24292418.800   127657738.51708  24292415.260    99473661.57445
  20637991.480   108453537.77709  20637985.960    84509302.50349
  20558662.520   108036516.86209  20558661.620    84184300.58849
  24321295.820   127809279.63308  24321296.780    99591652.28445
 15 02 27 02 16  0.0000000  0  8G04G16G18G19G21G22G27G32
  22981727.320   120769812.05208  22981725.600    94106350.42146
  21012389.680   110420861.76309  21012386.180    86042222.24748
  22258042.700   116966959.35609  22258039.360    91143146.47647
  21814553.920   114636266.31009  21814548.840    89326962.82948
  24305439.240   127726161.42208  24305435.120    99526978.09345
  20636987.720   108448262.96709  20636982.200    84505192.26749
  20553352.660   108008613.81909  20553351.820    84162557.96949
  24298737.440   127690735.80908  24298738.320    99499280.87944
 15 02 27 02 16 30.0000000  0  8G04G16G18G19G21G22G27G32
  22967153.500   120693226.24008  22967151.740    94046673.18346
  21022432.820   110473639.25909  21022429.460    86083347.55648
  22269152.400   117025340.92409  22269148.840    91188638.61147
  21802782.500   114574407.30109  21802777.520    89278761.01048
  24318456.860   127794567.37508  24318452.300    99580281.47845
  20636084.280   108443515.53909  20636078.840    84501492.98349
  20548096.060   107980990.76509  20548095.300    84141033.51349
  24276189.500   127572247.37708  24276190.460    99406952.58445
 15 02 27 02 17  0.0000000  0  8G04G16G18G19G21G22G27G32
  22952619.140   120616847.54709  22952617.280    93987157.33746
  21032573.540   110526929.60909  21032570.320    86124872.49448
  22280333.380   117084097.01609  22280329.700    91234422.57647
  21791042.100   114512711.30309  21791037.080    89230686.21148
  24331472.300   127862965.80308  24331468.780    99633578.81046
  20635282.880   108439304.40509  20635277.500    84498211.58449
  20542894.820   107953658.31409  20542894.120    84119735.50149
  24253654.380   127453826.42408  24253655.340    99314676.84745
 15 02 27 02 17 30.0000000  0  8G04G16G18G19G21G22G27G32
  22938119.620   120540651.98408  22938117.700    93927784.18446
  21042807.080   110580707.64009  21042803.980    86166777.44348
  22291580.560   117143201.39109  22291576.880    91280477.92147
  21779328.380   114451155.56509  21779323.320    89182720.69448
  24344482.040   127931116.79208  24344475.420    99686572.07544
  20634578.860   108435605.00809  20634573.540    84495328.94549
  20537744.680   107926593.80409  20537743.920    84098646.26949
  24231128.060   127335451.58208  24231129.020    99222437.12044
 15 02 27 02 18  0.0000000  0  9G04G11G16G18G19G21G22G27G32
  22923662.700   120464680.22009  22923660.740    93868585.41946
  24615991.980                                                  
  21053140.700   110635011.50809  21053137.720    86209092.14348
  22302901.380   117202692.58309  22302897.640    91326834.69647
  21767649.160   114389781.23909  21767644.160    89134896.55848
  24357493.060   127999490.11608  24357488.600    99739849.95545
  20633979.900   108432457.97209  20633974.660    84492876.71749
  20532653.480   107899838.88609  20532652.620    84077798.28349
  24208618.560   127217165.29808  24208619.500    99130266.32745
 15 02 27 02 18 30.0000000  0  9G04G11G16G18G19G21G22G27G32
  22909242.920   120388903.84609  22909240.980    93809538.91646
  24599321.860   129270312.48705  24599319.420   100730104.44442
  21063568.680   110689811.10709  21063565.740    86251793.12448
  22314289.980   117262540.03309  22314286.260    91373469.08547
  21755999.380   114328561.36809  21755994.360    89087192.75948
  24370499.580   128067842.03708  24370496.160    99793111.14345
  20633480.600   108429834.72909  20633475.460    84490832.64249
  20527616.080   107873366.51909  20527615.120    84057170.46049
  24186121.060   127098941.69508  24186121.840    99038144.25644
 15 02 27 02 19  0.0000000  0  9G04G11G16G18G19G21G22G27G32
  22894862.440   120313333.97909  22894860.520    93750653.33246
  24582663.960   129182775.17606  24582661.020   100661893.56844
  21074092.680   110745115.10309  21074089.720    86294887.13448
  22325748.020   117322752.70509  22325744.380    91420388.04047
  21744381.280   114267507.81209  21744376.280    89039618.56948
  24383504.560   128136183.14507  24383501.640    99846363.96545
  20633082.920   108427745.40809  20633077.860    84489204.60849
  20522634.760   107847188.88809  20522633.680    84036772.30249
  24163638.160   126980794.43608  24163638.740    98946081.62445
 15 02 27 02 19 30.0000000  0  9G04G11G16G18G19G21G22G27G32
  22880521.100   120237969.84708  22880519.200    93691928.04946
  24566017.560   129095298.72606  24566015.540   100593730.11542
  21084712.260   110800921.23909  21084709.280    86338372.42648
  22337274.920   117383327.37509  22337271.320    91467589.08847
  21732794.880   114206620.77909  21732789.880    88992174.12448
  24396506.940   128204512.66608  24396503.680    99899607.72545
  20632786.680   108426188.63009  20632781.640    84487991.53149
  20517709.500   107821306.34109  20517708.400    84016604.08049
  24141170.140   126862725.05808  24141170.580    98854079.67645
 15 02 27 02 20  0.0000000  0  9G04G11G16G18G19G21G22G27G32
  22866217.420   120162803.63508  22866215.560    93633357.00646
  24549381.260   129007875.87906  24549379.720   100525608.45544
  21095425.500   110857219.29609  21095422.440    86382241.03048
  22348868.820   117444254.14909  22348865.200    91515064.49847
  21721238.860   114145893.63909  21721233.900    88944854.28548
  24409505.520   128272821.38707  24409502.800    99952835.21645
  20632590.260   108425156.08909  20632585.180    84487186.95949
  20512839.120   107795712.35309  20512838.060    83996660.71849
  24118715.960   126744728.31008  24118716.360    98762134.35345
 15 02 27 02 20 30.0000000  0  9G04G11G16G18G19G21G22G27G32
  22851951.540   120087836.03208  22851949.660    93574940.71646
  24532755.420   128920506.66606  24532753.640   100457528.59643
  21106232.180   110914008.17809  21106229.000    86426492.09948
  22360529.500   117505531.89309  22360526.080    91562813.37347
  21709713.640   114085328.23409  21709708.740    88897660.47148
  24422500.540   128341109.63808  24422497.220   100006046.92845
  20632493.720   108424648.28009  20632488.540    84486791.27049
  20508024.000   107770408.86609  20508022.940    83976943.72449
  24096276.200   126626807.48508  24096276.480    98670248.23245
 15 02 27 02 21  0.0000000  0  9G04G11G16G18G19G21G22G27G32
  22837725.620   120013078.54108  22837723.700    93516688.14046
  24516142.200   128833202.81006  24516139.820   100389499.71941
  21117134.040   110971297.26609  21117130.760    86471132.93748
  22372258.740   117567169.48109  22372255.300    91610842.66447
  21698221.520   114024936.63809  21698216.600    88850602.08348
  24435493.300   128409388.49508  24435490.220   100059251.11545
  20632499.060   108424675.75009  20632493.780    84486812.67749
  20503266.560   107745408.41509  20503265.480    83957462.84949
  24073853.500   126508976.17608  24073853.720    98578431.88245
 15 02 27 02 21 30.0000000  0  9G04G11G16G18G19G21G22G27G32
  22823536.960   119938516.78208  22823535.020    93458588.09746
  24499538.720   128745950.27406  24499535.600   100321510.74543
  21128127.780   111029069.51309  21128124.420    86516150.25948
  22384053.380   117629150.61909  22384049.860    91659139.64547
  21686760.040   113964705.96309  21686755.060    88803669.08748
  24448481.780   128477643.16308  24448478.500   100112436.57945
  20632603.460   108425223.69809  20632598.000    84487239.65449
  20498564.340   107720697.95109  20498563.220    83938207.94449
  24051445.580   126391222.45808  24051445.580    98486675.94145
 15 02 27 02 22  0.0000000  0  9G04G11G16G18G19G21G22G27G32
  22809387.640   119864161.77508  22809385.680    93400649.15446
  24482946.800   128658759.69006  24482943.180   100253570.01541
  21139215.120   111087333.91509  21139211.760    86561551.08248
  22395915.060   117691483.80309  22395911.480    91707710.95147
  21675331.440   113904648.10909  21675326.420    88756870.76748
  24461467.840   128545884.17407  24461464.660   100165611.33545
  20632808.860   108426302.35709  20632803.200    84488080.17649
  20493919.580   107696289.57209  20493918.440    83919188.42849
  24029054.980   126273559.76208  24029054.880    98394990.90645
 15 02 27 02 22 30.0000000  0  9G04G11G16G18G19G21G22G27G32
  22795277.180   119790011.05708  22795275.340    93342869.39746
  24466366.360   128571629.35706  24466362.680   100185676.32541
  21150395.480   111146087.27409  21150392.120    86607332.90848
  22407843.020   117754165.02309  22407839.480    91756553.45847
  21663935.480   113844761.93509  21663930.460    88710206.22248
  24474450.440   128614108.60208  24474446.500   100218773.23645
  20633114.780   108427909.18409  20633108.940    84489332.25149
  20489332.100   107672182.34709  20489331.020    83900403.57549
  24006681.760   126155988.35208  24006681.620    98303376.99245
 15 02 27 02 23  0.0000000  0  9G04G11G16G18G19G21G22G27G32
  22781205.160   119716062.37308  22781203.380    93285247.06546
  24449796.960   128484556.73006  24449793.320   100117827.60944
  21161667.880   111205324.43509  21161664.520    86653491.72448
  22419836.200   117817189.26209  22419832.540    91805663.25147
  21652571.860   113785046.03209  21652566.980    88663674.35648
  24487429.700   128682313.05308  24487426.120   100271919.48746
  20633520.560   108430040.98709  20633514.580    84490993.39349
  20484801.660   107648374.94509  20484800.640    83881852.34749
  23984325.880   126038508.07708  23984325.640    98211834.05345
 15 02 27 02 23 30.0000000  0  9G04G11G16G18G19G21G22G27G32
  22767173.020   119642323.43208  22767171.320    93227788.17646
  24433240.060   128397549.42606  24433237.000   100050029.74843
  21173033.360   111265050.54909  21173030.000    86700031.55148
  22431895.700   117880561.80809  22431891.980    91855044.45947
  21641242.320   113725508.99209  21641237.520    88617281.86148
  24500406.380   128750504.89208  24500402.260   100325055.96945
  20634027.420   108432704.36709  20634021.400    84493068.76149
  20480329.980   107624876.02109  20480328.960    83863541.49749
  23961989.260   125921128.91708  23961988.960    98120369.88145
 15 02 27 02 24  0.0000000  0  9G04G11G16G18G19G21G22G27G32
  22753179.360   119568786.59708  22753177.640    93170486.77046
  24416694.220   128310600.16806  24416691.440    99982277.07243
  21184490.140   111325256.33909  21184486.780    86746945.14848
  22444019.640   117944273.29609  22444016.100    91904689.75647
  21629945.580   113666144.48009  21629940.820    88571023.80448
  24513379.180   128818676.67508  24513375.440   100378176.76946
  20634633.900   108435891.61209  20634627.920    84495552.33449
  20475915.900   107601679.74509  20475914.880    83845466.47549
  23939671.020   125803846.34708  23939670.880    98028981.03445
 15 02 27 02 24 30.0000000  0  9G04G11G16G18G19G21G22G27G32
  22739224.440   119495452.95208  22739222.680    93113343.69146
  24400159.540   128223710.00906  24400157.420    99914570.48643
  21196037.940   111385940.41109  21196034.580    86794231.43048
  22456207.860   118008322.58009  22456204.280    91954598.29747
  21618682.040   113606954.84009  21618677.360    88524902.01948
  24526348.500   128886828.60708  24526344.280   100431282.17544
  20635340.060   108439602.91009  20635334.140    84498444.25949
  20471559.760   107578788.05109  20471558.740    83827628.79549
  23917371.840   125686663.51708  23917371.540    97937669.90045
 15 02 27 02 25  0.0000000  0  9G04G11G16G18G19G21G22G27G32
  22725309.600   119422329.71708  22725307.780    93056364.56746
  24383637.400   128136885.95906  24383635.100    99846915.44543
  21207677.740   111447107.84209  21207674.380    86841894.35448
  22468461.240   118072714.43709  22468457.620    92004773.75247
  21607453.360   113547948.25409  21607448.720    88478922.87148
  24539314.600   128954967.72007  24539310.360   100484377.49845
  20636147.160   108443844.98509  20636141.380    84501749.77649
  20467263.160   107556209.40509  20467262.140    83810035.04349
  23895093.460   125569590.22908  23895093.080    97846444.18645
 15 02 27 02 25 30.0000000  0  9G04G11G16G18G19G21G22G27G32
  22711432.660   119349405.49008  22711430.800    92999540.51746
  24367125.820   128050117.43506  24367123.300    99779303.64143
  21219406.900   111508744.83609  21219403.540    86889923.16748
  22480777.240   118137435.44109  22480773.740    92055205.69547
  21596257.640   113489114.58809  21596253.000    88433078.45448
  24552276.640   129023081.67408  24552272.860   100537453.36545
  20637052.960   108448605.56109  20637047.280    84505459.31849
  20463024.220   107533933.85609  20463023.240    83792677.47149
  23872834.260   125452617.68008  23872833.640    97755296.99546
 15 02 27 02 26  0.0000000  0  9G04G11G16G18G19G21G22G27G32
  22697596.740   119276696.98008  22697594.760    92942884.54746
  24350627.900   127963420.70606  24350625.640    99711747.77344
  21231228.300   111570866.41309  21231224.900    86938329.57648
  22493158.600   118202500.03209  22493155.120    92105905.38047
  21585098.260   113430471.62609  21585093.580    88387382.64048
  24565236.100   129091187.16707  24565232.920   100590522.46045
  20638060.440   108453900.51309  20638054.880    84509585.26349
  20458846.340   107511979.15609  20458845.420    83775569.90649
  23850597.820   125335764.88308  23850597.140    97664243.08445
 15 02 27 02 26 30.0000000  0  9G04G11G16G18G19G21G22G27G32
  22683799.120   119204189.75008  22683797.040    92886385.41947
  24334140.980   127876781.74606  24334138.580    99644236.90543
  21243138.700   111633455.84509  21243135.300    86987100.55448
  22505602.240   118267891.59609  22505598.640    92156859.84647
  21573972.720   113372006.39009  21573968.020    88341825.31148
  24578191.480   129159268.82907  24578188.200   100643573.18445
  20639166.740   108459714.73709  20639161.320    84514115.82749
  20454727.040   107490332.13609  20454726.160    83758702.09249
  23828381.880   125219019.85308  23828381.100    97573273.15645
 15 02 27 02 27  0.0000000  0  9G04G11G16G18G19G21G22G27G32
  22670040.480   119131887.55108  22670038.300    92830046.05246
  24317665.900   127790204.45306  24317663.320    99576774.12844
  21255138.420   111696514.58209  21255135.000    87036237.22848
  22518108.360   118333611.67709  22518104.920    92208070.29847
  21562881.860   113313723.25209  21562877.140    88296409.89348
  24591143.080   129227330.75607  24591140.300   100696608.40446
  20640372.480   108466051.43509  20640367.200    84519053.52249
  20450667.280   107468997.84609  20450666.420    83742077.96749
  23806187.620   125102388.87808  23806186.780    97482392.07445
 15 02 27 02 27 30.0000000  0  9G04G11G16G18G19G21G22G27G32
  22656321.880   119059795.84808  22656319.740    92773870.71946
  24301203.520   127703694.26706  24301201.420    99509363.59444
  21267227.920   111760045.40609  21267224.540    87085741.75248
  22530677.500   118399663.25009  22530674.120    92259539.04747
  21551827.000   113255629.26309  21551822.280    88251141.84948
  24604091.520   129295377.85608  24604089.080   100749631.98344
  20641678.580   108472915.16609  20641673.420    84524401.88349
  20446668.320   107447982.95909  20446667.420    83725702.72749
  23784016.540   124985879.92608  23784015.700    97391606.08445
 15 02 27 02 28  0.0000000  0  9G04G11G16G18G19G21G22G27G32
  22642641.440   118987904.66108  22642639.320    92717851.62746
  24284751.880   127617241.15406  24284749.860    99441997.54044
  21279405.040   111824036.71409  21279401.700    87135605.09948
  22543307.480   118466034.37209  22543304.100    92311256.79347
  21540806.340   113197715.37709  21540801.680    88206014.16348
  24617035.740   129363398.78007  24617032.460   100802635.43445
  20643082.900   108480294.82209  20643077.800    84530152.27549
  20442728.440   107427278.54209  20442727.500    83709569.41149
  23761867.220   124869485.26508  23761866.440    97300909.13645
 15 02 27 02 28 30.0000000  0  9G04G11G16G18G19G21G22G27G32
  22629001.760   118916227.65608  22628999.640    92661999.41547
  24268313.860   127530859.22206  24268311.500    99374686.95243
  21291671.920   111888499.75609  21291668.580    87185836.02648
  22556000.480   118532736.64809  22555997.080    92363232.59347
  21529822.780   113139996.60309  21529818.120    88161038.50748
  24629977.160   129431407.62307  24629974.500   100855629.16145
  20644588.000   108488203.74509  20644582.840    84536315.06649
  20438850.480   107406899.78509  20438849.520    83693689.85449
  23739742.760   124753221.38908  23739741.900    97210314.04345
 15 02 27 02 29  0.0000000  0  9G04G11G16G18G19G21G22G27G32
  22615399.820   118844749.20808  22615397.680    92606301.93746
  24251886.580   127444532.97307  24251884.000    99307419.81043
  21304025.220   111953416.66209  21304021.840    87236420.63048
  22568753.060   118599751.82609  22568749.540    92415452.21447
  21518873.580   113082458.51809  21518868.940    88116203.65448
  24642913.680   129499388.56108  24642910.520   100908601.37044
  20646190.640   108496625.21609  20646185.420    84542877.26149
  20435031.700   107386832.24209  20435030.820    83678052.80949
  23717640.700   124637075.15208  23717639.740    97119810.62945
 15 02 27 02 29 30.0000000  0  9G04G11G16G18G19G21G22G27G32
  22601837.980   118773481.47508  22601835.860    92550768.66247
  24235472.240   127358274.44307  24235469.540    99240205.37144
  21316466.700   112018796.91309  21316463.240    87287366.27648
  22581567.040   118667090.13509  22581563.560    92467923.61547
  21507961.360   113025114.45709  21507956.680    88071519.98648
  24655847.120   129567353.26208  24655843.660   100961560.82445
  20647892.980   108505570.65809  20647887.640    84549847.73549
  20431274.660   107367089.20209  20431273.880    83662668.62549
  23695563.760   124521061.07108  23695562.760    97029410.19645
 15 02 27 02 30  0.0000000  0  9G04G11G16G18G19G21G22G27G32
  22588315.960   118702422.97508  22588313.900    92495398.40247
  24219070.540   127272082.44707  24219067.640    99173042.79344
  21328995.800   112084637.39409  21328992.240    87338670.54348
  22594441.840   118734748.14309  22594438.360    92520644.14647
  21497086.160   112967964.38309  21497081.380    88026987.46348
  24668777.020   129635299.67808  24668773.440   101014506.04244
  20649694.540   108515037.59309  20649689.100    84557224.57149
  20427579.320   107347670.47209  20427578.660    83647537.15349
  23673512.220   124405180.39008  23673511.300    96939113.70546
 15 02 27 02 30 30.0000000  0 10G04G11G14G16G18G19G21G22G27G32
  22574832.340   118631566.33908  22574830.440    92440185.46747
  24202680.060   127185949.63807  24202676.860    99105926.33744
  24682121.500   129705408.59107  24682120.040   101069147.29344
  21341610.480   112150927.72209  21341606.900    87390325.33648
  22607375.540   118802715.72109  22607372.080    92573605.88447
  21486246.700   112911001.79309  21486241.760    87982601.03548
  24681702.100   129703219.96807  24681698.500   101067430.91544
  20651593.720   108525017.88609  20651588.240    84565001.41649
  20423944.560   107328569.87409  20423943.960    83632653.57049
  23651485.120   124289428.01008  23651484.240    96848917.20945
 15 02 27 02 31  0.0000000  0 10G04G11G14G16G18G19G21G22G27G32
  22561390.540   118560929.55008  22561388.760    92385143.82647
  24186304.320   127099894.40407  24186301.340    99038870.29744
  24667919.380   129630777.65707  24667917.620   101010993.35345
  21354313.760   112217683.75409  21354310.180    87442343.01348
  22620371.220   118871008.80109  22620367.800    92626821.24747
  21475446.540   112854245.86709  21475441.460    87938375.63548
  24694625.600   129771132.35708  24694621.580   101120349.62944
  20653593.840   108535528.65809  20653588.240    84573191.62649
  20420374.060   107309806.68809  20420373.420    83618032.89549
  23629486.360   124173824.60208  23629485.500    96758836.77945
 15 02 27 02 31 30.0000000  0 10G04G11G14G16G18G19G21G22G27G32
  22547985.700   118490487.00108  22547983.980    92330253.54447
  24169938.460   127013891.48707  24169935.740    98971855.05544
  24653715.120   129556133.39307  24653712.660   100952829.05044
  21367100.400   112284878.00309  21367096.820    87494702.15248
  22633423.580   118939599.16609  22633420.200    92680268.29747
  21464681.140   112797672.79409  21464675.960    87894292.71848
  24707542.620   129839010.67107  24707538.680   101173241.81945
  20655689.860   108546543.54409  20655684.180    84581774.65249
  20416863.160   107291356.66309  20416862.480    83603656.25049
  23607511.560   124058347.06908  23607510.640    96668854.41245
 15 02 27 02 32  0.0000000  0 10G04G11G14G16G18G19G21G22G27G32
  22534621.900   118420259.90709  22534620.200    92275531.15247
  24153586.480   126927961.84607  24153583.960    98904896.88944
  24639513.240   129481499.51908  24639510.060   100894672.77645
  21379973.920   112352528.96009  21379970.380    87547417.17548
  22646536.300   119008506.49709  22646532.680    92733962.32147
  21453954.700   112741304.75809  21453949.440    87850369.57448
  24720456.740   129906875.98308  24720453.320   101226123.78244
  20657885.560   108558082.41709  20657879.820    84590765.98749
  20413416.100   107273242.03909  20413415.360    83589540.95249
  23585565.240   123943019.00908  23585564.280    96578988.50046
 15 02 27 02 32 30.0000000  0 10G04G11G14G16G18G19G21G22G27G32
  22521296.820   118350236.14509  22521295.120    92220967.20247
  24137246.320   126842094.00407  24137243.600    98837986.90544
  24625311.560   129406866.64708  24625308.060   100836517.25644
  21392931.640   112420622.17509  21392928.100    87600476.81948
  22659706.640   119077716.52009  22659702.960    92787892.19447
  21443265.100   112685130.68909  21443259.920    87806597.58648
  24733366.100   129974715.32707  24733362.960   101278985.60145
  20660178.540   108570132.48409  20660172.800    84600155.65849
  20410030.900   107255452.15609  20410030.060    83575678.71149
  23563645.640   123827831.10208  23563644.620    96489231.80645
 15 02 27 02 33  0.0000000  0 10G04G11G14G16G18G19G21G22G27G32
  22508011.960   118280423.57409  22508010.200    92166567.80847
  24120919.460   126756295.62907  24120916.600    98771131.04044
  24611111.980   129332245.73907  24611108.620   100778371.11345
  21405974.500   112489162.79409  21405970.920    87653885.08548
  22672935.600   119147234.46209  22672931.700    92842062.01747
  21432614.180   112629159.91509  21432609.080    87762983.99848
  24746272.100   130042536.30007  24746269.280   101331833.12845
  20662570.180   108582700.79709  20662564.480    84609949.13949
  20406709.200   107237996.06109  20406708.260    83562076.54649
  23541754.680   123712793.64608  23541753.480    96399592.34045
 15 02 27 02 33 30.0000000  0 10G04G11G14G16G18G19G21G22G27G32
  22494766.820   118210819.41209  22494764.960    92112330.81847
  24104605.360   126670564.37807  24104602.760    98704327.49744
  24596914.280   129257636.07808  24596910.800   100720233.74744
  21419101.700   112558146.66109  21419098.140    87707638.73748
  22686222.140   119217055.12009  22686218.160    92896467.71747
  21422001.620   112573391.04309  21421996.700    87719527.74548
  24759174.100   130110336.15807  24759171.400   101384664.13144
  20665059.760   108595783.41509  20665054.080    84620143.38349
  20403450.660   107220872.20709  20403449.700    83548733.28549
  23519892.300   123597906.33408  23519890.960    96310069.85445
 15 02 27 02 34  0.0000000  0 10G04G11G14G16G18G19G21G22G27G32
  22481561.580   118141424.86409  22481559.660    92058257.17247
  24088304.240   126584901.43307  24088301.440    98637577.15644
  24582719.320   129183041.76607  24582715.760   100662108.32044
  21432312.920   112627572.10109  21432309.400    87761736.47348
  22699566.120   119287177.77509  22699562.100    92951108.73647
  21411427.860   112517826.42109  21411423.140    87676230.64748
  24772072.460   130178115.81308  24772069.520   101437479.41045
  20667647.340   108609380.73509  20667641.620    84630738.70149
  20400255.780   107204083.09409  20400254.800    83535650.85449
  23498059.240   123483173.06608  23498057.840    96220667.42645
 15 02 27 02 34 30.0000000  0 10G04G11G14G16G18G19G21G22G27G32
  22468396.160   118072239.76809  22468394.120    92004346.72647
  24072016.080   126499306.97107  24072013.200    98570880.19645
  24568527.540   129108465.52707  24568524.380   100603996.99345
  21445607.540   112697435.73309  21445604.060    87816175.65448
  22712967.100   119357600.37609  22712963.120    93005983.47246
  21400893.260   112462467.45209  21400888.700    87633093.79448
  24784966.800   130245875.50108  24784963.780   101490279.12445
  20670332.600   108623491.53609  20670326.880    84641734.13249
  20397124.800   107187629.81709  20397123.840    83522830.11849
  23476255.920   123368596.29008  23476254.500    96131386.92045
 15 02 27 02 35  0.0000000  0 10G04G11G14G16G18G19G21G22G27G32
  22455270.660   118003264.82409  22455268.580    91950600.03347
  24055741.120   126413781.87108  24055738.420    98504237.26245
  24554339.680   129033910.56307  24554336.960   100545902.24444
  21458985.440   112767736.98009  21458982.000    87870955.83048
  22726424.680   119428320.56809  22726420.660    93061090.11147
  21390398.200   112407315.84209  21390393.660    87590118.51148
  24797857.340   130313614.74007  24797854.120   101543062.93245
  20673115.420   108638115.35109  20673109.760    84653129.31749
  20394058.100   107171514.15509  20394057.100    83510272.45349
  23454482.920   123254178.89408  23454481.440    96042230.62445
 15 02 27 02 35 30.0000000  0 10G04G11G14G16G18G19G21G22G27G32
  22442185.100   117934499.93409  22442183.040    91897017.03447
  24039479.420   126328326.12908  24039476.780    98437648.38745
  24540156.020   128959379.44807  24540153.800   100487826.09444
  21472446.040   112838472.88609  21472442.620    87926074.71448
  22739938.540   119499336.82609  22739934.600    93116427.44647
  21379942.940   112352372.96409  21379938.320    87547305.88548
  24810743.700   130381332.80607  24810740.480   101595830.22245
  20675995.640   108653251.10109  20675990.060    84664923.41449
  20391055.900   107155737.33009  20391054.860    83497978.82649
  23432740.760   123139923.54208  23432739.360    95953200.56246
 15 02 27 02 36  0.0000000  0 10G04G11G14G16G18G19G21G22G27G32
  22429139.120   117865942.81709  22429137.020    91843595.93147
  24023230.660   126242938.04308  24023227.940    98371112.25044
  24525977.160   128884872.79107  24525975.700   100429769.00144
  21485988.460   112909638.67309  21485985.040    87981528.55848
  22753507.840   119570644.49309  22753503.720    93171991.85946
  21369527.180   112297637.83709  21369522.520    87504655.15148
  24823625.460   130449027.86507  24823622.240   101648579.62545
  20678972.620   108668895.52609  20678967.160    84677113.88949
  20388118.020   107140298.48309  20388116.940    83485948.55349
  23411029.520   123025830.64808  23411027.900    95864297.09445
 15 02 27 02 36 30.0000000  0 10G04G11G14G16G18G19G21G22G27G32
  22416133.020   117797595.53409  22416130.960    91790338.31247
  24006995.160   126157619.59408  24006992.340    98304630.35045
  24511804.200   128810395.26707  24511803.060   100371734.58445
  21499612.560   112981233.77609  21499609.160    88037316.93748
  22767132.520   119642243.11709  22767128.440    93227782.96346
  21359151.480   112243113.67209  21359146.840    87462168.79148
  24836503.200   130516702.00707  24836500.400   101701312.60444
  20682046.600   108685049.59909  20682041.280    84689701.46749
  20385245.000   107125200.64509  20385243.880    83474183.99849
  23389350.020   122911904.52708  23389348.400    95775523.58146
 15 02 27 02 37  0.0000000  0 10G04G11G14G16G18G19G21G22G27G32
  22403166.440   117729455.85409  22403164.420    91737242.46147
  23990772.560   126072368.95808  23990769.640    98238201.30245
  24497637.100   128735947.55508  24497636.140   100313723.40444
  21513317.500   113053253.78709  21513314.100    88093436.41848
  22780811.780   119714128.35209  22780807.720    93283797.43246
  21348815.800   112188799.77009  21348811.160    87419846.26748
  24849376.560   130584352.49907  24849373.240   101754027.32244
  20685216.980   108701710.10309  20685211.760    84702683.68449
  20382436.720   107110443.11309  20382435.620    83462684.61849
  23367702.320   122798145.77308  23367700.760    95686880.48246
 15 02 27 02 37 30.0000000  0 10G04G11G14G16G18G19G21G22G27G32
  22390239.840   117661526.23309  22390237.820    91684310.30647
  23974563.300   125987188.78308  23974560.500    98171827.15845
  24483477.040   128661534.80508  24483476.140   100255739.43344
  21527103.340   113125698.92309  21527099.980    88149887.16148
  22794545.720   119786300.43109  22794541.620    93340035.40446
  21338520.980   112134700.29609  21338516.360    87377690.83648
  24862245.720   130651981.35807  24862242.580   101806725.03645
  20688483.920   108718878.17509  20688478.820    84716061.40049
  20379693.900   107096029.49409  20379692.840    83451453.22449
  23346087.420   122684559.46408  23346086.000    95598371.75845
 15 02 27 02 38  0.0000000  0 10G04G11G14G16G18G19G21G22G27G32
  22377352.460   117593802.91009  22377350.360    91631538.88347
  23958366.760   125902075.49808  23958364.000    98105505.15345
  24469323.720   128587156.12407  24469322.600   100197782.01745
  21540968.840   113198562.74109  21540965.520    88206664.15848
  22808333.140   119858753.60009  22808328.960    93396492.40646
  21328266.500   112080812.44309  21328261.860    87335700.29248
  24875110.480   130719585.02708  24875107.140   101859403.24644
  20691846.560   108736549.14909  20691841.500    84729830.99649
  20377016.080   107081957.38909  20377015.020    83440487.95649
  23324505.100   122571144.32908  23324503.840    95509996.41045
 15 02 27 02 38 30.0000000  0 10G04G11G14G16G18G19G21G22G27G32
  22364506.000   117526294.70109  22364503.880    91578935.10847
  23942184.620   125817038.14608  23942181.840    98039242.28745
  24455179.080   128512822.73508  24455177.580   100139859.95744
  21554915.220   113271851.56309  21554911.920    88263772.32048
  22822175.300   119931494.46509  22822171.060    93453173.59247
  21318054.300   112027146.51809  21318049.580    87293882.68848
  24887971.820   130787172.09607  24887968.580   101912068.42044
  20695306.320   108754730.61509  20695301.300    84743998.38549
  20374405.080   107068236.56509  20374404.040    83429796.40349
  23302957.500   122457911.61008  23302956.260    95421763.19446
 15 02 27 02 39  0.0000000  0 10G04G11G14G16G18G19G21G22G27G32
  22351698.780   117458992.80709  22351696.740    91526492.09946
  23926015.360   125732068.44308  23926012.340    97973032.15744
  24441042.020   128438528.93008  24441039.960   100081968.67344
  21568940.300   113345554.04209  21568937.040    88321202.81648
  22836070.140   120004511.98209  22836065.840    93510070.35446
  21307882.760   111973694.93009  21307878.080    87252232.10748
  24900828.480   130854733.86607  24900825.340   101964713.92344
  20698861.440   108773412.79209  20698856.360    84758555.93549
  20371859.560   107054859.71709  20371858.500    83419372.88149
  23281443.420   122344855.29708  23281442.280    95333667.45046
 15 02 27 02 39 30.0000000  0 10G04G11G14G16G18G19G21G22G27G32
  22338932.120   117391904.02108  22338930.200    91474215.13947
  23909860.300   125647173.02908  23909857.240    97906879.91045
  24426914.100   128364284.20508  24426911.580   100024115.66645
  21583044.920   113419674.55409  21583041.700    88378959.04248
  22850018.440   120077810.53309  22850014.240    93567186.09446
  21297753.600   111920466.02409  21297748.920    87210755.03548
  24913681.320   130922275.71508  24913677.620   102017343.98144
  20702512.960   108792601.24109  20702507.760    84773507.97249
  20369380.960   107041834.61009  20369379.920    83409223.45149
  23259964.680   122231984.60308  23259963.760    95245716.34846
 15 02 27 02 40  0.0000000  0 10G04G11G14G16G18G19G21G22G27G32
  22326205.000   117325022.82208  22326203.180    91422099.94047
  23893718.460   125562347.04308  23893715.500    97840781.75345
  24412794.860   128290085.95808  24412791.580    99966298.86144
  21597227.560   113494205.04809  21597224.380    88437034.73448
  22864018.720   120151382.41709  22864014.600    93624514.83246
  21287666.100   111867455.81709  21287661.360    87169448.37648
  24926529.540   130989792.74707  24926526.100   102069954.61844
  20706259.620   108812289.57309  20706254.260    84788849.52949
  20366968.540   107029157.33609  20366967.540    83399345.04949
  23238520.720   122119296.71508  23238519.880    95157907.67446
 15 02 27 02 40 30.0000000  0 10G04G11G14G16G18G19G21G22G27G32
  22313518.540   117258355.07508  22313516.660    91370151.07047
  23877590.960   125477596.42708  23877588.100    97774742.32045
  24398685.900   128215942.65208  24398682.220    99908524.85045
  21611488.920   113569149.13809  21611485.740    88495432.72848
  22878071.600   120225231.32009  22878067.660    93682059.41647
  21277621.580   111814671.25809  21277616.800    87128317.55148
  24939374.080   131057291.12707  24939370.720   102122550.67045
  20710102.140   108832481.99209  20710096.700    84804583.88749
  20364623.620   107016834.73509  20364622.640    83389743.02749
  23217113.160   122006799.91108  23217112.260    95070247.88046
 15 02 27 02 41  0.0000000  0 10G04G11G14G16G18G19G21G22G27G32
  22300871.820   117191895.98408  22300869.780    91318364.78447
  23861476.840   125392916.58608  23861474.060    97708758.05545
  24384586.900   128141852.26708  24384583.000    99850792.10345
  21625827.500   113644498.79509  21625824.280    88554146.72648
  22892175.900   120299350.29609  22892172.100    93739814.44747
  21267619.420   111762109.13209  21267614.620    87087360.04248
  24952214.120   131124765.27508  24952210.460   102175128.00844
  20714039.400   108853172.59009  20714033.940    84820706.43449
  20362345.580   107004863.32309  20362344.520    83380414.64849
  23195741.620   121894492.04408  23195740.660    94982735.33046
 15 02 27 02 41 30.0000000  0 10G04G11G14G16G18G19G21G22G27G32
  22288265.500   117125649.14109  22288263.340    91266743.87046
  23845376.960   125308311.69208  23845374.120    97642832.18045
  24370499.100   128067821.46608  24370495.360    99793105.77944
  21640243.620   113720255.69909  21640240.360    88613178.07348
  22906331.860   120373740.69609  22906328.280    93797780.97646
  21257660.560   111709774.69909  21257655.780    87046579.96048
  24965050.080   131192218.72907  24965046.680   102227689.04745
  20718071.940   108874363.97309  20718066.440    84837219.20149
  20360135.340   106993248.02109  20360134.180    83371363.75949
  23174407.300   121782379.42808  23174406.260    94895374.90946
 15 02 27 02 42  0.0000000  0 10G04G11G14G16G18G19G21G22G27G32
  22275699.240   117059612.97309  22275697.060    91215287.11947
  23829291.080   125223780.16608  23829288.180    97576963.48345
  24356422.620   127993851.11608  24356419.360    99735466.56045
  21654736.420   113796415.29109  21654733.080    88672523.21048
  22920538.720   120448398.45109  22920535.440    93855955.84746
  21247744.840   111657667.23909  21247740.120    87005976.75148
  24977881.600   131259649.88608  24977878.360   102280232.76644
  20722199.280   108896053.27309  20722193.640    84854119.96549
  20357992.720   106981988.29309  20357991.500    83362589.94349
  23153110.320   121670462.84808  23153109.120    94808167.26246
 15 02 27 02 42 30.0000000  0 10G04G11G14G16G18G19G21G22G27G32
  22263172.880   116993786.49609  22263170.720    91163993.77347
  23813219.080   125139321.36208  23813216.100    97511151.44045
  24342357.980   127919943.24407  24342355.260    99677876.01644
  21669305.220   113872974.21809  21669301.760    88732179.51548
  22934795.940   120523320.91109  22934792.700    93914336.96846
  21237872.440   111605787.69509  21237867.800    86965551.13248
  24990708.920   131327057.84207  24990705.440   102332758.47744
  20726421.020   108918238.41909  20726415.240    84871407.09449
  20355917.780   106971084.55409  20355916.560    83354093.51749
  23131851.040   121558744.09708  23131849.560    94721113.74146
 15 02 27 02 43  0.0000000  0 10G04G11G14G16G18G19G21G22G27G32
  22250687.020   116928173.10608  22250684.920    91112866.46647
  23797161.620   125054939.04508  23797158.620    97445399.00645
  24328306.560   127846104.16808  24328304.380    99620339.09845
  21683950.120   113949933.25409  21683946.580    88792147.58248
  22949103.700   120598508.98409  22949100.820    93972925.06246
  21228044.360   111554140.92809  21228039.820    86925306.90248
  25003532.420   131394445.86007  25003528.980   102385268.53944
  20730737.560   108940921.55409  20730731.660    84889082.25749
  20353911.440   106960541.45509  20353910.280    83345878.11549
  23110630.520   121447229.12608  23110628.900    94634219.00946
 15 02 27 02 43 30.0000000  0 10G04G11G14G16G18G19G21G22G27G32
  22238240.680   116862767.45608  22238238.640    91061901.03947
  23781117.720   124970628.12308  23781114.820    97379702.21045
  24314268.000   127772331.27308  24314266.060    99562853.72644
  21698669.660   114027284.82709  21698666.080    88852421.52348
  22963460.640   120673955.24908  22963457.640    94031714.35846
  21218259.840   111502722.69909  21218255.360    86885240.76449
  25016351.200   131461807.79508  25016347.380   102437758.37944
  20735147.460   108964095.68509  20735141.560    84907140.03249
  20351972.920   106950354.70009  20351971.800    83337940.38849
  23089448.240   121335915.10908  23089446.500    94547480.86846
 15 02 27 02 44  0.0000000  0  9G04G11G14G16G18G19G22G27G32
  22225835.240   116797576.93008  22225833.360    91011103.24747
  23765088.920   124886396.29008  23765086.020    97314067.04245
  24300243.960   127698634.68208  24300242.040    99505427.84145
  21713464.700   114105033.32909  21713461.120    88913004.76848
  22977867.720   120749664.65309  22977864.900    94090708.67646
  21208520.580   111451541.86709  21208515.960    86845359.59949
  20739651.940   108987766.99509  20739646.100    84925585.20749
  20350103.900   106940532.97909  20350102.780    83330287.09049
  23068306.080   121224811.98008  23068304.160    94460907.05046
 15 02 27 02 44 30.0000000  0  9G04G11G14G16G18G19G22G27G32
  22213469.540   116732595.20308  22213467.800    90960468.15847
  23749074.120   124802237.87908  23749071.300    97248489.08045
  24286233.860   127625010.96508  24286231.780    99448058.73844
  21728333.580   114183170.00809  21728330.060    88973890.47948
  22992323.320   120825628.96509  22992320.320    94149901.64046
  21198825.660   111400593.89909  21198820.840    86805659.88948
  20744249.600   109011928.13709  20744243.880    84944412.07348
  20348303.400   106931071.22409  20348302.260    83322914.28649
  23047203.320   121113916.09108  23047201.340    94374494.71046
 15 02 27 02 45  0.0000000  0  9G04G11G14G16G18G19G22G27G32
  22201143.600   116667822.21409  22201141.940    90909995.71347
  23733073.320   124718152.89508  23733070.480    97182968.34445
  24272238.380   127551462.96508  24272235.920    99390748.60845
  21743275.860   114261692.45309  21743272.380    89035076.78748
  23006826.960   120901845.76409  23006824.180    94209291.33546
  21189175.240   111349879.85109  21189170.240    86766142.44748
  20748940.140   109036577.29109  20748934.540    84963619.21049
  20346571.600   106921970.55109  20346570.460    83315822.84049
  23026140.420   121003229.87008  23026138.520    94288245.75846
 15 02 27 02 45 30.0000000  0  9G04G11G14G16G18G19G22G27G32
  22188857.900   116603260.38309  22188856.240    90859687.79947
  23717086.940   124634143.95408  23717084.080    97117506.84846
  24258258.460   127477995.96208  24258255.760    99333501.57645
  21758291.440   114340599.95009  21758288.000    89096563.13748
  23021378.720   120978315.20109  23021375.680    94268877.90546
  21179570.040   111299403.69009  21179564.920    86726810.38849
  20753723.900   109061716.25609  20753718.340    84983208.01649
  20344909.180   106913234.55609  20344908.100    83309015.56449
  23005118.360   120892758.38608  23005116.480    94202164.12546
 15 02 27 02 46  0.0000000  0  9G04G11G14G16G18G19G22G27G32
  22176612.760   116538911.53309  22176611.000    90809545.84647
  23701115.400   124550213.36708  23701112.680    97052106.40146
  24244294.740   127404614.54908  24244291.840    99276321.24845
  21773380.220   114419892.09809  21773376.800    89158349.21848
  23035978.480   121055037.04709  23035975.440    94328661.17046
  21170010.740   111249168.89109  21170005.440    86687666.39348
  20758600.900   109087345.20809  20758595.360    85003178.63449
  20343316.720   106904866.33809  20343315.700    83302494.87249
  22984138.020   120782506.06808  22984136.160    94116253.25446
 15 02 27 02 46 30.0000000  0  9G04G11G14G16G18G19G22G27G32
  22164408.100   116474775.34409  22164406.220    90759569.59947
  23685158.820   124466361.16308  23685156.180    96986767.02746
  24230347.700   127331321.07408  24230344.360    99219209.46445
  21788541.580   114499565.55909  21788538.240    89220432.42248
  23050625.760   121132008.67109  23050622.540    94388639.05946
  21160497.460   111199176.40409  21160492.100    86648711.21448
  20763570.800   109113462.31709  20763565.260    85023529.63448
  20341794.400   106896866.64009  20341793.420    83296261.33749
  22963199.780   120672474.98208  22963197.940    94030514.78746
 15 02 27 02 47  0.0000000  0  9G04G11G14G16G18G19G22G27G32
  22152243.480   116410849.73909  22152241.580    90709757.45247
  23669216.840   124382585.46308  23669214.160    96921487.29846
  24216417.500   127258116.57808  24216413.940    99162166.99745
  21803774.620   114579615.76409  21803771.320    89282809.20148
  23065319.680   121209225.93609  23065316.540    94448808.33446
  21151030.180   111149425.89509  21151024.800    86609944.59248
  20768632.940   109140064.28909  20768627.480    85044258.45249
  20340342.120   106889234.74909  20340341.180    83290314.40549
  22942303.780   120562665.91609  22942301.940    93944949.32646
 15 02 27 02 47 30.0000000  0  9G04G11G14G16G18G19G22G27G32
  22140118.840   116347134.44409  22140116.980    90660109.19947
  23653289.500   124298886.65108  23653286.780    96856267.48146
  24202504.660   127185003.73208  24202501.000    99105195.95644
  21819078.860   114660040.10309  21819075.600    89345477.50748
  23080059.880   121286686.15809  23080056.620    94509166.95646
  21141609.060   111099918.23009  21141603.740    86571367.19848
  20773787.040   109167149.56409  20773781.680    85065363.85748
  20338959.980   106881971.53309  20338959.080    83284654.75249
  22921450.460   120453081.01609  22921448.620    93859558.54246
 15 02 27 02 48  0.0000000  0 10G01G04G11G14G16G18G19G22G27G32
  24574621.280   129140505.78805  24574622.240   100628973.73143
  22128036.400   116283641.23009  22128034.660    90610633.97547
  23637379.120   124215276.60908  23637376.240    96791116.80546
  24188611.820   127111997.14308  24188608.360    99048307.71545
  21834455.960   114740847.59609  21834452.760    89408444.36248
  23094848.120   121364399.12308  23094845.040    94569722.49746
  21132236.800   111050667.09609  21132231.560    86532989.69649
  20779035.100   109194728.28209  20779029.760    85086853.75949
  20337650.440   106875090.01709  20337649.640    83279292.51749
  22900642.600   120343734.84008  22900640.640    93774353.74446
 15 02 27 02 48 30.0000000  0 10G01G04G11G14G16G18G19G22G27G32
  24559895.800   129063121.96505  24559896.720   100568674.69144
  22115991.960   116220347.53109  22115990.280    90561314.23047
  23621481.420   124131733.18208  23621478.420    96726018.05946
  24174735.400   127039077.11208  24174732.140    98991486.92244
  21849901.220   114822013.07409  21849898.060    89471690.18348
  23109679.740   121442340.19308  23109676.420    94630455.79846
  21122909.300   111001651.23909  21122904.220    86494795.53449
  20784372.540   109222776.70509  20784367.220    85108709.67148
  20336409.440   106868568.78909  20336408.700    83274211.04349
  22879876.340   120234607.25008  22879874.260    93689319.28646
 15 02 27 02 49  0.0000000  0 10G01G04G11G14G16G18G19G22G27G32
  24545192.460   128985855.26505  24545193.820   100508466.87743
  22103988.720   116157270.15509  22103987.020    90512163.04647
  23605599.660   124048273.52608  23605596.480    96660984.58245
  24160879.240   126966263.28808  24160876.000    98934748.83044
  21865417.200   114903550.32809  21865414.080    89535225.67748
  23124557.560   121520523.83809  23124554.420    94691378.09946
  21113630.060   110952888.79609  21113625.140    86456798.83148
  20789802.280   109251310.16609  20789796.940    85130943.53248
  20335240.440   106862425.74909  20335239.720    83269424.25149
  22859155.320   120125717.50508  22859153.120    93604470.16946
 15 02 27 02 49 30.0000000  0 10G01G04G11G14G16G18G19G22G27G32
  24530510.300   128908700.34305  24530511.260   100448346.22044
  22092025.660   116094403.76609  22092023.920    90463176.26247
  23589732.820   123964892.40308  23589729.440    96596012.30746
  24147042.720   126893552.99808  24147039.700    98878091.49545
  21881002.480   114985451.51409  21880999.400    89599044.78548
  23139480.140   121598942.67508  23139476.820    94752483.71346
  21104398.300   110904375.94209  21104393.520    86418996.62649
  20795322.960   109280321.58009  20795317.600    85153549.83749
  20334142.660   106856656.68209  20334141.900    83264928.87649
  22838479.020   120017062.83608  22838476.740    93519804.22246
 15 02 27 02 50  0.0000000  0 10G01G04G11G14G16G18G19G22G27G32
  24515850.000   128831660.41505  24515851.140   100388315.19044
  22080103.320   116031751.23409  22080101.520    90414356.11347
  23573881.600   123881593.68008  23573878.180    96531104.22546
  24133227.020   126820952.39208  24133224.440    98821519.59445
  21896657.060   115067716.72409  21896653.980    89663147.53048
  23154447.540   121677597.15308  23154444.520    94813772.88046
  21095215.000   110856117.54109  21095210.280    86381392.68949
  20800934.940   109309812.99609  20800929.600    85176530.14948
  20333116.940   106851265.95409  20333116.060    83260728.30649
  22817848.520   119908649.03909  22817846.220    93435325.96846
 15 02 27 02 50 30.0000000  0 10G01G04G11G14G16G18G19G22G27G32
  24501210.960   128754732.32905  24501212.320   100328371.25643
  22068221.140   115969309.90109  22068219.280    90365700.53747
  23558045.520   123798374.64709  23558042.060    96466258.24246
  24119432.000   126748461.25608  24119429.960    98765033.00345
  21912379.960   115150340.85109  21912376.880    89727529.95348
  23169459.020   121756482.50609  23169455.700    94875242.01446
  21086079.920   110808112.06709  21086075.120    86343985.83049
  20806637.420   109339779.93309  20806632.100    85199881.01548
  20332162.860   106846251.72509  20332161.940    83256821.11349
  22797263.760   119800475.69009  22797261.460    93351035.08746
 15 02 27 02 51  0.0000000  0 10G01G04G11G14G16G18G19G22G27G32
  24486593.820   128677918.70005  24486595.220   100268516.48744
  22056379.540   115907081.96309  22056377.560    90317211.24547
  23542225.140   123715238.20409  23542221.720    96401476.62346
  24105658.940   126676085.31908  24105657.260    98708636.19345
  21928171.080   115233323.48609  21928168.020    89792191.73548
  23184514.360   121835599.14808  23184511.460    94936891.29346
  21076993.840   110760363.54009  21076988.880    86306779.18849
  20812430.600   109370223.22909  20812425.280    85223603.06848
  20331281.060   106841617.63209  20331280.120    83253210.12349
  22776725.700   119692547.83708  22776723.480    93266935.48446
 15 02 27 02 51 30.0000000  0 10G01G04G11G14G16G18G19G22G27G32
  24471997.840   128601216.35705  24471999.340   100208748.48744
  22044578.000   115845064.37509  22044575.940    90268885.85247
  23526419.980   123632181.65709  23526416.620    96336757.26246
  24091907.900   126603824.19308  24091906.240    98652328.80045
  21944029.340   115316658.90609  21944026.240    89857128.41148
  23199612.840   121914941.88608  23199609.780    94998716.80546
  21067956.420   110712870.50509  21067951.220    86269771.62449
  20818313.660   109401138.61009  20818308.320    85247692.96949
  20330471.220   106837361.89509  20330470.300    83249893.96049
  22756234.260   119584865.05508  22756232.180    93183026.83946
 15 02 27 02 52  0.0000000  0 10G01G04G11G14G16G18G19G22G27G32
  24457423.220   128524626.47805  24457424.420   100149068.10044
  22032816.780   115783258.64409  22032814.680    90220725.55047
  23510630.360   123549206.65409  23510627.020    96272101.44246
  24078179.620   126531681.92308  24078177.820    98596114.05845
  21959954.380   115400345.13809  21959951.220    89922338.45048
  23214754.100   121994509.01408  23214751.040    95060717.17546
  21058968.020   110665635.36409  21058962.640    86232965.02348
  20824286.500   109432525.59709  20824281.060    85272150.36048
  20329733.800   106833486.72909  20329732.860    83246874.34449
  22735790.140   119477431.08108  22735788.220    93099312.09546
 15 02 27 02 52 30.0000000  0 10G01G04G11G14G16G18G19G22G27G32
  24442869.720   128448147.79205  24442870.880   100089474.36644
  22021095.660   115721663.49909  22021093.520    90172729.33947
  23494856.120   123466312.32909  23494852.780    96207508.49546
  24064474.420   126459660.12208  24064472.320    98539993.15845
  21975945.520   115484378.73909  21975942.280    89987819.16548
  23229937.380   122074297.88308  23229934.140    95122890.29546
  21050028.780   110618658.88409  21050023.320    86196359.96949
  20830348.520   109464381.34609  20830342.980    85296973.01948
  20329068.780   106829992.11709  20329067.820    83244151.26049
  22715393.640   119370247.25209  22715391.900    93015792.25946
 15 02 27 02 53  0.0000000  0 10G01G04G11G14G16G18G19G22G27G32
  24428338.140   128371784.40406  24428339.460   100029970.45844
  22009415.340   115660282.73009  22009413.100    90124900.17947
  23479098.080   123383503.06809  23479094.680    96142981.82646
  24050793.560   126387765.91608  24050791.260    98483971.71144
  21992003.040   115568761.25309  21991999.740    90053571.76348
  23245163.280   122154310.24409  23245160.300    95185237.58146
  21041139.720   110571946.61609  21041134.320    86159960.79749
  20836500.280   109496708.88509  20836494.640    85322163.31148
  20328477.120   106826883.28809  20328476.180    83241728.78749
  22695046.040   119263320.22109  22695044.340    92932472.53246
 15 02 27 02 53 30.0000000  0 10G01G04G11G14G16G18G19G22G27G32
  24413827.880   128295532.77006  24413829.320    99970553.70344
  21997775.160   115599113.08109  21997772.860    90077235.51647
  23463355.680   123300776.06908  23463352.160    96078519.26846
  24037136.860   126315998.82408  24037134.460    98428049.30845
  22008125.620   115653485.73309  22008122.220    90119590.82748
  23260430.600   122234540.52109  23260427.580    95247754.68246
  21032300.440   110525496.19909  21032295.180    86123765.67349
  20842740.780   109529503.07509  20842735.140    85347717.23248
  20327958.420   106824157.88009  20327957.500    83239605.08649
  22674747.140   119156649.08409  22674745.480    92849352.19846
 15 02 27 02 54  0.0000000  0 10G01G04G11G14G16G18G19G22G27G32
  24399339.380   128219395.32605  24399340.660    99911225.81444
  21986175.640   115538156.99009  21986173.300    90029737.25547
  23447629.400   123218134.15908  23447625.880    96014123.00646
  24023505.360   126244364.15408  24023503.020    98372230.07646
  22024313.420   115738552.87509  22024309.880    90185876.89948
  23275739.460   122314988.99908  23275736.340    95310441.80646
  21023511.720   110479311.93309  21023506.600    86087777.94249
  20849070.140   109562764.36309  20849064.560    85373635.11848
  20327513.380   106821819.45409  20327512.520    83237782.92749
  22654497.860   119050238.79308  22654496.260    92766435.11347
 15 02 27 02 54 30.0000000  0 10G01G04G11G14G16G18G19G22G27G32
  24384872.140   128143369.58206  24384873.260    99851985.00344
  21974616.260   115477411.82309  21974613.920    89982403.36247
  23431918.800   123135575.27608  23431915.380    95949791.44046
  24009899.160   126172862.63308  24009897.160    98316514.63645
  22040565.340   115823957.05009  22040561.680    90252425.59948
  23291088.920   122395651.25609  23291085.840    95373295.48746
  21014773.440   110433392.71309  21014768.460    86051996.74049
  20855487.600   109596488.69509  20855482.080    85399913.82248
  20327141.780   106819866.71009  20327140.960    83236261.30349
  22634298.260   118944089.52608  22634296.660    92683721.43747
 15 02 27 02 55  0.0000000  0 10G01G04G11G14G16G18G19G22G27G32
  24370426.480   128067456.98206  24370427.480    99792832.41644
  21963097.320   115416879.33509  21963095.040    89935235.20447
  23416224.300   123053101.13408  23416221.080    95885525.89946
  23996319.060   126101498.21708  23996317.200    98260906.04545
  22056881.120   115909696.78409  22056877.340    90319235.77348
  23306478.940   122476526.48008  23306475.700    95436315.14346
  21006086.260   110387742.15209  21006081.420    86016424.88249
  20861993.320   109630676.92009  20861987.900    85426553.99648
  20326844.120   106818302.25409  20326843.300    83235042.23549
  22614149.120   118838205.28308  22614147.500    92601214.26146
 15 02 27 02 55 30.0000000  0 10G01G04G11G14G16G18G19G22G27G32
  24356002.260   127991657.10506  24356003.480    99733767.55044
  21951618.680   115356559.03409  21951616.520    89888232.38547
  23400546.000   122970712.04108  23400542.880    95821326.62846
  23982765.720   126030273.76708  23982763.600    98205406.45245
  22073260.120   115995768.77609  22073256.280    90386304.84848
  23321909.100   122557611.88808  23321905.620    95499498.58846
  20997450.460   110342361.26309  20997445.740    85981063.14749
  20868586.920   109665326.63009  20868581.540    85453553.77248
  20326620.500   106817126.83909  20326619.640    83234126.31549
  22594050.820   118732588.25809  22594049.240    92518915.30946
 15 02 27 02 56  0.0000000  0 10G01G04G11G14G16G18G19G22G27G32
  24341599.920   127915972.42106  24341601.200    99674792.53544
  21940180.880   115296453.32609  21940178.800    89841396.78047
  23384884.460   122888410.75508  23384881.420    95757195.78546
  23969239.920   125959194.44908  23969237.680    98150019.98245
  22089702.380   116082173.03109  22089698.460    90453632.82848
  23337379.240   122638908.13808  23337375.780    95562846.28446
  20988866.760   110297253.86209  20988862.100    85945914.51849
  20875268.480   109700438.43609  20875263.060    85480913.62148
  20326471.540   106816343.99109  20326470.680    83233516.29749
  22574004.340   118627243.38909  22574002.760    92436828.41547
 15 02 27 02 56 30.0000000  0 10G01G04G11G14G16G18G19G22G27G32
  24327218.660   127840398.82806  24327220.080    99615904.00745
  21928783.180   115236558.25809  21928781.200    89794725.31147
  23369239.020   122806193.92008  23369235.980    95693130.73546
  23955741.540   125888259.24808  23955739.240    98094745.79345
  22106206.560   116168902.86709  22106202.640    90521214.50448
  23352888.360   122720408.91908  23352884.760    95626353.37446
  20980334.740   110252417.65009  20980330.020    85910977.20449
  20882036.960   109736006.76209  20882031.460    85508629.19848
  20326396.720   106815950.86709  20326395.840    83233209.95249
  22554009.420   118522169.36809  22554007.780    92354952.58746
 15 02 27 02 57  0.0000000  0 10G01G04G11G14G16G18G19G22G27G32
  24312858.860   127764938.00106  24312860.480    99557103.41144
  21917425.840   115176875.35909  21917423.960    89748219.16647
  23353610.100   122724063.59908  23353607.120    95629133.11246
  23942271.400   125817472.45908  23942269.040    98039587.27945
  22122772.500   116255957.23009  22122768.600    90589049.06948
  23368436.340   122802113.64008  23368432.720    95690019.40146
  20971854.900   110207855.76109  20971850.160    85876253.64849
  20888892.380   109772031.96409  20888886.840    85536700.78248
  20326396.580   106815950.10509  20326395.700    83233209.35749
  22534066.860   118417370.31809  22534065.120    92273291.02046
 15 02 27 02 57 30.0000000  0 10G01G04G11G14G16G18G19G22G27G32
  24298520.940   127689591.82506  24298522.600    99498392.15544
  21906109.340   115117406.91009  21906107.460    89701880.12347
  23337998.140   122642022.03808  23337995.200    95565204.65846
  23928830.460   125746839.27808  23928828.160    97984548.46545
  22139399.980   116343335.30909  22139396.160    90657135.86547
  23384023.000   122884022.42808  23384019.280    95753844.39746
  20963427.920   110163571.77709  20963423.220    85841746.65449
  20895834.780   109808514.44609  20895829.240    85565128.69048
  20326471.740   106816344.85809  20326470.800    83233516.95049
  22514177.500   118312850.74209  22514175.700    92191847.22047
 15 02 27 02 58  0.0000000  0 10G01G04G11G14G16G18G19G22G27G32
  24284204.520   127614358.47506  24284206.380    99439768.80844
  21894833.240   115058150.97809  21894831.400    89655706.67847
  23322402.820   122560067.82308  23322399.900    95501344.26846
  23915418.900   125676360.83408  23915416.600    97929630.16646
  22156087.960   116431031.59309  22156084.260    90725470.62647
  23399647.720   122966131.41408  23399644.220    95817825.41146
  20955053.720   110119565.35009  20955049.040    85807455.92849
  20902863.520   109845450.56409  20902858.000    85593910.07448
  20326622.040   106817134.35409  20326621.000    83234132.14049
  22494341.480   118208611.33108  22494339.520    92110621.71847
 15 02 27 02 58 30.0000000  0 10G01G04G11G14G16G18G19G22G27G32
  24269909.440   127539237.45106  24269911.120    99381232.94344
  21883597.440   114999106.77409  21883595.680    89609698.21547
  23306824.120   122478201.09408  23306821.180    95437552.04746
  23902037.300   125606039.87308  23902034.900    97874834.64545
  22172836.180   116519044.54009  22172832.600    90794052.12448
  23415310.040   123048437.72908  23415306.460    95881960.19046
  20946732.580   110075837.94009  20946728.000    85773382.62549
  20909978.100   109882837.96309  20909972.680    85623043.11048
  20326847.580   106818319.18309  20326846.460    83235055.37549
  22474559.100   118104654.14909  22474557.080    92029616.15147
 15 02 27 02 59  0.0000000  0 10G01G04G11G14G16G18G19G22G27G32
  24255635.760   127464229.00906  24255637.520    99322784.85444
  21872402.060   114940274.98809  21872400.400    89563855.28847
  23291262.260   122396423.05008  23291259.300    95373828.91946
  23888686.220   125535879.55808  23888683.900    97820164.25345
  22189643.980   116607370.76609  22189640.520    90862877.75348
  23431009.700   123130939.69908  23431005.880    95946247.46245
  20938464.840   110032391.35609  20938460.400    85739528.15649
  20917178.320   109920675.65609  20917172.980    85652527.03148
  20327148.600   106819900.79109  20327147.440    83236287.79549
  22454831.000   118000982.10209  22454828.940    91948832.76047
 15 02 27 02 59 30.0000000  0 10G01G04G11G14G16G18G19G22G27G32
  24241383.780   127389334.53506  24241385.280    99264425.54044
  21861247.360   114881656.95709  21861245.740    89518178.91047
  23275717.520   122314735.12308  23275714.560    95310176.01246
  23875366.480   125465883.81708  23875364.320    97765622.11846
  22206511.080   116696008.29009  22206507.680    90931945.93747
  23446746.380   123213636.64509  23446742.700    96010686.61046
  20930251.180   109989228.55209  20930246.780    85705894.80749
  20924464.180   109958963.37609  20924458.900    85682361.61848
  20327525.560   106821881.53509  20327524.420    83237831.22549
  22435157.880   117897599.06409  22435155.820    91868274.58246
 15 02 27 03 00  0.0000000  0 10G01G04G11G14G16G18G19G22G27G32
  24227153.020   127314551.23706  24227154.260    99206152.87245
  21850132.900   114823249.93609  21850131.220    89472666.96247
  23260189.540   122233135.19008  23260186.640    95246591.67346
  23862078.120   125396052.93308  23862076.040    97711208.46645
  22223436.620   116784952.73709  22223433.260    91001253.29748
  23462519.320   123296523.78308  23462515.880    96075273.97846
  20922091.420   109946348.45909  20922086.980    85672481.74549
  20931834.840   109997696.64809  20931829.580    85712543.38448
  20327978.140   106824259.85909  20327977.060    83239684.46549
  22415539.720   117794504.91109  22415537.640    91787941.49047
 15 02 27 03 00 30.0000000  0 10G01G04G11G14G16G18G19G22G27G32
  24212944.120   127239882.88206  24212945.280    99147969.75145
  21839059.420   114765057.83809  21839057.560    89427322.46647
  23244679.160   122151627.69008  23244676.280    95183079.35246
  23848822.320   125326393.86208  23848820.520    97656928.68346
  22240420.640   116874204.15509  22240417.240    91070799.83947
  23478328.780   123379602.77808  23478325.240    96140010.85146
  20913986.540   109903756.48309  20913981.980    85639293.19249
  20939290.680   110036877.31709  20939285.400    85743073.76848
  20328507.300   106827040.51609  20328506.200    83241851.20049
  22395977.700   117691705.91809  22395975.660    91707838.41347
 15 02 27 03 01  0.0000000  0 10G01G04G11G14G16G18G19G22G27G32
  24198756.900   127165328.54506  24198757.920    99089875.48145
  21828026.680   114707079.54209  21828024.600    89382144.57347
  23229186.240   122070212.09608  23229183.440    95119638.63346
  23835599.500   125256908.59808  23835598.120    97602784.32446
  22257462.480   116963759.40809  22257459.020    91140583.14147
  23494174.060   123462870.56508  23494170.780    96204894.81646
  20905936.600   109861453.09309  20905931.880    85606329.49749
  20946831.300   110076503.37509  20946826.020    85773951.21949
  20329113.040   106830223.63809  20329111.900    83244331.54949
  22376472.120   117589203.64209  22376470.120    91627966.52647
 15 02 27 03 01 30.0000000  0 10G01G04G11G14G16G18G19G22G27G32
  24184590.980   127090886.17007  24184591.920    99031868.47744
  21817034.220   114649313.31509  21817032.040    89337131.94347
  23213710.560   121988887.12708  23213707.660    95056268.53446
  23822409.900   125187598.20608  23822408.860    97548776.24946
  22274561.200   117053613.60609  22274557.760    91210599.39247
  23510054.600   123546322.85908  23510051.060    96269922.60646
  20897941.520   109819438.12309  20897936.680    85573590.56149
  20954455.960   110116570.91609  20954450.620    85805172.68048
  20329795.180   106833808.34009  20329794.020    83247124.81549
  22357023.120   117486998.62809  22357021.100    91548326.29847
 15 02 27 03 02  0.0000000  0 10G01G04G11G14G16G18G19G22G27G32
  24170446.400   127016556.07907  24170447.360    98973948.95645
  21806082.100   114591759.35509  21806079.900    89292284.71148
  23198252.260   121907653.40908  23198249.300    94992969.56245
  23809254.260   125118465.76608  23809253.500    97494906.82546
  22291716.320   117143764.41509  22291712.920    91280846.76548
  23525969.860   123629958.26708  23525966.440    96335093.02146
  20890001.640   109777713.48809  20889996.760    85541077.85549
  20962164.280   110157078.41909  20962158.940    85836736.96748
  20330553.960   106837795.90509  20330552.800    83250232.00949
  22337631.240   117385093.76609  22337629.220    91468919.94147
 15 02 27 03 02 30.0000000  0 10G01G04G11G14G16G18G19G22G27G32
  24156322.940   126942336.94007  24156324.100    98916115.89645
  21795170.080   114534416.26309  21795167.860    89247601.78748
  23182811.180   121826510.39108  23182808.180    94929741.25046
  23796132.900   125049512.73508  23796132.100    97441177.19446
  22308926.980   117234207.17809  22308923.640    91351321.63048
  23541919.340   123713773.22408  23541915.880    96400403.39446
  20882117.040   109736279.52509  20882112.160    85508791.65849
  20969955.740   110198022.89609  20969950.380    85868641.76148
  20331389.340   106842186.05909  20331388.200    83253652.90249
  22318296.680   117283490.11209  22318294.700    91389748.28747
 15 02 27 03 03  0.0000000  0 10G01G04G11G14G16G18G19G22G27G32
  24142221.220   126868232.07007  24142222.520    98858371.85545
  21784298.860   114477287.65309  21784296.640    89203085.99347
  23167388.060   121745461.79808  23167385.040    94866586.50645
  23783047.020   124980745.75908  23783046.000    97387592.54245
  22326193.400   117324943.02509  22326190.140    91422024.87147
  23557903.240   123797769.23308  23557900.060    96465854.81145
  20874288.580   109695141.13709  20874283.800    85476735.77349
  20977830.620   110239406.19009  20977825.320    85900888.48048
  20332302.160   106846983.22109  20332301.100    83257390.93749
  22299020.620   117182193.74609  22299018.660    91310816.08347
 15 02 27 03 03 30.0000000  0 10G01G04G11G14G16G18G19G22G27G32
  24128140.900   126794239.48907  24128142.140    98800715.33545
  21773468.040   114420371.49909  21773465.880    89158735.75547
  23151982.680   121664506.20008  23151979.660    94803504.23745
  23769996.740   124912165.97708  23769995.380    97334153.74745
  22343514.560   117415966.67409  22343511.380    91492952.38447
  23573920.840   123881942.16508  23573917.660    96531444.09945
  20866516.400   109654298.25209  20866511.620    85444910.14949
  20985788.300   110281224.40909  20985783.060    85933474.10948
  20333292.240   106852186.42309  20333291.260    83261445.36749
  22279803.100   117081205.16209  22279801.140    91232123.70847
 15 02 27 03 04  0.0000000  0 10G01G04G11G14G16G18G19G22G27G32
  24114081.960   126720359.17107  24114083.160    98743146.28745
  21762677.660   114363667.96909  21762675.580    89114551.20347
  23136595.100   121583644.04008  23136592.140    94740494.79045
  23756982.620   124843776.16008  23756980.860    97280862.99245
  22360890.080   117507275.85509  22360886.940    91564102.38147
  23589971.620   123966289.83608  23589968.560    96597169.54446
  20858800.700   109613752.38509  20858795.940    85413315.97949
  20993828.540   110323476.06609  20993823.280    85966397.48248
  20334359.800   106857796.63309  20334358.880    83265816.95349
  22260644.580   116980526.74909  22260642.660    91153673.03047
 15 02 27 03 04 30.0000000  0 10G01G04G11G14G16G18G19G22G27G32
  24100044.660   126646592.73807  24100045.800    98685665.96244
  21751928.000   114307178.63109  21751926.000    89070533.54147
  23121225.860   121502877.70708  23121222.880    94677560.00446
  23744005.520   124775580.79008  23744003.180    97227723.74345
  22378319.720   117598869.28709  22378316.660    91635473.86847
  23606055.560   124050811.97808  23606052.340    96663030.95845
  20851142.220   109573506.79809  20851137.420    85381955.77349
  21001951.260   110366160.92709  21001945.960    85999658.41348
  20335505.380   106863816.56009  20335504.460    83270507.79349
  22241545.900   116880162.65809  22241543.960    91075467.26347
 15 02 27 03 05  0.0000000  0 10G01G04G11G14G16G18G19G22G27G32
  24086028.140   126572935.60707  24086029.260    98628270.83045
  21741218.240   114250898.87809  21741216.260    89026679.20947
  23105874.140   121422203.44308  23105871.140    94614696.95746
  23731065.280   124707578.41608  23731062.460    97174734.85945
  22395802.040   117690739.53309  22395799.020    91707061.06647
  23622171.560   124135502.12508  23622168.380    96729023.27246
  20843540.360   109533558.67309  20843535.560    85350827.37049
  21010155.260   110409272.87309  21010149.960    86033252.14148
  20336728.280   106870242.63309  20336727.300    83275515.11449
  22222506.660   116780110.95809  22222504.660    90997504.93447
 15 02 27 03 05 30.0000000  0 10G01G04G11G14G16G18G19G22G27G32
  24072033.720   126499394.57308  24072034.820    98570966.13845
  21730549.720   114194835.57109  21730547.680    88982993.51947
  23090541.280   121341628.16608  23090538.220    94551911.04946
  23718163.500   124639778.80708  23718160.400    97121904.02045
  22413337.760   117782890.45009  22413334.820    91778866.96547
  23638320.340   124220364.80408  23638317.360    96795150.00445
  20835996.660   109493916.18009  20835991.860    85319937.11449
  21018441.420   110452816.72509  21018436.140    86067182.41948
  20338029.920   106877082.59509  20338028.900    83280844.94449
  22203528.580   116680380.79809  22203526.520    90919793.14547
 15 02 27 03 06  0.0000000  0 10G01G04G11G14G16G18G19G22G27G32
  24058060.200   126425963.30807  24058061.180    98513746.99145
  21719921.260   114138982.60809  21719919.160    88939471.74647
  23075226.280   121261146.68508  23075223.080    94489198.22246
  23705299.640   124572178.49908  23705296.300    97069228.46545
  22430925.120   117875312.79209  22430922.260    91850884.37148
  23654500.360   124305391.63808  23654497.320    96861404.68645
  20828510.220   109454574.86909  20828505.520    85289281.55649
  21026808.220   110496784.61309  21026803.000    86101443.11048
  20339409.280   106884331.19909  20339408.280    83286493.20549
  22184611.000   116580968.45409  22184608.940    90842328.99647
 15 02 27 03 06 30.0000000  0 10G01G04G11G14G16G18G19G22G27G32
  24044108.640   126352647.43407  24044109.600    98456617.76145
  21709333.860   114083345.43809  21709331.640    88896118.11147
  23059930.240   121180764.95108  23059926.880    94426563.11446
  23692475.220   124504786.10608  23692472.040    97016714.92345
  22448564.680   117968009.37909  22448561.880    91923115.45947
  23670712.260   124390586.53608  23670709.440    96927790.27846
  20821082.500   109415542.08509  20821077.920    85258866.40349
  21035256.340   110541179.95209  21035251.140    86136036.88448
  20340867.640   106891994.93809  20340866.680    83292464.94649
  22165755.420   116481881.97809  22165753.360    90765118.77747
 15 02 27 03 07  0.0000000  0 10G01G04G11G14G16G18G19G22G27G32
  24030178.180   126279442.60607  24030179.080    98399575.05745
  21698786.780   114027920.14309  21698784.500    88852929.57547
  23044652.400   121100479.32308  23044648.980    94364002.90345
  23679690.020   124437600.39308  23679687.200    96964362.43645
  22466255.160   118060973.55309  22466252.340    91995555.05947
  23686955.020   124475943.10008  23686952.160    96994301.89445
  20813712.940   109376814.94609  20813708.440    85228689.41749
  21043784.720   110585997.07509  21043779.540    86170959.31848
  20342404.380   106900070.51909  20342403.440    83298757.59849
  22146961.560   116383119.60809  22146959.460    90688161.11747
 15 02 27 03 07 30.0000000  0 10G01G04G11G14G16G18G19G22G27G32
  24016269.140   126206350.31507  24016270.160    98342620.05646
  21688280.260   113972707.81309  21688278.020    88809906.99347
  23029393.200   121020291.98308  23029389.780    94301519.27346
  23666945.120   124370626.06208  23666942.460    96912174.64745
  22483996.260   118154203.73109  22483993.440    92068201.94947
  23703228.520   124561461.01408  23703225.420    97060939.20745
  20806402.240   109338396.94209  20806397.800    85198753.32149
  21052393.340   110631235.62309  21052388.120    86206210.14548
  20344019.960   106908560.40209  20344019.040    83305373.08349
  22128230.140   116284685.27909  22128227.940    90611459.05747
 15 02 27 03 08  0.0000000  0 10G01G04G11G14G16G18G19G22G27G32
  24002381.660   126133371.43307  24002382.840    98285753.41946
  21677814.560   113917709.86809  21677812.320    88767051.46847
  23014153.000   120940204.48008  23014149.620    94239113.43946
  23654240.980   124303866.63008  23654238.660    96860154.33146
  22501787.620   118247697.95109  22501784.820    92141054.57147
  23719532.340   124647138.88908  23719529.460    97127701.15745
  20799150.920   109300290.54109  20799146.380    85169060.02349
  21061082.040   110676894.77709  21061076.720    86241788.70048
  20345714.740   106917466.38709  20345713.860    83312312.79149
  22109561.800   116186582.36209  22109559.580    90535015.23347
 15 02 27 03 08 30.0000000  0 10G01G04G11G14G16G18G19G22G27G32
  23988515.000   126060501.90907  23988516.140    98228972.00246
  21667388.800   113862921.98209  21667386.560    88724359.60747
  22998931.060   120860213.10008  22998927.820    94176782.51046
  23641577.760   124237321.10408  23641575.720    96808300.70345
  22519627.980   118341449.60709  22519625.140    92214107.79847
  23735865.660   124732970.65008  23735862.600    97194583.05945
  20791958.460   109262493.11009  20791953.720    85139607.47249
  21069849.760   110722968.79209  21069844.260    86277690.52848
  20347488.080   106926785.44109  20347487.300    83319574.37549
  22090956.220   116088809.24209  22090953.960    90458828.39147
 15 02 27 03 09  0.0000000  0 10G01G04G11G14G16G18G19G22G27G32
  23974670.040   125987746.32607  23974671.260    98172279.38146
  21657003.900   113808349.00609  21657001.620    88681835.22847
  22983728.460   120780323.41308  22983725.340    94114530.82746
  23628956.720   124170996.84708  23628954.760    96756619.45846
  22537517.580   118435460.17109  22537514.760    92287362.77047
  23752228.620   124818959.02908  23752225.700    97261586.96446
  20784826.060   109225011.34909  20784821.120    85110400.90849
  21078696.860   110769460.14809  21078691.220    86313917.55748
  20349341.060   106936522.99509  20349340.320    83327162.07749
  22072414.660   115991372.91309  22072412.460    90382904.00547
 15 02 27 03 09 30.0000000  0 10G01G04G11G14G16G18G19G22G27G32
  23960846.140   125915101.63308  23960847.440    98115673.14145
  21646659.280   113753987.85609  21646657.000    88639475.90747
  22968544.720   120700532.64908  22968541.760    94052356.22246
  23616377.840   124104894.00008  23616376.380    96705110.76046
  22555455.360   118529723.85409  22555452.540    92360814.97747
  23768620.500   124905098.89508  23768617.500    97328708.92145
  20777753.320   109187843.56009  20777748.300    85081438.99749
  21087622.420   110816364.14909  21087616.720    86350466.13048
  20351273.280   106946676.97409  20351272.540    83335074.26149
  22053937.040   115894272.84009  22053934.960    90307241.63347
 15 02 27 03 10  0.0000000  0 10G01G04G11G14G16G18G19G22G27G32
  23947043.620   125842568.83507  23947044.820    98059154.12346
  21636355.120   113699839.52909  21636352.920    88597282.41347
  22953380.200   120620842.80008  22953377.320    93990260.25046
  23603841.880   124039016.55508  23603840.640    96653777.71146
  22573441.000   118624238.89109  22573438.080    92434463.04547
  23785041.120   124991389.50708  23785038.240    97395948.33545
  20770740.800   109150992.56909  20770735.760    85052723.94549
  21096626.360   110863680.23009  21096620.640    86387335.80748
  20353285.140   106957249.32809  20353284.380    83343312.45249
  22035524.060   115797512.52109  22035522.160    90231843.99847
 15 02 27 03 10 30.0000000  0 10G01G04G11G14G16G18G19G22G27G32
  23933262.160   125770146.82907  23933263.280    98002721.40745
  21626091.340   113645903.28209  21626089.220    88555254.17547
  22938234.780   120541253.44408  22938231.960    93928242.59446
  23591349.140   123973366.35608  23591347.860    96602621.68346
  22591473.660   118719001.26109  22591470.700    92508303.84947
  23801489.860   125077827.56808  23801486.820    97463302.65145
  20763788.600   109114458.87609  20763783.560    85024256.13749
  21105708.060   110911405.24309  21105702.360    86424524.11848
  20355376.600   106968239.85109  20355375.800    83351876.48449
  22017176.000   115701093.23509  22017174.240    90156712.11447
 15 02 27 03 11  0.0000000  0 10G01G04G11G14G16G18G19G22G27G32
  23919502.380   125697839.01007  23919503.540    97946377.67445
  21615868.600   113592182.31609  21615866.460    88513393.69247
  22923109.260   120461768.49108  22923106.400    93866306.30546
  23578900.760   123907949.67708  23578899.720    96551647.68846
  22609553.560   118814011.76909  22609550.580    92582337.99747
  23817966.940   125164414.75008  23817963.660    97530773.19745
  20756897.740   109078247.69309  20756892.780    84996039.63149
  21114867.820   110959540.66409  21114862.200    86462032.24448
  20357548.480   106979652.78709  20357547.580    83360769.67349
  21998894.000   115605020.87109  21998892.380    90081850.54447
 15 02 27 03 11 30.0000000  0 10G01G04G11G14G16G18G19G22G27G32
  23905763.640   125625641.57508  23905764.780    97890119.97045
  21605686.120   113538672.94009  21605684.000    88471698.08848
  22908003.100   120382385.02408  22908000.220    93804449.08046
  23566496.780   123842765.81008  23566495.560    96500855.07746
  22627679.440   118909263.76709  22627676.420    92656560.31047
  23834471.320   125251145.15108  23834468.160    97598355.30345
  20750067.840   109042356.87909  20750062.900    84968072.76849
  21124104.660   111008081.22709  21124099.180    86499856.04748
  20359800.220   106991485.32909  20359799.260    83369989.83449
  21980677.820   115509293.98909  21980676.220    90007258.18747
 15 02 27 03 12  0.0000000  0 10G01G04G11G14G16G18G19G22G27G32
  23892046.180   125553555.78608  23892047.220    97833949.24046
  21595544.160   113485376.55209  21595542.100    88430168.45348
  22892916.600   120303104.71408  22892913.720    93742672.23346
  23554137.900   123777818.90008  23554136.240    96450247.09745
  22645850.920   119004755.20509  22645847.780    92730969.21347
  23851002.720   125338018.12108  23850999.460    97666048.49845
  20743299.520   109006789.26909  20743294.560    84940357.74649
  21133418.480   111057025.98409  21133413.060    86537994.82148
  20362132.160   107003739.57009  20362131.160    83379538.58949
  21962528.080   115413916.34609  21962526.480    89932937.96847
 15 02 27 03 12 30.0000000  0 10G01G04G11G14G16G18G19G22G27G32
  23878350.100   125481582.21608  23878351.060    97777865.95946
  21585442.820   113432293.90409  21585440.820    88388805.37147
  22877850.080   120223929.34608  22877847.160    93680977.14946
  23541824.660   123713112.48208  23541822.800    96399826.53245
  22664067.680   119100484.47309  22664064.460    92805563.43147
  23867560.880   125425032.37508  23867557.640    97733851.78845
  20736593.160   108971546.97809  20736588.160    84912896.21249
  21142809.060   111106373.87209  21142803.660    86576447.71348
  20364544.540   107016416.89909  20364543.580    83389417.02349
  21944445.340   115318890.85609  21944443.720    89858892.14847
 15 02 27 03 13  0.0000000  0 10G01G04G11G14G16G18G19G22G27G32
  23864675.160   125409719.90108  23864676.200    97721869.37646
  21575381.940   113379424.02209  21575380.020    88347608.07347
  22862803.360   120144858.19608  22862800.320    93619363.29146
  23529557.500   123648648.53908  23529555.260    96349594.87645
  22682328.940   119196447.67209  22682325.680    92880339.93947
  23884145.400   125512184.90208  23884142.460    97801762.82645
  20729948.880   108936630.80909  20729943.860    84885688.80649
  21152275.840   111156122.11309  21152270.460    86615212.57848
  20367037.400   107029517.25909  20367036.440    83399625.08549
  21926429.880   115224218.93809  21926428.280    89785121.83247
 15 02 27 03 13 30.0000000  0 10G01G04G11G14G16G18G19G22G27G32
  23851021.520   125337969.64108  23851022.680    97665960.10946
  21565361.740   113326767.72109  21565359.800    88306577.20547
  22847776.740   120065892.62508  22847773.600    93557831.70246
  23517337.200   123584430.97308  23517334.920    96299555.22646
  22700634.240   119292642.43409  22700630.980    92955296.89247
  23900756.080   125599474.54708  23900752.940    97869780.74745
  20723367.160   108902043.39809  20723362.120    84858737.58749
  21161818.620   111206269.55109  21161813.220    86654288.51148
  20369611.080   107043042.31209  20369610.100    83410164.08349
  21908482.300   115129903.81009  21908480.680    89711629.56047
 15 02 27 03 14  0.0000000  0 10G01G04G11G14G16G18G19G22G27G32
  23837389.180   125266331.42608  23837390.540    97610138.13646
  21555382.260   113274325.04209  21555380.260    88265712.79848
  22832770.340   119987033.61108  22832767.160    93496383.13246
  23505164.320   123520462.79808  23505162.320    96249709.90745
  22718983.080   119389066.08609  22718979.880    93030432.17947
  23917392.520   125686899.52608  23917389.400    97937904.06145
  20716848.320   108867786.43209  20716843.260    84832043.84249
  21171437.060   111256814.53109  21171431.640    86693674.20248
  20372265.780   107056992.85709  20372264.760    83421034.62649
  21890603.080   115035947.93609  21890601.480    89638417.20248
 15 02 27 03 14 30.0000000  0 10G01G04G11G14G16G18G19G22G27G32
  23823778.060   125194804.61508  23823779.400    97554402.99546
  21545443.360   113222095.74609  21545441.280    88225014.66647
  22817784.260   119908281.13208  22817780.980    93435017.58446
  23493039.220   123456746.05008  23493037.280    96200060.50346
  22737374.820   119485715.26909  22737371.740    93105743.22947
  23934054.060   125774457.17208  23934051.060    98006130.78145
  20710392.600   108833861.06009  20710387.460    84805608.49649
  21181130.740   111307754.56209  21181125.240    86733367.73148
  20375001.520   107071369.08109  20375000.480    83432236.87049
  21872792.520   114942352.95609  21872790.920    89565486.06947
 15 02 27 03 15  0.0000000  0 10G01G04G11G14G16G18G19G22G27G32
  23810187.780   125123387.21408  23810189.060    97498753.10946
  21535544.620   113170077.48009  21535542.500    88184480.96847
  22802818.200   119829634.04508  22802814.960    93373734.17446
  23480962.160   123393281.70608  23480960.480    96150607.79546
  22755808.600   119582585.43709  22755805.520    93181226.46847
  23950740.180   125862143.72408  23950737.200    98074457.97146
  20703999.860   108800266.92409  20703994.700    84779431.25249
  21190898.820   111359085.58309  21190893.220    86773365.92948
  20377818.020   107086169.83309  20377817.000    83443769.92049
  21855050.740   114849119.30109  21855049.140    89492836.49547
 15 02 27 03 15 30.0000000  0 10G01G04G11G14G16G18G19G22G27G32
  23796619.020   125052083.31708  23796620.160    97443191.65246
  21525686.880   113118274.71409  21525684.780    88144115.18947
  22787873.200   119751097.20908  22787869.880    93312536.64646
  23468934.520   123330076.89608  23468932.900    96101357.31245
  22774284.560   119679677.40109  22774281.560    93256882.53047
  23967451.280   125949961.82008  23967448.620    98142887.60745
  20697671.160   108767009.41009  20697666.000    84753516.29349
  21200741.700   111410809.68309  21200736.000    86813670.42248
  20380716.220   107101399.96409  20380715.240    83455637.54649
  21837378.940   114756253.36509  21837377.360    89420473.44347
 15 02 27 03 16  0.0000000  0 10G01G04G11G14G16G18G19G22G27G32
  23783070.600   124980886.08408  23783071.800    97387713.31746
  21515868.800   113066680.57409  21515866.740    88103911.98147
  22772947.960   119672664.48008  22772944.580    93251420.25746
  23456955.720   123267127.70908  23456954.180    96052305.99746
  22792800.940   119776981.60909  22792798.000    93332703.96847
  23984185.820   126037901.94508  23984182.700    98211412.41145
  20691405.540   108734083.68109  20691400.480    84727859.88749
  21210657.740   111462918.37009  21210651.980    86854274.58648
  20383694.960   107117053.45909  20383694.020    83467835.06849
  21819776.260   114663750.72109  21819774.680    89348393.49147
 15 02 27 03 16 30.0000000  0 10G01G04G11G14G16G18G19G22G27G32
  23769544.040   124909803.53408  23769545.220    97332324.34746
  21506091.960   113015303.38509  21506089.980    88063877.83747
  22758044.160   119594344.53208  22758040.660    93190391.73446
  23445027.780   123204445.05708  23445026.120    96003462.40146
  22811358.640   119874502.87509  22811355.740    93408694.54947
  24000944.600   126125970.51708  24000942.160    98280037.18845
  20685204.920   108701499.34509  20685199.960    84702469.49149
  21220648.140   111515417.93509  21220642.280    86895183.33648
  20386755.960   107133139.15909  20386755.020    83480369.37249
  21802244.680   114571621.79309  21802243.100    89276604.72647
 15 02 27 03 17  0.0000000  0 10G01G04G11G14G16G18G19G22G27G32
  23756038.160   124838829.75308  23756039.300    97277020.12946
  21496355.300   112964137.05109  21496353.340    88024007.98747
  22743160.780   119516131.99808  22743157.200    93129446.92246
  23433150.060   123142025.86408  23433147.820    95954824.05545
  22829956.140   119972232.98009  22829953.160    93484847.87347
  24017726.240   126214159.52907  24017723.980    98348755.91145
  20679068.440   108669252.05109  20679063.520    84677341.73249
  21230711.260   111568299.83509  21230705.340    86936390.00948
  20389898.280   107149651.82609  20389897.260    83493236.37649
  21784783.560   114479862.81809  21784781.940    89205104.25247
 15 02 27 03 17 30.0000000  0 10G01G04G11G14G16G18G19G22G27G32
  23742553.760   124767969.04708  23742554.860    97221804.02546
  21486659.700   112913186.07209  21486657.680    87984305.95048
  22728298.820   119438032.25708  22728295.300    93068589.98646
  23421323.740   123079877.46608  23421321.540    95906396.74346
  22848593.720   120070173.65109  22848590.620    93561165.26747
  24034531.320   126302471.70608  24034529.340    98417570.53745
  20672997.260   108637347.70809  20672992.360    84652481.21149
  21240847.700   111621567.30509  21240841.800    86977897.13548
  20393122.860   107166596.58509  20393121.680    83506440.07949
  21767394.120   114388480.48109  21767392.400    89133897.25147
 15 02 27 03 18  0.0000000  0 10G01G04G11G14G16G18G19G22G27G32
  23729090.020   124697216.64408  23729091.060    97166672.32646
  21477004.260   112862445.75109  21477002.100    87944768.03747
  22713457.580   119360041.48208  22713454.040    93007817.96146
  23409548.460   123017998.20108  23409546.440    95858179.15946
  22867269.840   120168316.89309  22867266.640    93637640.51447
  24051358.760   126390900.45008  24051356.520    98486476.06244
  20666990.840   108605783.75009  20666985.940    84627885.92349
  21251056.180   111675213.63909  21251050.400    87019699.46948
  20396428.880   107183969.39409  20396427.600    83519977.32649
  21750075.920   114297472.35509  21750074.040    89062981.83447
 15 02 27 03 18 30.0000000  0 10G01G04G11G14G16G18G19G22G27G32
  23715647.620   124626576.37108  23715648.620    97111627.98647
  21467389.660   112811919.99409  21467387.360    87905397.32748
  22698638.040   119282164.10008  22698634.520    92947134.29146
  23397825.440   122956394.61908  23397823.820    95810176.39846
  22885984.620   120266663.37909  22885981.280    93714274.12747
  24068208.900   126479447.49108  24068206.500    98555473.74145
  20661050.200   108574565.44009  20661045.240    84603559.97149
  21261337.040   111729240.63009  21261331.440    87061798.41948
  20399817.160   107201774.82809  20399815.840    83533851.67849
  21732830.060   114206844.53609  21732828.100    88992362.77547
 15 02 27 03 19  0.0000000  0 10G01G04G11G14G16G18G19G22G27G32
  23702225.980   124556044.96408  23702226.960    97056668.46746
  21457815.180   112761605.60109  21457812.860    87866191.31448
  22683839.580   119204397.46608  22683836.240    92886536.90646
  23386154.840   122895066.19208  23386153.400    95762388.03146
  22904736.980   120365207.62209  22904733.580    93791061.82947
  24085080.680   126568107.98208  24085078.080    98624559.81845
  20655175.020   108543691.07609  20655169.980    84579502.01349
  21271689.160   111783642.67509  21271683.800    87104189.61548
  20403287.200   107220010.30509  20403285.960    83548061.12949
  21715656.400   114116596.07809  21715654.340    88922039.30047
 15 02 27 03 19 30.0000000  0 10G01G04G11G14G16G18G19G22G27G32
  23688825.020   124485622.50208  23688826.020    97001793.85147
  21448280.860   112711502.91309  21448278.620    87827150.28148
  22669062.420   119126742.71608  22669059.080    92826026.72846
  23374537.420   122834016.27508  23374535.920    95714816.66646
  22923526.440   120463946.83209  22923522.980    93868001.45147
  24101973.520   126656880.04807  24101971.040    98693732.82845
  20649365.600   108513162.31009  20649360.520    84555713.37349
  21282112.380   111838418.24609  21282107.300    87146871.89048
  20406839.180   107238676.64109  20406838.100    83562606.32349
  21698555.400   114026729.35709  21698553.200    88852013.30147
 15 02 27 03 20  0.0000000  0 10G01G04G11G14G16G18G19G22G27G32
  23675445.160   124415310.93408  23675446.200    96947005.64146
  21438787.140   112661613.71609  21438785.000    87788275.59447
  22654306.980   119049202.26908  22654303.620    92765605.61046
  23362973.920   122773249.58008  23362972.520    95667466.01846
  22942352.660   120562879.25209  22942349.160    93945091.62747
  24118887.900   126745763.68108  24118884.920    98762992.82645
  20643622.600   108482982.74909  20643617.560    84532196.83849
  21292606.720   111893567.18209  21292601.880    87189845.08248
  20410473.660   107257776.41709  20410472.740    83577489.24949
  21681527.780   113937248.55509  21681525.460    88782288.00547
 15 02 27 03 20 30.0000000  0 10G01G04G11G14G16G18G19G22G27G32
  23662086.580   124345111.18308  23662087.580    96892304.55146
  21429334.300   112611939.29809  21429332.260    87749568.26548
  22639573.580   118971778.06608  22639570.320    92705275.08346
  23351465.080   122712769.89508  23351463.600    95620338.99646
  22961215.420   120662003.82209  22961211.900    94022331.53246
  24135823.160   126834758.10608  24135819.960    98832339.08245
  20637946.560   108453154.98209  20637941.560    84508954.41549
  21303172.080   111949088.80709  21303167.280    87233108.68248
  20414191.020   107277311.35409  20414190.180    83592711.25849
  21664574.200   113848156.90109  21664571.840    88712865.96047
 15 02 27 03 21  0.0000000  0 10G01G04G11G14G16G18G19G22G27G32
  23648748.600   124275019.65108  23648749.480    96837687.80746
  21419921.700   112562476.04309  21419919.700    87711025.49048
  22624861.760   118894467.10308  22624858.460    92645032.77846
  23340010.660   122652576.39808  23340009.020    95573435.00446
  22980113.460   120761313.71409  22980109.960    94099715.85046
  24152778.700   126923857.50608  24152775.480    98901767.18445
  20632337.160   108423677.17509  20632332.140    84485984.69649
  21313807.360   112004977.30709  21313802.520    87276658.17148
  20417990.660   107297278.45009  20417989.860    83608270.02149
  21647694.360   113759452.92409  21647692.000    88643745.98847
 15 02 27 03 21 30.0000000  0 10G01G04G11G14G16G18G19G22G27G32
  23635432.160   124205041.33108  23635433.000    96783159.27546
  21410550.300   112513229.07209  21410548.300    87672651.25347
  22610172.580   118817275.08908  22610169.180    92584883.17946
  23328612.180   122592676.96108  23328610.340    95526760.13046
  22999047.300   120860811.64909  22999043.800    94177246.70146
  24169754.500   127013065.49308  24169751.060    98971279.86245
  20626795.620   108394555.99209  20626790.540    84463292.86749
  21324513.140   112061235.98009  21324508.200    87320496.10248
  20421873.640   107317683.35309  20421872.840    83624169.94449
  21630889.680   113671144.01909  21630887.360    88574933.87047
 15 02 27 03 22  0.0000000  0 10G01G04G11G14G16G18G19G22G27G32
  23622136.060   124135169.98308  23622136.900    96728714.08546
  21401218.900   112464192.17909  21401216.860    87634440.69548
  22595505.080   118740196.96908  22595501.680    92524822.31546
  23317268.920   122533067.99008  23317266.940    95480311.59346
  23018015.100   120960488.15208  23018011.580    94254916.69147
  24186749.600   127102373.52808  24186745.940    99040870.56146
  20621321.080   108365786.79009  20621315.860    84440875.30349
  21335287.740   112117856.34709  21335282.640    87364615.86248
  20425838.820   107338520.43309  20425838.000    83640406.62449
  21614159.340   113583226.03809  21614157.100    88506426.37148
 15 02 27 03 22 30.0000000  0 10G01G04G11G14G16G18G19G22G27G32
  23608861.000   124065409.29808  23608861.900    96674355.13647
  21391928.200   112415369.17609  21391926.080    87596396.80348
  22580860.020   118663236.88008  22580856.600    92464853.42846
  23305982.260   122473756.31208  23305980.060    95434094.71846
  23037017.080   121060344.26809  23037013.640    94332726.63346
  24203764.020   127191783.94708  24203760.440    99110540.95445
  20615914.500   108337374.94409  20615909.240    84418736.20449
  21346131.560   112174840.54309  21346126.360    87409019.13048
  20429887.060   107359794.11209  20429886.220    83656983.51049
  21597504.560   113495704.99109  21597502.420    88438228.17747
 15 02 27 03 23  0.0000000  0 10G01G04G11G14G16G18G19G22G27G32
  23595606.940   123995758.82908  23595607.860    96620082.06247
  21382678.120   112366759.77509  21382675.940    87558519.35048
  22566237.520   118586395.40508  22566234.100    92404976.96046
  23294752.760   122414744.61508  23294750.340    95388111.58446
  23056052.440   121160376.15708  23056049.180    94410673.53946
  24220797.480   127281294.73708  24220793.480    99180289.62845
  20610576.040   108309321.48109  20610570.820    84396876.36149
  21357044.100   112232185.83609  21357038.760    87453703.77048
  20434018.360   107381504.46609  20434017.500    83673900.66149
  21580925.580   113408582.49909  21580923.560    88370340.53547
 15 02 27 03 23 30.0000000  0 10G01G04G11G14G16G18G19G22G27G32
  23582373.640   123926217.35208  23582374.560    96565893.95246
  21373468.480   112318362.81909  21373466.300    87520807.45048
  22551637.500   118509672.09508  22551634.120    92345192.57546
  23283580.700   122356034.26308  23283577.780    95342363.27046
  23075120.580   121260580.20808  23075117.440    94488754.60646
  24237849.360   127370902.32208  24237845.240    99250113.72845
  20605305.900   108281626.93709  20605300.720    84375296.20349
  21368024.760   112289889.16609  21368019.260    87498667.40248
  20438232.680   107403650.90909  20438231.780    83691157.62849
  21564422.660   113321859.59409  21564420.740    88302764.26048
 15 02 27 03 24  0.0000000  0 10G01G04G11G14G16G18G19G22G27G32
  23569161.640   123856787.68508  23569162.500    96511792.93247
  21364299.820   112270181.31909  21364297.720    87483263.43348
  22537060.740   118433070.70408  22537057.300    92285503.18646
  23272467.060   122297630.87608  23272464.060    95296854.14146
  23094221.480   121360956.37308  23094218.460    94566969.78946
  24254919.640   127460607.85108  24254915.320    99320014.07544
  20600104.960   108254295.79709  20600099.740    84353999.21149
  21379073.800   112347951.55409  21379068.160    87543910.81648
  20442530.620   107426236.84409  20442529.700    83708757.04349
  21547996.720   113235541.32009  21547994.920    88235503.28448
 15 02 27 03 24 30.0000000  0 10G01G04G11G14G16G18G19G22G27G32
  23555969.980   123787465.33208  23555970.880    96457775.55647
  21355171.200   112222210.58909  21355169.300    87445883.66548
  22522506.500   118356587.59908  22522502.960    92225905.97346
  23261411.500   122239532.73108  23261408.600    95251582.89646
  23113353.780   121461497.62208  23113350.820    94645313.61947
  24272007.460   127550404.99308  24272003.100    99389985.87845
  20594972.620   108227325.17909  20594967.380    84332983.15349
  21390189.840   112406366.03409  21390184.040    87589428.59348
  20446911.500   107449258.39009  20446910.600    83726695.91449
  21531647.400   113149625.27109  21531645.620    88168555.73147
 15 02 27 03 25  0.0000000  0 10G01G04G11G14G16G18G19G22G27G32
  23542799.260   123718252.78908  23542800.200    96403843.72547
  21346083.260   112174453.62809  21346081.520    87408670.46148
  22507975.380   118280225.96608  22507971.880    92166403.42146
  23250415.020   122181745.25808  23250411.900    95206553.69846
  23132517.380   121562203.29808  23132514.520    94723785.56446
  24289112.780   127640294.69208  24289108.740    99460029.79545
  20589909.660   108200719.14709  20589904.460    84312251.19049
  21401372.980   112465133.52609  21401367.060    87635221.44548
  20451375.860   107472718.56309  20451374.980    83744976.57049
  21515375.560   113064116.06709  21515373.740    88101925.19948
 15 02 27 03 25 30.0000000  0 10G01G04G11G14G16G18G19G22G27G32
  23529649.480   123649150.12108  23529650.480    96349997.52947
  21337036.080   112126910.43409  21337034.300    87371623.82748
  22493467.520   118203986.77308  22493464.000    92106996.26046
  23239478.080   122124271.29208  23239475.100    95161768.81246
  23151711.620   121663069.99608  23151708.840    94802382.95546
  24306235.420   127730274.89108  24306231.120    99530144.23644
  20584916.380   108174479.26309  20584911.180    84291804.52749
  21412622.820   112524252.01309  21412616.940    87681287.79048
  20455923.760   107496617.94909  20455922.960    83763599.45749
  21499181.600   112979015.91709  21499179.680    88035613.40148
 15 02 27 03 26  0.0000000  0 10G01G04G11G14G16G18G19G22G27G32
  23516521.100   123580159.96908  23516522.100    96296239.00547
  21328030.220   112079583.73209  21328028.280    87334745.88748
  22478983.600   118127873.44108  22478980.140    92047687.19446
  23228601.740   122067116.46508  23228598.940    95117232.60446
  23170936.740   121764098.74708  23170933.980    94881106.63446
  24323375.160   127820346.64308  24323371.260    99600329.98045
  20579993.600   108148609.82209  20579988.460    84271646.53349
  21423939.560   112583722.16509  21423933.740    87727628.16548
  20460555.860   107520959.77309  20460555.120    83782567.11549
  21483066.380   112894329.62009  21483064.420    87969624.09048
 15 02 27 03 26 30.0000000  0 10G01G04G11G14G16G18G19G22G27G32
  23503412.880   123511275.84208  23503413.820    96242563.09347
  21319064.380   112032467.15509  21319062.260    87298031.67748
  22464522.600   118051880.42608  22464519.240    91988471.88046
  23217785.360   122010276.77908  23217782.340    95072941.94246
  23190190.900   121865279.82508  23190188.120    94959949.01446
  24340530.820   127910501.65307  24340527.140    99670580.59645
  20575140.420   108123106.28609  20575135.320    84251773.65049
  21435321.560   112643535.47709  21435315.840    87774235.93848
  20465271.000   107545738.05309  20465270.320    83801874.86249
  21467029.080   112810052.83509  21467027.140    87903953.87448
 15 02 27 03 27  0.0000000  0 10G01G04G11G14G16G18G19G22G27G32
  23490325.160   123442499.68308  23490326.040    96188971.31147
  21310138.920   111985562.88909  21310136.620    87261482.91348
  22450085.060   117976010.38608  22450081.700    91929352.38546
  23207029.960   121953757.10708  23207026.880    95028900.66346
  23209473.840   121966611.99608  23209471.000    95038909.13146
  24357702.400   128000740.14707  24357698.980    99740896.26144
  20570357.460   108097971.82709  20570352.440    84232188.36049
  21446768.900   112703692.01309  21446763.280    87821111.15848
  20470069.700   107570955.23209  20470068.980    83821524.61049
  21451070.400   112726189.55209  21451068.520    87838605.87448
 15 02 27 03 27 30.0000000  0 10G01G04G11G14G16G18G19G22G27G32
  23477258.360   123373833.59208  23477259.200    96135465.28947
  21301254.240   111938872.99209  21301251.780    87225101.17548
  22435671.580   117900266.51508  22435668.180    91870331.20146
  23196336.360   121897562.27008  23196333.100    94985112.49546
  23228785.460   122068094.74708  23228782.480    95117986.58346
  24374890.120   128091062.53808  24374886.760    99811277.35745
  20565645.500   108073210.27609  20565640.520    84212893.65149
  21458281.520   112764191.72509  21458276.060    87868253.79348
  20474952.440   107596613.87509  20474951.600    83841518.35849
  21435191.160   112642743.93809  21435189.380    87773583.33248
 15 02 27 03 28  0.0000000  0 10G01G04G11G14G16G18G19G22G27G32
  23464212.120   123305275.35108  23464212.960    96082043.29647
  21292409.900   111892395.32709  21292407.320    87188884.81148
  22421281.840   117824647.62608  22421278.420    91811407.40846
  23185704.660   121841693.03708  23185701.520    94941578.03846
  23248124.660   122169722.53308  23248121.580    95197177.04346
  24392093.140   128181464.85308  24392089.540    99881720.71944
  20561004.360   108048820.99709  20560999.420    84193889.01549
  21469858.660   112825030.46609  21469853.380    87915660.60448
  20479918.860   107622712.29209  20479917.880    83861854.77449
  21419391.360   112559715.88809  21419389.720    87708886.16548
 15 02 27 03 28 30.0000000  0 10G01G04G11G14G16G18G19G22G27G32
  23451186.440   123236824.80908  23451187.300    96028705.24247
  21283605.880   111846129.93709  21283603.260    87152833.85647
  22406915.860   117749153.65008  22406912.360    91752580.94846
  23175135.280   121786151.75808  23175132.600    94898299.13546
  23267491.000   122271493.11008  23267487.860    95276478.76546
  24409311.000   128271945.10508  24409307.520    99952224.78744
  20556434.300   108024805.36609  20556429.360    84175175.54149
  21481499.920   112886206.03909  21481494.700    87963329.87848
  20484968.920   107649250.72309  20484967.920    83882534.06549
  21403671.420   112477107.27709  21403669.840    87644515.82948
 15 02 27 03 29  0.0000000  0 10G01G04G11G14G16G18G19G22G27G32
  23438181.520   123168483.59108  23438182.400    95975452.36747
  21274842.460   111800078.46909  21274839.980    87116949.60947
  22392574.220   117673787.85808  22392570.760    91693854.39346
  23164629.280   121730942.91808  23164626.660    94855279.29345
  23286884.280   122373405.30308  23286881.140    95355890.85746
  24426543.780   128362503.26308  24426540.480   100022789.56144
  20551935.940   108001166.51909  20551931.000    84156755.66749
  21493205.220   112947718.08209  21493200.000    88011261.35248
  20490103.080   107676231.28309  20490102.140    83903557.87249
  21388031.980   112394921.72309  21388030.440    87580475.15947
 15 02 27 03 29 30.0000000  0 10G01G04G11G14G16G18G19G22G27G32
  23425197.400   123100251.96308  23425198.260    95922284.88347
  21266119.900   111754241.54009  21266117.540    87081232.52048
  22378257.160   117598551.41008  22378253.720    91635228.61846
  23154187.280   121676069.60308  23154184.440    94812520.86446
  23306304.000   122475456.14508  23306300.820    95435410.97746
  24443790.980   128453138.04208  24443787.400   100093414.05644
  20547509.660   107977906.39209  20547504.720    84138630.89949
  21504974.320   113009564.95709  21504968.980    88059453.71848
  20495321.460   107703654.69409  20495320.680    83924926.75949
  21372473.580   112313161.67109  21372471.960    87516766.05148
 15 02 27 03 30  0.0000000  0 10G01G04G11G14G16G18G19G22G27G32
  23412233.860   123032128.61808  23412234.760    95869201.77646
  21257438.000   111708617.79009  21257435.660    87045681.54648
  22363964.520   117523443.62608  22363961.140    91576703.09146
  23143809.320   121621533.15308  23143806.480    94770024.93746
  23325749.220   122577641.07708  23325745.960    95515035.57546
  24461052.000   128543845.98408  24461049.160   100164095.49245
  20543155.520   107955025.31909  20543150.620    84120801.48749
  21516806.540   113071743.21709  21516801.040    88107904.30448
  20500623.980   107731520.01309  20500623.360    83946639.99349
  21356996.260   112231827.63209  21356994.520    87453388.89248
 15 02 27 03 30 30.0000000  0 10G01G04G11G14G16G18G19G22G27G32
  23399290.880   122964112.85508  23399291.680    95816202.50846
  21248796.640   111663206.71909  21248794.160    87010296.29448
  22349696.440   117448464.58508  22349693.060    91518277.88746
  23133495.860   121567335.53608  23133493.060    94727793.04046
  23345219.480   122679957.68208  23345216.180    95594762.77346
  24478326.600   128634624.65407  24478323.520   100234832.20444
  20538873.660   107932524.02709  20538868.820    84103268.01849
  21528701.360   113134250.21409  21528695.640    88156611.05948
  20506010.560   107759826.84009  20506010.060    83968697.25749
  21341600.320   112150920.89909  21341598.380    87390344.69648
 15 02 27 03 31  0.0000000  0 10G01G04G11G14G16G18G19G22G27G32
  23386369.400   122896209.98208  23386370.100    95763291.19147
  21240196.800   111618013.79509  21240194.160    86975081.01848
  22335454.100   117373620.76508  22335450.680    91459958.03546
  23123248.400   121513484.91508  23123245.620    94685831.52946
  23364715.160   122782407.94608  23364711.860    95674594.11946
  24495615.100   128725477.89607  24495612.600   100305626.84344
  20534665.400   107910409.59809  20534660.620    84086035.99649
  21540659.360   113197089.35309  21540653.520    88205576.60548
  20511482.360   107788581.13609  20511481.860    83991103.18949
  21326287.120   112070449.02709  21326285.000    87327639.35248
 15 02 27 03 31 30.0000000  0 10G01G04G11G14G16G18G19G22G27G32
  23373467.640   122828410.97008  23373468.380    95710460.83746
  21231636.680   111573029.87409  21231633.980    86940028.62048
  22321235.960   117298903.95109  22321232.480    91401737.15946
  23113065.700   121459975.00708  23113063.360    94644135.53146
  23384233.980   122884979.76408  23384230.660    95754520.19246
  24512916.020   128816394.70708  24512913.700   100376471.12445
  20530529.280   107888674.39809  20530524.560    84069099.48249
  21552678.280   113260249.52409  21552672.540    88254792.31748
  20517037.680   107817774.06909  20517037.140    84013850.92749
  21311055.300   111990404.79409  21311053.000    87265267.23148
 15 02 27 03 32  0.0000000  0 10G01G04G11G14G16G18G19G22G27G32
  23360586.380   122760719.70208  23360587.120    95657714.39547
  21223117.080   111528259.23409  21223114.440    86905142.41648
  22307042.880   117224318.85708  22307039.340    91343618.92246
  23102949.180   121406812.35608  23102947.140    94602710.10246
  23403776.100   122987674.02908  23403772.720    95834541.67746
  24530229.380   128907377.54808  24530227.440   100447366.77744
  20526466.340   107867323.75109  20526461.580    84052462.61549
  21564758.560   113323732.15009  21564752.880    88304259.28848
  20522677.320   107847409.93909  20522676.680    84036943.80449
  21295905.920   111910793.90009  21295903.500    87203232.77448
 15 02 27 03 32 30.0000000  0 10G01G04G11G14G16G18G19G22G27G32
  23347725.560   122693135.77908  23347726.300    95605051.61146
  21214637.980   111483701.56809  21214635.540    86870422.16448
  22292875.000   117149866.22609  22292871.460    91285603.89247
  23092899.160   121353998.91908  23092897.220    94561556.77846
  23423341.040   123090488.22808  23423337.640    95914656.61346
  24547555.140   128998424.06208  24547552.900   100518312.16745
  20522476.820   107846358.86109  20522472.040    84036126.33649
  21576899.860   113387535.34109  21576894.220    88353976.05048
  20528401.200   107877488.60809  20528400.440    84060381.72949
  21280839.280   111831618.11509  21280836.820    87141537.36948
 15 02 27 03 33  0.0000000  0 10G01G04G11G14G16G18G19G22G27G32
  23334885.340   122625659.68908  23334886.060    95552472.87146
  21206199.460   111439357.21409  21206197.200    86835868.14348
  22278732.540   117075547.22609  22278728.980    91227693.01746
  23082916.220   121301538.17308  23082914.320    94520678.33246
  23442928.180   123193419.26008  23442924.820    95994862.59546
  24564892.840   129089533.36807  24564890.640   100589306.42444
  20518561.140   107825781.62909  20518556.240    84020092.13049
  21589101.820   113451657.30209  21589096.260    88403941.21248
  20534209.480   107908010.93909  20534208.600    84084165.35749
  21265855.800   111752879.59809  21265853.360    87080182.70148
 15 02 27 03 33 30.0000000  0 10G01G04G11G14G16G18G19G22G27G32
  23322065.780   122558292.28608  23322066.360    95499978.81546
  21197801.780   111395227.49909  21197799.660    86801481.35648
  22264615.820   117001363.55109  22264612.340    91169887.57147
  23073001.340   121249433.52908  23072999.140    94480077.31546
  23462537.240   123296465.86208  23462533.980    96075158.62346
  24582242.220   129180704.36608  24582239.780   100660348.79244
  20514719.740   107805594.64909  20514714.740    84004362.01249
  21601364.240   113516096.96909  21601358.740    88454153.92848
  20540102.320   107938978.05109  20540101.420    84108295.56249
  21250956.020   111674581.27709  21250953.660    87019171.03148
 15 02 27 03 34  0.0000000  0 10G01G04G11G14G16G18G19G22G27G32
  23309267.100   122491034.51608  23309267.600    95447570.19447
  21189445.040   111351313.20409  21189443.040    86767262.43748
  22250525.300   116927317.44709  22250521.840    91112189.32047
  23063154.820   121197688.61908  23063152.080    94439756.62246
  23482167.840   123399625.87708  23482164.780    96155543.02546
  24599603.100   129271936.34608  24599600.980   100731438.58144
  20510953.060   107785800.17909  20510947.980    83988937.74149
  21613686.860   113580853.20509  21613681.440    88504613.33948
  20546080.040   107970391.23709  20546079.140    84132773.35749
  21236140.540   111596725.96409  21236138.280    86958504.56348
 15 02 27 03 34 30.0000000  0 10G01G04G11G14G16G18G19G22G27G32
  23296488.620   122423883.08808  23296489.120    95395244.44546
  21181128.740   111307611.53809  21181126.860    86733209.21348
  22236460.460   116853406.40108  22236457.040    91054596.32047
  23053376.560   121146302.82508  23053373.600    94399715.75046
  23501818.840   123502893.27208  23501815.920    96236011.10746
  24616974.640   129363224.53608  24616972.700   100802572.22245
  20507260.760   107766396.63809  20507255.640    83973818.10349
  21626068.700   113645920.83909  21626063.440    88555315.38548
  20552142.100   108002247.45409  20552141.180    84157596.38149
  21221409.100   111519312.22909  21221406.960    86898182.19348
 15 02 27 03 35  0.0000000  0 10G01G04G11G14G16G18G19G22G27G32
  23283730.260   122356837.63708  23283730.820    95343001.25747
  21172852.860   111264121.94409  21172851.020    86699321.22948
  22222421.440   116779631.02409  22222418.080    90997109.03347
  23043667.000   121095278.48008  23043664.000    94359956.53046
  23521489.620   123606264.50508  23521486.740    96316560.09746
  24634356.640   129454566.84808  24634354.260   100873748.04745
  20503643.040   107747385.13909  20503637.940    83959003.94449
  21638509.340   113711297.14809  21638504.220    88606257.95548
  20558288.460   108034546.60509  20558287.520    84182764.53649
  21206761.980   111442341.56709  21206759.980    86838205.06648
 15 02 27 03 35 30.0000000  0 10G01G04G11G14G16G18G19G22G27G32
  23270992.520   122289900.59008  23270993.160    95290842.54446
  21164617.920   111220847.05309  21164616.020    86665600.53848
  22208408.900   116705994.72909  22208405.540    90939730.12347
  23034027.020   121044620.11108  23034023.940    94320482.48346
  23541180.220   123709739.62908  23541177.400    96397190.04546
  24651749.060   129545964.08508  24651746.520   100944966.68445
  20500100.620   107728769.39409  20500095.520    83944498.17049
  21651008.780   113776982.59309  21651003.860    88657441.42548
  20564519.620   108067291.39509  20564518.680    84208279.95549
  21192200.000   111365818.27909  21192198.140    86778576.54648
 15 02 27 03 36  0.0000000  0 10G01G04G11G14G16G18G19G22G27G32
  23258275.700   122223073.28208  23258276.420    95238769.33946
  21156424.240   111177788.54309  21156422.260    86632048.46348
  22194423.280   116632499.62109  22194419.840    90882461.22047
  23024457.260   120994332.01808  23024454.720    94281296.99146
  23560890.300   123813316.97508  23560887.580    96477899.63946
  24669151.700   129637415.73108  24669149.280   101016227.64344
  20496634.020   107710552.03009  20496628.860    83930302.81449
  21663566.940   113842976.40309  21663562.140    88708865.17348
  20570835.840   108100483.34809  20570834.940    84234143.81249
  21177723.740   111289745.40509  21177722.020    86719298.99948
 15 02 27 03 36 30.0000000  0 10G01G04G11G14G16G18G19G22G27G32
  23245578.800   122156350.64608  23245579.520    95186777.70346
  21148270.780   111134941.14709  21148268.680    86598660.89148
  22180463.820   116559141.54609  22180460.180    90825299.09247
  23014957.600   120944411.83208  23014955.420    94242398.16346
  23580618.420   123916988.74008  23580615.640    96558682.80046
  24686563.360   129728915.18908  24686561.000   101087525.90044
  20493242.660   107692730.03509  20493237.460    83916415.54149
  21676182.500   113909271.68909  21676177.740    88760523.83548
  20577236.240   108134117.61109  20577235.340    84260352.32349
  21163332.660   111214119.75909  21163331.000    86660369.93648
 15 02 27 03 37  0.0000000  0 10G01G04G11G14G16G18G19G22G27G32
  23232902.260   122089735.23608  23232902.960    95134869.61646
  21140158.040   111092307.76609  21140155.760    86565440.08248
  22166531.160   116485924.31409  22166527.420    90768246.70947
  23005528.880   120894864.61208  23005526.660    94203789.93946
  23600364.440   124020754.29008  23600361.560    96639539.05146
  24703984.320   129820463.29907  24703981.880   101158862.08544
  20489927.160   107675307.08309  20489921.960    83902839.21449
  21688855.540   113975868.84809  21688850.760    88812417.71948
  20583721.300   108168196.94209  20583720.380    84286907.63749
  21149027.620   111138945.74409  21149025.920    86601792.79748
 15 02 27 03 37 30.0000000  0 10G01G04G11G14G16G18G19G22G27G32
  23220246.020   122023226.45908  23220246.660    95083044.62546
  21132085.940   111049887.96709  21132083.500    86532385.71548
  22152625.320   116412848.22209  22152621.460    90711304.31847
  22996171.540   120845692.28409  22996169.420    94165473.87446
  23620127.780   124124610.75108  23620124.760    96720466.14646
  24721414.120   129912057.50308  24721411.620   101230234.19044
  20486687.700   107658284.12309  20486682.620    83889574.58349
  21701585.520   114042765.26609  21701580.680    88864544.80648
  20590291.000   108202720.90309  20590290.020    84313809.42249
  21134808.780   111064224.45209  21134806.980    86543568.42548
 15 02 27 03 38  0.0000000  0 10G01G04G11G14G16G18G19G22G27G32
  23207609.920   121956823.69908  23207610.500    95031302.23046
  21124054.340   111007681.02509  21124051.760    86499497.18248
  22138746.360   116339913.65809  22138742.480    90654472.19047
  22986886.320   120796896.70209  22986883.740    94127451.33946
  23639907.720   124228554.45708  23639904.520    96801461.19646
  24738852.460   130003696.16207  24738849.920   101301640.90444
  20483524.440   107641661.63709  20483519.460    83876621.99249
  21714371.960   114109958.32009  21714367.020    88916903.02248
  20596945.220   108237689.07109  20596944.200    84341057.33649
  21120676.340   110989957.05609  21120674.380    86485697.72548
 15 02 27 03 38 30.0000000  0 10G01G04G11G14G16G18G19G22G27G32
  23194994.620   121890530.08708  23194995.260    94979644.88846
  21116063.800   110965690.34609  21116061.220    86466777.18148
  22124895.040   116267124.47209  22124891.100    90597753.36147
  22977673.780   120748483.46808  22977670.820    94089726.74946
  23659704.340   124332585.95308  23659701.160    96882524.69346
  24756299.420   130095380.51307  24756297.040   101373083.24245
  20480438.300   107625444.39209  20480433.460    83863985.17849
  21727215.060   114177448.90609  21727210.040    88969493.08948
  20603684.580   108273104.68309  20603683.540    84368653.90749
  21106631.140   110916148.38109  21106629.040    86428184.48348
 15 02 27 03 39  0.0000000  0 10G01G04G11G14G16G18G19G22G27G32
  23182399.240   121824340.97808  23182399.840    94928068.99046
  21108113.480   110923911.42909  21108110.980    86434222.20848
  22111070.620   116194477.04909  22111066.700    90541144.99147
  22968533.680   120700450.69408  22968530.720    94052298.62846
  23679516.220   124436697.63608  23679513.000    96963650.64746
  24773753.940   130187104.34107  24773751.380   101444556.40944
  20477428.720   107609629.10009  20477423.920    83851661.58849
  21740113.540   114245230.33409  21740108.400    89022309.79348
  20610508.140   108308963.22509  20610507.160    84396595.63049
  21092672.620   110842795.48209  21092670.420    86371026.39048
 15 02 27 03 39 30.0000000  0 10G01G04G11G14G16G18G19G22G27G32
  23169824.680   121758261.28308  23169825.240    94876578.33446
  21100204.300   110882349.46909  21100202.020    86401836.27748
  22097274.340   116121977.50009  22097270.480    90484651.84647
  22959467.100   120652805.59408  22959464.460    94015172.61146
  23699343.760   124540891.67008  23699340.460    97044840.77545
  24791216.400   130278870.71308  24791214.040   101516062.61245
  20474496.940   107594222.48709  20474492.120    83839656.43149
  21753067.820   114313305.24609  21753062.620    89075355.18348
  20617416.920   108345269.79709  20617416.060    84424886.44749
  21078802.020   110769905.06309  21078799.800    86314228.66448
 15 02 27 03 40  0.0000000  0 10G01G04G11G14G16G18G19G22G27G32
  23157270.240   121692287.47108  23157270.920    94825170.20046
  21092335.720   110841000.77209  21092333.600    86369616.52548
  22083505.680   116049623.05209  22083501.820    90428271.76447
  22950474.220   120605547.22109  22950471.020    93978347.91946
  23719185.680   124645161.42708  23719182.420    97126089.90446
  24808685.940   130370674.60607  24808683.720   101587598.09144
  20471642.480   107579222.15709  20471637.640    83827967.86449
  21766076.980   114381668.48609  21766071.840    89128625.23848
  20624410.280   108382020.86109  20624409.560    84453523.63649
  21065018.980   110697475.23509  21065016.800    86257789.85148
 15 02 27 03 40 30.0000000  0 10G01G04G11G14G16G18G19G22G27G32
  23144735.460   121626417.00708  23144736.220    94773842.59846
  21084507.420   110799863.11709  21084505.340    86337561.21648
  22069764.320   115977412.02609  22069760.480    90372003.44146
  22941555.020   120558675.64408  22941551.320    93941824.61646
  23739041.080   124749501.87508  23739037.800    97207394.13446
  24826162.140   130462512.00007  24826159.860   101659159.73344
  20468865.140   107564626.86909  20468860.220    83816594.91249
  21779140.160   114450315.50009  21779135.040    89182116.41648
  20631487.820   108419214.00009  20631487.200    84482505.29849
  21051323.400   110625505.15209  21051321.300    86201709.28348
 15 02 27 03 41  0.0000000  0 10G01G04G11G14G16G18G19G22G27G32
  23132221.500   121560656.11608  23132222.280    94722600.37047
  21076720.540   110758942.79109  21076718.440    86305675.25648
  22056051.740   115905352.21009  22056047.920    90315852.94247
  22932710.860   120512199.28808  22932707.260    93905609.29646
  23758910.540   124853916.31608  23758907.120    97288756.01446
  24843645.420   130554387.42507  24843642.960   101730750.95344
  20466166.320   107550444.27709  20466161.360    83805543.53849
  21792258.080   114519250.11809  21792252.900    89235831.70448
  20638650.720   108456855.45709  20638650.160    84511836.29549
  21037716.740   110554002.45109  21037714.700    86145992.90548
 15 02 27 03 41 30.0000000  0 10G01G04G11G14G16G18G19G22G27G32
  23119728.020   121495002.58508  23119728.820    94671441.79546
  21068974.640   110718237.76709  21068972.480    86273957.06048
  22042367.640   115833442.15209  22042363.880    90259819.14546
  22923941.800   120466118.47808  22923938.280    93869702.20346
  23778793.100   124958399.56108  23778789.660    97370171.49545
  24861135.200   130646297.03907  24861132.940   101802368.77044
  20463545.900   107536673.57209  20463540.880    83794813.11449
  21805429.960   114588468.03609  21805424.640    89289767.74048
  20645898.620   108494943.15009  20645898.000    84541515.01149
  21024198.960   110482966.88909  21024197.080    86090640.52948
 15 02 27 03 42  0.0000000  0 11G01G03G04G11G14G16G18G19G22G27G32
  23107254.520   121429453.57108  23107255.260    94620364.65846
  24621238.080   129385484.94008  24621241.080   100819858.65746
  21061269.180   110677745.42009  21061267.020    86242404.58148
  22028711.700   115761679.94709  22028708.000    90203900.54847
  22915248.120   120420432.84709  22915244.980    93834103.01847
  23798687.740   125062946.22408  23798684.220    97451636.38446
  24878630.740   130738236.37808  24878628.280   101874009.84845
  20461003.540   107523313.05109  20460998.480    83784402.31749
  21818654.760   114657964.40409  21818649.380    89343920.75248
  20653230.900   108533474.22309  20653230.240    84571539.21449
  21010769.860   110412397.09909  21010768.060    86035651.09748
 15 02 27 03 42 30.0000000  0 11G01G03G04G11G14G16G18G19G22G27G32
  23094803.020   121364019.88208  23094803.560    94569377.38046
  24601470.880   129281606.50408  24601473.280   100738914.56546
  21053606.260   110637476.55909  21053604.100    86211026.26048
  22015086.180   115690077.37209  22015082.480    90148106.34447
  22906632.000   120375155.52508  22906629.240    93798822.02646
  23818595.960   125167564.30608  23818592.340    97533156.95146
  24896133.780   130830214.82507  24896131.060   101945681.37244
  20458541.560   107510375.07509  20458536.480    83774320.78149
  21831934.240   114727748.03309  21831928.720    89398297.60748
  20660649.660   108572459.48209  20660648.900    84601917.32949
  20997431.800   110342305.44409  20997430.040    85981034.23548
 15 02 27 03 43  0.0000000  0 10G01G03G04G11G14G16G19G22G27G32
  23082369.200   121298679.37608  23082369.580    94518462.70646
  24581726.020   129177846.04708  24581728.000   100658062.43246
  21045981.720   110597409.25409  21045979.540    86179804.98848
  22001487.060   115618613.16509  22001483.240    90092419.95247
  22898089.800   120330266.86709  22898087.120    93763843.85646
  23838513.060   125272228.95508  23838509.360    97614713.79846
  20456155.980   107497838.65709  20456150.900    83764552.14849
  21845263.680   114797794.76009  21845258.040    89452879.47348
  20668150.620   108611876.78009  20668149.780    84632632.10149
  20984180.900   110272671.43409  20984179.140    85926773.98248
 15 02 27 03 43 30.0000000  0 10G01G03G04G11G14G16G19G22G27G32
  23069956.600   121233450.29708  23069956.820    94467634.86146
  24562007.360   129074223.66107  24562009.220   100577317.88346
  21038399.020   110557562.01509  21038396.880    86148755.20348
  21987917.960   115547306.88709  21987914.120    90036856.62947
  22889625.620   120285787.38508  22889623.320    93729184.53347
  23858441.860   125376955.27208  23858438.120    97696318.67945
  20453850.660   107485723.79109  20453845.520    83755111.99449
  21858646.200   114868120.74809  21858640.580    89507678.93248
  20675737.240   108651744.33809  20675736.340    84663697.72249
  20971020.900   110203514.81009  20971019.100    85872885.71648
 15 02 27 03 44  0.0000000  0 10G01G03G04G11G14G16G19G22G27G32
  23057564.420   121168328.69908  23057564.600    94416890.77146
  24542314.420   128970737.08508  24542316.240   100496679.18046
  21030857.380   110517930.90809  21030855.340    86117873.82948
  21974378.300   115476155.43009  21974374.460    89981413.94247
  22881238.800   120241715.71208  22881237.040    93694842.98647
  23878381.260   125481737.20308  23878377.460    97777966.91545
  20451625.000   107474027.49809  20451619.780    83745998.00049
  21872080.620   114938719.46409  21872075.000    89562690.91448
  20683408.760   108692058.16409  20683407.840    84695111.08549
  20957951.320   110134833.02809  20957949.400    85819367.45048
 15 02 27 03 44 30.0000000  0 10G01G03G04G11G14G16G19G22G27G32
  23045192.760   121103315.11608  23045193.020    94366230.84847
  24522647.800   128867388.69708  24522649.560   100416148.11146
  21023357.000   110478516.53909  21023355.000    86087161.34048
  21960868.340   115405160.38509  21960864.540    89926093.13547
  22872930.000   120198054.49708  22872928.260    93660821.26846
  23898330.680   125586572.05808  23898326.940    97859656.36745
  20449479.360   107462751.74209  20449474.040    83737211.69049
  21885566.760   115009590.12509  21885561.200    89617914.81048
  20691165.240   108732818.69409  20691164.340    84726872.52949
  20944972.520   110066628.33009  20944970.500    85766220.94948
 15 02 27 03 45  0.0000000  0 10G01G03G04G11G14G16G19G22G27G32
  23032840.420   121038403.30508  23032840.760    94315650.23447
  24503006.540   128764173.93307  24503008.180   100335721.21745
  21015896.780   110439312.86009  21015894.760    86056613.02348
  21947387.140   115334316.70209  21947383.500    89870890.27847
  22864698.660   120154799.79608  22864696.860    93627116.32747
  23918288.420   125691450.92608  23918284.800    97941380.12945
  20447412.760   107451891.43309  20447407.340    83728749.11049
  21899103.020   115080724.07709  21899097.520    89673343.86248
  20699005.500   108774019.67009  20699004.620    84758977.17949
  20932083.560   109998895.86809  20932081.440    85713442.40748
 15 02 27 03 45 30.0000000  0 10G01G03G04G11G14G16G19G22G27G32
  23020508.060   120973596.60708  23020508.460    94265151.51547
  24483391.760   128661097.91208  24483393.240   100255402.37146
  21008477.380   110400323.29309  21008475.280    86026231.54448
  21933935.540   115263628.61109  21933932.040    89815808.65947
  22856546.080   120111957.46009  22856544.400    93593732.70746
  23938254.540   125796373.97808  23938251.060    98023138.31545
  20445426.060   107441451.06009  20445420.560    83720613.75049
  21912689.580   115152122.42109  21912684.240    89728978.92948
  20706930.180   108815664.32009  20706929.340    84791427.54449
  20919285.320   109931640.47109  20919283.180    85661035.61048
 15 02 27 03 46  0.0000000  0 10G01G03G04G11G14G16G19G22G27G32
  23008196.240   120908897.91908  23008196.680    94214736.98647
  24463804.260   128558165.25208  24463805.560   100175195.22845
  21001099.360   110361551.07609  21001097.180    85996019.44448
  21920514.340   115193100.10809  21920510.900    89760851.39847
  22848473.000   120069532.47108  22848471.280    93560674.28246
  23958229.120   125901341.59608  23958225.820    98104931.24445
  20443520.100   107431435.17009  20443514.580    83712809.16749
  21926326.580   115223785.89909  21926321.320    89784820.60448
  20714939.820   108857755.38909  20714939.020    84824225.77549
  20906578.660   109864866.52709  20906576.500    85609003.98448
 15 02 27 03 46 30.0000000  0 10G01G03G04G11G14G16G19G22G27G32
  22995904.580   120844305.09908  22995905.060    94164404.92647
  24444243.940   128455375.54208  24444245.180   100095099.49545
  20993762.240   110322994.05309  20993760.020    85965975.01448
  21907123.320   115122729.88809  21907119.800    89706017.46747
  22840479.120   120027525.09909  22840477.260    93527941.29846
  23978211.280   126006348.83908  23978208.060    98186755.02745
  20441694.700   107421842.68909  20441689.220    83705334.50449
  21940013.380   115295710.89409  21940008.240    89840866.03048
  20723034.000   108900290.63109  20723033.220    84857370.11149
  20893963.400   109798573.37509  20893961.340    85557346.98648
 15 02 27 03 47  0.0000000  0 10G01G03G04G11G14G16G19G22G27G32
  22983632.240   120779813.64808  22983632.800    94114151.86447
  24424710.280   128352726.01208  24424711.420   100015112.97445
  20986465.300   110284648.06709  20986463.020    85936095.03648
  21893761.880   115052514.74209  21893758.220    89651304.37247
  22832564.720   119985933.38808  22832562.440    93495532.16446
  23998199.640   126111388.59808  23998196.560    98268604.14046
  20439949.280   107412670.38409  20439943.840    83698187.25249
  21953748.620   115367890.38009  21953743.580    89897109.79648
  20731211.840   108943265.39409  20731211.060    84890856.92749
  20881439.000   109732757.80509  20881437.060    85506062.13748
 15 02 27 03 47 30.0000000  0 10G01G03G04G11G14G16G19G22G27G32
  22971380.600   120715431.07908  22971381.240    94063983.65347
  24405205.020   128250225.83608  24405205.920    99935242.81946
  20979209.940   110246520.34709  20979207.560    85906385.12348
  21880431.600   114982463.23009  21880427.860    89596718.78247
  22824731.100   119944766.84608  22824728.420    93463454.36346
  24018195.120   126216465.55508  24018192.080    98350482.26445
  20438285.480   107403926.95409  20438280.080    83691374.18149
  21967533.380   115440329.76709  21967528.400    89953556.06748
  20739474.700   108986687.00109  20739473.920    84924691.93349
  20869007.200   109667428.77809  20869005.340    85455156.40748
 15 02 27 03 48  0.0000000  0 10G01G03G04G11G14G16G19G22G27G32
  22959148.720   120651152.45808  22959149.480    94013896.43647
  24385727.620   128147871.89408  24385728.460    99855486.62445
  20971995.340   110208606.58509  20971992.840    85876841.93048
  21867131.580   114912570.96209  21867127.800    89542257.27847
  22816977.940   119904022.66408  22816975.060    93431705.65746
  24038196.220   126321571.89508  24038193.200    98432383.28945
  20436702.620   107395608.79809  20436697.220    83684892.49949
  21981366.340   115513022.12709  21981361.400    90010199.46048
  20747821.600   109030550.35109  20747820.840    84958871.15349
  20856667.280   109602582.70709  20856665.500    85404627.01848
 15 02 27 03 48 30.0000000  0 10G01G03G04G11G14G16G19G22G27G32
  22946936.980   120586979.74808  22946937.800    93963891.75047
  24366278.740   128045667.78108  24366279.580    99775847.18446
  20964821.780   110170908.76309  20964819.200    85847467.01648
  21853862.420   114842841.63608  21853858.840    89487922.76447
  22809305.820   119863705.15208  22809302.820    93400289.44847
  24058202.780   126426706.81708  24058199.880    98514306.56745
  20435201.220   107387718.82909  20435195.800    83678744.47049
  21995247.460   115585967.18709  21995242.420    90067039.76948
  20756252.920   109074857.20509  20756252.180    84993395.96449
  20844419.960   109538222.96609  20844418.220    85354476.58148
 15 02 27 03 49  0.0000000  0 10G01G03G04G11G14G16G19G22G27G32
  22934745.720   120522914.49208  22934746.500    93913970.77747
  24346859.020   127943616.74808  24346859.960    99696327.02746
  20957689.400   110133428.30709  20957686.900    85818261.47548
  21840624.580   114773277.44208  21840621.300    89433716.91247
  22801715.540   119823817.97408  22801712.500    93369208.52846
  24078214.580   126531868.98708  24078211.620    98596251.07845
  20433781.800   107380259.89009  20433776.400    83672932.30349
  22009176.620   115659164.59509  22009171.440    90124076.70248
  20764768.840   109119608.92409  20764768.180    85028267.41549
  20832265.780   109474352.29509  20832264.000    85304707.22948
 15 02 27 03 49 30.0000000  0 10G01G03G04G11G14G16G19G22G27G32
  22922574.180   120458952.54908  22922574.860    93864130.31447
  24327467.900   127841716.28608  24327468.960    99616924.21446
  20950597.600   110096161.48509  20950595.200    85789222.40548
  21827417.680   114703875.59408  21827414.640    89379637.57547
  22794206.700   119784359.09008  22794204.140    93338461.37347
  24098230.320   126637052.04008  24098227.340    98678211.84545
  20432443.840   107373229.15709  20432438.460    83667453.80749
  22023152.500   115732607.89609  22023147.220    90181305.24248
  20773368.560   109164801.01509  20773367.980    85063482.02349
  20820204.180   109410967.99409  20820202.340    85255316.87448
 15 02 27 03 50  0.0000000  0 10G01G03G04G11G14G16G19G22G27G32
  22910422.940   120395097.07908  22910423.400    93814372.81347
  24308106.360   127739971.30308  24308107.320    99537642.47746
  20943547.220   110059111.71709  20943544.720    85760352.45348
  21814242.540   114634640.16508  21814239.600    89325687.90347
  22786780.500   119745333.81209  22786777.820    93308052.07746
  24118250.020   126742255.93408  24118247.020    98760188.84645
  20431188.220   107366630.95509  20431182.840    83662312.35249
  22037175.380   115806298.35709  22037170.000    90238726.38048
  20782052.640   109210436.44209  20782052.140    85099042.08649
  20808236.000   109348074.55809  20808234.080    85206309.00848
 15 02 27 03 50 30.0000000  0 10G01G03G04G11G14G16G19G22G27G32
  22898291.960   120331348.02009  22898292.280    93764698.24547
  24288774.680   127638383.38808  24288775.660    99458483.16346
  20936538.160   110022278.80009  20936535.500    85731651.48748
  21801099.300   114565572.07009  21801096.400    89271868.63047
  22779437.240   119706744.42608  22779434.360    93277982.44046
  24138273.160   126847477.66508  24138270.080    98842179.78245
  20430015.100   107360466.27609  20430009.780    83657508.70749
  22051244.820   115880233.82909  22051239.340    90296338.44948
  20790821.040   109256514.87909  20790820.600    85134947.35349
  20796361.420   109285673.01609  20796359.400    85157684.44548
 15 02 27 03 51  0.0000000  0 10G01G03G04G11G14G16G19G22G27G32
  22886180.760   120267702.78008  22886181.000    93715104.55947
  24269472.740   127536951.55808  24269473.800    99379445.49246
  20929569.860   109985660.37309  20929567.200    85703117.64848
  21787987.680   114496669.82109  21787984.660    89218178.57447
  22772176.800   119668590.38809  22772173.780    93248252.02946
  24158298.780   126952712.36208  24158295.760    98924180.80845
  20428924.240   107354733.63109  20428918.940    83653041.71049
  22065359.920   115954409.31609  22065354.400    90354137.51648
  20799673.260   109303033.39109  20799672.800    85171195.53249
  20784580.220   109223762.16909  20784578.100    85109442.22648
 15 02 27 03 51 30.0000000  0 10G01G03G04G11G14G16G19G22G27G32
  22874089.480   120204162.56208  22874089.780    93665592.72547
  24250201.100   127435678.75808  24250202.300    99300531.75546
  20922642.640   109949257.81509  20922640.020    85674752.02448
  21774908.120   114427935.78109  21774904.980    89164619.59447
  22764999.720   119630874.84308  22764996.960    93218863.32647
  24178326.520   127057958.25408  24178323.540    99006190.56045
  20427916.020   107349435.32609  20427910.740    83648913.16449
  22079520.640   116028824.36009  22079515.020    90412123.26848
  20808609.440   109349992.94009  20808608.920    85207787.39249
  20772892.840   109162344.35509  20772890.640    85061584.20748
 15 02 27 03 52  0.0000000  0 10G01G03G04G11G14G16G19G22G27G32
  22862018.920   120140731.56908  22862019.360    93616165.98647
  24230960.820   127334570.79608  24230962.060    99221746.42646
  20915757.300   109913075.34009  20915754.780    85646557.90148
  21761861.540   114359374.75209  21761858.220    89111195.42447
  22757907.460   119593604.21609  22757904.960    93189821.29947
  24198356.700   127163216.66508  24198353.580    99088210.04345
  20426991.420   107344576.46809  20426986.140    83645127.04749
  22093727.300   116103480.86809  22093721.680    90470297.16448
  20817630.320   109397397.34809  20817629.680    85244725.88249
  20761300.360   109101425.00409  20761298.060    85014114.59248
 15 02 27 03 52 30.0000000  0 10G01G03G04G11G14G16G19G22G27G32
  22849967.660   120077401.92008  22849968.200    93566818.22047
  24211750.700   127233621.41208  24211752.020    99143084.66746
  20908912.480   109877105.51809  20908910.080    85618529.47648
  21748846.720   114290980.70209  21748843.240    89057901.36347
  22750898.800   119556772.75309  22750896.300    93161121.47447
  24218387.200   127268476.87808  24218384.100    99170230.94145
  20426149.240   107340150.81909  20426144.000    83641678.48549
  22107978.020   116178368.84609  22107972.440    90528651.42748
  20826734.320   109445238.36409  20826733.480    85282004.58949
  20749801.440   109040997.47409  20749799.040    84967028.21748
 15 02 27 03 53  0.0000000  0 10G01G03G04G11G14G16G19G22G27G32
  22837936.540   120014177.91108  22837937.020    93517552.76247
  24192571.920   127132836.53508  24192573.200    99064551.07446
  20902108.940   109841352.55609  20902106.660    85590670.02748
  21735864.620   114222758.75909  21735861.020    89004741.41447
  22743974.780   119520386.92408  22743972.020    93132768.88246
  24238418.400   127373741.02408  24238415.140    99252254.88845
  20425390.360   107336163.34209  20425385.240    83638571.36349
  22122273.240   116253490.78409  22122267.700    90587187.99648
  20835922.120   109493519.91109  20835921.140    85319626.56449
  20738397.100   108981067.19809  20738394.680    84920329.30248
 15 02 27 03 53 30.0000000  0 10G01G03G04G11G14G16G19G22G27G32
  22825925.380   119951058.93108  22825925.780    93468369.14647
  24173424.640   127032217.19908  24173425.880    98986146.49546
  20895346.600   109805816.07709  20895344.360    85562979.27348
  21722915.240   114154709.20309  21722911.660    88951715.80847
  22737135.580   119484447.69408  22737132.720    93104764.29446
  24258449.600   127479005.30908  24258446.380    99334278.97845
  20424714.960   107332614.66409  20424709.940    83635806.16349
  22136612.340   116328843.60009  22136606.920    90645904.46948
  20845193.520   109542241.01109  20845192.460    85357591.04349
  20727087.400   108921634.55109  20727085.060    84874018.16248
 15 02 27 03 54  0.0000000  0 10G01G03G04G11G14G16G19G22G27G32
  22813934.700   119888047.91308  22813935.160    93419269.66147
  24154309.740   126931767.93208  24154310.880    98907874.44146
  20888626.000   109770499.22309  20888623.760    85535459.65848
  21709999.460   114086836.31109  21709995.920    88898827.86047
  22730382.220   119448960.01908  22730379.860    93077111.59347
  24278480.840   127584270.05708  24278477.580    99416303.37545
  20424123.800   107329508.66209  20424118.880    83633385.90849
  22150995.560   116404428.17509  22150990.260    90704801.53548
  20854548.980   109591404.21109  20854547.960    85395900.02249
  20715873.200   108862703.81109  20715870.960    84828098.12348
 15 02 27 03 54 30.0000000  0 10G01G03G04G11G14G16G19G22G27G32
  22801963.980   119825141.91208  22801964.560    93370251.99247
  24135226.940   126831487.41108  24135227.940    98829733.83946
  20881946.540   109735399.09109  20881944.360    85508108.92048
  21697116.920   114019138.11409  21697113.420    88846076.03347
  22723714.640   119413923.33408  22723712.600    93049810.30247
  24298511.020   127689529.37208  24298507.840    99498323.58345
  20423616.540   107326843.37409  20423611.660    83631309.05449
  22165421.940   116480239.41409  22165416.740    90763875.21348
  20863987.880   109641006.10009  20863986.940    85434550.83249
  20704754.160   108804273.04809  20704752.000    84782567.66848
 15 02 27 03 55  0.0000000  0 10G01G03G04G11G14G16G19G22G27G32
  22790013.280   119762341.07508  22790013.920    93321316.29347
  24116176.540   126731377.37208  24116177.480    98751726.10046
  20875308.440   109700516.04709  20875306.260    85480927.33448
  21684267.840   113951615.47209  21684264.280    88793460.99247
  22717133.420   119379339.58008  22717131.280    93022861.93547
  24318539.680   127794780.97908  24318536.600    99580337.74145
  20423193.460   107324620.13409  20423188.540    83629576.65949
  22179891.080   116556275.52309  22179886.040    90823124.12348
  20873510.140   109691046.40009  20873509.380    85473543.26549
  20693730.500   108746343.39509  20693728.360    84737427.68548
 15 02 27 03 55 30.0000000  0 10G01G03G04G11G14G16G19G22G27G32
  22778082.140   119699643.09908  22778082.840    93272460.73847
  24097158.460   126631437.05508  24097159.320    98673850.60646
  20868711.320   109665847.92409  20868709.080    85453913.22648
  21671452.040   113884267.51809  21671448.340    88740982.08147
  22710638.480   119345208.42208  22710636.240    92996266.22947
  24338565.820   127900019.20808  24338562.840    99662341.49845
  20422854.220   107322837.30309  20422849.200    83628187.44449
  22194402.240   116632532.29109  22194397.280    90882544.97548
  20883115.340   109741522.34209  20883114.700    85512875.17149
  20682801.940   108688913.64509  20682799.880    84692677.24548
 15 02 27 03 56  0.0000000  0 10G01G03G04G11G14G16G19G22G27G32
  22766171.320   119637051.93808  22766172.140    93223688.43547
  24078173.760   126531672.04908  24078174.580    98596111.71846
  20862155.920   109631398.79909  20862153.580    85427069.74848
  21658670.480   113817099.47609  21658666.600    88688643.35147
  22704230.820   119311535.84408  22704228.480    92970027.88346
  24358589.800   128005245.88508  24358586.900    99744336.28945
  20422599.800   107321500.20109  20422594.740    83627145.54249
  22208955.700   116709011.27409  22208950.800    90942138.97848
  20892804.140   109792437.37209  20892803.580    85552549.21249
  20671969.480   108631988.75209  20671967.420    84648320.19248
 15 02 27 03 56 30.0000000  0 10G01G03G04G11G14G16G19G22G27G32
  22754280.400   119574565.04908  22754281.300    93174997.36847
  24059222.220   126432081.35508  24059223.020    98518508.66846
  20855641.680   109597166.26609  20855639.280    85400395.06448
  21645922.800   113750109.58209  21645918.760    88636443.43947
  22697910.200   119278320.72508  22697908.100    92944145.99347
  24378610.560   128110455.87108  24378607.640    99826318.02245
  20422429.880   107320607.08709  20422424.780    83626449.61149
  22223550.560   116785707.81309  22223545.700    91001902.52248
  20902575.940   109843788.46509  20902575.420    85592563.04649
  20661232.780   108575567.21809  20661230.760    84604355.37248
 15 02 27 03 57  0.0000000  0 10G01G03G04G11G14G16G19G22G27G32
  22742409.360   119512182.25308  22742410.280    93126387.41747
  24040304.140   126332666.37308  24040304.940    98441042.51846
  20849168.640   109563150.28709  20849166.180    85373889.09648
  21633209.200   113683299.11009  21633205.060    88584383.32347
  22691677.240   119245565.11708  22691674.920    92918622.13847
  24398627.440   128215645.39008  24398624.480    99908283.82645
  20422344.620   107320158.74009  20422339.520    83626100.24449
  22238186.460   116862619.86809  22238181.560    91061833.98048
  20912430.600   109895574.92909  20912430.060    85632916.11049
  20650592.020   108519649.84309  20650590.020    84560783.39448
 15 02 27 03 57 30.0000000  0 10G01G03G04G11G14G16G19G22G27G32
  22730558.720   119449906.37208  22730559.600    93077860.78547
  24021420.320   126233431.43708  24021421.040    98363716.66146
  20842737.400   109529353.93509  20842734.920    85347554.29048
  21620530.340   113616671.64809  21620526.280    88532465.83947
  22685532.500   119213273.61009  22685529.820    92893459.95847
  24418640.600   128320815.28708  24418637.740    99990234.35245
  20422344.700   107320158.90609  20422339.580    83626100.37949
  22252863.500   116939747.90809  22252858.580    91121933.75748
  20922368.520   109947799.00409  20922367.960    85673610.19949
  20640047.920   108464240.38709  20640045.960    84517607.21048
 15 02 27 03 58  0.0000000  0 10G01G03G04G11G14G16G19G22G27G32
  22718727.760   119387734.08408  22718728.520    93029414.85547
  24002570.380   126134374.78008  24002571.100    98286529.72746
  20836347.300   109495773.80609  20836344.900    85321387.96048
  21607885.840   113550224.99609  21607881.920    88480689.23547
  22679475.900   119181444.83209  22679472.920    92868658.30246
  24438648.880   128425959.66908  24438646.300   100072164.95345
  20422429.740   107320605.47109  20422424.580    83626448.34649
  22267580.680   117017086.76909  22267575.640    91182197.79348
  20932388.960   110000456.83209  20932388.360    85714642.25849
  20629599.980   108409336.43809  20629598.080    84474824.90948
 15 02 27 03 58 30.0000000  0 10G01G03G04G11G14G16G19G22G27G32
  22706917.180   119325668.83408  22706917.840    92981052.32647
  23983755.360   126035501.42708  23983756.020    98209485.61446
  20829999.100   109462413.90809  20829996.820    85295393.24948
  21595276.680   113483963.99909  21595272.880    88429057.30147
  22673508.120   119150084.08908  22673505.040    92844221.39947
  24458652.380   128531079.03108  24458649.840   100154076.08945
  20422600.480   107321502.55009  20422595.300    83627147.37149
  22282338.240   117094637.71909  22282333.080    91242627.10648
  20942492.460   110053551.30909  20942491.820    85756014.56849
  20619249.080   108354942.42809  20619247.220    84432439.98048
 15 02 27 03 59  0.0000000  0 10G01G03G04G11G14G16G19G22G27G32
  22695126.320   119263706.94708  22695126.820    92932770.34947
  23964974.720   125936809.12808  23964975.320    98132582.59546
  20823692.080   109429270.28909  20823689.880    85269567.06348
  21582702.380   113417885.86109  21582698.660    88377567.85047
  22667629.060   119119189.44608  22667626.080    92820147.66647
  24478649.900   128636166.76008  24478647.300   100235962.54945
  20422856.340   107322846.95609  20422851.120    83628194.96049
  22297135.000   117172394.77609  22297129.760    91303217.02748
  20952678.240   110107078.10709  20952677.540    85797723.75949
  20608994.700   108301055.50509  20608992.860    84390450.18248
 15 02 27 03 59 30.0000000  0 10G01G03G04G11G14G16G19G22G27G32
  22683355.300   119201849.34408  22683355.660    92884569.62547
  23946229.040   125838300.39308  23946229.720    98055822.60145
  20817426.500   109396344.34709  20817424.320    85243910.49448
  21570163.280   113351992.66909  21570159.580    88326222.50747
  22661839.180   119088763.46109  22661836.180    92796439.12247
  24498641.020   128741220.50308  24498638.420   100317822.53745
  20423197.660   107324640.56609  20423192.440    83629592.57649
  22311970.800   117250357.18709  22311965.480    91363966.94748
  20962946.340   110161037.58309  20962945.580    85839770.09849
  20598837.220   108247677.51909  20598835.340    84348856.95748
 15 02 27 04 00  0.0000000  0 10G01G03G04G11G14G16G19G22G27G32
  22671604.940   119140100.59608  22671605.200    92836453.72847
  23927519.440   125739981.28608  23927520.100    97979210.34946
  20811203.180   109363640.53509  20811200.960    85218427.01348
  21557660.440   113286289.99809  21557656.780    88275025.62947
  22656139.720   119058812.66008  22656136.520    92773100.83546
  24518626.220   128846242.98008  24518623.400   100399658.20745
  20423625.680   107326889.78709  20423620.400    83631345.20549
  22326846.040   117328527.19309  22326840.640    91424878.62648
  20973297.540   110215433.63509  20973296.740    85882156.62449
  20588777.660   108194813.83309  20588775.680    84307664.47648
 15 02 27 04 00 30.0000000  0 10G01G03G04G11G14G16G19G22G27G32
  22659874.260   119078455.60608  22659874.480    92788418.67947
  23908845.200   125641848.15708  23908845.940    97902743.05446
  20805021.240   109331154.10809  20805019.020    85193112.91848
  21545193.080   113220773.78209  21545189.480    88223974.03047
  22650530.060   119029333.59508  22650526.780    92750130.15446
  24538603.980   128951226.68607  24538601.160   100481463.59045
  20424139.460   107329589.77409  20424134.180    83633449.08149
  22341759.400   117406897.40709  22341753.980    91485946.32648
  20983730.740   110270260.53709  20983729.920    85924878.88149
  20578815.180   108142460.03209  20578813.080    84266869.31348
 15 02 27 04 01  0.0000000  0 10G01G03G04G11G14G16G19G22G27G32
  22648163.440   119016915.11608  22648163.720    92740465.07147
  23890206.800   125543903.26908  23890207.560    97826422.40546
  20798880.840   109298885.84709  20798878.600    85167968.82448
  21532761.640   113155446.22909  21532758.100    88173069.45347
  22645010.560   119000328.46308  22645007.220    92727528.76147
  24558573.880   129056169.18208  24558571.200   100563236.87745
  20424739.260   107332741.88309  20424733.980    83635905.27249
  22356710.720   117485466.65709  22356705.220    91547169.10948
  20994245.980   110325518.32509  20994245.120    85967936.89049
  20568950.020   108090617.86509  20568947.820    84226472.83548
 15 02 27 04 01 30.0000000  0 10G01G03G04G11G14G16G19G22G27G32
  22636472.800   118955480.80608  22636473.180    92692594.19647
  23871604.900   125446149.79008  23871605.600    97750250.91046
  20792782.320   109266837.63209  20792780.060    85142996.19148
  21520366.620   113090310.10309  21520363.180    88122314.03947
  22639582.000   118971800.88308  22639578.640    92705299.48647
  24578535.760   129161069.43108  24578533.060   100644977.26545
  20425425.580   107336348.81409  20425420.360    83638715.86149
  22371699.840   117564234.55709  22371694.200    91608546.68748
  21004843.400   110381208.00709  21004842.540    86011331.43849
  20559182.640   108039289.73909  20559180.380    84186476.90148
 15 02 27 04 02  0.0000000  0 10G01G03G04G11G14G16G19G22G27G32
  22624801.980   118894150.52208  22624802.400    92644804.37947
  23853039.280   125348587.03008  23853040.000    97674228.03146
  20786725.220   109235007.46409  20786723.020    85118193.48048
  21508007.820   113025364.24709  21508004.400    88071706.89547
  22634244.080   118943750.40208  22634240.760    92683441.99747
  24598488.540   129265922.11508  24598486.180   100726680.53545
  20426198.160   107340409.06909  20426193.040    83641879.70349
  22386725.960   117643196.98509  22386720.260    91670075.83848
  21015522.480   110437326.70909  21015521.640    86055060.28949
  20549512.760   107988474.19009  20549510.500    84146880.39248
 15 02 27 04 02 30.0000000  0 10G01G03G04G11G14G16G19G22G27G32
  22613151.500   118832927.07808  22613151.920    92597097.81347
  23834510.760   125251219.22308  23834511.480    97598357.07046
  20780710.120   109203398.25009  20780707.980    85093562.93548
  21495686.000   112960612.68609  21495682.580    88021251.13947
  22628997.700   118916181.51408  22628994.580    92661959.76546
  24618432.480   129370728.10708  24618430.040   100808347.46944
  20427057.740   107344926.15109  20427052.640    83645399.50049
  22401789.220   117722354.37809  22401783.340    91731756.91748
  21026283.640   110493876.53709  21026282.800    86099125.08049
  20539941.120   107938174.70609  20539938.820    84107685.99548
 15 02 27 04 03  0.0000000  0 10G01G03G04G11G14G16G19G22G27G32
  22601521.060   118771808.82108  22601521.520    92549473.21247
  23816019.340   125154046.22408  23816020.100    97522637.89946
  20774736.780   109172008.43609  20774734.620    85069103.34648
  21483401.040   112896054.69609  21483397.540    87970946.21647
  22623843.040   118889093.84008  22623840.140    92640852.50347
  24638366.680   129475482.73008  24638364.240   100889974.34045
  20428004.120   107349899.21709  20427999.000    83649274.62549
  22416888.860   117801703.13509  22416882.840    91793587.10948
  21037126.400   110550855.08409  21037125.540    86143523.94449
  20530467.520   107888390.41809  20530465.140    84068893.05848
 15 02 27 04 03 30.0000000  0 10G01G03G04G11G14G16G19G22G27G32
  22589910.640   118710795.69708  22589911.120    92501930.51447
  23797565.220   125057069.29708  23797565.980    97447071.52046
  20768805.300   109140838.21109  20768802.940    85044814.86448
  21471153.160   112831691.41509  21471149.520    87920793.00447
  22618780.240   118862489.05909  22618777.460    92620121.51947
  24658290.580   129580183.13208  24658288.060   100971558.97945
  20429037.500   107355329.15809  20429032.300    83653505.73849
  22432024.480   117881241.43109  22432018.540    91855564.97848
  21048050.560   110608261.48309  21048049.640    86188256.19149
  20521092.020   107839121.87309  20521089.600    84030501.98548
 15 02 27 04 04  0.0000000  0 10G01G03G04G11G14G16G19G22G27G32
  22578320.220   118649887.63108  22578320.720    92454469.68847
  23779148.680   124960289.83708  23779149.460    97371659.00246
  20762915.660   109109887.75809  20762913.120    85020697.62148
  21458942.600   112767524.11909  21458938.860    87870792.51847
  22613809.700   118836368.60808  22613806.960    92599767.92347
  24678203.660   129684826.59808  24678201.220   101053099.22745
  20430157.900   107361216.39009  20430152.620    83658093.18549
  22447195.600   117960966.52309  22447189.660    91917688.42648
  21059055.920   110666094.87209  21059055.000    86233321.15749
  20511814.760   107790369.74509  20511812.340    83992513.32648
 15 02 27 04 04 30.0000000  0 10G01G03G04G11G14G16G19G22G27G32
  22566749.940   118589085.40808  22566750.420    92407091.34047
  23760770.200   124863710.08608  23760770.940    97296402.11346
  20757067.980   109079157.78209  20757065.380    84996752.20348
  21446769.620   112703554.44909  21446765.820    87820946.03447
  22608931.680   118810734.99208  22608928.980    92579793.69547
  24698105.600   129789411.25707  24698103.060   101134593.67344
  20431365.600   107367562.50809  20431360.280    83663038.21649
  22462401.960   118040877.30709  22462396.160    91979956.57548
  21070142.480   110724355.27209  21070141.600    86278718.86349
  20502636.020   107742135.34809  20502633.600    83954928.10348
 15 02 27 04 05  0.0000000  0 10G01G03G04G11G14G16G19G22G27G32
  22555199.560   118528387.55908  22555199.960    92359794.31347
  23742429.700   124767329.91108  23742430.380    97221300.72346
  20751261.980   109048647.03509  20751259.480    84972977.60848
  21434634.100   112639782.12609  21434630.360    87771253.32547
  22604146.360   118785588.29709  22604143.720    92560198.88847
  24717995.580   129893932.61507  24717993.140   101216038.81345
  20432660.420   107374366.74609  20432655.100    83668340.21049
  22477643.000   118120970.26609  22477637.380    92042366.67648
  21081309.820   110783040.35009  21081309.020    86324447.48149
  20493555.640   107694417.84409  20493553.260    83917745.63948
 15 02 27 04 05 30.0000000  0 10G01G03G04G11G14G16G19G22G27G32
  22543669.640   118467797.58408  22543670.040    92312581.34547
  23724128.100   124671154.09608  23724128.620    97146358.57747
  20745498.360   109018359.21509  20745496.020    84949376.72248
  21422536.920   112576211.74909  21422533.320    87721717.97947
  22599454.540   118760932.89709  22599452.020    92540986.89847
  24737873.780   129998391.92608  24737871.180   101297435.50745
  20434043.200   107381633.32509  20434037.940    83674002.47949
  22492918.880   118201246.77209  22492913.600    92104919.77848
  21092558.460   110842152.65209  21092557.740    86370509.00249
  20484574.360   107647221.21709  20484572.060    83880969.06448
 15 02 27 04 06  0.0000000  0 10G01G03G04G11G14G16G19G22G27G32
  22532159.900   118407313.98008  22532160.320    92265451.27747
  23705865.400   124575182.82308  23705865.820    97071575.82846
  20739776.920   108988293.01109  20739774.700    84925948.52148
  21410478.100   112512842.97709  21410474.600    87672339.72447
  22594856.400   118736769.75609  22594853.860    92522158.50947
  24757739.400   130102785.24708  24757736.640   101378780.81144
  20435513.760   107389361.53009  20435508.620    83680024.46549
  22508229.060   118281703.49809  22508224.100    92167613.34648
  21103888.040   110901690.06209  21103887.320    86416901.78349
  20475692.060   107600544.69409  20475689.840    83844597.76448
 15 02 27 04 06 30.0000000  0 10G01G03G04G11G14G16G19G22G27G32
  22520669.720   118346933.46508  22520670.340    92218401.53547
  23687641.220   124479413.99008  23687641.540    96996950.80946
  20734097.100   108958445.27909  20734094.860    84902690.55448
  21398457.300   112449673.75909  21398453.840    87623116.96547
  22590351.440   118713096.44608  22590348.960    92503711.78747
  24777591.140   130207106.34608  24777588.460   101460069.78445
  20437071.580   107397548.35009  20437066.520    83686403.80149
  22523572.540   118362334.71809  22523567.800    92230442.87447
  21115297.680   110961648.27209  21115296.980    86463622.45649
  20466908.220   107554385.45609  20466906.060    83808629.54148
 15 02 27 04 07  0.0000000  0 10G01G03G04G11G14G16G19G22G27G32
  22509200.320   118286661.93108  22509201.140    92171436.72847
  23669456.920   124383854.83308  23669457.180    96922489.16746
  20728459.960   108928821.90609  20728457.680    84879607.42448
  21386475.880   112386710.97209  21386472.380    87574055.06547
  22585941.140   118689920.34708  22585938.760    92485652.49347
  24797429.780   130311358.39107  24797427.320   101541305.04544
  20438717.940   107406200.44509  20438712.920    83693145.69649
  22538950.020   118443144.47509  22538945.360    92293411.50448
  21126788.380   111022032.27409  21126787.660    86510674.91549
  20458224.040   107508749.86609  20458221.900    83773069.35548
 15 02 27 04 07 30.0000000  0 10G01G03G04G11G14G16G19G22G27G32
  22497750.400   118226492.71308  22497751.400    92124551.63347
  23651311.480   124288500.08408  23651311.700    96848186.80946
  20722864.280   108899416.55309  20722861.980    84856694.17748
  21374532.780   112323949.31609  21374529.220    87525149.87947
  22581624.500   118667236.21409  22581622.100    92467976.56347
  24817253.560   130415532.10108  24817250.940   101622479.31244
  20440451.700   107415311.67809  20440446.700    83700245.35849
  22554359.880   118524124.09409  22554355.140    92356512.50347
  21138358.660   111082834.49809  21138357.920    86558053.26349
  20449638.320   107463631.75809  20449636.180    83737912.39648
 15 02 27 04 08  0.0000000  0 10G01G03G04G11G14G16G19G22G27G32
  22486321.020   118166431.15808  22486322.100    92077750.42947
  23633206.180   124193356.37908  23633206.460    96774048.88047
  20717311.120   108870234.49809  20717308.820    84833954.92148
  21362629.180   112261395.22109  21362625.580    87476406.43747
  22577402.840   118645050.78408  22577400.340    92450689.22847
  24837062.760   130519629.81608  24837060.220   101703594.23644
  20442273.980   107424887.97909  20442269.000    83707707.40249
  22569802.720   118605276.62609  22569798.100    92419748.22848
  21150009.340   111144059.27709  21150008.580    86605760.87349
  20441152.120   107419036.83609  20441150.000    83703163.11448
 15 02 27 04 08 30.0000000  0 10G01G03G04G11G14G16G19G22G27G32
  22474911.620   118106474.36408  22474912.760    92031030.85448
  23615140.700   124098422.13708  23615141.000    96700074.18146
  20711800.060   108841273.19609  20711797.680    84811387.66748
  21350764.700   112199046.70809  21350761.040    87427823.18247
  22573275.740   118623362.48309  22573273.180    92433789.25347
  24856856.540   130623646.30707  24856854.100   101784645.96145
  20444184.340   107434926.91509  20444179.300    83715529.94449
  22585277.560   118686596.79709  22585272.560    92483114.59147
  21161739.660   111205702.83409  21161738.900    86653794.79349
  20432765.040   107374962.70609  20432762.980    83668819.64148
 15 02 27 04 09  0.0000000  0 10G01G03G04G11G14G16G19G22G27G32
  22463522.900   118046625.53508  22463523.940    91984395.41547
  23597115.940   124003701.92808  23597116.340    96626266.26947
  20706331.620   108812535.84509  20706329.140    84788994.92648
  21338940.200   112136908.34909  21338936.500    87379403.68647
  22569244.080   118602175.72708  22569241.540    92417280.11347
  24876634.900   130727581.83508  24876632.500   101865634.55245
  20446183.520   107445432.54809  20446178.440    83723716.14549
  22600784.640   118768086.50609  22600779.480    92546613.05547
  21173550.060   111267767.34409  21173549.380    86702156.73449
  20424477.820   107331413.02409  20424475.800    83634884.84248
 15 02 27 04 09 30.0000000  0 10G01G03G04G11G14G16G19G22G27G32
  22452154.140   117986881.55708  22452154.980    91937841.68848
  23579131.540   123909193.87008  23579131.980    96552623.66746
  20700905.140   108784019.46409  20700902.620    84766774.37748
  21327155.240   112074977.66109  21327151.500    87331146.01347
  22565307.520   118581488.84909  22565305.020    92401160.48447
  24896396.720   130831430.50408  24896394.260   101946555.50844
  20448270.940   107456401.82009  20448265.840    83732263.62849
  22616322.920   118849740.17509  22616317.520    92610239.27247
  21185439.800   111330248.69109  21185439.180    86750843.48849
  20416289.880   107288384.93609  20416287.820    83601356.47248
 15 02 27 04 10  0.0000000  0 10G01G03G04G11G14G16G19G22G27G32
  22440805.520   117927243.45708  22440806.120    91891370.46448
  23561187.980   123814900.26508  23561188.520    96479148.18646
  20695520.880   108755725.10709  20695518.380    84744726.83148
  21315410.220   112013257.20409  21315406.560    87283052.15948
  22561466.520   118561304.22909  22561463.900    92385432.22347
  24916141.900   130935191.61808  24916139.660   102027408.16945
  20450446.920   107467836.59309  20450441.780    83741173.83449
  22631892.220   118931556.46309  22631886.540    92673992.21447
  21197408.900   111393146.83309  21197408.280    86799855.01949
  20408201.480   107245879.82009  20408199.340    83568235.61548
