     2.11           OBSERVATION DATA    G                   RINEX VERSION / TYPE
SPIDER V4,0,0,3554                      2015 03 24 04:44    PGM / RUN BY / DATE 
OJGS                                                        MARKER NAME         
OJGS                                                        MARKER NUMBER       
                                                            OBSERVER / AGENCY   
496552              LEICA GRX1200+GNSS  8.20/4.007          REC # / TYPE / VERS 
10401003            LEIAR25         NONE                    ANT # / TYPE        
  5198100.9450    88691.2920  3684205.7148                  APPROX POSITION XYZ 
        0.1200        0.0000        0.0000                  ANTENNA: DELTA H/E/N
     1     1                                                WAVELENGTH FACT L1/2
     4    C1    L1    P2    L2                              # / TYPES OF OBSERV 
    30.000                                                  INTERVAL            
  2015    02    27    00    00    0.0000000     GPS         TIME OF FIRST OBS   
  2015    02    27    19    00   30.0000000     GPS         TIME OF LAST OBS    
    16                                                      LEAP SECONDS        
    30                                                      # OF SATELLITES     
   G 1   833   833   833   833                              PRN / # OF OBS      
   G 2   627   627   627   627                              PRN / # OF OBS      
   G 3   839   839   839   839                              PRN / # OF OBS      
   G 4   844   844   844   844                              PRN / # OF OBS      
   G 5   674   674   673   673                              PRN / # OF OBS      
   G 6   689   688   688   688                              PRN / # OF OBS      
   G 7   724   724   724   724                              PRN / # OF OBS      
   G 9   783   782   782   782                              PRN / # OF OBS      
   G10   784   784   784   784                              PRN / # OF OBS      
   G11   798   798   798   798                              PRN / # OF OBS      
   G12   455   455   455   455                              PRN / # OF OBS      
   G13   822   822   822   822                              PRN / # OF OBS      
   G14   565   563   564   563                              PRN / # OF OBS      
   G15   716   715   715   715                              PRN / # OF OBS      
   G16   498   498   498   498                              PRN / # OF OBS      
   G17   930   929   929   929                              PRN / # OF OBS      
   G18   808   808   808   808                              PRN / # OF OBS      
   G19   782   782   782   782                              PRN / # OF OBS      
   G20   803   803   803   803                              PRN / # OF OBS      
   G21   298   298   298   298                              PRN / # OF OBS      
   G22   771   771   771   771                              PRN / # OF OBS      
   G23   727   726   726   726                              PRN / # OF OBS      
   G24   595   595   595   595                              PRN / # OF OBS      
   G25   281   280   280   280                              PRN / # OF OBS      
   G27   681   681   681   681                              PRN / # OF OBS      
   G28   913   913   913   913                              PRN / # OF OBS      
   G29   153   153   153   153                              PRN / # OF OBS      
   G30   692   692   691   691                              PRN / # OF OBS      
   G31   263   262   262   262                              PRN / # OF OBS      
   G32   740   740   740   740                              PRN / # OF OBS      
BIT 2 OF LLI FLAGS DATA COLLECTED UNDER A/S CONDITION       COMMENT             
SNR is mapped to RINEX snr flag value [2-9]                 COMMENT             
Lx:     = 25dBHz -> 1; 26-27dBHz -> 2; 28-31dBHz -> 3       COMMENT             
       32-35dBHz -> 4; 36-38dBHz -> 5; 39-41dBHz -> 6       COMMENT             
       42-44dBHz -> 7; 45-48dBHz -> 8; >=49dBHz -> 9        COMMENT             
                                                            END OF HEADER       
 15 02 27 00 00  0.0000000  0  7G16G18G21G22G27G29G31
  21638961.860   113713517.28209  21638957.880    88607931.81847
  22877422.980   120221773.91409  22877420.560    93679344.43746
  21352297.280   112207507.44408  21352293.600    87434608.33448
  24119777.020   126750358.82908  24119775.200    98766536.46445
  22695302.060   119264644.65308  22695301.800    92933499.64348
  24162693.800   126976299.36808  24162692.380    98942787.32546
  22701437.180   119296874.92809  22701434.560    92958611.36547
 15 02 27 00 00 30.0000000  0  7G16G18G21G22G27G29G31
  21625891.260   113644831.23109  21625887.300    88554410.23847
  22865793.840   120160662.13709  22865791.340    93631724.88546
  21359667.820   112246239.75609  21359664.140    87464789.35948
  24102425.300   126659177.16808  24102423.420    98695486.29246
  22683526.520   119202764.04808  22683526.240    92885281.01247
  24177202.280   127052541.19008  24177200.940    99002196.48947
  22718691.460   119387546.52209  22718688.800    93029264.51947
 15 02 27 00 01  0.0000000  0  7G16G18G21G22G27G29G31
  21612868.200   113576394.84909  21612864.300    88501083.19148
  22854215.400   120099816.75909  22854212.880    93584312.93146
  21367105.280   112285323.52309  21367101.560    87495244.24048
  24085069.960   126567976.52408  24085068.080    98624421.31445
  22671775.760   119141012.91008  22671775.300    92837163.26047
  24191711.380   127128786.21908  24191710.040    99061608.15646
  22735986.820   119478433.93409  22735984.140    93100085.83747
 15 02 27 00 01 30.0000000  0  7G16G18G21G22G27G29G31
  21599892.620   113508207.53209  21599888.640    88447950.21748
  22842687.580   120039237.77409  22842685.040    93537108.54346
  21374608.700   112324754.25009  21374604.980    87525969.48248
  24067710.840   126476756.08208  24067708.880    98553340.89645
  22660049.160   119079388.49108  22660048.600    92789144.24548
  24206220.360   127205031.55507  24206218.960    99121020.07846
  22753322.200   119569531.62709  22753319.440    93171071.00747
 15 02 27 00 02  0.0000000  0  7G16G18G21G22G27G29G31
  21586964.920   113440271.76309  21586960.900    88395013.25448
  22831211.020   119978928.07609  22831208.400    93490113.99046
  21382177.980   112364531.26708  21382174.300    87556964.55448
  24050348.560   126385518.91008  24050346.520    98482247.39446
  22648346.780   119017891.21508  22648346.200    92741224.29248
  24220729.380   127281277.92307  24220728.100    99180432.77746
  22770697.120   119660837.20609  22770694.320    93242218.16247
 15 02 27 00 02 30.0000000  0  7G16G18G21G22G27G29G31
  21574085.180   113372588.30109  21574081.180    88342272.89348
  22819785.820   119918888.18209  22819783.180    93443329.67546
  21389812.460   112404650.85608  21389808.800    87588226.56948
  24032983.300   126294265.94508  24032981.200    98411141.58846
  22636668.180   118956519.20308  22636667.440    92693401.96348
  24235238.420   127357523.03608  24235237.140    99239844.49446
  22788110.680   119752345.94209  22788107.920    93313523.62647
 15 02 27 00 03  0.0000000  0  7G16G18G21G22G27G29G31
  21561253.580   113305158.38509  21561249.720    88289730.11748
  22808412.420   119859120.59309  22808409.760    93396757.54646
  21397511.740   112445111.06408  21397508.120    87619754.00848
  24015615.560   126202999.73608  24015613.400    98340025.44946
  22625013.320   118895272.10908  22625012.520    92645676.97747
  24249747.380   127433766.74308  24249745.960    99299255.16046
  22805562.360   119844054.80309  22805559.580    93384985.03747
 15 02 27 00 03 30.0000000  0  7G16G18G21G22G27G29G31
  21548471.180   113237986.82909  21548467.480    88237388.65148
  22797091.840   119799630.56409  22797089.160    93350401.69846
  21405276.060   112485913.07208  21405272.440    87651547.77048
  23998246.400   126111725.79008  23998244.220    98268903.22946
  22613382.700   118834152.60508  22613381.860    92598051.40848
  24264256.520   127510011.65608  24264254.700    99358666.77045
  22823052.060   119935963.57609  22823049.320    93456602.20747
 15 02 27 00 04  0.0000000  0  7G16G18G21G22G27G29G31
  21535738.900   113171078.29909  21535735.140    88185252.12848
  22785824.920   119740422.68409  22785822.320    93304265.70246
  21413105.480   112527057.21408  21413101.860    87683608.14348
  23980876.680   126020448.70908  23980874.300    98197778.57046
  22601776.660   118773162.95708  22601775.920    92550527.01848
  24278765.960   127586259.83707  24278763.820    99418080.89245
  22840579.640   120028071.44109  22840576.920    93528374.52347
 15 02 27 00 04 30.0000000  0  7G16G18G21G22G27G29G31
  21523056.380   113104431.42209  21523052.720    88133319.50748
  22774611.420   119681495.44909  22774608.840    93258348.39446
  21420999.060   112568538.44908  21420995.460    87715931.18348
  23963506.160   125929167.41608  23963503.580    98126650.61046
  22590194.640   118712299.56708  22590193.900    92503101.00648
  24293275.300   127662507.57208  24293273.260    99477494.71846
  22858143.920   120120372.25909  22858141.220    93600297.18247
 15 02 27 00 05  0.0000000  0  7G16G18G21G22G27G29G31
  21510423.220   113038043.71509  21510419.520    88081588.82448
  22763451.040   119622847.09909  22763448.300    93212648.38546
  21428955.620   112610350.46208  21428952.020    87748511.97048
  23946134.460   125837880.20808  23946131.940    98055518.03246
  22578635.800   118651557.86808  22578634.980    92455769.82248
  24307783.940   127738750.59308  24307782.220    99536904.82946
  22875743.480   120212858.34509  22875740.740    93672364.20947
 15 02 27 00 05 30.0000000  0  7G16G18G21G22G27G29G31
  21497841.040   112971924.21509  21497837.400    88030067.14848
  22752345.520   119564487.33109  22752342.720    93167173.26646
  21436976.060   112652498.34808  21436972.440    87781354.47748
  23928763.500   125746596.38208  23928760.860    97984388.05846
  22567101.520   118590944.54708  22567100.580    92408538.67947
  24322292.980   127814995.48208  24322291.380    99596316.38846
  22893379.060   120305533.50709  22893376.180    93744578.57647
 15 02 27 00 06  0.0000000  0  7G16G18G21G22G27G29G31
  21485310.140   112906074.22509  21485306.600    87978755.46548
  22741295.140   119506417.36309  22741292.240    93121923.95146
  21445060.000   112694979.62408  21445056.320    87814456.77048
  23911393.560   125655318.16108  23911391.000    97913262.45246
  22555591.520   118530458.94208  22555590.540    92361407.04448
  24336802.160   127891241.52208  24336800.740    99655728.82246
  22911049.940   120398394.42409  22911047.020    93816937.67547
 15 02 27 00 06 30.0000000  0  7G16G18G21G22G27G29G31
  21472830.820   112840495.20009  21472827.340    87927654.93148
  22730300.280   119448639.16809  22730297.420    93076901.99346
  21453206.800   112737791.43308  21453203.060    87847816.61548
  23894025.040   125564047.22808  23894022.540    97842142.49946
  22544105.580   118470100.26908  22544104.680    92314374.33348
  24351311.320   127967487.73308  24351309.860    99715141.41545
  22928755.480   120491437.42609  22928752.520    93889438.65447
 15 02 27 00 07  0.0000000  0  7G16G18G21G22G27G29G31
  21460402.600   112775184.67909  21460399.200    87876763.61148
  22719360.480   119391150.15209  22719357.640    93032105.37946
  21461415.500   112780928.39608  21461411.740    87881429.83548
  23876657.660   125472781.83708  23876655.040    97771026.83946
  22532642.980   118409863.86808  22532642.120    92267436.88648
  24365819.800   128043729.90308  24365818.240    99774550.91045
  22946494.160   120584654.65809  22946491.240    93962075.40947
 15 02 27 00 07 30.0000000  0  7G16G18G21G22G27G29G31
  21448027.120   112710151.15009  21448023.800    87826088.13448
  22708477.460   119333959.44809  22708474.640    92987541.20546
  21469686.900   112824394.56708  21469683.040    87915299.57348
  23859293.060   125381531.01308  23859290.320    97699922.53246
  22521204.800   118349756.17908  22521204.100    92220599.73348
  24380328.600   128119973.97208  24380326.920    99833961.85746
  22964266.720   120678050.04909  22964263.920    94034850.97147
 15 02 27 00 08  0.0000000  0  7G16G18G21G22G27G29G31
  21435704.420   112645395.37609  21435701.200    87775629.09448
  22697651.380   119277067.99309  22697648.500    92943210.21146
  21478020.340   112868186.83009  21478016.380    87949423.41648
  23841931.440   125290295.92508  23841928.680    97628830.47646
  22509790.820   118289775.78708  22509790.080    92173861.77648
  24394837.360   128196218.72008  24394835.940    99893373.27846
  22982072.400   120771619.16409  22982069.540    94107761.91247
 15 02 27 00 08 30.0000000  0  7G16G18G21G22G27G29G31
  21423434.760   112580918.41709  21423431.580    87725387.31348
  22686882.440   119220476.67609  22686879.580    92899113.10646
  21486415.320   112912302.44009  21486411.240    87983799.22048
  23824573.060   125199077.86308  23824570.300    97557751.67246
  22498400.740   118229921.24808  22498400.080    92127221.88448
  24409346.120   128272462.72908  24409344.780    99952784.14146
  22999910.320   120865357.69809  22999907.440    94180804.86747
 15 02 27 00 09  0.0000000  0  7G16G18G21G22G27G29G31
  21411217.960   112516719.05709  21411214.840    87675361.85248
  22676170.440   119164184.63609  22676167.540    92855249.20146
  21494870.820   112956736.18008  21494866.640    88018422.91448
  23807217.860   125107876.31808  23807215.140    97486685.72946
  22487034.040   118170189.31208  22487033.340    92080677.53548
  24423854.280   128348702.65408  24423852.740   100012191.84546
  23017779.300   120959259.34109  23017776.340    94253974.92347
 15 02 27 00 09 30.0000000  0  7G16G18G21G22G27G29G31
  21399055.360   112452804.20409  21399052.300    87625558.05948
  22665516.840   119108199.67209  22665513.980    92811624.56446
  21503387.500   113001491.53608  21503383.260    88053297.20848
  23789867.280   125016698.98808  23789864.420    97415638.63946
  22475691.640   118110585.12608  22475690.900    92034232.72248
  24438362.660   128424943.42908  24438360.760   100071600.21045
  23035679.780   121053326.53309  23035676.740    94327273.96047
 15 02 27 00 10  0.0000000  0  7G16G18G21G22G27G29G31
  21386947.100   112389174.89209  21386944.020    87575976.78348
  22654921.940   119052523.17009  22654919.080    92768240.29946
  21511964.880   113046565.75909  21511960.600    88088419.98648
  23772521.620   124925547.56008  23772518.620    97344611.73746
  22464373.420   118051107.47608  22464372.480    91987886.51648
  24452870.820   128501184.14608  24452868.700   100131008.54245
  23053610.960   121147555.17309  23053607.860    94400698.81147
 15 02 27 00 10 30.0000000  0  7G16G18G21G22G27G29G31
  21374893.540   112325833.00409  21374890.420    87526619.47248
  22644385.960   118997156.05909  22644383.060    92725097.10446
  21520602.440   113091956.23509  21520598.180    88123789.18448
  23755181.240   124834424.00508  23755178.140    97273606.54146
  22453079.160   117991755.64708  22453078.260    91941638.34848
  24467378.740   128577424.09208  24467376.920   100190416.26046
  23071572.140   121241941.61409  23071569.040    94474246.62147
 15 02 27 00 11  0.0000000  0  7G16G18G21G22G27G29G31
  21362895.280   112262781.69609  21362892.180    87477488.57848
  22633909.600   118942102.21309  22633906.660    92682198.01946
  21529299.860   113137661.24409  21529295.620    88159403.48348
  23737846.860   124743331.98708  23737843.680    97202625.89846
  22441809.060   117932530.53008  22441808.140    91895488.91848
  24481886.720   128653663.93208  24481884.980   100249823.85346
  23089562.960   121336483.88509  23089559.860    94547915.85447
 15 02 27 00 11 30.0000000  0  7G16G18G21G22G27G29G31
  21350952.160   112200020.32709  21350949.040    87428583.61748
  22623492.800   118887361.54709  22623489.800    92639542.95946
  21538056.640   113183678.18409  21538052.420    88195260.83348
  23720518.600   124652271.64508  23720515.260    97131669.95546
  22430562.680   117873429.83409  22430561.680    91849436.43848
  24496394.300   128729901.48508  24496392.680   100309229.69446
  23107582.440   121431176.81109  23107579.340    94621702.46547
 15 02 27 00 12  0.0000000  0  7G16G18G21G22G27G29G31
  21339064.940   112137552.78709  21339061.880    87379907.61248
  22613136.300   118832937.80609  22613133.180    92597134.86546
  21546872.620   113230006.70609  21546868.500    88231360.97348
  23703197.200   124561247.71208  23703193.880    97060742.36046
  22419340.340   117814455.25709  22419339.260    91803482.22448
  24510901.760   128806138.34408  24510900.100   100368635.01845
  23125630.360   121526019.08609  23125627.320    94695605.46947
 15 02 27 00 12 30.0000000  0  7G16G18G21G22G27G29G31
  21327234.140   112075381.55309  21327231.100    87331462.50148
  22602840.660   118778833.69209  22602837.480    92554975.83246
  21555747.480   113276644.32609  21555743.400    88267701.97448
  23685883.200   124470262.76908  23685879.920    96989845.15646
  22408141.980   117755606.87608  22408140.780    91757626.35948
  24525409.060   128882374.78108  24525407.460   100428039.99946
  23143706.180   121621007.77309  23143703.080    94769622.55647
 15 02 27 00 13  0.0000000  0  7G16G18G21G22G27G29G31
  21315460.160   112013508.42109  21315457.040    87283249.67348
  22592606.140   118725051.08409  22592602.960    92513067.31346
  21564680.820   113323589.29709  21564676.840    88304282.46548
  23668577.120   124379319.25708  23668573.820    96918980.22246
  22396967.560   117696884.33709  22396966.220    91711868.55348
  24539916.120   128958610.29808  24539914.640   100487444.23946
  23161809.280   121716139.90609  23161806.240    94843751.41347
 15 02 27 00 13 30.0000000  0  7G16G18G21G22G27G29G31
  21303743.340   111951935.84309  21303740.140    87235271.04748
  22582433.240   118671592.63309  22582430.180    92471411.39946
  21573672.500   113370840.76309  21573668.560    88341101.78748
  23651279.540   124288420.47508  23651276.240    96848150.14246
  22385817.160   117638288.04309  22385815.680    91666209.12248
  24554423.240   129034845.52008  24554421.840   100546848.26346
  23179939.180   121811412.95009  23179936.220    94917990.07147
 15 02 27 00 14  0.0000000  0  6G16G18G21G22G27G31
  21292084.240   111890666.37809  21292080.940    87187528.60748
  22572322.580   118618461.22909  22572319.580    92430010.31446
  21582722.100   113418396.63209  21582718.200    88378158.30648
  23633991.000   124197569.31708  23633987.660    96777357.16146
  22374690.780   117579818.33009  22374689.240    91620648.31948
  23198095.400   121906824.24609  23198092.520    94992336.44747
 15 02 27 00 14 30.0000000  0  6G16G18G21G22G27G31
  21280482.900   111829700.71009  21280479.520    87140022.90348
  22562274.260   118565657.34009  22562271.320    92388864.44646
  21591829.020   113466254.01108  21591825.180    88415449.76648
  23616711.700   124106766.73208  23616708.280    96706602.03146
  22363588.160   117521473.67109  22363586.580    91575184.96048
  23216277.080   122002369.24109  23216274.280    95066786.99947
 15 02 27 00 15  0.0000000  0  6G16G18G21G22G27G31
  21268940.200   111769043.35409  21268936.760    87092757.42148
  22552289.120   118513185.46909  22552286.240    92347977.28346
  21600993.380   113514413.21109  21600989.660    88452976.40148
  23599442.580   124016017.72408  23599439.180    96635888.63147
  22352509.760   117463256.28909  22352508.180    91529820.76648
  23234484.080   122098047.37808  23234481.360    95141341.30147
 15 02 27 00 15 30.0000000  0  6G16G18G21G22G27G31
  21257455.620   111708691.15609  21257452.120    87045729.74248
  22542366.660   118461042.85009  22542363.780    92307346.68546
  21610213.900   113562867.66808  21610210.300    88490733.12148
  23582183.380   123925320.35508  23582179.900    96565215.47346
  22341454.660   117405161.26409  22341453.020    91484551.93348
  23252714.940   122193850.69209  23252712.180    95215993.15247
 15 02 27 00 16  0.0000000  0  7G16G18G19G21G22G27G31
  21246031.000   111648654.01809  21246027.460    86998947.56148
  22532508.820   118409239.61409  22532505.960    92266980.53946
  24538515.380   128950769.87708  24538510.880   100481106.88745
  21619491.580   113611622.85208  21619488.080    88528724.16148
  23564935.940   123834684.76608  23564932.300    96494590.45246
  22330424.320   117347196.27909  22330422.740    91439384.42648
  23270970.560   122289784.11309  23270967.720    95290746.36447
 15 02 27 00 16 30.0000000  0  7G16G18G19G21G22G27G31
  21234659.660   111588897.06509  21234656.180    86952383.71248
  22522708.920   118357740.77109  22522706.080    92226851.58946
  24523413.640   128871406.28207  24523408.220   100419265.05545
  21628819.180   113660640.24308  21628815.680    88566919.53148
  23547693.740   123744076.82208  23547690.080    96423986.96546
  22319411.680   117289324.30709  22319410.120    91394289.38948
  23289243.300   122385807.56009  23289240.500    95365569.73446
 15 02 27 00 17  0.0000000  0  7G16G18G19G21G22G27G31
  21223355.340   111529492.57009  21223351.900    86906094.48548
  22512980.640   118306618.23309  22512977.720    92187015.85146
  24508335.180   128792169.42708  24508330.420   100357522.11746
  21638209.640   113709987.91708  21638206.180    88605372.25148
  23530470.580   123653568.83108  23530466.760    96353461.36046
  22308430.000   117231615.24709  22308428.440    91349321.29448
  23307545.920   122481988.04109  23307543.140    95440515.41646
 15 02 27 00 17 30.0000000  0  7G16G18G19G21G22G27G31
  21212110.700   111470401.98209  21212107.360    86860049.89148
  22503316.820   118255834.41409  22503313.820    92147444.06646
  24493273.340   128713019.44907  24493269.000   100295846.83645
  21647654.960   113759623.63708  21647651.560    88644049.43048
  23513259.400   123563123.55908  23513255.340    96282984.62346
  22297471.620   117174028.72909  22297470.000    91304448.70448
  23325870.100   122578282.01808  23325867.380    95515549.49147
 15 02 27 00 18  0.0000000  0  7G16G18G19G21G22G27G31
  21200926.740   111411630.13109  21200923.400    86814253.63748
  22493718.280   118205393.75909  22493715.200    92108139.66246
  24478228.400   128633957.96608  24478224.240   100234240.50446
  21657155.240   113809547.80108  21657151.860    88682951.36548
  23496061.060   123472745.92208  23496056.900    96212560.57446
  22286537.040   117116567.21309  22286535.380    91259673.50048
  23344215.920   122674689.53509  23344213.340    95590672.04747
 15 02 27 00 18 30.0000000  0  7G16G18G19G21G22G27G31
  21189804.320   111353181.29009  21189800.860    86768709.08248
  22484185.940   118155300.68309  22484182.820    92069106.11446
  24463200.720   128554987.55808  24463196.380   100172705.16044
  21666710.560   113859761.20708  21666707.160    88722078.68648
  23478876.600   123382440.95908  23478872.300    96142193.16346
  22275626.700   117059232.88709  22275625.020    91214997.41248
  23362583.180   122771209.70909  23362580.740    95665882.39246
 15 02 27 00 19  0.0000000  0  7G16G18G19G21G22G27G31
  21178743.480   111295056.09209  21178739.900    86723416.71548
  22474719.760   118105555.64209  22474716.740    92030343.75546
  24448190.060   128476106.80408  24448185.820   100111239.63145
  21676320.240   113910260.09608  21676316.680    88761428.46648
  23461706.200   123292209.89308  23461701.760    96071883.33846
  22264740.320   117002024.30609  22264738.480    91170419.29548
  23380971.100   122867838.04809  23380968.640    95741177.00546
 15 02 27 00 19 30.0000000  0  7G16G18G19G21G22G27G31
  21167743.900   111237253.15009  21167740.420    86678375.48348
  22465319.520   118056157.14509  22465316.580    91991851.45246
  24433195.940   128397311.82707  24433191.700   100049840.94645
  21685983.280   113961039.43208  21685979.520    88800996.78048
  23444549.620   123202051.67008  23444545.140    96001630.26746
  22253877.080   116944937.78909  22253875.220    91125936.31948
  23399378.380   122964568.03008  23399375.880    95816550.89446
 15 02 27 00 20  0.0000000  0  7G16G18G19G21G22G27G31
  21156807.760   111179783.38409  21156804.340    86633593.85148
  22455987.420   118007116.68109  22455984.440    91953638.11246
  24418219.760   128318612.23508  24418215.440    99988516.66845
  21695701.080   114012106.48509  21695697.240    88840789.29348
  23427409.180   123111977.98408  23427404.520    95931443.05546
  22243038.740   116887982.52709  22243037.020    91081555.60648
  23417806.160   123061405.76408  23417803.640    95892008.74447
 15 02 27 00 20 30.0000000  0  7G16G18G19G21G22G27G31
  21145933.280   111122637.49009  21145929.880    86589064.58948
  22446721.620   117958424.54909  22446718.660    91915696.21046
  24403259.740   128239996.22608  24403255.260    99927257.44345
  21705471.040   114063447.72409  21705467.180    88880795.45747
  23410283.160   123021980.14608  23410278.360    95861314.96046
  22232223.180   116831146.81409  22232221.580    91037268.05448
  23436251.640   123158336.66908  23436249.080    95967539.14946
 15 02 27 00 21  0.0000000  0  7G16G18G19G21G22G27G31
  21135122.960   111065828.67309  21135119.520    86544797.98048
  22437524.600   117910093.81509  22437521.560    91878035.90746
  24388317.640   128161474.92408  24388313.440    99866072.08045
  21715294.980   114115072.59109  21715291.020    88921022.62447
  23393174.280   122932072.21809  23393169.340    95791256.91146
  22221432.580   116774441.87009  22221430.900    90993082.38748
  23454716.380   123255369.10408  23454713.920    96043148.71847
 15 02 27 00 21 30.0000000  0  7G16G18G19G21G22G27G31
  21124376.200   111009353.94709  21124372.600    86500791.69248
  22428395.760   117862121.49209  22428392.740    91840654.88946
  24373392.540   128083043.10408  24373388.500    99804956.37446
  21725171.440   114166973.58909  21725167.380    88961464.95447
  23376081.980   122842251.55908  23376077.000    95721266.85946
  22210665.880   116717862.50109  22210664.220    90948994.58848
  23473198.900   123352494.94508  23473196.580    96118831.11447
 15 02 27 00 22  0.0000000  0  7G16G18G19G21G22G27G31
  21113693.600   110953216.21809  21113689.880    86457048.00648
  22419335.740   117814510.57109  22419332.700    91803555.48446
  24358484.660   128004701.84708  24358480.800    99743911.28246
  21735100.240   114219149.88208  21735096.180    89002121.80447
  23359007.020   122752521.85208  23359001.920    95651347.68546
  22199923.200   116661409.61509  22199921.600    90905005.33848
  23491698.800   123449712.25808  23491696.640    96194584.73947
 15 02 27 00 22 30.0000000  0  7G16G18G19G21G22G27G31
  21103075.400   110897417.16909  21103071.700    86413568.22948
  22410344.860   117767262.94609  22410341.720    91766739.15846
  24343593.860   127926450.53608  24343589.960    99682936.28545
  21745081.080   114271599.54008  21745077.000    89042991.66747
  23341949.740   122662885.09409  23341944.480    95581500.93846
  22189204.540   116605082.81109  22189203.060    90861114.32848
  23510215.440   123547017.39608  23510213.320    96270406.78546
 15 02 27 00 23  0.0000000  0  7G16G18G19G21G22G27G31
  21092522.380   110841960.50709  21092518.680    86370355.24948
  22401423.740   117720382.05509  22401420.540    91730208.60746
  24328720.540   127848290.89308  24328716.240    99622032.71245
  21755113.800   114324322.05008  21755109.780    89084074.13447
  23324911.040   122573345.87909  23324905.580    95511730.19546
  22178510.140   116548883.67209  22178508.800    90817322.80148
  23528748.500   123644409.03108  23528746.520    96346296.21847
 15 02 27 00 23 30.0000000  0  7G16G18G19G21G22G27G31
  21082034.020   110786843.49009  21082030.300    86327406.92148
  22392571.820   117673864.84609  22392568.620    91693961.45246
  24313863.800   127770218.20208  24313859.140    99561196.88145
  21765197.200   114377310.81608  21765193.340    89125364.08047
  23307890.440   122483902.02009  23307884.860    95442033.75146
  22167839.100   116492807.42009  22167837.860    90773627.03548
  23547296.620   123741879.78108  23547294.760    96422247.27547
 15 02 27 00 24  0.0000000  0  7G16G18G19G21G22G27G31
  21071612.500   110732077.76209  21071608.720    86284732.33248
  22383791.400   117627723.45409  22383788.200    91658007.13746
  24299025.180   127692241.93408  24299021.000    99500436.20345
  21775332.660   114430573.54308  21775328.940    89166867.49648
  23290890.320   122394565.93109  23290884.740    95372421.29246
  22157193.280   116436863.66809  22157192.200    90730034.50748
  23565861.060   123839435.92809  23565859.220    96498264.81946
 15 02 27 00 24 30.0000000  0  7G16G18G19G21G22G27G31
  21061256.440   110677656.24709  21061252.680    86242325.95648
  22375081.000   117581950.09009  22375077.860    91622339.59747
  24284203.280   127614352.82108  24284198.920    99439743.40845
  21785518.220   114484099.18808  21785514.580    89208575.77848
  23273909.420   122305330.64109  23273903.760    95302887.36546
  22146570.940   116381043.10709  22146569.940    90686537.97048
  23584439.440   123937065.22008  23584437.640    96574339.31146
 15 02 27 00 25  0.0000000  0  7G16G18G19G21G22G27G31
  21050967.160   110623585.51609  21050963.400    86200192.91348
  22366441.880   117536551.40809  22366438.740    91586964.00747
  24269398.760   127536555.59608  24269394.420    99379122.25245
  21795754.380   114537890.60608  21795750.780    89250491.15848
  23256949.100   122216203.97009  23256943.480    95233438.07946
  22135972.940   116325350.48309  22135972.040    90643141.12948
  23603032.180   124034769.75808  23603030.480    96650472.44846
 15 02 27 00 25 30.0000000  0  7G16G18G19G21G22G27G31
  21040745.280   110569868.69109  21040741.400    86158335.63648
  22357874.740   117491530.89909  22357871.580    91551883.09746
  24254611.880   127458851.20508  24254607.980    99318573.41646
  21806040.980   114591946.97508  21806037.400    89292612.99847
  23240010.160   122127189.56609  23240004.600    95164076.26746
  22125399.400   116269786.72809  22125398.660    90599844.69648
  23621638.880   124132547.39708  23621637.200    96726662.55146
 15 02 27 00 26  0.0000000  0  7G16G18G19G21G22G27G31
  21030589.620   110516500.40809  21030585.760    86116749.96848
  22349378.560   117446883.11109  22349375.380    91517092.62947
  24239841.420   127381232.28708  24239837.640    99258091.20645
  21816376.020   114646258.29208  21816372.580    89334933.50348
  23223091.680   122038282.67909  23223086.200    95094798.22947
  22114848.940   116214344.54309  22114848.300    90556643.00248
  23640257.600   124230388.35908  23640255.940    96802902.13946
 15 02 27 00 26 30.0000000  0  7G16G18G19G21G22G27G31
  21020502.280   110463491.11309  21020498.400    86075444.02148
  22340955.160   117402617.80909  22340951.940    91482600.19446
  24225088.760   127303706.97708  24225085.020    99197681.92045
  21826760.860   114700831.19408  21826757.500    89377457.83447
  23206195.740   121949494.16709  23206190.220    95025612.43746
  22104323.140   116159032.14709  22104322.760    90513542.43848
  23658889.100   124328297.01608  23658887.440    96879194.40747
 15 02 27 00 27  0.0000000  0  7G16G18G19G21G22G27G31
  21010482.600   110410837.51809  21010478.740    86034415.24248
  22332603.900   117358731.69109  22332600.660    91448403.22346
  24210353.040   127226270.09608  24210349.400    99137341.54545
  21837194.300   114755659.25708  21837191.000    89420180.98248
  23189321.940   121860821.82309  23189316.400    94956517.16147
  22093821.140   116103844.54509  22093820.920    90470539.12248
  23677532.080   124426265.74108  23677530.520    96955533.34346
 15 02 27 00 27 30.0000000  0  7G16G18G19G21G22G27G31
  21000531.900   110358546.20709  21000528.020    85993668.76848
  22324326.040   117315231.43309  22324322.800    91414506.93847
  24195634.960   127148925.85908  24195631.340    99077073.33746
  21847676.840   114810745.12208  21847673.500    89463105.03047
  23172471.520   121772272.63409  23172465.980    94887517.84447
  22083343.760   116048786.11209  22083343.700    90427636.44248
  23696186.860   124524296.22108  23696185.320    97031920.44346
 15 02 27 00 28  0.0000000  0  7G16G18G19G21G22G27G31
  20990649.960   110306616.25409  20990646.120    85953203.87248
  22316121.300   117272115.43809  22316118.100    91380910.06547
  24180933.980   127071671.50608  24180930.460    99016875.17546
  21858207.340   114866082.97408  21858203.960    89506225.42348
  23155644.460   121683846.34409  23155638.940    94818614.29047
  22072890.340   115993853.74109  22072890.440    90384832.00248
  23714852.300   124622382.34609  23714850.820    97108350.88147
 15 02 27 00 28 30.0000000  0  7G16G18G19G21G22G27G31
  20980838.140   110255054.55609  20980834.240    85913025.93148
  22307991.000   117229390.72809  22307987.920    91347618.10647
  24166250.860   126994511.83308  24166247.560    98956750.81645
  21868786.460   114921676.14908  21868783.060    89549544.77547
  23138842.220   121595550.37909  23138836.800    94749812.29747
  22062461.840   115939052.31909  22062462.100    90342129.60348
  23733528.700   124720525.94008  23733527.240    97184826.06546
 15 02 27 00 29  0.0000000  0  7G16G18G19G21G22G27G31
  20971095.300   110203855.36009  20971091.340    85873130.45248
  22299934.040   117187051.48509  22299931.100    91314626.49446
  24151584.400   126917439.00808  24151580.680    98896694.08345
  21879412.400   114977515.60708  21879408.980    89593056.02448
  23122063.820   121507379.76709  23122058.480    94681107.96747
  22052056.780   115884374.26109  22052057.200    90299523.32648
  23752214.020   124818716.65908  23752212.640    97261338.08046
 15 02 27 00 29 30.0000000  0  7G16G18G19G21G22G27G31
  20961423.180   110153027.92109  20961419.140    85833524.65348
  22291952.160   117145106.81409  22291949.280    91281942.34347
  24136935.780   126840460.51808  24136931.980    98836710.89445
  21890086.200   115033606.25808  21890082.660    89636763.01548
  23105311.180   121419344.61509  23105305.880    94612509.20147
  22041676.660   115829826.91109  22041677.180    90257018.89948
  23770909.040   124916958.56708  23770907.680    97337889.91146
 15 02 27 00 30  0.0000000  0  7G16G18G19G21G22G27G31
  20951821.060   110102568.84509  20951817.140    85794205.89448
  22284044.660   117103552.86309  22284041.800    91249562.65147
  24122304.040   126763570.54708  24122300.360    98776796.67545
  21900806.340   115089940.55608  21900802.640    89680659.87048
  23088583.760   121331442.09409  23088578.520    94544013.77547
  22031320.520   115775404.73109  22031321.060    90214612.00048
  23789612.280   125015243.69008  23789611.000    97414475.61746
 15 02 27 00 30 30.0000000  0  7G16G18G19G21G22G27G31
  20942289.920   110052482.55309  20942286.020    85755177.61948
  22276212.360   117062393.96409  22276209.480    91217490.78047
  24107689.700   126686771.70108  24107686.040    98716953.41545
  21911572.960   115146519.51509  21911569.240    89724747.35547
  23071882.580   121243677.35809  23071877.460    94475625.71647
  22020988.740   115721110.27709  22020989.180    90172304.63548
  23808323.580   125113571.43109  23808322.320    97491094.57646
 15 02 27 00 31  0.0000000  0  7G16G18G19G21G22G27G31
  20932830.620   110002773.63009  20932826.720    85716443.39348
  22268456.200   117021634.97409  22268453.220    91185730.54247
  24093093.140   126610066.64708  24093089.580    98657183.29645
  21922386.160   115203343.32808  21922382.400    89769025.64648
  23055208.660   121156055.85809  23055203.660    94407349.27447
  22010681.780   115666946.19109  22010682.060    90130098.84748
  23827042.780   125211940.68208  23827041.400    97567745.52147
 15 02 27 00 31 30.0000000  0  7G16G18G19G21G22G27G31
  20923442.440   109953438.78909  20923438.600    85678000.66848
  22260775.360   116981271.73209  22260772.380    91154278.68047
  24078513.420   126533449.75408  24078510.020    98597481.87446
  21933244.640   115260404.89409  21933240.820    89813489.20047
  23038561.460   121068574.62609  23038556.560    94339182.12347
  22000398.560   115612906.98509  22000398.680    90087990.38148
  23845768.360   125310343.11008  23845767.000    97644422.16046
 15 02 27 00 32  0.0000000  0  7G16G18G19G21G22G27G31
  20914126.360   109904482.64209  20914122.580    85639853.03048
  22253170.700   116941308.90309  22253167.740    91123138.82646
  24063951.080   126456923.75208  24063947.680    98537851.25546
  21944148.560   115317705.45408  21944144.760    89858138.97947
  23021941.900   120981238.77709  23021937.000    94271128.26647
  21990139.660   115558995.58109  21990139.700    90045981.49948
  23864500.540   125408779.96108  23864499.300    97721125.84646
 15 02 27 00 32 30.0000000  0  7G16G18G19G21G22G27G31
  20904883.120   109855909.08609  20904879.360    85602003.50348
  22245642.900   116901749.95009  22245639.920    91092313.67347
  24049406.400   126380490.65308  24049402.900    98478293.04845
  21955097.960   115375244.71908  21955094.060    89902974.77647
  23005351.040   120894053.46808  23005346.040    94203191.68447
  21979905.480   115505213.82709  21979905.340    90004073.64748
  23883238.980   125507249.75108  23883237.880    97797855.37546
 15 02 27 00 33  0.0000000  0  7G16G18G19G21G22G27G31
  20895712.920   109807719.41209  20895709.160    85564453.11048
  22238192.220   116862596.27809  22238189.160    91061804.33147
  24034879.200   126304149.76008  24034875.460    98418806.68145
  21966092.200   115433019.88709  21966088.300    89947994.37947
  22988789.060   120807020.27509  22988784.120    94135373.64847
  21969695.900   115451561.13109  21969695.460    89962266.35248
  23901982.940   125605748.64908  23901981.960    97874607.53746
 15 02 27 00 33 30.0000000  0  7G16G18G19G21G22G27G31
  20886615.680   109759913.24009  20886611.940    85527201.54948
  22230818.520   116823847.14909  22230815.400    91031610.21146
  24020369.140   126227898.41508  24020365.140    98359390.07545
  21977130.360   115491026.24808  21977126.520    89993194.13147
  22972256.200   120720139.97209  22972251.280    94067674.75447
  21959510.460   115398035.18509  21959509.800    89920557.82448
  23920731.420   125704271.37808  23920730.520    97951378.34846
 15 02 27 00 34  0.0000000  0  7G16G18G19G21G22G27G31
  20877591.880   109712493.32909  20877588.220    85490250.97248
  22223522.240   116785504.95809  22223519.080    91001733.18746
  24005876.200   126151737.24108  24005872.080    98300043.75344
  21988212.560   115549263.87308  21988208.620    90038574.09847
  22955753.140   120633416.06109  22955748.220    94000097.71147
  21949349.340   115344636.91209  21949348.440    89878948.79048
  23939484.000   125802815.85508  23939483.140    98028166.05346
 15 02 27 00 34 30.0000000  0  7G16G18G19G21G22G27G31
  20868642.420   109665463.89909  20868638.840    85453604.66448
  22216304.100   116747573.65209  22216301.020    90972176.34147
  23991400.960   126075669.29708  23991396.560    98240770.06345
  21999338.800   115607732.91108  21999334.800    90084134.39247
  22939280.740   120546853.42508  22939275.880    93932646.34947
  21939212.920   115291368.67209  21939211.820    89837441.08348
  23958240.600   125901381.51308  23958239.780    98104970.30046
 15 02 27 00 35  0.0000000  0  7G16G18G19G21G22G27G31
  20859767.740   109618827.56709  20859764.140    85417264.66548
  22209164.580   116710055.55509  22209161.560    90942941.46247
  23976943.420   125999694.43208  23976939.160    98181568.91145
  22010508.720   115666431.43608  22010504.760    90129873.49947
  22922839.640   120460455.32409  22922834.820    93865323.18447
  21929101.340   115238231.10909  21929100.000    89796035.19448
  23977000.700   125999965.80008  23976999.920    98181789.03946
 15 02 27 00 35 30.0000000  0  7G16G18G19G21G22G27G31
  20850968.260   109572586.13709  20850964.700    85381232.38448
  22202104.000   116672952.20309  22202100.980    90914029.77047
  23962503.480   125923812.51908  23962499.280    98122440.21645
  22021721.920   115725357.84408  22021718.180    90175790.17647
  22906430.340   120374224.31209  22906425.560    93798130.22147
  21919014.560   115185224.08909  21919013.080    89754731.03348
  23995763.740   126098565.91508  23995762.960    98258620.09646
 15 02 27 00 36  0.0000000  0  7G16G18G19G21G22G27G31
  20842243.500   109526737.42609  20842239.960    85345506.11848
  22195121.900   116636260.92009  22195118.820    90885439.17547
  23948080.480   125848019.50508  23948076.020    98063380.73946
  22032977.400   115784506.67108  22032973.920    90221880.15847
  22890052.520   120288158.77308  22890047.840    93731066.20147
  21908951.780   115132343.55009  21908950.240    89713525.42948
  24014528.460   126197174.92408  24014527.820    98335458.08946
 15 02 27 00 36 30.0000000  0  7G16G18G19G21G22G27G31
  20833594.200   109481285.19009  20833590.720    85310088.79148
  22188218.900   116599985.40809  22188215.860    90857172.54647
  23933674.780   125772317.29508  23933670.180    98004392.04445
  22044275.120   115843876.97108  22044271.780    90268142.72247
  22873707.060   120202263.34408  22873702.520    93664134.73647
  21898913.380   115079591.53109  21898911.860    89672419.97148
  24033294.700   126295791.91208  24033294.180    98412302.33646
 15 02 27 00 37  0.0000000  0  7G16G18G19G21G22G27G31
  20825021.500   109436235.47609  20825018.100    85274985.11448
  22181396.080   116564131.36009  22181393.080    90829234.33947
  23919287.120   125696710.00208  23919282.600    97945477.29845
  22055615.600   115903471.38808  22055612.140    90314579.92447
  22857395.260   120116544.99808  22857390.880    93597341.25147
  21888900.160   115026972.15409  21888898.700    89631417.86848
  24052062.740   126394418.02708  24052062.280    98489153.75746
 15 02 27 00 37 30.0000000  0  7G16G18G19G21G22G27G31
  20816524.860   109391585.38709  20816521.520    85240192.84148
  22174652.720   116528694.93509  22174649.740    90801621.55047
  23904916.580   125621192.47008  23904912.100    97886632.50945
  22066997.560   115963283.21608  22066993.960    90361186.54747
  22841116.700   120031001.16308  22841112.420    93530683.74047
  21878911.220   114974480.57109  21878909.880    89590515.34048
  24070831.060   126493045.23608  24070830.480    98566006.08146
 15 02 27 00 38  0.0000000  0  7G16G18G19G21G22G27G31
  20808105.300   109347340.46909  20808102.060    85205716.28348
  22167989.960   116493682.08909  22167986.860    90774338.81547
  23890563.900   125545768.74108  23890559.460    97827860.80146
  22078421.040   116023313.31308  22078417.360    90407963.24447
  22824872.620   119945638.40408  22824868.460    93464167.32947
  21868947.300   114922120.68509  21868946.120    89549715.43948
  24089599.740   126591674.60608  24089599.100    98642860.02546
 15 02 27 00 38 30.0000000  0  7G16G18G19G21G22G27G31
  20799762.460   109303498.62509  20799759.200    85171553.80348
  22161407.280   116459090.01409  22161404.120    90747383.95847
  23876228.300   125470434.54108  23876224.020    97769158.86646
  22089884.940   116083556.43508  22089881.320    90454905.92847
  22808662.720   119860455.38808  22808658.700    93397790.98047
  21859007.640   114869888.48109  21859006.620    89509015.03548
  24108367.420   126690298.98108  24108366.820    98719710.14446
 15 02 27 00 39  0.0000000  0  7G16G18G19G21G22G27G31
  20791497.160   109260064.27209  20791493.880    85137708.85548
  22154905.560   116424923.22409  22154902.340    90720760.49547
  23861910.220   125395192.20008  23861906.280    97710528.50946
  22101389.720   116144014.04908  22101386.240    90502015.74347
  22792488.060   119775457.64008  22792484.200    93331559.00147
  21849092.840   114817786.76209  21849091.920    89468416.30348
  24127134.060   126788918.43208  24127133.500    98796556.39246
 15 02 27 00 39 30.0000000  0  7G16G18G19G21G22G27G31
  20783310.400   109217042.55009  20783307.120    85104185.43548
  22148485.600   116391186.07709  22148482.340    90694471.83047
  23847610.300   125320045.46308  23847606.440    97651972.65546
  22112935.380   116204686.42408  22112931.920    90549292.91247
  22776349.840   119690651.02408  22776346.000    93265475.94247
  21839203.560   114765818.90209  21839202.660    89427921.87248
  24145899.920   126887533.60808  24145899.280    98873399.30446
 15 02 27 00 40  0.0000000  0  7G16G18G19G21G22G27G31
  20775202.060   109174433.05409  20775198.760    85070983.22248
  22142147.140   116357877.45309  22142143.920    90668517.06247
  23833327.900   125244991.49708  23833324.160    97593489.08046
  22124521.280   116265570.21409  22124517.640    90596734.81647
  22760248.040   119606035.66008  22760244.240    93199541.91647
  21829339.340   114713982.52209  21829338.460    89387529.89248
  24164663.880   126986138.80908  24164663.380    98950234.41346
 15 02 27 00 40 30.0000000  0  7G16G18G19G21G22G27G31
  20767172.420   109132236.71909  20767169.060    85038102.96648
  22135890.460   116324998.59309  22135887.340    90642897.18347
  23819062.980   125170029.43508  23819059.280    97535077.10646
  22136146.740   116326662.16908  22136143.000    90644338.93347
  22744183.040   119521613.33908  22744179.180    93133758.31647
  21819499.960   114662276.76009  21819499.140    89347239.70048
  24183425.340   127084730.33708  24183424.840    99027058.89946
 15 02 27 00 41  0.0000000  0  7G16G18G19G21G22G27G31
  20759221.760   109090455.61109  20759218.380    85005546.25648
  22129715.820   116292550.70409  22129712.800    90617613.12247
  23804815.580   125095159.42608  23804811.920    97476736.88546
  22147811.380   116387960.34508  22147807.600    90692103.74547
  22728155.220   119437386.57308  22728151.340    93068127.08747
  21809685.520   114610701.90209  21809684.780    89307051.51248
  24202183.620   127183305.29908  24202183.140    99103870.48846
 15 02 27 00 41 30.0000000  0  7G16G18G19G21G22G27G31
  20751350.400   109049091.15709  20751347.040    84973314.21248
  22123623.360   116260534.67309  22123620.440    90592665.57247
  23790585.700   125020381.19408  23790581.940    97418468.15445
  22159514.900   116449462.90208  22159511.240    90740027.79947
  22712165.140   119353358.09408  22712161.240    93002650.37447
  21799895.980   114559257.72709  21799895.220    89266965.15248
  24220938.200   127281860.68808  24220937.700    99180666.73145
 15 02 27 00 42  0.0000000  0  7G16G18G19G21G22G27G31
  20743558.560   109008144.47709  20743555.180    84941407.70448
  22117613.380   116228951.86009  22117610.480    90568055.59847
  23776373.260   124945693.92908  23776369.340    97360270.31245
  22171256.860   116511167.25508  22171253.280    90788109.10747
  22696213.260   119269529.89408  22696209.240    92937329.70847
  21790131.260   114507943.89809  21790130.560    89226980.35448
  24239688.440   127380393.30508  24239688.000    99257445.27946
 15 02 27 00 42 30.0000000  0  7G16G18G19G21G22G27G31
  20735847.260   108967620.92509  20735843.840    84909830.91148
  22111686.700   116197806.84209  22111683.780    90543786.76447
  23762178.780   124871101.19608  23762174.480    97302146.10145
  22183037.520   116573074.74408  22183033.880    90836348.71147
  22680300.580   119185907.94908  22680296.480    92872169.77547
  21780392.000   114456763.72309  21780391.340    89187099.70448
  24258434.380   127478903.19108  24258433.920    99334206.00045
 15 02 27 00 43  0.0000000  0  7G16G18G19G21G22G27G31
  20728216.520   108927520.81709  20728213.060    84878584.07948
  22105843.340   116167099.60409  22105840.360    90519859.05547
  23748001.920   124796601.32008  23747997.520    97244094.27846
  22194856.180   116635182.21708  22194852.460    90884744.12847
  22664427.380   119102493.39509  22664423.200    92807171.44747
  21770678.000   114405716.03309  21770677.360    89147322.29348
  24277175.320   127577386.59908  24277174.800    99410946.07046
 15 02 27 00 43 30.0000000  0  7G16G18G19G21G22G27G31
  20720666.520   108887844.94909  20720662.980    84847667.81248
  22100083.340   116136830.65009  22100080.340    90496272.85947
  23733842.540   124722193.50208  23733838.160    97186114.16946
  22206712.220   116697486.35308  22206708.500    90933292.80047
  22648594.020   119019288.16609  22648589.700    92742336.22947
  21760989.040   114354800.01209  21760988.420    89107647.49148
  24295910.500   127675839.47108  24295910.040    99487662.27645
 15 02 27 00 44  0.0000000  0  7G16G18G19G21G22G27G31
  20713198.500   108848600.07409  20713194.920    84817087.38648
  22094407.820   116107005.63009  22094404.800    90473032.59247
  23719701.360   124647882.29308  23719697.100    97128209.35946
  22218606.400   116759990.69608  22218602.520    90981997.47447
  22632801.840   118936299.25409  22632797.420    92677669.55647
  21751326.120   114304020.52909  21751325.460    89068079.06648
  24314640.300   127774263.98308  24314639.980    99564356.42746
 15 02 27 00 44 30.0000000  0  7G16G18G19G21G22G27G31
  20705811.560   108809781.31309  20705807.940    84786839.00348
  22088815.860   116077619.62209  22088812.860    90450134.41047
  23705577.340   124573661.13608  23705573.520    97070374.72246
  22230537.080   116822686.75908  22230533.160    91030851.54347
  22617050.080   118853523.00409  22617045.680    92613168.60948
  21741687.900   114253371.09609  21741687.200    89028611.98048
  24333362.880   127872650.38608  24333362.600    99641020.78245
 15 02 27 00 45  0.0000000  0  7G16G18G19G21G22G27G31
  20698506.480   108771392.94609  20698502.840    84756925.98748
  22083308.180   116048676.63109  22083305.240    90427581.43647
  23691471.000   124499532.54708  23691467.460    97012612.21346
  22242504.340   116885575.18708  22242500.520    91079855.51147
  22601339.860   118770964.87009  22601335.420    92548837.61847
  21732074.960   114202854.37509  21732074.180    88989248.30348
  24352078.260   127970998.78808  24352077.960    99717655.59545
 15 02 27 00 45 30.0000000  0  7G16G18G19G21G22G27G31
  20691283.760   108733437.37509  20691280.140    84727350.22448
  22077885.060   116020178.02709  22077882.140    90405374.74847
  23677382.500   124425497.11908  23677378.840    96954922.28846
  22254507.840   116948654.44908  22254504.200    91129008.16647
  22585671.680   118688627.71109  22585667.100    92484678.81548
  21722487.420   114152471.12309  21722486.600    88949988.63648
  24370785.900   128069306.69108  24370785.560    99794258.81446
 15 02 27 00 46  0.0000000  0  7G16G18G19G21G22G27G31
  20684143.620   108695915.75709  20684140.020    84698112.59948
  22072546.660   115992124.74809  22072543.740    90383515.05947
  23663311.720   124351554.21608  23663307.960    96897304.46046
  22266547.180   117011922.00508  22266543.640    91178307.54447
  22570045.900   118606513.63009  22570041.260    92420693.83448
  21712925.180   114102220.92409  21712924.360    88910832.65348
  24389485.240   128167570.88108  24389485.020    99870827.92545
 15 02 27 00 46 30.0000000  0  7G16G18G19G21G22G27G31
  20677087.160   108658833.72509  20677083.580    84669217.50848
  22067294.020   115964522.11509  22067291.100    90362006.51747
  23649259.300   124277707.64608  23649255.480    96839761.70545
  22278622.740   117075379.92708  22278619.220    91227755.26946
  22554463.780   118524629.00809  22554459.120    92356887.66147
  21703389.040   114052107.77809  21703388.220    88871783.45348
  24408176.460   128265792.47508  24408176.360    99947363.86045
 15 02 27 00 47  0.0000000  0  7G16G18G19G21G22G27G31
  20670113.240   108622185.48109  20670109.640    84640660.43048
  22062126.040   115937364.32009  22062123.120    90340844.59747
  23635223.760   124203949.84708  23635219.700    96782288.11046
  22290732.840   117139019.10808  22290729.320    91277344.22547
  22538924.440   118442969.07009  22538919.800    92293256.55148
  21693877.600   114002124.46909  21693876.820    88832835.42648
  24426857.560   128363960.96808  24426857.640   100023858.33945
 15 02 27 00 47 30.0000000  0  7G16G18G19G21G22G27G31
  20663223.780   108585981.06109  20663220.180    84612449.19048
  22057044.340   115910660.00109  22057041.400    90320036.05747
  23621206.560   124130289.05908  23621202.420    96724890.10746
  22302878.640   117202845.65208  22302875.100    91327079.18847
  22523429.920   118361544.62609  22523425.240    92229808.95748
  21684392.420   113952279.18609  21684391.600    88793994.95248
  24445529.640   128462082.06508  24445529.960   100100316.02246
 15 02 27 00 48  0.0000000  0  7G16G18G19G21G22G27G31
  20656418.100   108550216.97909  20656414.540    84584581.07448
  22052048.140   115884404.95509  22052045.200    90299577.58047
  23607206.920   124056720.24408  23607202.700    96667563.77846
  22315058.820   117266852.90108  22315055.260    91376954.95647
  22507979.720   118280353.26709  22507974.960    92166542.98348
  21674932.520   113902566.98909  21674931.620    88755258.17548
  24464191.120   128560147.47508  24464191.540   100176730.22544
 15 02 27 00 48 30.0000000  0  7G16G18G19G21G22G27G31
  20649696.900   108514897.20509  20649693.400    84557059.18048
  22047138.280   115858603.29309  22047135.340    90279472.41247
  23593225.100   123983245.31808  23593220.960    96610310.60846
  22327273.480   117331041.01008  22327269.880    91426971.66147
  22492574.800   118199399.66909  22492569.940    92103462.27448
  21665498.320   113852990.40409  21665497.480    88716627.08848
  24482841.960   128658156.98708  24482842.460   100253100.87846
 15 02 27 00 49  0.0000000  0  7G16G18G19G21G22G27G31
  20643060.640   108480023.91209  20643057.180    84529885.18448
  22042315.040   115833256.72809  22042312.080    90259721.85847
  23579261.220   123909864.85408  23579257.440    96553131.05846
  22339522.300   117395408.57808  22339518.700    91477128.19947
  22477215.640   118118686.82509  22477210.760    92040569.17148
  21656090.060   113803550.10509  21656089.200    88678102.17848
  24501481.700   128756108.27608  24501482.420   100329426.14945
 15 02 27 00 49 30.0000000  0  7G16G18G19G21G22G27G31
  20636509.240   108445596.32809  20636505.800    84503058.49548
  22037578.220   115808364.13509  22037575.200    90240325.04448
  23565315.100   123836577.03908  23565311.260    96496023.68246
  22351804.540   117459951.68608  22351800.840    91527421.52247
  22461902.320   118038215.26809  22461897.540    91977864.09148
  21646707.360   113754243.90709  21646706.420    88639681.77848
  24520109.480   128853996.52008  24520110.240   100405702.32045
 15 02 27 00 50  0.0000000  0  7G16G18G19G21G22G27G31
  20630043.440   108411618.29009  20630040.020    84476582.10848
  22032928.300   115783928.35909  22032925.220    90221284.19647
  23551386.800   123763382.99208  23551382.720    96438989.39546
  22364120.160   117524670.28508  22364116.380    91577851.58547
  22446635.820   117957989.69309  22446631.000    91915350.67648
  21637350.560   113705073.91709  21637349.540    88601367.51148
  24538725.000   128951820.80508  24538725.980   100481928.65445
 15 02 27 00 50 30.0000000  0  7G16G18G19G21G22G27G31
  20623663.760   108378092.76209  20623660.360    84450458.31348
  22028365.740   115759951.76909  22028362.640    90202601.13747
  23537476.560   123690284.65008  23537472.280    96382029.67045
  22376469.080   117589563.75108  22376465.060    91628417.92446
  22431416.940   117878013.99609  22431412.080    91853031.95948
  21628019.880   113656041.66709  21628018.860    88563160.56748
  24557327.980   129049579.26308  24557329.200   100558103.65645
 15 02 27 00 51  0.0000000  0  7G16G18G19G21G22G27G31
  20617370.500   108345021.26809  20617367.060    84424688.31848
  22023890.720   115736435.48009  22023887.660    90184276.76447
  23523584.520   123617281.58208  23523579.960    96325144.15846
  22388850.920   117654630.60208  22388846.880    91679119.34647
  22416245.980   117798290.27109  22416241.100    91790909.60148
  21618715.480   113607147.47909  21618714.460    88525061.18948
  24575918.040   129147269.36308  24575919.440   100634225.41345
 15 02 27 00 51 30.0000000  0  7G16G18G19G21G22G27G31
  20611163.500   108312403.21609  20611160.000    84399271.66448
  22019503.100   115713378.46809  22019500.060    90166310.28547
  23509710.260   123544371.80308  23509706.000    96268331.35846
  22401264.860   117719866.39208  22401260.800    91729952.42647
  22401123.160   117718819.31309  22401118.200    91728984.19748
  21609436.980   113558389.31609  21609435.980    88487067.82448
  24594494.260   129244886.49208  24594495.680   100710290.32845
 15 02 27 00 52  0.0000000  0  7G16G18G19G21G22G27G31
  20605043.340   108280241.22909  20605039.720    84374210.37048
  22015203.120   115690781.97809  22015200.120    90148702.63347
  23495853.980   123471556.36908  23495849.800    96211592.08546
  22413710.920   117785270.64508  22413706.800    91780916.77347
  22386049.060   117639604.56109  22386044.120    91667258.44148
  21600184.580   113509768.08309  21600183.660    88449181.15748
  24613056.200   129342428.76308  24613057.640   100786296.87245
 15 02 27 00 52 30.0000000  0  7G16G18G19G21G22G27G31
  20599010.220   108248536.70709  20599006.520    84349505.55648
  22010991.040   115668647.53509  22010988.040    90131455.03447
  23482015.720   123398835.03108  23482011.300    96154926.10946
  22426188.560   117850841.03308  22426184.420    91832010.58046
  22371024.200   117560648.38609  22371019.300    91605734.17648
  21590958.320   113461284.00109  21590957.420    88411401.36748
  24631603.300   129439892.93908  24631604.740   100862242.51545
 15 02 27 00 53  0.0000000  0  7G16G18G19G21G22G27G31
  20593064.540   108217291.81109  20593060.780    84325158.87948
  22006867.260   115646976.93209  22006864.180    90114568.86448
  23468195.380   123326207.69508  23468190.860    96098333.39247
  22438697.480   117916576.01408  22438693.400    91883232.62747
  22356049.080   117481953.57909  22356044.140    91544413.56548
  21581758.300   113412937.63309  21581757.440    88373728.87248
  24650135.180   129537276.82108  24650136.840   100938125.57645
 15 02 27 00 53 30.0000000  0  7G16G18G19G21G22G27G31
  20587207.440   108186512.37509  20587203.600    84301174.89548
  22002832.640   115625775.00009  22002829.480    90098047.87648
  23454393.680   123253679.13208  23454389.280    96041817.66446
  22451238.320   117982478.43608  22451234.340    91934585.15246
  22341125.000   117403526.97209  22341120.020    91483301.93448
  21572585.440   113364733.63409  21572584.620    88336167.31948
  24668652.100   129634582.33908  24668653.980   101013947.66745
 15 02 27 00 54  0.0000000  0  7G16G18G19G21G22G27G31
  20581437.840   108156192.84809  20581434.040    84277549.28848
  21998886.080   115605035.59309  21998882.900    90081887.31147
  23440609.220   123181241.84508  23440604.900    95985373.03946
  22463809.260   118048539.18008  22463805.240    91986061.06046
  22326251.120   117325364.33909  22326246.120    91422396.01348
  21563438.360   113316665.03109  21563437.620    88298711.27548
  24687152.160   129731799.14708  24687154.000   101089700.64545
 15 02 27 00 54 30.0000000  0  6G16G18G19G21G22G27
  20575755.460   108126332.04509  20575751.840    84254281.13548
  21995027.200   115584757.20709  21995024.060    90066085.97647
  23426841.580   123108893.08908  23426837.120    95928997.39746
  22476409.400   118114753.73508  22476405.380    92037656.79546
  22311427.440   117247465.32509  22311422.400    91361695.49248
  21554316.560   113268729.17009  21554315.840    88261358.66248
 15 02 27 00 55  0.0000000  0  6G16G18G19G21G22G27
  20570163.140   108096944.39709  20570159.660    84231381.66748
  21991258.620   115564953.33309  21991255.520    90050654.39447
  23413093.380   123036646.19408  23413088.920    95872701.13846
  22489041.000   118181133.13108  22489036.940    92089381.00346
  22296656.840   117169845.23009  22296651.820    91301212.32448
  21545222.560   113220939.38609  21545221.860    88224119.88048
 15 02 27 00 55 30.0000000  0  6G16G18G19G21G22G27
  20564660.260   108068026.56709  20564656.860    84208848.29848
  21987579.600   115545620.00809  21987576.540    90035589.47547
  23399363.620   122964496.23808  23399359.240    95816480.42446
  22501702.700   118247671.07408  22501698.720    92141228.74347
  22281938.820   117092501.50509  22281933.840    91240944.50248
  21536155.480   113173291.08609  21536154.760    88186991.34448
 15 02 27 00 56  0.0000000  0  6G16G18G19G21G22G27
  20559247.140   108039580.06209  20559243.640    84186682.18148
  21983990.300   115526758.32209  21983987.220    90020892.07048
  23385652.300   122892443.09408  23385647.900    95760335.12946
  22514394.180   118314365.32208  22514390.420    92193198.27947
  22267274.000   117015437.30309  22267269.040    91180894.49148
  21527115.320   113125784.41709  21527114.580    88149973.17148
 15 02 27 00 56 30.0000000  0  6G16G18G19G21G22G27
  20553923.580   108011604.36509  20553919.980    84164882.93748
  21980490.540   115508367.04309  21980487.460    90006561.20548
  23371959.000   122820484.66408  23371954.620    95704263.65446
  22527114.620   118381211.97008  22527111.020    92245286.56746
  22252662.440   116938653.06909  22252657.460    91121062.63548
  21518101.680   113078417.63809  21518100.960    88113064.00048
 15 02 27 00 57  0.0000000  0  6G16G18G19G21G22G27
  20548689.860   107984100.91509  20548686.220    84143451.67648
  21977080.500   115490447.16409  21977077.420    89992597.66747
  23358283.860   122748620.95508  23358279.420    95648265.96547
  22539863.840   118448209.69608  22539860.380    92297492.58247
  22238104.600   116862151.07109  22238099.580    91061450.70948
  21509114.760   113031190.87609  21509113.960    88076263.93248
 15 02 27 00 57 30.0000000  0  6G16G18G19G21G22G27
  20543546.440   107957071.61909  20543542.660    84122389.88348
  21973760.460   115472999.93909  21973757.300    89979002.43148
  23344626.840   122676852.28708  23344622.040    95592342.35646
  22552641.280   118515356.63208  22552637.920    92349814.85347
  22223600.980   116785934.02109  22223595.940    91002060.82048
  21500154.660   112984104.85409  21500153.780    88039573.53848
 15 02 27 00 58  0.0000000  0  6G16G18G19G21G22G27
  20538493.520   107930518.40609  20538489.700    84101699.06748
  21970530.500   115456026.18309  21970527.340    89965776.13248
  23330987.940   122605179.24208  23330983.100    95536493.25447
  22565447.000   118582651.49708  22565443.780    92402252.40647
  22209152.160   116710004.88009  22209147.040    90942895.26248
  21491221.460   112937160.38509  21491220.500    88002993.43848
 15 02 27 00 58 30.0000000  0  6G16G18G19G21G22G27
  20533531.960   107904445.43209  20533528.160    84081382.46848
  21967391.360   115439529.77209  21967388.100    89952921.80048
  23317367.660   122533604.46608  23317362.900    95480720.71847
  22578281.160   118650095.58408  22578277.960    92454806.24247
  22194759.180   116634369.15209  22194754.020    90883958.35848
  21482315.700   112890360.34509  21482314.680    87966525.87848
 15 02 27 00 59  0.0000000  0  6G16G18G19G21G22G27
  20528661.300   107878850.14609  20528657.580    84061438.08548
  21964342.400   115423507.35309  21964339.060    89940436.80048
  23303765.280   122462124.18108  23303760.820    95425021.82546
  22591142.600   118717682.66808  22591139.440    92507471.50347
  22180421.640   116559024.94709  22180416.440    90825248.59648
  21473436.680   112843701.03709  21473435.640    87930167.99348
 15 02 27 00 59 30.0000000  0  6G16G18G19G21G22G27
  20523883.200   107853741.29209  20523879.600    84041872.74648
  21961385.080   115407966.63909  21961381.760    89928327.15948
  23290182.100   122390745.45908  23290177.940    95369402.07547
  22604032.400   118785418.87708  22604029.360    92560252.94847
  22166141.500   116483982.17409  22166136.240    90766773.72248
  21464585.800   112797189.96409  21464584.840    87893925.60248
 15 02 27 01 00  0.0000000  0  6G16G18G19G21G22G27
  20519196.680   107829113.50009  20519193.160    84022682.25548
  21958518.460   115392902.63109  21958515.220    89916588.97548
  23276617.040   122319462.11508  23276613.280    95313856.64747
  22616948.980   118853295.63508  22616945.920    92613143.91547
  22151917.980   116409237.17709  22151912.700    90708530.89448
  21455761.940   112750821.03909  21455761.120    87857793.98348
 15 02 27 01 00 30.0000000  0  6G16G18G19G21G22G27
  20514602.020   107804968.55609  20514598.520    84003868.01548
  21955742.660   115378315.81609  21955739.460    89905222.62848
  23263070.240   122248274.24608  23263066.800    95258385.61947
  22629891.900   118921310.87808  22629888.820    92666142.79447
  22137751.600   116334792.37909  22137746.300    90650521.96948
  21446965.220   112704594.81209  21446964.500    87821773.56048
 15 02 27 01 01  0.0000000  0  6G16G18G19G21G22G27
  20510099.960   107781309.96409  20510096.420    83985432.74848
  21953058.140   115364208.68909  21953054.920    89894230.07648
  23249542.100   122177183.44808  23249538.760    95202990.23747
  22642861.380   118989465.40608  22642857.980    92719250.22346
  22123643.140   116260651.98409  22123637.820    90592750.25548
  21438196.000   112658513.11209  21438195.460    87785865.75848
 15 02 27 01 01 30.0000000  0  6G16G18G19G21G22G27
  20505690.100   107758136.04809  20505686.560    83967375.14848
  21950464.500   115350579.18709  21950461.240    89883609.68748
  23236032.020   122106187.19408  23236028.440    95147668.47947
  22655856.420   119057754.52708  22655852.940    92772462.50846
  22109592.500   116186815.50409  22109587.160    90535215.34648
  21429453.880   112612573.69409  21429453.580    87750068.82848
 15 02 27 01 02  0.0000000  0  6G16G18G19G21G22G27
  20501373.280   107735451.36109  20501369.800    83949698.77248
  21947962.520   115337431.44309  21947959.300    89873364.70048
  23222540.460   122035288.63308  23222536.720    95092422.88047
  22668877.360   119126179.40508  22668873.620    92825780.59946
  22095600.820   116113288.98909  22095595.520    90477921.97648
  21420739.640   112566780.11909  21420739.440    87714385.52948
 15 02 27 01 02 30.0000000  0  6G16G18G19G21G22G27
  20497149.980   107713258.26309  20497146.580    83932405.44548
  21945552.560   115324767.17609  21945549.340    89863496.43948
  23209067.700   121964489.04308  23209064.160    95037254.39947
  22681924.040   119194739.77508  22681920.280    92879204.24846
  22081668.800   116040075.90109  22081663.520    90420872.82748
  21412053.460   112521133.75109  21412053.240    87678816.93748
 15 02 27 01 03  0.0000000  0  6G16G18G19G21G22G27
  20493020.300   107691556.81409  20493016.940    83915495.21949
  21943234.400   115312585.11309  21943231.100    89854003.93948
  23195613.560   121893786.84708  23195610.000    94982161.77747
  22694995.760   119263432.20908  22694991.880    92932730.82546
  22067796.520   115967176.78809  22067791.260    90364068.33948
  21403395.040   112475633.39509  21403394.760    87643362.12648
 15 02 27 01 03 30.0000000  0  6G16G18G19G21G22G27
  20488984.260   107670347.48309  20488981.000    83898968.46748
  21941008.020   115300885.47509  21941004.720    89844887.35348
  23182177.880   121823181.31308  23182174.180    94927144.51447
  22708092.160   119332254.26608  22708088.380    92986358.39046
  22053984.400   115894593.84609  22053979.180    90307510.21748
  21394764.300   112430278.63409  21394763.960    87608020.75648
 15 02 27 01 04  0.0000000  0  6G16G18G19G21G22G27
  20485042.220   107649631.97009  20485039.060    83882826.50948
  21938873.560   115289669.06209  21938870.280    89836147.29648
  23168760.840   121752673.30608  23168756.880    94872203.19447
  22721212.960   119401204.89508  22721209.200    93040086.14946
  22040232.940   115822329.77509  22040227.800    90251200.57448
  21386161.460   112385070.36009  21386161.080    87572793.53848
 15 02 27 01 04 30.0000000  0  6G16G18G19G21G22G27
  20481195.040   107629414.71409  20481191.860    83867072.79948
  21936831.780   115278939.61209  21936828.520    89827786.69248
  23155362.800   121682265.56108  23155358.680    94817340.04247
  22734358.460   119470285.16108  22734354.820    93093914.91746
  22026543.140   115750389.90809  22026538.080    90195143.54748
  21377587.140   112340011.94909  21377586.720    87537683.09448
 15 02 27 01 05  0.0000000  0  6G16G18G19G21G22G27
  20477442.820   107609696.47009  20477439.600    83851707.92848
  21934882.640   115268696.91709  21934879.360    89819805.37848
  23141983.700   121611957.74208  23141979.440    94762554.74947
  22747528.300   119539492.97708  22747524.460    93147843.10246
  22012915.440   115678776.07209  22012910.380    90139340.57248
  21369041.300   112295103.21209  21369040.840    87502689.27748
 15 02 27 01 05 30.0000000  0  6G16G18G19G21G22G27
  20473785.380   107590476.40609  20473782.120    83836731.25349
  21933025.840   115258939.69509  21933022.580    89812202.36048
  23128623.060   121541747.77308  23128618.880    94707845.70047
  22760721.660   119608824.42008  22760717.840    93201867.59546
  21999349.840   115607488.57809  21999344.820    90083791.89648
  21360523.620   112250342.37509  21360523.200    87467810.71548
 15 02 27 01 06  0.0000000  0  6G16G18G19G21G22G27
  20470222.840   107571755.21609  20470219.600    83822143.31248
  21931261.440   115249667.91309  21931258.160    89804977.60148
  23115281.020   121471635.17608  23115276.980    94653212.51547
  22773938.140   119678277.47808  22773934.320    93255986.85146
  21985846.760   115536529.67609  21985841.800    90028499.25848
  21352034.080   112205729.37609  21352033.640    87433047.33948
 15 02 27 01 06 30.0000000  0  6G16G18G19G21G22G27
  20466756.460   107553539.35909  20466753.220    83807949.13349
  21929590.520   115240887.63409  21929587.380    89798135.82748
  23101958.640   121401625.70708  23101954.840    94598659.70647
  22787178.520   119747856.03408  22787174.780    93310203.90846
  21972407.700   115465907.13409  21972402.760    89973468.72348
  21343573.820   112161270.15509  21343573.380    87398403.80248
 15 02 27 01 07  0.0000000  0  6G16G18G19G21G22G27
  20463385.140   107535822.92109  20463381.920    83794144.11149
  21928011.820   115232591.64709  21928008.780    89791671.43348
  23088654.560   121331712.01108  23088650.800    94544181.51247
  22800440.960   119817550.62408  22800437.220    93364511.37046
  21959031.660   115395615.72409  21959026.780    89918696.21148
  21335141.460   112116957.58109  21335141.000    87363874.53648
 15 02 27 01 07 30.0000000  0  6G16G18G19G21G22G27
  20460109.740   107518610.78809  20460106.580    83780732.05949
  21926526.100   115224784.19609  21926523.060    89785587.70848
  23075369.420   121261897.85908  23075365.500    94489780.89047
  22813725.940   119887363.62908  22813722.240    93418911.11446
  21945719.780   115325661.52009  21945714.960    89864186.45748
  21326737.820   112072795.80009  21326737.240    87329462.76748
 15 02 27 01 08  0.0000000  0  6G16G18G19G21G22G27
  20456930.620   107501904.76209  20456927.520    83767714.37948
  21925133.580   115217466.25409  21925130.500    89779885.42348
  23062103.240   121192183.58608  23062099.120    94435458.08847
  22827033.340   119957294.19608  22827029.620    93473402.46146
  21932472.660   115256047.53409  21932467.820    89809941.81048
  21318363.060   112028785.64009  21318362.300    87295169.14848
 15 02 27 01 08 30.0000000  0  6G16G18G19G21G22G27
  20453848.480   107485707.90209  20453845.360    83755093.44948
  21923834.700   115210640.35709  21923831.560    89774566.55148
  23048856.420   121122571.51608  23048852.300    94381214.92347
  22840363.080   120027342.27908  22840359.320    93527985.37146
  21919291.120   115186778.03709  21919286.280    89755965.59348
  21310017.580   111984929.61509  21310016.700    87260995.63248
 15 02 27 01 09  0.0000000  0  6G16G18G19G21G22G27
  20450862.360   107470015.68609  20450859.220    83742865.74149
  21922628.440   115204301.32609  21922625.320    89769627.04448
  23035628.100   121053056.23508  23035623.920    94327047.19447
  22853713.740   120097500.19208  22853709.960    93582653.86846
  21906174.500   115117849.64709  21906169.560    89702255.16748
  21301700.380   111941222.37909  21301699.440    87226938.05248
 15 02 27 01 09 30.0000000  0  6G16G18G19G21G22G27
  20447973.520   107454834.84709  20447970.380    83731036.51348
  21921516.000   115198455.24409  21921512.900    89765071.66148
  23022419.280   120983643.65408  23022415.020    94272959.49947
  22867086.120   120167772.67108  22867082.420    93637411.63546
  21893124.300   115049270.30209  21893119.280    89648816.73248
  21293412.660   111897670.26609  21293411.660    87193001.34748
 15 02 27 01 10  0.0000000  0  6G16G18G19G21G22G27
  20445181.840   107440164.57509  20445178.680    83719605.13849
  21920496.980   115193100.10809  21920493.900    89760898.84048
  23009229.680   120914331.50708  23009225.300    94218950.04447
  22880479.520   120238155.54708  22880475.840    93692255.44146
  21880140.600   114981040.52409  21880135.560    89595650.68448
  21285154.080   111854271.30309  21285153.020    87159183.98548
 15 02 27 01 10 30.0000000  0  6G16G18G19G21G22G27
  20442487.280   107426004.07009  20442484.000    83708570.97249
  21919571.120   115188234.63609  21919568.060    89757107.57248
  22996058.880   120845117.91308  22996054.340    94165017.38847
  22893893.320   120308645.52108  22893889.520    93747182.68746
  21867223.520   114913160.69009  21867218.420    89542757.32148
  21276924.420   111811024.18809  21276923.320    87125484.94448
 15 02 27 01 11  0.0000000  0  6G16G18G19G21G22G27
  20439890.540   107412357.56509  20439887.140    83697937.33049
  21918739.060   115183862.11009  21918736.000    89753700.41548
  22982907.640   120776006.47708  22982902.820    94111164.33847
  22907327.740   120379244.18708  22907324.000    93802194.63146
  21854374.020   114845636.03509  21854368.840    89490140.71948
  21268724.340   111767932.58109  21268723.280    87091907.07648
 15 02 27 01 11 30.0000000  0  6G16G18G19G21G22G27
  20437391.080   107399222.58609  20437387.680    83687702.27948
  21918000.240   115179979.49509  21917997.160    89750675.00748
  22969775.240   120706993.90708  22969770.280    94057388.32947
  22920781.840   120449946.45608  22920778.360    93857287.29646
  21841592.020   114778466.12209  21841586.800    89437800.53848
  21260553.300   111724993.65209  21260552.280    87058448.17648
 15 02 27 01 12  0.0000000  0  6G16G18G19G21G22G27
  20434990.440   107386606.73809  20434986.980    83677871.74648
  21917355.920   115176593.30809  21917352.800    89748036.42448
  22956662.700   120638086.34308  22956657.620    94003694.13947
  22934256.560   120520756.79008  22934253.160    93912464.17946
  21828879.000   114711658.71409  21828873.800    89385742.83448
  21252412.580   111682213.82809  21252411.520    87025113.25448
 15 02 27 01 12 30.0000000  0  6G16G18G19G21G22G27
  20432688.280   107374508.65609  20432684.780    83668444.66548
  21916805.640   115173701.48809  21916802.500    89745783.06248
  22943569.660   120569281.68808  22943564.460    93950080.13147
  22947751.200   120591671.87508  22947747.820    93967722.68346
  21816235.020   114645214.19009  21816229.840    89333967.89048
  21244301.780   111639591.47809  21244300.840    86991901.03948
 15 02 27 01 13  0.0000000  0  6G16G18G19G21G22G27
  20430484.260   107362926.35809  20430480.720    83659419.50648
  21916348.940   115171301.44509  21916345.740    89743912.91748
  22930495.640   120500576.82608  22930490.280    93896543.90647
  22961264.920   120662686.87408  22961261.500    94023059.05046
  21803659.900   114579131.51709  21803654.700    89282474.91748
  21236220.460   111597123.94909  21236219.640    86958809.46348
 15 02 27 01 13 30.0000000  0  6G16G18G19G21G22G27
  20428379.060   107351863.71209  20428375.560    83650799.25848
  21915986.360   115169395.99809  21915983.120    89742428.16348
  22917441.300   120431975.65908  22917435.740    93843088.47147
  22974797.780   120733802.87508  22974794.240    94078474.09746
  21791154.740   114513416.59509  21791149.520    89231268.49848
  21228169.300   111554814.94909  21228168.560    86925841.42348
 15 02 27 01 14  0.0000000  0  6G16G18G19G21G22G27
  20426373.060   107341322.33409  20426369.600    83642585.19449
  21915718.220   115167986.54809  21915714.840    89741329.89448
  22904406.560   120363478.46808  22904401.120    93789714.06247
  22988349.680   120805019.12108  22988346.300    94133967.26646
  21778719.980   114448071.77609  21778714.720    89180350.46848
  21220148.440   111512665.38409  21220147.800    86892997.60648
 15 02 27 01 14 30.0000000  0  7G04G16G18G19G21G22G27
  24592053.340   129232111.02508  24592053.180   100700345.82644
  20424466.160   107331301.58109  20424462.680    83634776.81049
  21915544.040   115167071.07909  21915540.660    89740616.54848
  22891391.300   120295083.91608  22891386.040    93736419.62447
  23001920.080   120876332.26708  23001916.760    94189535.93946
  21766355.840   114383097.82109  21766350.500    89129721.42448
  21212157.660   111470674.02209  21212157.140    86860277.07048
 15 02 27 01 15  0.0000000  0  7G04G16G18G19G21G22G27
  24572750.760   129130676.67508  24572750.700   100621306.33044
  20422660.460   107321812.73409  20422656.960    83627382.89948
  21915465.900   115166660.49509  21915462.620    89740296.60648
  22878397.660   120226802.46808  22878392.420    93683213.30147
  23015510.780   120947751.69908  23015507.420    94245187.43646
  21754064.620   114318507.15309  21754059.260    89079391.04248
  21204199.220   111428851.97509  21204198.700    86827688.46248
 15 02 27 01 15 30.0000000  0  7G04G16G18G19G21G22G27
  24553473.740   129029376.84408  24553473.820   100542371.67144
  20420952.520   107312837.47209  20420949.020    83620389.18948
  21915480.100   115166735.11909  21915476.880    89740354.76948
  22865421.920   120158614.79408  22865416.740    93630080.08147
  23029117.520   121019255.56308  23029114.060    94300904.72746
  21741843.060   114254282.55309  21741837.740    89029345.91148
  21196269.420   111387180.01909  21196268.760    86795216.80648
 15 02 27 01 16  0.0000000  0  7G04G16G18G19G21G22G27
  24534224.740   128928223.68608  24534224.720   100463551.24344
  20419344.560   107304387.47509  20419341.020    83613804.77649
  21915588.800   115167306.34109  21915585.560    89740799.88848
  22852466.080   120090531.79708  22852460.960    93577028.42047
  23042742.300   121090853.86408  23042738.820    94356695.61446
  21729693.720   114190437.50609  21729688.400    88979596.53648
  21188370.420   111345669.83709  21188369.580    86762871.21848
 15 02 27 01 16 30.0000000  0  7G04G16G18G19G21G22G27
  24515003.360   128827215.58708  24515003.380   100384843.83544
  20417836.240   107296460.92109  20417832.640    83607628.23048
  21915791.480   115168371.40309  21915788.220    89741629.81248
  22839529.760   120022551.10608  22839524.840    93524056.47347
  23056384.240   121162542.15908  23056380.560    94412556.62446
  21717616.400   114126970.89009  21717611.100    88930142.04048
  21180501.740   111304319.05309  21180500.720    86730649.82848
 15 02 27 01 17  0.0000000  0  7G04G16G18G19G21G22G27
  24495809.940   128726354.16808  24495809.920   100306250.74844
  20416427.840   107289059.52709  20416424.220    83601860.91448
  21916088.340   115169931.48609  21916085.060    89742845.47248
  22826613.180   119954673.75908  22826608.320    93471165.04647
  23070043.120   121234319.62908  23070039.260    94468487.12045
  21705611.720   114063886.14109  21705606.540    88880985.11248
  21172663.600   111263128.97909  21172662.500    86698553.66748
 15 02 27 01 17 30.0000000  0  7G04G16G18G19G21G22G27
  24476645.780   128625646.79708  24476645.620   100227777.66944
  20415120.680   107282190.26309  20415117.060    83596508.23248
  21916480.480   115171992.36409  21916477.220    89744451.35948
  22813717.320   119886906.08808  22813712.540    93418359.07747
  23083719.840   121306190.87408  23083716.020    94524490.67346
  21693681.300   114001191.56109  21693676.220    88832132.20248
  21164857.260   111222106.36209  21164856.160    86666587.99348
 15 02 27 01 18  0.0000000  0  7G04G16G18G19G21G22G27
  24457509.780   128525087.29708  24457509.700   100149419.79144
  20413913.480   107275846.39709  20413909.880    83591564.95848
  21916966.540   115174546.68509  21916963.280    89746441.74448
  22800840.660   119819240.73808  22800836.100    93365632.84348
  23097412.740   121378147.22008  23097409.020    94580560.54346
  21681824.140   113938881.78509  21681819.080    88783579.13448
  21157081.420   111181244.37809  21157080.300    86634747.48448
 15 02 27 01 18 30.0000000  0  7G04G16G18G19G21G22G27
  24438402.600   128424679.25308  24438402.600   100071179.94344
  20412806.940   107270031.65909  20412803.360    83587033.97949
  21917546.980   115177597.15909  21917543.720    89748818.74048
  22787984.140   119751680.75408  22787979.980    93312988.71348
  23111121.980   121450189.53708  23111118.380    94636697.40546
  21670041.100   113876961.43209  21670036.020    88735329.52548
  21149336.640   111140545.99909  21149335.660    86603034.46748
 15 02 27 01 19  0.0000000  0  7G04G16G18G19G21G22G27
  24419324.160   128324422.21508  24419324.140    99993057.75844
  20411800.960   107264745.37409  20411797.400    83582914.79248
  21918221.580   115181142.44509  21918218.320    89751581.30448
  22775147.580   119684224.82008  22775143.700    93260425.66848
  23124846.980   121522314.71208  23124843.080    94692898.84646
  21658332.320   113815431.30409  21658327.220    88687383.98148
  21141622.820   111100010.42709  21141622.040    86571448.31948
 15 02 27 01 19 30.0000000  0  7G04G16G18G19G21G22G27
  24400275.700   128224322.09008  24400275.540    99915057.80344
  20410896.560   107259992.87809  20410893.040    83579211.54448
  21918991.240   115185187.21709  21918988.020    89754733.08748
  22762331.740   119616877.53608  22762328.020    93207947.27748
  23138588.280   121594526.28808  23138584.320    94749167.59446
  21646699.080   113754298.21309  21646693.980    88639747.81848
  21133941.060   111059642.90509  21133940.340    86539993.11348
 15 02 27 01 20  0.0000000  0  7G04G16G18G19G21G22G27
  24381256.520   128124376.09708  24381256.260    99837177.97144
  20410093.160   107255770.90109  20410089.700    83575921.67949
  21919855.220   115189727.54109  21919852.020    89758271.00848
  22749535.920   119549635.56808  22749532.220    93155550.95348
  23152345.100   121666818.92808  23152341.460    94805499.52046
  21635141.080   113693560.51009  21635135.980    88592419.74248
  21126290.720   111019440.24909  21126289.980    86508666.36148
 15 02 27 01 20 30.0000000  0  7G04G16G18G19G21G22G27
  24362266.960   128024585.93208  24362266.660    99759419.57144
  20409391.080   107252081.50609  20409387.660    83573046.82248
  21920813.660   115194764.14909  21920810.480    89762195.64148
  22736760.340   119482499.59208  22736756.620    93103237.22448
  23166117.140   121739191.75708  23166113.580    94861893.91246
  21623658.820   113633220.98409  21623653.780    88545401.94048
  21118672.020   110979403.58209  21118671.220    86477468.96448
 15 02 27 01 21  0.0000000  0  7G04G16G18G19G21G22G27
  24343307.260   127924952.63308  24343306.780    99681783.36544
  20408790.440   107248924.92409  20408786.940    83570587.14048
  21921866.420   115200296.56309  21921863.240    89766506.62048
  22724005.040   119415470.06208  22724001.220    93051006.42748
  23179904.220   121811643.32808  23179900.580    94918349.69346
  21612252.700   113573281.69009  21612247.720    88498696.01048
  21111085.080   110939533.51709  21111084.180    86446401.38148
 15 02 27 01 21 30.0000000  0  7G04G16G18G19G21G22G27
  24324377.920   127825478.76308  24324377.220    99604271.40444
  20408291.540   107246303.24509  20408288.060    83568544.27149
  21923013.800   115206326.21709  21923010.600    89771205.06248
  22711270.220   119348548.52208  22711266.560    92998859.79448
  23193706.180   121884172.93108  23193702.540    94974866.25546
  21600923.400   113513746.00609  21600918.480    88452304.57448
  21103530.140   110899831.89809  21103529.260    86415465.05648
 15 02 27 01 22  0.0000000  0  7G04G16G18G19G21G22G27
  24305479.140   127726166.09908  24305478.460    99526885.07245
  20407894.760   107244218.06009  20407891.320    83566919.45248
  21924256.000   115212854.32509  21924252.900    89776291.90748
  22698556.040   119281735.87808  22698552.620    92946798.02448
  23207523.020   121956781.08908  23207519.340    95031444.03446
  21589671.520   113454616.98209  21589666.600    88406230.02548
  21096007.480   110860300.29909  21096006.740    86384661.22648
 15 02 27 01 22 30.0000000  0  7G04G16G18G19G21G22G27
  24286610.620   127627012.05908  24286609.900    99449622.31144
  20407599.500   107242666.31409  20407596.100    83565710.28849
  21925592.280   115219876.68109  21925589.260    89781763.87748
  22685862.060   119215028.89908  22685858.620    92894818.57248
  23221353.700   122029462.00208  23221350.100    95088078.50646
  21578496.720   113395892.87009  21578491.780    88360470.98348
  21088516.540   110820935.64809  21088515.940    86353987.47448
 15 02 27 01 23  0.0000000  0  7G04G16G18G19G21G22G27
  24267773.000   127528020.24208  24267772.460    99372485.96145
  20407406.380   107241651.32209  20407402.980    83564919.38248
  21927023.100   115227395.60709  21927020.080    89787622.79248
  22673188.760   119148430.36108  22673185.240    92842923.61748
  23235198.400   122102216.71008  23235194.920    95144770.47746
  21567399.860   113337578.46409  21567394.920    88315031.19448
  21081058.020   110781741.15609  21081057.600    86323446.31248
 15 02 27 01 23 30.0000000  0  7G04G16G18G19G21G22G27
  24248966.860   127429193.86608  24248966.480    99295478.51645
  20407315.940   107241176.02009  20407312.520    83564549.01648
  21928548.820   115235413.27709  21928545.800    89793870.33648
  22660536.500   119081942.70108  22660533.060    92791115.06748
  23249057.260   122175045.95508  23249053.740    95201520.53846
  21556381.680   113279677.61609  21556376.700    88269913.66548
  21073632.420   110742719.46909  21073632.100    86293039.81448
 15 02 27 01 24  0.0000000  0  7G04G16G18G19G21G22G27
  24230190.900   127330526.08708  24230190.540    99218594.66044
  20407326.820   107241233.08909  20407323.340    83564593.48048
  21930167.880   115243921.34309  21930164.800    89800500.00448
  22647903.880   119015558.16308  22647900.640    92739386.87948
  23262928.560   122247940.55408  23262925.220    95258321.49846
  21545441.120   113222184.84509  21545436.120    88225114.11548
  21066238.340   110703863.35609  21066238.020    86262762.32948
 15 02 27 01 24 30.0000000  0  7G04G16G18G19G21G22G27
  24211447.440   127232029.16308  24211447.060    99141843.93845
  20407441.120   107241833.77709  20407437.660    83565061.54248
  21931882.440   115252931.23809  21931879.320    89807520.71148
  22635293.120   118949288.32208  22635289.860    92687748.04748
  23276814.240   122320910.19508  23276811.100    95315180.94846
  21534580.640   113165112.97909  21534575.700    88180642.54848
  21058877.960   110665184.58209  21058877.680    86232623.03348
 15 02 27 01 25  0.0000000  0  7G04G16G18G19G21G22G27
  24192735.280   127133696.67908  24192734.740    99065221.31844
  20407657.620   107242971.53909  20407654.160    83565948.10048
  21933691.040   115262435.14809  21933687.840    89814926.35648
  22622702.820   118883126.01708  22622699.500    92636193.00748
  23290712.600   122393946.53308  23290709.460    95372092.35846
  21523799.360   113108457.03409  21523794.460    88136495.06448
  21051550.100   110626676.50409  21051549.800    86202616.73248
 15 02 27 01 25 30.0000000  0  7G04G16G18G19G21G22G27
  24174055.140   127035532.32008  24174054.480    98988729.72845
  20407977.060   107244650.14509  20407973.560    83567256.10448
  21935594.080   115272435.33609  21935590.820    89822718.71648
  22610133.460   118817074.06208  22610130.200    92584723.98048
  23304623.920   122467050.63208  23304620.720    95429056.58746
  21513098.020   113052221.02309  21513093.120    88092674.80648
  21044255.360   110588342.34509  21044254.940    86172745.96948
 15 02 27 01 26  0.0000000  0  7G04G16G18G19G21G22G27
  24155407.340   126937537.85808  24155406.600    98912370.51645
  20408399.600   107246870.67009  20408396.100    83568986.37848
  21937591.560   115282932.03809  21937588.280    89830897.97148
  22597585.400   118751133.53608  22597582.140    92533341.75848
  23318547.860   122540221.31208  23318544.660    95486072.68746
  21502477.220   112996408.17709  21502472.280    88049184.28948
  21036993.960   110550183.50909  21036993.500    86143011.81348
 15 02 27 01 26 30.0000000  0  7G04G16G18G19G21G22G27
  24136792.020   126839713.74408  24136791.200    98836144.04845
  20408925.240   107249632.98209  20408921.740    83571138.82348
  21939683.460   115293925.09909  21939680.140    89839464.01348
  22585058.540   118685304.27908  22585055.160    92482046.24748
  23332484.100   122613456.83408  23332480.960    95543139.31346
  21491937.160   112941019.57009  21491932.180    88006024.35848
  21029765.940   110512200.05209  21029765.440    86113414.32148
 15 02 27 01 27  0.0000000  0  7G04G16G18G19G21G22G27
  24118209.780   126742063.48208  24118208.900    98760053.03145
  20409554.560   107252940.00009  20409551.040    83573715.71148
  21941870.200   115305416.59009  21941866.840    89848418.42148
  22572553.340   118619589.37808  22572550.000    92430839.83548
  23346432.940   122686758.83308  23346429.680    95600257.72946
  21481478.700   112886059.89209  21481473.700    87963198.63648
  21022571.980   110474395.28009  21022571.400    86083956.05948
 15 02 27 01 27 30.0000000  0  7G04G16G18G19G21G22G27
  24099659.260   126644580.23308  24099658.420    98684092.17445
  20410286.140   107256784.20009  20410282.560    83576711.18449
  21944150.000   115317397.44309  21944146.760    89857754.15948
  22560068.380   118553980.76408  22560065.200    92379716.25848
  23360392.680   122760117.44108  23360389.320    95657420.28346
  21471100.780   112831523.27509  21471095.780    87920702.58448
  21015410.660   110436761.78009  21015409.960    86054631.25148
 15 02 27 01 28  0.0000000  0  7G04G16G18G19G21G22G27
  24081142.360   126547273.51108  24081141.560    98608268.83245
  20411121.700   107261174.77209  20411118.060    83580132.39848
  21946524.680   115329876.85209  21946521.480    89867478.38048
  22547605.500   118488487.33608  22547602.380    92328682.43448
  23374364.560   122833539.88708  23374361.280    95714632.54246
  21460805.300   112777420.20009  21460800.320    87878544.35348
  21008283.760   110399308.95009  21008282.980    86025447.23248
 15 02 27 01 28 30.0000000  0  7G04G16G18G19G21G22G27
  24062658.200   126450139.32808  24062657.520    98532579.96345
  20412060.260   107266106.73309  20412056.540    83583975.48348
  21948993.180   115342849.25909  21948989.960    89877586.76148
  22535163.720   118423104.54209  22535160.440    92277734.81548
  23388347.600   122907020.74608  23388344.200    95771890.36546
  21450591.640   112723747.51109  21450586.700    87836721.49648
  21001190.360   110362032.41409  21001189.500    85996400.59348
 15 02 27 01 29  0.0000000  0  7G04G16G18G19G21G22G27
  24044207.660   126353181.61408  24044206.820    98457028.59445
  20413102.580   107271584.11409  20413098.860    83588243.56648
  21951555.940   115356316.94009  21951552.700    89888081.07048
  22522743.600   118357835.75909  22522740.080    92226876.04548
  23402341.800   122980560.61908  23402338.220    95829194.14146
  21440460.800   112670509.73709  21440455.880    87795237.52048
  20994131.140   110324935.77609  20994130.160    85967494.12648
 15 02 27 01 29 30.0000000  0  7G04G16G18G19G21G22G27
  24025790.940   126256401.59908  24025790.220    98381615.68945
  20414248.740   107277607.19909  20414245.040    83592936.87348
  21954212.960   115370280.03709  21954209.840    89898961.40448
  22510345.260   118292681.37009  22510341.480    92176106.39348
  23416347.120   123054158.79708  23416343.440    95886543.36445
  21430413.160   112617709.12209  21430408.220    87754094.19648
  20987106.340   110288019.95309  20987105.300    85938728.55448
 15 02 27 01 30  0.0000000  0  7G04G16G18G19G21G22G27
  24007407.680   126159797.17808  24007406.880    98306339.60545
  20415498.240   107284173.42109  20415494.560    83598053.40548
  21956963.620   115384735.04709  21956960.580    89910225.05648
  22497968.220   118227638.72609  22497964.280    92125423.82748
  23430362.680   123127811.00908  23430359.020    95943934.68846
  21420448.480   112565344.41709  21420443.540    87713290.53448
  20980115.460   110251282.58309  20980114.440    85910102.04448
 15 02 27 01 30 30.0000000  0  7G04G16G18G19G21G22G27
  23989058.580   126063372.17008  23989057.600    98231203.32544
  20416851.640   107291285.81009  20416848.000    83603595.51848
  21959808.340   115399684.13609  21959805.300    89921873.70748
  22485613.020   118162710.79509  22485608.840    92074830.65848
  23444388.660   123201518.32808  23444385.140    96001368.94346
  21410567.680   112513420.53409  21410562.760    87672830.37948
  20973159.140   110214727.14809  20973158.240    85881617.28948
 15 02 27 01 31  0.0000000  0  7G04G16G18G19G21G22G27
  23970743.220   125967124.26408  23970742.100    98156205.03745
  20418308.420   107298941.58709  20418304.800    83609561.05548
  21962746.380   115415123.73009  21962743.360    89933904.55948
  22473279.240   118097895.10309  22473274.640    92024324.91448
  23458424.440   123275276.46908  23458421.060    96058842.80646
  21400770.500   112461935.85009  21400765.540    87632712.45048
  20966236.920   110178351.25909  20966236.140    85853272.44148
 15 02 27 01 31 30.0000000  0  7G04G16G18G19G21G22G27
  23952462.540   125871058.76308  23952461.320    98081348.87045
  20419869.520   107307145.31809  20419865.980    83615953.56448
  21965778.500   115431057.68609  21965775.420    89946320.63348
  22460967.380   118033195.76909  22460962.720    91973909.87148
  23472470.500   123349088.30808  23472466.980    96116358.52745
  21391058.100   112410896.67609  21391053.080    87592941.66948
  20959349.800   110142159.89609  20959349.160    85825071.37849
 15 02 27 01 32  0.0000000  0  7G04G16G18G19G21G22G27
  23934217.040   125775178.33908  23934215.780    98006636.93545
  20421535.240   107315898.63309  20421531.720    83622774.32548
  21968904.900   115447486.84709  21968901.800    89959122.58548
  22448678.020   117968615.36609  22448673.520    91923587.49948
  23486526.780   123422954.57908  23486523.200    96173916.64245
  21381431.060   112360306.32309  21381426.000    87553520.62548
  20952498.280   110106155.43809  20952497.740    85797015.96148
 15 02 27 01 32 30.0000000  0  7G04G16G18G19G21G22G27
  23916006.120   125679479.60308  23916004.920    97932066.55345
  20423304.900   107325198.31709  20423301.400    83630020.82848
  21972124.680   115464406.69309  21972121.540    89972306.88648
  22436410.560   117904149.70709  22436406.100    91873354.51948
  23500592.300   123496869.56408  23500588.800    96231512.71046
  21371888.920   112310162.22309  21371883.900    87514447.30948
  20945681.680   110070334.31809  20945681.240    85769103.40049
 15 02 27 01 33  0.0000000  0  7G04G16G18G19G21G22G27
  23897829.900   125583963.61808  23897828.680    97857638.60345
  20425178.580   107335044.58709  20425175.060    83637693.23648
  21975437.820   115481817.05909  21975434.640    89985873.41848
  22424165.080   117839799.47309  22424160.580    91823211.49348
  23514666.880   123570831.73408  23514663.540    96289145.56345
  21362432.000   112260466.04109  21362427.040    87475723.01748
  20938900.220   110034697.43209  20938899.820    85741334.40249
 15 02 27 01 33 30.0000000  0  7G04G16G18G19G21G22G27
  23879688.960   125488632.91108  23879687.680    97783354.99645
  20427156.500   107345438.64009  20427152.960    83645792.50048
  21978844.440   115499718.53909  21978841.160    89999822.63348
  22411941.920   117775566.17609  22411937.520    91773159.59248
  23528750.560   123644841.59108  23528747.020    96346815.58245
  21353061.000   112211221.36909  21353056.080    87437350.55448
  20932154.340   109999246.90409  20932153.800    85713710.61649
 15 02 27 01 34  0.0000000  0  7G04G16G18G19G21G22G27
  23861583.400   125393488.20708  23861582.120    97709216.35745
  20429238.740   107356380.71709  20429235.240    83654318.78848
  21982344.400   115518110.68009  21982341.000    90014154.17648
  22399741.240   117711450.31309  22399736.680    91723199.19748
  23542843.100   123718898.17908  23542839.540    96404522.00746
  21343776.280   112162430.05709  21343771.380    87399331.36048
  20925444.160   109963983.61409  20925443.360    85686232.72248
 15 02 27 01 34 30.0000000  0  7G04G16G18G19G21G22G27
  23843513.620   125298531.41108  23843512.440    97635224.10745
  20431425.480   107367872.14509  20431422.040    83663273.13948
  21985937.780   115536993.70109  21985934.280    90028868.22348
  22387563.140   117647453.06709  22387558.400    91673331.21848
  23556944.300   123793000.64508  23556940.640    96462264.16446
  21334578.320   112114094.45309  21334573.400    87361667.26548
  20918769.760   109928909.00109  20918768.840    85658901.85649
 15 02 27 01 35  0.0000000  0  7G04G16G18G19G21G22G27
  23825479.540   125203762.28608  23825478.480    97561378.12145
  20433716.620   107379912.31109  20433713.200    83672655.08348
  21989624.180   115556366.00909  21989620.720    90043963.52948
  22375407.500   117583574.03009  22375402.460    91623555.34948
  23571053.820   123867146.91808  23571050.180    96520040.47646
  21325467.220   112066215.12109  21325462.260    87324358.69748
  20912131.260   109894022.92809  20912130.180    85631717.90949
 15 02 27 01 35 30.0000000  0  7G04G16G18G19G21G22G27
  23807481.480   125109182.27808  23807480.520    97487679.47445
  20436112.200   107392501.28509  20436108.760    83682464.67048
  21993403.640   115576227.35209  21993400.220    90059439.90747
  22363274.460   117519813.79209  22363269.300    91573872.05848
  23585171.460   123941335.76608  23585167.840    96577849.96345
  21316443.360   112018794.17209  21316438.320    87287407.31848
  20905528.800   109859326.30109  20905527.620    85604681.58148
 15 02 27 01 36  0.0000000  0  7G04G16G18G19G21G22G27
  23789519.860   125014793.63808  23789519.100    97414129.95345
  20438612.480   107405640.29209  20438609.000    83692702.84848
  21997276.280   115596578.46209  21997272.900    90075297.91948
  22351164.280   117456174.23209  22351158.880    91524282.80848
  23599297.320   124015567.71708  23599293.880    96635693.03146
  21307507.240   111971834.57109  21307502.200    87250815.43448
  20898962.840   109824821.59109  20898961.600    85577794.80448
 15 02 27 01 36 30.0000000  0  7G04G16G18G19G21G22G27
  23771594.480   124920595.78208  23771593.880    97340729.09445
  20441217.300   107419328.62509  20441213.860    83703369.07448
  22001241.660   115617417.01909  22001238.380    90091535.74948
  22339076.860   117392654.22809  22339071.260    91474786.70448
  23613430.820   124089839.81008  23613427.400    96693567.36545
  21298659.020   111925336.62209  21298653.940    87214583.27848
  20892433.200   109790507.98609  20892431.860    85551056.92848
 15 02 27 01 37  0.0000000  0  7G04G16G18G19G21G22G27
  23753705.500   124826589.34808  23753704.920    97267477.39545
  20443926.560   107433565.78209  20443923.220    83714462.95948
  22005299.620   115638742.17109  22005296.480    90108152.75347
  22327012.200   117329253.79809  22327006.520    91425383.78748
  23627571.700   124164150.51808  23627568.260    96751471.79445
  21289898.900   111879301.70709  21289893.740    87178711.92248
  20885939.920   109756385.70609  20885938.520    85524468.14648
 15 02 27 01 37 30.0000000  0  7G04G16G18G19G21G22G27
  23735853.380   124732776.58408  23735852.880    97194376.59145
  20446740.560   107448353.56809  20446737.240    83725985.89348
  22009450.320   115660554.61509  22009447.300    90125149.46248
  22314970.560   117265974.93909  22314965.020    91376075.59348
  23641720.020   124238500.31308  23641716.480    96809406.67745
  21281227.460   111833732.68009  21281222.180    87143203.58348
  20879483.480   109722457.26309  20879482.140    85498030.39648
 15 02 27 01 38  0.0000000  0  7G04G16G18G19G21G22G27
  23718038.180   124639157.64108  23718037.700    97121426.83345
  20449659.120   107463690.56509  20449655.700    83737936.79948
  22013693.480   115682852.94909  22013690.540    90142524.78847
  22302951.940   117202816.97009  22302946.460    91326861.59548
  23655875.340   124312886.93508  23655871.760    96867370.28445
  21272644.840   111788630.47109  21272639.500    87108059.02348
  20873063.920   109688722.53609  20873062.700    85471743.60948
 15 02 27 01 38 30.0000000  0  7G04G16G18G19G21G22G27
  23700260.080   124545733.33708  23700259.620    97048628.73145
  20452682.280   107479577.14909  20452678.800    83750315.95448
  22018029.000   115705636.35309  22018026.020    90160278.09747
  22290956.400   117139780.92009  22290951.060    91277742.61148
  23670037.480   124387309.51208  23670034.000    96925361.88845
  21264151.320   111743997.03009  21264146.040    87073279.72848
  20866681.380   109655182.42209  20866680.240    85445608.45948
 15 02 27 01 39  0.0000000  0  7G04G16G18G19G21G22G27
  23682519.560   124452506.55608  23682519.160    96975984.54645
  20455810.400   107496015.38109  20455806.960    83763124.96248
  22022457.040   115728906.00409  22022454.020    90178410.29947
  22278984.480   117076868.56309  22278979.360    91228720.01248
  23684206.460   124461768.59508  23684203.060    96983381.93146
  21255747.520   111699835.13109  21255742.360    87038867.86748
  20860336.400   109621839.55109  20860335.320    85419627.00148
 15 02 27 01 39 30.0000000  0  8G04G07G16G18G19G21G22G27
  23664816.080   124359474.41108  23664815.580    96903492.01945
  24532940.720   128921480.54207  24532939.640   100458286.53946
  20459042.760   107513001.41109  20459039.360    83776360.82148
  22026976.800   115752657.33809  22026973.660    90196917.83247
  22267035.600   117014077.01109  22267030.520    91179791.53448
  23698381.560   124536259.47708  23698378.200    97041426.75645
  21247433.180   111656143.16809  21247428.100    87004822.18848
  20854028.380   109588691.16009  20854027.460    85393797.08248
 15 02 27 01 40  0.0000000  0  8G04G07G16G18G19G21G22G27
  23647155.700   124266668.74608  23647155.280    96831175.97346
  24528342.500   128897316.52607  24528341.760   100439457.51946
  20462385.120   107530565.59409  20462381.700    83790047.18948
  22031594.020   115776920.73809  22031590.760    90215824.38247
  22255115.520   116951437.37709  22255110.520    91130981.44248
  23712568.360   124610811.45708  23712565.060    97099519.21945
  21239214.340   111612953.17709  21239209.360    86971167.66048
  20847763.340   109555768.70709  20847762.600    85368143.21849
 15 02 27 01 40 30.0000000  0  8G04G07G16G18G19G21G22G27
  23629525.180   124174019.78508  23629524.800    96758982.02145
  24523836.040   128873629.93108  24523834.260   100421000.41846
  20465824.220   107548638.12609  20465820.700    83804129.67648
  22036295.120   115801624.82009  22036291.780    90235074.32847
  22243211.120   116888879.84009  22243206.220    91082235.31548
  23726753.200   124685353.30508  23726749.960    97157603.75045
  21231077.980   111570196.33309  21231073.000    86937850.65048
  20841528.080   109523002.74909  20841527.460    85342611.30748
 15 02 27 01 41  0.0000000  0  8G04G07G16G18G19G21G22G27
  23611934.120   124081578.30908  23611933.720    96686949.75346
  24519429.940   128850470.83208  24519427.160   100402954.33746
  20469369.540   107567268.94009  20469366.000    83818647.18348
  22041089.320   115826818.39009  22041086.040    90254705.68147
  22231331.900   116826454.78209  22231327.060    91033592.42348
  23740945.460   124759933.59608  23740942.260    97215718.25445
  21223033.940   111527924.12109  21223028.820    86904911.26648
  20835332.320   109490444.05209  20835331.780    85317240.88849
 15 02 27 01 41 30.0000000  0  8G04G07G16G18G19G21G22G27
  23594381.740   123989340.18408  23594381.360    96615075.93046
  24515123.060   128827834.42608  24515119.280   100385315.54145
  20473020.000   107586452.14009  20473016.480    83833595.11849
  22045975.600   115852495.81509  22045972.300    90274714.06048
  22219476.960   116764157.66109  22219472.240    90985049.21048
  23755143.800   124834546.20508  23755140.420    97273857.94845
  21215081.440   111486133.04409  21215076.180    86872346.79748
  20829175.280   109458088.29709  20829174.700    85292028.60749
 15 02 27 01 42  0.0000000  0  8G04G07G16G18G19G21G22G27
  23576868.160   123897306.29408  23576867.920    96543361.26245
  24510915.200   128805720.62408  24510910.840   100368084.01845
  20476775.640   107606187.91709  20476772.120    83848973.64448
  22050953.800   115878656.31209  22050950.500    90295098.87147
  22207646.480   116701988.85209  22207641.960    90936605.98448
  23769347.980   124909189.99308  23769344.680    97332021.90545
  21207220.720   111444824.37909  21207215.360    86840158.23548
  20823057.020   109425936.29009  20823056.340    85266975.09549
 15 02 27 01 42 30.0000000  0  8G04G07G16G18G19G21G22G27
  23559393.360   123805476.03608  23559393.120    96471805.26045
  24506806.420   128784128.39308  24506801.820   100351258.88046
  20480636.180   107626474.95509  20480632.600    83864781.71148
  22056023.480   115905297.63109  22056020.140    90315858.34147
  22195840.260   116639947.56409  22195835.940    90888262.14248
  23783557.620   124983862.59108  23783554.460    97390208.31945
  21199451.800   111403998.32709  21199446.380    86808345.72948
  20816977.460   109393987.72109  20816976.660    85242080.10249
 15 02 27 01 43  0.0000000  0  8G04G07G16G18G19G21G22G27
  23541957.020   123713847.68508  23541956.760    96400406.59846
  24502796.320   128763055.03108  24502791.800   100334838.06447
  20484600.980   107647309.98809  20484597.300    83881016.80048
  22061183.800   115932415.34609  22061180.400    90336989.03847
  22184057.880   116578031.30409  22184053.660    90840015.70848
  23797772.080   125058559.98508  23797768.880    97448414.06845
  21191774.420   111363653.52509  21191769.000    86776908.23548
  20810936.180   109362240.52309  20810935.300    85217342.03849
 15 02 27 01 43 30.0000000  0  8G04G07G16G18G19G21G22G27
  23524559.940   123622425.64108  23524559.760    96329168.68746
  24498885.500   128742504.23208  24498881.600   100318824.48747
  20488670.880   107668697.20509  20488667.080    83897682.15748
  22066435.520   115960013.27609  22066432.140    90358493.91847
  22172300.080   116516244.47109  22172296.020    90791870.13548
  23811991.900   125133284.71908  23811988.580    97506641.11546
  21184189.540   111323795.04809  21184184.160    86745849.69448
  20804934.140   109330699.30609  20804933.160    85192764.46448
 15 02 27 01 44  0.0000000  0  8G04G07G16G18G19G21G22G27
  23507202.040   123531209.01908  23507201.820    96258090.84345
  24495073.780   128722474.39908  24495070.280   100303216.84146
  20492845.360   107690633.90909  20492841.560    83914775.68348
  22071778.120   115988088.62609  22071774.700    90380370.81447
  22160566.780   116454585.93609  22160562.740    90743824.53248
  23826216.280   125208033.98808  23826213.080    97564887.27245
  21176697.120   111284422.34109  21176691.740    86715169.67548
  20798971.100   109299363.09809  20798970.100    85168346.64248
 15 02 27 01 44 30.0000000  0  8G04G07G16G18G19G21G22G27
  23489883.240   123440197.81108  23489882.900    96187173.05745
  24491361.120   128702965.19008  24491357.660   100288014.83646
  20497124.220   107713119.21509  20497120.420    83932296.69548
  22077211.220   116016639.64909  22077207.820    90402618.36347
  22148857.900   116393055.22009  22148853.800    90695878.52048
  23840445.040   125282806.14908  23840441.720    97623151.28945
  21169297.280   111245536.15609  21169291.960    86684868.75848
  20793047.080   109268232.11309  20793046.100    85144088.73448
 15 02 27 01 45  0.0000000  0  8G04G07G16G18G19G21G22G27
  23472604.000   123349394.09308  23472603.400    96116416.94845
  24487747.660   128683977.13908  24487744.100   100273218.91546
  20501507.640   107736154.09309  20501503.840    83950245.94848
  22082734.820   116045666.44909  22082731.420    90425236.65547
  22137173.740   116331654.37909  22137169.660    90648033.72948
  23854677.980   125357600.80608  23854674.620    97681432.82645
  21161990.640   111207139.40909  21161985.340    86654949.22748
  20787162.500   109237308.43709  20787161.480    85119992.37348
 15 02 27 01 45 30.0000000  0  8G04G07G16G18G19G21G22G27
  23455364.440   123258799.22608  23455363.720    96045823.59245
  24484233.360   128665511.08607  24484230.260   100258829.81646
  20505995.760   107759739.14409  20505991.920    83968623.90248
  22088348.880   116075168.49209  22088345.580    90448225.26247
  22125514.540   116270384.25509  22125510.500    90600290.77948
  23868915.160   125432418.03608  23868912.160    97739731.92145
  21154777.480   111169233.77409  21154772.180    86625412.37148
  20781317.620   109206593.50009  20781316.580    85096058.65648
 15 02 27 01 46  0.0000000  0  8G04G07G16G18G19G21G22G27
  23438164.560   123168413.05208  23438163.760    95975392.84446
  24480818.120   128647566.13607  24480815.700   100244846.76246
  20510588.340   107783872.91809  20510584.400    83987429.43048
  22094053.020   116105143.65309  22094049.740    90471582.53647
  22113880.100   116209244.43709  22113875.940    90552649.37548
  23883156.280   125507255.70808  23883153.320    97798046.98245
  21147657.800   111131819.29509  21147652.460    86596258.24048
  20775512.460   109176087.17109  20775511.420    85072287.49648
 15 02 27 01 46 30.0000000  0  8G04G07G16G18G19G21G22G27
  23421005.040   123078238.83308  23421004.040    95905127.26745
  24477502.260   128630144.80207  24477500.520   100231271.72646
  20515285.700   107808557.67509  20515281.780    84006664.29948
  22099847.560   116135593.94009  22099844.200    90495310.03147
  22102271.080   116148238.12609  22102266.940    90505111.99248
  23897401.600   125582115.03608  23897398.500    97856378.91445
  21140632.320   111094900.05209  21140626.960    86567490.00448
  20769747.640   109145792.88509  20769746.660    85048681.55548
 15 02 27 01 47  0.0000000  0  8G04G07G16G18G19G21G22G27
  23403885.100   122988272.27608  23403884.040    95835023.49246
  24474285.160   128613241.93107  24474283.820   100218100.60845
  20520086.840   107833787.97509  20520083.060    84026324.26548
  22105731.380   116166513.19509  22105727.880    90519402.96247
  22090686.600   116087360.53409  22090682.340    90457674.91348
  23911649.920   125656989.96608  23911646.520    97914723.00745
  21133700.340   111058472.51109  21133694.960    86539104.90948
  20764022.320   109115706.48809  20764021.460    85025237.61149
 15 02 27 01 47 30.0000000  0  8G04G07G16G18G19G21G22G27
  23386805.180   122898515.99908  23386804.000    95765083.55945
  24471167.240   128596859.24207  24471166.040   100205334.85246
  20524991.940   107859564.98509  20524988.360    84046410.23348
  22111704.460   116197901.76609  22111700.860    90543861.59547
  22079127.140   116026614.17609  22079122.620    90410340.09548
  23925901.400   125731881.22208  23925897.720    97973079.82545
  21126862.380   111022539.23809  21126857.040    86511104.96148
  20758336.980   109085830.57009  20758336.260    85001957.67448
 15 02 27 01 48  0.0000000  0  8G04G07G16G18G19G21G22G27
  23369765.820   122808973.39508  23369764.520    95695310.15045
  24468149.040   128580999.21107  24468147.820   100192976.42545
  20530001.520   107885890.90509  20529998.000    84066923.94348
  22117767.140   116229761.56909  22117763.620    90568687.43747
  22067593.240   115966002.30809  22067588.520    90363110.09548
  23940156.120   125806790.53308  23940152.560    98031450.69345
  21120119.280   110987104.26609  21120114.000    86483493.30848
  20752692.460   109056168.89309  20752691.860    84978844.69549
 15 02 27 01 48 30.0000000  0  8G04G07G16G18G19G21G22G27
  23352767.360   122719645.85908  23352765.940    95625704.31945
  24465230.640   128565662.08307  24465229.360   100181025.40445
  20535115.760   107912766.63109  20535112.180    84087866.05248
  22123919.420   116262092.07409  22123915.860    90593880.03647
  22056085.080   115905526.13609  22056080.380    90315985.81548
  23954414.240   125881717.37008  23954410.600    98089835.23945
  21113471.460   110952169.67009  21113466.220    86456271.55048
  20747089.040   109026722.82509  20747088.480    84955899.69849
 15 02 27 01 49  0.0000000  0  8G04G07G16G18G19G21G22G27
  23335808.500   122630526.39308  23335807.060    95556260.61246
  24462410.580   128550840.39708  24462408.080   100169475.98744
  20540332.960   107940183.17609  20540329.340    84109229.58548
  22130159.600   116294884.47309  22130156.020    90619432.56947
  22044601.320   115845178.17009  22044596.600    90268961.42648
  23968674.000   125956652.44408  23968670.380    98148226.19845
  21106917.560   110917728.73309  21106912.340    86429434.46148
  20741525.360   108997485.45809  20741524.820    84933117.34049
 15 02 27 01 49 30.0000000  0  8G04G07G16G18G19G21G22G27
  23318890.880   122541623.95708  23318889.500    95486986.02745
  24459690.060   128536542.06608  24459687.240   100158334.41445
  20545654.740   107968149.08709  20545651.140    84131021.20348
  22136488.880   116328145.44509  22136485.400    90645350.20747
  22033143.620   115784967.59009  22033138.960    90222044.09948
  23982936.820   126031604.10308  23982933.320    98206630.04145
  21100459.340   110883790.74409  21100454.120    86402989.28048
  20736003.180   108968466.18509  20736002.600    84910504.91649
 15 02 27 01 50  0.0000000  0  8G04G07G16G18G19G21G22G27
  23302014.200   122452936.92608  23302012.860    95417879.28846
  24457068.680   128522764.10608  24457065.620   100147598.31146
  20551080.440   107996661.11509  20551076.860    84153238.36148
  22142906.820   116361872.26209  22142903.360    90671630.85847
  22021711.640   115724892.19209  22021706.960    90175232.11748
  23997202.040   126106568.30408  23997198.580    98265043.69545
  21094096.600   110850354.51209  21094091.400    86376935.07248
  20730522.200   108939663.24609  20730521.580    84888061.07049
 15 02 27 01 50 30.0000000  0  8G04G07G16G18G19G21G22G27
  23285178.480   122364465.06108  23285177.120    95348940.21446
  24454546.120   128509505.76508  24454542.940   100137267.10546
  20556609.680   108025717.46509  20556606.060    84175879.66448
  22149412.980   116396062.46609  22149409.540    90698272.58247
  22010305.340   115664951.94209  22010300.700    90128525.43748
  24011469.300   126181543.14808  24011465.860    98323465.64446
  21087829.420   110817420.22209  21087824.220    86351271.99148
  20725082.400   108911076.72509  20725081.700    84865785.85549
 15 02 27 01 51  0.0000000  0  8G04G07G16G18G19G21G22G27
  23268384.540   122276212.66608  23268383.120    95280172.15546
  24452122.680   128496769.75807  24452119.860   100127343.00346
  20562242.960   108055320.79209  20562239.320    84198947.18248
  22156007.680   116430718.23209  22156004.340    90725277.08547
  21998925.520   115605150.79409  21998920.940    90081927.15248
  24025739.080   126256531.08508  24025735.540    98381897.79244
  21081658.620   110784992.54909  21081653.480    86326003.68548
  20719684.600   108882710.96409  20719683.840    84843682.66449
 15 02 27 01 51 30.0000000  0  8G04G07G16G18G19G21G22G27
  23251632.140   122188178.86408  23251630.840    95211574.42046
  24449798.140   128484554.53608  24449795.580   100117824.67146
  20567980.200   108085470.29709  20567976.520    84222440.29148
  22162690.500   116465836.94109  22162687.260    90752642.31547
  21987572.060   115545487.89609  21987567.460    90035436.59248
  24040010.860   126331529.56708  24040007.380    98440338.13345
  21075584.100   110753070.92209  21075578.980    86301129.69548
  20714328.720   108854565.48009  20714327.900    84821751.11649
 15 02 27 01 52  0.0000000  0  8G04G07G16G18G19G21G22G27
  23234921.320   122100363.46908  23234920.080    95143146.88246
  24447572.820   128472859.18608  24447570.020   100108711.37546
  20573820.960   108116163.78209  20573817.320    84246357.28248
  22169461.020   116501416.48709  22169457.760    90780366.63847
  21976244.880   115485963.14009  21976240.160    89989053.67648
  24054284.260   126406536.68508  24054280.900    98498785.20745
  21069605.960   110721655.80809  21069600.880    86276650.39148
  20709014.760   108826640.32409  20709013.940    84799991.25649
 15 02 27 01 52 30.0000000  0  8G04G07G16G18G19G21G22G27
  23218252.160   122012766.91208  23218250.960    95074889.85446
  24445446.180   128461682.86908  24445443.100   100100002.55645
  20579764.940   108147399.79209  20579761.440    84270697.01948
  22176318.920   116537455.23909  22176315.640    90808448.78547
  21964943.920   115426576.42309  21964939.220    89942778.31648
  24068559.100   126481551.16508  24068555.460    98557238.04145
  21063724.340   110690747.67609  21063719.220    86252566.13448
  20703742.860   108798935.95509  20703742.000    84778403.43249
 15 02 27 01 53  0.0000000  0  8G04G07G16G18G19G21G22G27
  23201624.760   121925389.78208  23201623.480    95006803.82546
  24443418.240   128451025.06608  24443414.720   100091697.72746
  20585812.260   108179178.76209  20585808.840    84295459.85348
  22183263.980   116573951.91509  22183260.700    90836887.77647
  21953669.320   115367328.43609  21953664.580    89896611.06848
  24082835.120   126556572.13308  24082831.100    98615695.95245
  21057939.400   110660347.57709  21057934.240    86228877.75548
  20698513.160   108771453.25509  20698512.220    84756988.34949
 15 02 27 01 53 30.0000000  0  8G04G07G16G18G19G21G22G27
  23185040.000   121838236.89208  23185038.740    94938892.53646
  24441489.460   128440889.44208  24441485.980   100083799.82045
  20591963.420   108211503.63609  20591960.020    84320648.06348
  22190296.760   116610909.54909  22190293.440    90865685.94147
  21942421.980   115308223.84109  21942417.220    89850555.55348
  24097112.880   126631602.58608  24097109.060    98674161.22845
  21052252.120   110630460.71609  21052246.940    86205589.30548
  20693326.620   108744197.37509  20693325.580    84735750.00149
 15 02 27 01 54  0.0000000  0  8G04G07G16G18G19G21G22G27
  23168496.880   121751302.34909  23168495.580    94871151.36245
  24439658.660   128431269.20107  24439655.600   100076303.49646
  20598217.000   108244366.79709  20598213.620    84346255.70248
  22197415.800   116648320.25709  22197412.480    90894837.15047
  21931200.780   115249256.77809  21931196.120    89804607.20548
  24111391.020   126706635.01308  24111387.480    98732628.01345
  21046661.440   110601081.39709  21046656.200    86182696.32748
  20688182.120   108717162.66609  20688181.060    84714683.99749
 15 02 27 01 54 30.0000000  0  8G04G07G16G18G19G21G22G27
  23151996.800   121664593.93308  23151995.420    94803586.40146
  24437926.920   128422171.12207  24437924.720   100069214.13946
  20604574.380   108277775.36409  20604571.060    84372288.35048
  22204622.240   116686190.19209  22204618.900    90924346.19247
  21920007.380   115190435.31609  21920002.720    89758772.30648
  24125670.760   126781675.87608  24125667.440    98791101.37845
  21041168.900   110572217.54409  21041163.600    86160205.02148
  20683081.240   108690357.38509  20683080.180    84693796.77249
 15 02 27 01 55  0.0000000  0  8G04G07G16G18G19G21G22G27
  23135538.800   121578106.59309  23135537.340    94736193.70045
  24436293.700   128413588.98108  24436291.920   100062526.77746
  20611034.200   108311722.21809  20611031.000    84398740.43348
  22211914.640   116724511.80809  22211911.340    90954207.19947
  21908840.580   115131753.88509  21908835.920    89713046.52248
  24139950.880   126856718.29508  24139947.320    98849575.99645
  21035773.640   110543864.61509  21035768.260    86138111.82648
  20678023.020   108663776.48309  20678022.000    84673084.37949
 15 02 27 01 55 30.0000000  0  8G04G07G16G18G19G21G22G27
  23119123.360   121491843.03909  23119121.860    94668975.36946
  24434759.040   128405524.18108  24434757.100   100056242.49846
  20617596.840   108346209.27109  20617593.740    84425613.44348
  22219293.140   116763286.08209  22219289.820    90984420.91547
  21897701.020   115073215.31509  21897696.380    89667432.06248
  24154231.440   126931763.43107  24154227.600    98908052.70745
  21030476.080   110516025.43709  21030470.680    86116418.96448
  20673008.020   108637423.00309  20673007.040    84652549.19649
 15 02 27 01 56  0.0000000  0  8G04G07G16G18G19G21G22G27
  23102750.860   121405805.22308  23102749.360    94601932.95245
  24433322.980   128397977.46408  24433321.020   100050361.95846
  20624262.280   108381236.26909  20624259.160    84452907.19948
  22226757.740   116802512.77009  22226754.420    91014987.17647
  21886589.080   115014821.38209  21886584.340    89621930.30248
  24168512.560   127006811.30708  24168508.880    98966531.55545
  21025276.660   110488702.40809  21025271.280    86095128.29248
  20668036.740   108611299.07309  20668035.820    84632192.88749
 15 02 27 01 56 30.0000000  0  8G04G07G16G18G19G21G22G27
  23086421.240   121319993.33209  23086419.980    94535066.56546
  24431985.300   128390947.77707  24431983.100   100044884.22945
  20631030.400   108416802.88009  20631027.180    84480621.43548
  22234308.140   116842190.05309  22234304.760    91045904.54847
  21875504.820   114956572.70809  21875500.000    89576541.73348
  24182794.000   127081860.76007  24182790.520    99025011.63845
  21020175.480   110461895.74209  21020170.160    86074239.99748
  20663109.320   108585405.40609  20663108.500    84612016.01049
 15 02 27 01 57  0.0000000  0  8G04G07G16G18G19G21G22G27
  23070136.020   121234414.63808  23070135.000    94468381.90746
  24430746.360   128384441.37306  24430744.480   100039814.42646
  20637902.240   108452914.62409  20637898.940    84508760.44948
  22241945.320   116882323.56309  22241941.980    91077177.41747
  21864449.560   114898476.31509  21864444.580    89531271.82148
  24197076.580   127156917.37007  24197073.340    99083497.25145
  21015174.040   110435613.13909  21015168.820    86053760.04948
  20658227.180   108559749.58209  20658226.420    84592024.45849
 15 02 27 01 57 30.0000000  0  8G04G07G16G18G19G21G22G27
  23053892.680   121149055.84108  23053891.600    94401868.59446
  24429604.600   128378443.65608  24429603.040   100035140.84845
  20644875.000   108489556.43609  20644871.660    84537312.49648
  22249666.340   116922897.80709  22249663.040    91108793.71347
  21853420.740   114840518.86809  21853415.720    89486110.17848
  24211357.980   127231966.62508  24211354.680    99141977.17045
  21010269.780   110409841.25209  21010264.640    86033678.06548
  20653387.800   108534318.46809  20653387.060    84572208.00649
 15 02 27 01 58  0.0000000  0  8G04G07G16G18G19G21G22G27
  23037692.380   121063923.19908  23037691.360    94335531.51046
  24428561.280   128372960.02408  24428559.540   100030867.83146
  20651949.600   108526733.19209  20651946.280    84566281.38948
  22257471.980   116963917.00609  22257468.780    91140756.72947
  21842419.580   114782706.95409  21842414.600    89441061.94948
  24225638.960   127307013.09608  24225635.500    99200454.94945
  21005463.980   110384586.70309  21005458.840    86013999.20648
  20648592.480   108509118.88909  20648591.740    84552571.97549
 15 02 27 01 58 30.0000000  0  9G04G07G11G16G18G19G21G22G27
  23021535.680   120979019.56708  23021534.640    94269372.88646
  24427616.000   128367991.69607  24427614.540   100026996.39047
  24696074.540   129778747.20308  24696071.560   101126282.21544
  20659126.280   108564446.51209  20659122.960    84595668.38548
  22265362.440   117005381.87109  22265359.320    91173067.00647
  21831446.640   114725043.28409  21831441.640    89396129.22148
  24239919.740   127382058.21107  24239916.240    99258931.65645
  21000757.220   110359852.60109  21000752.000    85994725.88048
  20643841.860   108484153.89709  20643841.040    84533118.73049
 15 02 27 01 59  0.0000000  0  9G04G07G11G16G18G19G21G22G27
  23005421.120   120894337.03309  23005420.080    94203386.52746
  24426767.000   128363529.71107  24426765.940   100023519.55146
  24678769.380   129687807.58208  24678766.100   101055420.21744
  20666403.160   108602686.66109  20666399.880    84625465.89148
  22273335.860   117047282.60309  22273332.780    91205716.93047
  21820500.360   114667519.95509  21820495.460    89351305.87348
  24254198.140   127457092.36107  24254195.140    99317399.75746
  20996147.980   110335630.42709  20996142.620    85975851.45848
  20639134.420   108459415.89909  20639133.580    84513842.37449
 15 02 27 01 59 30.0000000  0  9G04G07G11G16G18G19G21G22G27
  22989352.920   120809897.94109  22989351.760    94137589.86846
  24426018.140   128359594.70607  24426017.040   100020453.30746
  24661482.800   129596967.30508  24661480.220   100984635.64344
  20673784.360   108641474.94209  20673780.980    84655690.51848
  22281396.040   117089639.29709  22281392.960    91238722.14947
  21809585.060   114610159.29609  21809580.160    89306609.27248
  24268478.520   127532136.40308  24268475.800    99375875.59445
  20991640.600   110311943.55209  20991635.160    85957394.15748
  20634474.420   108434927.55509  20634473.640    84494760.55149
 15 02 27 02 00  0.0000000  0  9G04G07G11G16G18G19G21G22G27
  22973328.160   120725687.17709  22973326.900    94071971.12445
  24425366.200   128356170.54307  24425364.960   100017785.17244
  24644212.140   129506211.08708  24644209.700   100913916.57444
  20681266.660   108680794.48709  20681263.180    84686329.11448
  22289539.840   117132435.30009  22289536.740    91272069.68947
  21798697.920   114552946.41709  21798692.840    89262027.81548
  24282757.780   127607174.22707  24282754.900    99434346.63145
  20987232.160   110288776.85409  20987226.700    85939342.19348
  20629859.140   108410674.25509  20629858.360    84475861.88449
 15 02 27 02 00 30.0000000  0  9G04G07G11G16G18G19G21G22G27
  22957347.240   120641706.75709  22957345.880    94006531.86745
  24424812.160   128353258.04208  24424810.040   100015515.61344
  24626957.960   129415540.51607  24626955.380   100843264.19544
  20688850.120   108720645.63309  20688846.640    84717381.94348
  22297767.160   117175670.19809  22297764.080    91305759.21647
  21787839.240   114495883.49509  21787834.060    89217563.20748
  24297035.900   127682205.92807  24297032.920    99492812.87945
  20982922.920   110266131.98109  20982917.540    85921696.84448
  20625289.060   108386658.32509  20625288.220    84457148.16949
 15 02 27 02 01  0.0000000  0  9G04G07G11G16G18G19G21G22G27
  22941410.320   120557957.59309  22941408.860    93941272.80146
  24424355.200   128350856.77207  24424352.720   100013644.48745
  24609720.460   129324957.06008  24609717.920   100772679.75244
  20696534.600   108761027.71909  20696531.120    84748848.49748
  22306077.820   117219343.01809  22306074.620    91339789.99647
  21777009.220   114438971.54509  21777004.100    89173216.23548
  24311312.720   127757231.27807  24311309.700    99551274.14245
  20978713.300   110244010.76809  20978707.980    85904459.54548
  20620764.440   108362881.35509  20620763.580    84438620.66349
 15 02 27 02 01 30.0000000  0  9G04G07G11G16G18G19G21G22G27
  22925517.320   120474439.64009  22925515.740    93876193.90746
  24423995.420   128348965.11707  24423993.140   100012170.46445
  24592499.120   129234459.39808  24592496.540   100702162.14044
  20704319.800   108801939.05309  20704316.300    84780727.45148
  22314471.360   117263451.44209  22314468.080    91374160.19847
  21766207.940   114382210.64009  21766202.880    89128986.96348
  24325588.060   127832248.45508  24325584.780    99609729.08345
  20974603.280   110222412.55309  20974597.940    85887629.76948
  20616285.280   108339343.29909  20616284.440    84420279.32649
 15 02 27 02 02  0.0000000  0  9G04G07G11G16G18G19G21G22G27
  22909668.900   120391156.00209  22909667.340    93811297.59446
  24423733.240   128347585.07907  24423730.460   100011095.08545
  24575294.840   129144050.78308  24575292.380   100631713.92744
  20712205.980   108843381.14609  20712202.420    84813019.98248
  22322948.060   117307996.61809  22322944.720    91408870.71447
  21755435.940   114325604.00009  21755430.900    89084877.90148
  24339862.140   127907259.09407  24339858.960    99668178.91345
  20970593.460   110201340.70709  20970588.120    85871210.15348
  20611852.320   108316047.88709  20611851.460    84402127.06149
 15 02 27 02 02 30.0000000  0  9G04G07G11G16G18G19G21G22G27
  22893865.080   120308106.58009  22893863.540    93746583.79146
  24423567.760   128346715.20507  24423564.480   100010417.28644
  24558107.580   129053731.14808  24558105.000   100561335.02244
  20720192.860   108885352.63009  20720189.260    84845725.02748
  22331507.440   117352976.33409  22331504.080    91443919.84847
  21744693.300   114269151.84209  21744688.380    89040889.21048
  24354134.800   127982262.18408  24354131.800    99726622.85745
  20966683.740   110180795.10009  20966678.520    85855200.58948
  20607465.580   108292995.57309  20607464.740    84384164.21949
 15 02 27 02 03  0.0000000  0  9G04G07G11G16G18G19G21G22G27
  22878105.820   120225291.08309  22878104.340    93682052.26446
  24423499.220   128346353.78207  24423494.840   100010135.62344
  24540937.040   128963499.63508  24540934.600   100491024.80844
  20728280.060   108927851.31409  20728276.480    84878840.87048
  22340149.060   117398388.16509  22340145.620    91479305.68647
  21733979.960   114212853.90809  21733975.320    88997020.69748
  24368405.640   128057255.48108  24368402.640    99785059.16645
  20962874.160   110160775.63609  20962869.040    85839601.01048
  20603125.040   108270186.17609  20603124.240    84366390.66249
 15 02 27 02 03 30.0000000  0  9G04G07G11G16G18G19G21G22G27
  22862391.260   120142710.40309  22862389.740    93617703.70946
  24423527.440   128346500.07208  24423522.820   100010249.57445
  24523783.480   128873357.09308  24523781.260   100420783.90444
  20736467.540   108970876.86409  20736463.980    84912367.26448
  22348872.740   117444231.05009  22348869.120    91515027.42346
  21723296.060   114156711.24309  21723291.840    88953273.18448
  24382674.600   128132238.64707  24382671.660    99843487.58245
  20959164.940   110141283.36909  20959159.780    85824412.23348
  20598831.060   108247621.34309  20598830.300    84348807.67549
 15 02 27 02 04  0.0000000  0  9G04G07G11G16G18G19G21G22G27
  22846721.400   120060364.69909  22846719.800    93553538.26045
  24423651.760   128347152.82907  24423647.540   100010758.23645
  24506646.940   128783303.39708  24506644.520   100350612.19344
  20744754.940   109014427.42909  20744751.440    84946302.75948
  22357677.940   117490502.88809  22357674.300    91551083.39946
  21712641.940   114100724.25309  21712637.840    88909646.96848
  24396941.380   128207210.80308  24396938.260    99901907.42645
  20955556.000   110122318.19609  20955550.740    85809634.18248
  20594583.740   108225301.53309  20594582.960    84331415.61849
 15 02 27 02 04 30.0000000  0  9G04G07G11G16G18G19G21G22G27
  22831097.760   119978262.24709  22831096.160    93489562.35246
  24423873.580   128348318.96608  24423869.200   100011666.90644
  24489528.780   128693346.84608  24489526.140   100280516.24144
  20753143.460   109058509.23109  20753139.960    84980652.20948
  22366565.940   117537209.89609  22366562.280    91587478.48247
  21702019.160   114044901.33009  21702015.040    88866148.59548
  24411207.200   128282178.65607  24411204.060    99960323.87344
  20952048.880   110103888.66509  20952043.660    85795273.51548
  20590384.720   108203235.51609  20590383.920    84314221.32349
 15 02 27 02 05  0.0000000  0  9G04G07G11G16G18G19G21G22G27
  22815518.160   119896391.04109  22815516.600    93425766.62646
  24424190.720   128349985.13808  24424185.520   100012965.14844
  24472426.640   128603475.04808  24472424.080   100210486.28744
  20761630.540   109103108.89109  20761627.000    85015405.18048
  22375534.120   117584338.17809  22375530.520    91624201.81146
  21691425.480   113989230.88209  21691421.180    88822769.02748
  24425469.860   128357129.17708  24425466.380   100018726.88144
  20948641.380   110085982.39209  20948636.240    85781320.57748
  20586231.840   108181411.71909  20586230.980    84297215.76749
 15 02 27 02 05 30.0000000  0  9G04G07G11G16G18G19G21G22G27
  22799984.060   119814758.90809  22799982.520    93362157.19645
  24424603.980   128352157.68007  24424599.260   100014658.06945
  24455342.240   128513695.59908  24455339.960   100140528.31644
  20770217.420   109148233.05209  20770213.800    85050566.85948
  22384583.500   117631893.01709  22384580.100    91661257.52947
  21680862.420   113933720.95709  21680857.920    88779514.54448
  24439730.560   128432068.69508  24439726.740   100077121.31444
  20945335.040   110068607.31909  20945329.920    85767781.56549
  20582126.600   108159838.46909  20582125.760    84280405.44849
 15 02 27 02 06  0.0000000  0  9G04G07G11G16G18G19G21G22G27
  22784495.040   119733363.55309  22784493.520    93298732.26245
  24425113.140   128354832.82908  24425108.600   100016742.54945
  24438274.920   128424006.15908  24438272.560   100070640.45944
  20778903.220   109193877.18709  20778899.580    85086133.70348
  22393713.220   117679869.92509  22393709.860    91698642.13547
  21670329.440   113878369.32209  21670324.720    88736383.40648
  24453988.420   128506993.65608  24453984.560   100135504.38245
  20942129.320   110051760.98909  20942124.160    85754654.56349
  20578068.660   108138513.91809  20578067.840    84263788.91549
 15 02 27 02 06 30.0000000  0  9G04G07G11G16G18G19G21G22G27
  22769051.980   119652209.84809  22769050.460    93235495.64646
  24425718.380   128358013.69408  24425714.180   100019221.15245
  24421225.460   128334411.37307  24421223.120   100000826.38244
  20787688.580   109240044.46809  20787684.980    85122108.20348
  22402923.920   117728272.08109  22402920.360    91736358.10047
  21659827.500   113823181.14709  21659822.680    88693379.64948
  24468244.100   128581907.15308  24468240.500   100193878.49045
  20939025.060   110035448.17409  20939019.860    85741943.28949
  20574059.140   108117443.61209  20574058.320    84247370.50349
 15 02 27 02 07  0.0000000  0  9G04G07G11G16G18G19G21G22G27
  22753654.980   119571298.38309  22753653.420    93172447.75546
  24426419.840   128361699.41908  24426416.520   100022093.12646
  24404194.040   128244911.44708  24404191.720    99931086.21245
  20796573.320   109286734.10509  20796569.780    85158489.72848
  22412215.220   117777097.86609  22412211.600    91774404.16546
  21649356.800   113768157.27609  21649351.840    88650503.91648
  24482497.200   128656808.82307  24482493.940   100252243.36745
  20936022.420   110019669.47309  20936017.200    85729648.20549
  20570098.200   108096628.44009  20570097.340    84231150.88249
 15 02 27 02 07 30.0000000  0  9G04G07G11G16G18G19G21G22G27
  22738303.700   119490627.06409  22738302.220    93109587.00646
  24427216.760   128365886.86208  24427214.200   100025356.08846
  24387180.240   128155504.47608  24387178.140    99861418.48744
  20805556.700   109333941.83609  20805553.160    85195274.96748
  22421586.300   117826343.16609  22421582.680    91812777.13447
  21638917.140   113713296.18209  21638912.020    88607755.02048
  24496747.420   128731695.83507  24496744.360   100310596.86644
  20933121.160   110004423.20409  20933115.960    85717768.00449
  20566185.520   108076066.99709  20566184.680    84215128.98749
 15 02 27 02 08  0.0000000  0  9G04G07G11G16G18G19G21G22G27
  22722997.700   119410193.50409  22722996.300    93046911.53546
  24428108.020   128370571.33208  24428105.620   100029006.31645
  24370183.640   128066187.80908  24370181.760    99791821.12344
  20814637.920   109381663.91409  20814634.380    85232460.99248
  22431036.220   117876002.92609  22431032.620    91851473.04847
  21628508.120   113658595.42009  21628502.840    88565131.05348
  24510994.280   128806563.99408  24510991.240   100368935.68844
  20930320.640   109989706.27209  20930315.460    85706300.27349
  20562320.680   108055757.22809  20562319.820    84199303.19749
 15 02 27 02 08 30.0000000  0  9G04G07G11G16G18G19G21G22G27
  22707737.360   119329999.81609  22707736.040    92984422.96346
  24429094.320   128375753.70408  24429091.640   100033044.47446
  24353204.760   127976963.73608  24353202.860    99722295.91144
  20823816.940   109429899.93709  20823813.380    85270047.49548
  22440565.060   117926077.51009  22440561.580    91890492.20147
  21618130.160   113604057.83109  21618124.800    88522634.25048
  24525237.880   128881414.47307  24525234.880   100427260.70345
  20927621.240   109975520.82409  20927616.100    85695246.68349
  20558504.280   108035701.84509  20558503.360    84183675.62649
 15 02 27 02 09  0.0000000  0  9G04G07G11G16G18G19G21G22G27
  22692523.100   119250048.27709  22692521.800    92922123.10046
  24430175.660   128381434.84608  24430172.820   100037471.33846
  24336243.780   127887833.69208  24336241.640    99652843.97144
  20833093.980   109478651.14609  20833090.440    85308035.44648
  22450172.840   117976566.83109  22450169.460    91929834.52747
  21607783.600   113549685.68209  21607778.220    88480266.35748
  24539478.340   128956248.07007  24539475.400   100485572.54245
  20925023.400   109961869.09609  20925018.240    85684608.98548
  20554736.840   108015903.70409  20554735.900    84168248.50749
 15 02 27 02 09 30.0000000  0  9G04G07G11G16G18G19G21G22G27
  22677355.160   119170340.05109  22677353.720    92860012.81046
  24431351.760   128387614.14008  24431348.320   100042286.32745
  24319301.180   127798799.25008  24319298.960    99583466.49845
  20842468.940   109527916.89009  20842465.420    85346424.31948
  22459859.440   118027470.46309  22459856.160    91969499.67247
  21597468.820   113495480.71909  21597463.400    88438028.72248
  24553715.580   129031064.71107  24553712.580   100543871.20345
  20922527.320   109948752.12809  20922522.060    85674387.97348
  20551018.660   107996364.68609  20551017.740    84153023.29449
 15 02 27 02 10  0.0000000  0 10G04G07G11G16G18G19G21G22G27G32
  22662233.680   119090875.81409  22662231.980    92798092.64646
  24432622.400   128394290.87508  24432618.500   100047488.92745
  24302376.780   127709860.72508  24302374.560    99514163.78245
  20851941.520   109577695.63909  20851937.980    85385212.93648
  22469624.480   118078786.19409  22469621.220    92009485.95847
  21587185.980   113441444.23009  21587180.680    88395922.37148
  24567949.540   129105864.17407  24567946.480   100602156.43345
  20920133.040   109936170.17509  20920127.760    85664583.85849
  20547349.960   107977085.71409  20547349.060    84138000.70249
  24501836.480   128758016.16908  24501838.040   100330929.59544
 15 02 27 02 10 30.0000000  0 10G04G07G11G16G18G19G21G22G27G32
  22647155.740   119011640.29509  22647153.720    92736350.70346
  24433984.280   128401447.91008  24433980.560   100053065.81745
  24285467.700   127621002.89408  24285465.180    99444923.96144
  20861508.460   109627970.23309  20861504.940    85424387.93648
  22479464.640   118130496.71809  22479461.420    92049779.87547
  21576932.200   113387560.73009  21576927.000    88353935.24348
  24582177.200   129180629.70808  24582174.100   100660415.24845
  20917837.620   109924107.97709  20917832.420    85655184.74948
  20543728.020   107958052.36909  20543727.160    84123169.52449
  24479287.200   128639519.57808  24479288.500   100238595.09544
 15 02 27 02 11  0.0000000  0 10G04G07G11G16G18G19G21G22G27G32
  22632127.500   118932665.88309  22632125.300    92674812.22346
  24435443.140   128409115.83007  24435439.860   100059040.78245
  24268579.960   127532257.55808  24268577.520    99375771.78244
  20871175.620   109678771.54909  20871172.120    85463973.37148
  22489385.580   118182632.24609  22489382.480    92090404.94147
  21566713.700   113333862.58109  21566708.560    88312092.53148
  24596404.280   129255392.21208  24596400.560   100718671.75044
  20915647.140   109912597.11909  20915641.980    85646215.25948
  20540159.060   107939297.33909  20540158.140    84108555.21349
  24456742.600   128521048.52908  24456743.920   100146280.47145
 15 02 27 02 11 30.0000000  0 10G04G07G11G16G18G19G21G22G27G32
  22617145.720   118853935.65309  22617143.420    92613464.00846
  24436995.680   128417276.21407  24436993.120   100065399.52745
  24251710.540   127443608.12908  24251708.080    99306694.32145
  20880939.480   109730080.94809  20880935.960    85503954.71548
  22499383.980   118235174.05309  22499380.880    92131346.62146
  21556527.400   113280334.03809  21556522.520    88270381.99748
  24610627.320   129330134.41307  24610623.300   100776912.42944
  20913558.520   109901621.42509  20913553.360    85637662.77548
  20536640.060   107920804.61009  20536639.020    84094145.29049
  24434200.080   128402588.68908  24434201.200   100053974.54245
 15 02 27 02 12  0.0000000  0 10G04G07G11G16G18G19G21G22G27G32
  22602210.640   118775451.20209  22602208.280    92552307.32046
  24438641.880   128425928.83507  24438639.960   100072141.85445
  24234859.460   127355056.11508  24234857.020    99237692.80444
  20890799.920   109781897.82809  20890796.360    85544331.49448
  22509459.440   118288121.02609  22509456.440    92172603.98947
  21546373.720   113226976.78609  21546369.000    88228804.91748
  24624846.380   129404857.17907  24624842.480   100835137.90745
  20911571.940   109891181.89509  20911566.700    85629528.08349
  20533171.320   107902576.08409  20533170.220    84079941.23849
  24411660.400   128284143.47708  24411661.320    99961680.01444
 15 02 27 02 12 30.0000000  0 10G04G07G11G16G18G19G21G22G27G32
  22587321.740   118697209.54409  22587319.300    92491339.81046
  24440380.900   128435069.27007  24440378.740   100079264.21445
  24218026.200   127266597.59808  24218023.780    99168764.12344
  20900755.880   109834216.81709  20900752.320    85585099.52548
  22519611.000   118341467.93409  22519607.960    92214173.00046
  21536252.140   113173788.12609  21536247.660    88187359.21048
  24639060.780   129479555.02507  24639057.400   100893343.92945
  20909686.640   109881274.83209  20909681.400    85621808.29949
  20529752.380   107884609.32609  20529751.280    84065941.16049
  24389123.340   128165712.06908  24389124.260    99869396.21645
 15 02 27 02 13  0.0000000  0 10G04G07G11G16G18G19G21G22G27G32
  22572480.020   118619216.03109  22572477.740    92430565.66546
  24442213.320   128444701.21407  24442212.020   100086769.66846
  24201212.180   127178239.16108  24201210.020    99099913.42844
  20910808.280   109887042.62509  20910804.780    85626262.48048
  22529839.440   118395218.63109  22529836.400    92256056.65546
  21526163.940   113120774.37209  21526159.460    88146049.79748
  24653271.580   129554232.73108  24653268.500   100951534.34145
  20907903.720   109871905.72409  20907898.560    85614507.69549
  20526384.440   107866910.72109  20526383.340    84052150.02749
  24366590.380   128047302.46808  24366591.460    99777129.38745
 15 02 27 02 13 30.0000000  0 10G04G07G11G16G18G19G21G22G27G32
  22557684.700   118541466.52009  22557682.660    92369981.65946
  24444138.740   128454818.63107  24444137.500   100094653.31245
  24184416.180   127089975.78808  24184414.180    99031136.80844
  20920955.840   109940368.44909  20920952.400    85667815.05848
  22540143.420   118449366.36109  22540140.480    92298249.68447
  21516108.280   113067931.55109  21516103.860    88104873.57548
  24667477.680   129628885.35807  24667474.380   101009705.20145
  20906222.380   109863070.26409  20906217.260    85607622.92249
  20523066.800   107849476.41809  20523065.740    84038564.85649
  24344061.160   127928912.36208  24344062.340    99684877.73644
 15 02 27 02 14  0.0000000  0 10G04G07G11G16G18G19G21G22G27G32
  22542936.800   118463966.29009  22542934.900    92309591.88146
  24446157.420   128465425.08508  24446155.980   100102918.07145
  24167639.440   127001812.69608  24167637.380    98962438.34044
  20931199.220   109994197.64609  20931195.780    85709759.87648
  22550523.460   118503913.86609  22550520.480    92340754.23346
  21506086.060   113015265.13309  21506081.820    88063834.82348
  24681679.440   129703517.00606  24681675.960   101067859.69744
  20904643.480   109854773.00709  20904638.340    85601157.53549
  20519800.580   107832312.27209  20519799.520    84025190.19149
  24321537.060   127810549.34108  24321538.460    99592647.18145
 15 02 27 02 14 30.0000000  0 10G04G07G11G16G18G19G21G22G27G32
  22528236.320   118386715.34009  22528234.560    92249396.36746
  24448268.680   128476518.81408  24448267.400   100111562.52545
  24150881.720   126913749.95508  24150879.540    98893818.06545
  20941537.940   110048527.95209  20941534.500    85752095.17248
  22560979.240   118558859.45209  22560976.240    92383568.97446
  21496097.580   112962775.79709  21496093.360    88022934.04848
  24695876.960   129778126.65707  24695873.420   101125997.06344
  20903166.920   109847013.68509  20903161.740    85595111.31449
  20516585.920   107815419.06109  20516584.860    84012026.64649
  24299018.640   127692215.72208  24299019.820    99500439.50444
 15 02 27 02 15  0.0000000  0 10G04G07G11G16G18G19G21G22G27G32
  22513582.560   118309709.42909  22513580.780    92189391.77646
  24450471.540   128488093.80807  24450470.220   100120581.95746
  24134142.220   126825783.03108  24134139.800    98825272.44344
  20951970.940   110103353.63409  20951967.500    85794816.47148
  22571509.600   118614196.61609  22571506.440    92426688.83547
  21486142.180   112910459.84909  21486137.860    87982168.38648
  24710069.420   129852708.68507  24710066.060   101184112.92745
  20901791.980   109839788.45209  20901786.840    85589481.26949
  20513422.120   107798793.10109  20513421.060    83999071.34749
  24276505.420   127573909.42408  24276506.380    99408253.11345
 15 02 27 02 15 30.0000000  0 10G04G07G11G16G18G19G21G22G27G32
  22498976.400   118232953.55909  22498974.480    92129582.03546
  24452766.260   128500153.28907  24452764.800   100129978.94845
  24117421.940   126737917.21908  24117419.540    98756805.61144
  20962498.840   110158678.14309  20962495.400    85837926.47148
  22582114.980   118669927.97209  22582111.680    92470115.86046
  21476220.900   112858322.92409  21476216.360    87941542.20848
  24724257.560   129927267.52507  24724254.360   101242210.69145
  20900519.500   109833101.54309  20900514.400    85584270.69649
  20510310.220   107782440.15109  20510309.200    83986328.78249
  24253998.800   127455637.81908  24253999.420    99316093.73544
 15 02 27 02 16  0.0000000  0 10G04G07G11G16G18G19G21G22G27G32
  22484417.580   118156446.24409  22484415.560    92069965.96046
  24455152.800   128512693.94807  24455151.020   100139750.87145
  24100720.460   126650150.51308  24100718.000    98688416.02945
  20973120.900   110214497.59809  20973117.480    85881422.14048
  22592794.620   118726049.63609  22592791.160    92513847.03246
  21466333.400   112806363.60509  21466328.700    87901054.43848
  24738440.660   130001800.41006  24738437.760   101300288.20345
  20899349.100   109826950.90809  20899344.020    85579477.99748
  20507250.060   107766359.22209  20507249.120    83973798.18249
  24231498.920   127337401.52108  24231499.420    99223961.87244
 15 02 27 02 16 30.0000000  0 10G04G07G11G16G18G19G21G22G27G32
  22469906.360   118080189.20509  22469904.280    92010544.91746
  24457630.820   128525715.74207  24457628.760   100149897.70145
  24084038.260   126562485.01208  24084035.700    98620105.27444
  20983837.080   110270811.68209  20983833.660    85925303.23748
  22603548.520   118782561.53609  22603545.020    92557882.26946
  21456480.120   112754584.25409  21456475.320    87860706.89748
  24752618.960   130076307.93207  24752616.220   101358345.96544
  20898281.040   109821338.04909  20898275.900    85575104.33348
  20504242.220   107750552.80909  20504241.280    83961481.48549
  24209006.560   127219204.63208  24209007.040    99131860.69344
 15 02 27 02 17  0.0000000  0 10G04G07G11G16G18G19G21G22G27G32
  22455442.820   118004182.52409  22455440.620    91951318.94646
  24460200.020   128539216.66307  24460197.640   100160417.89246
  24067375.180   126474920.38808  24067372.620    98551873.11644
  20994646.960   110327618.18009  20994643.560    85969568.02948
  22614376.200   118839461.37309  22614372.720    92602219.79846
  21446661.220   112702985.54409  21446656.480    87820500.12948
  24766792.500   130150789.33907  24766789.520   101416383.43144
  20897315.200   109816262.45709  20897309.960    85571149.33149
  20501286.780   107735021.58309  20501285.820    83949379.23049
  24186522.260   127101049.63508  24186522.600    99039792.15045
 15 02 27 02 17 30.0000000  0 10G04G07G11G16G18G19G21G22G27G32
  22441026.220   117928422.44609  22441024.020    91892285.14446
  24462859.220   128553191.54207  24462856.740   100171307.37345
  24050730.660   126387453.40508  24050728.200    98483717.07444
  21005549.620   110384912.03209  21005546.200    86014212.57748
  22625276.560   118896742.99409  22625273.120    92646854.82146
  21436876.100   112651564.46209  21436871.380    87780431.76248
  24780960.500   130224822.95407  24780957.260   101473868.92644
  20896450.780   109811719.78909  20896445.460    85567609.59349
  20498383.160   107719762.58109  20498382.180    83937489.09449
  24164045.640   126982935.03508  24164045.880    98947755.07645
 15 02 27 02 18  0.0000000  0 10G04G07G11G16G18G19G21G22G27G32
  22426659.160   117852922.94409  22426657.040    91833454.37946
  24465610.900   128567652.27507  24465608.720   100182575.46045
  24034107.420   126300097.51008  24034104.640    98415647.56844
  21016547.200   110442704.70409  21016543.820    86059245.81948
  22636251.820   118954418.24309  22636248.340    92691796.56846
  21427127.540   112600335.10309  21427122.720    87740512.78048
  24795124.120   130299255.40007  24795121.560   101531868.20245
  20895690.460   109807724.07309  20895685.060    85564496.04449
  20495534.060   107704790.29109  20495533.040    83925822.37749
  24141579.640   126864876.90608  24141579.840    98855762.00945
 15 02 27 02 18 30.0000000  0  9G04G11G16G18G19G21G22G27G32
  22412338.920   117777669.42509  22412336.860    91774815.29246
  24017502.340   126212837.98308  24017499.760    98347653.19345
  21027636.560   110500979.83409  21027633.200    86104655.00248
  22647298.760   119012470.34608  22647295.300    92737031.97546
  21417412.820   112549283.82009  21417407.940    87700732.57048
  24809281.480   130373654.24806  24809279.160   101589841.24445
  20895031.440   109804260.58409  20895026.040    85561797.22849
  20492736.900   107690091.00609  20492735.840    83914368.38449
  24119122.160   126746863.28708  24119122.220    98763803.58545
 15 02 27 02 19  0.0000000  0  9G04G11G16G18G19G21G22G27G32
  22398066.560   117702667.54109  22398064.480    91716372.29846
  24000916.880   126125680.92308  24000914.340    98279738.63844
  21038818.340   110559740.62709  21038815.020    86150442.62948
  22658418.040   119070902.68108  22658414.500    92782563.66446
  21407733.140   112498416.67509  21407728.280    87661095.84448
  24823433.660   130448024.55307  24823431.180   101647792.11944
  20894474.580   109801334.02609  20894469.180    85559516.79549
  20489992.900   107675670.93109  20489991.780    83903131.96849
  24096674.660   126628902.03908  24096674.640    98671885.96545
 15 02 27 02 19 30.0000000  0  9G04G11G16G18G19G21G22G27G32
  22383842.120   117627917.44909  22383840.040    91658125.47846
  23984350.900   126038626.08708  23984348.380    98211903.74544
  21050092.240   110618985.70209  21050088.960    86196607.60448
  22669609.260   119129712.97509  22669605.760    92828389.86046
  21398088.640   112447734.29809  21398083.760    87621603.07748
  24837580.480   130522365.69307  24837577.800   101705720.30444
  20894019.860   109798944.01009  20894014.360    85557654.44049
  20487302.180   107661530.86609  20487300.980    83892113.72549
  24074237.620   126510995.59708  24074237.540    98580011.04045
 15 02 27 02 20  0.0000000  0  9G04G11G16G18G19G21G22G27G32
  22369665.700   117553419.49909  22369663.520    91600075.15246
  23967804.560   125951674.24708  23967801.680    98144149.10445
  21061457.920   110678712.95309  21061454.680    86243148.31548
  22680872.080   119188899.36308  22680868.500    92874509.12546
  21388479.540   112397237.85109  21388474.660    87582255.20648
  24851721.480   130596676.55006  24851718.360   101763624.91644
  20893667.180   109797090.41209  20893661.600    85556210.08849
  20484664.920   107647671.95509  20484663.700    83881314.57449
  24051811.480   126393146.68408  24051811.460    98488180.94644
 15 02 27 02 20 30.0000000  0  9G04G11G16G18G19G21G22G27G32
  22355538.040   117479177.49109  22355535.800    91542224.26946
  23951278.460   125864828.58208  23951275.580    98076477.17245
  21072915.740   110738924.37509  21072912.540    86290066.29448
  22692206.880   119248463.75509  22692203.280    92920922.93546
  21378906.660   112346931.83209  21378901.720    87543055.70748
  24865856.940   130670960.31506  24865854.240   101821508.25645
  20893417.260   109795776.90009  20893411.600    85555186.57549
  20482082.000   107634098.79709  20482080.820    83870738.08449
  24029397.480   126275361.64308  24029397.500    98396400.60145
 15 02 27 02 21  0.0000000  0  9G04G11G16G18G19G21G22G27G32
  22341458.740   117405189.78409  22341456.380    91484571.52046
  23934772.200   125778087.58708  23934769.360    98008886.81945
  21084465.000   110799616.23209  21084461.860    86337358.63648
  22703612.760   119308401.96208  22703609.120    92967628.01946
  21369369.700   112296814.75609  21369364.840    87504003.45848
  24879986.940   130745214.27707  24879984.560   101879368.42745
  20893269.560   109795000.95709  20893263.960    85554581.94849
  20479553.280   107620810.30809  20479552.160    83860383.41449
  24006995.780   126157640.97908  24006995.860    98304670.41245
 15 02 27 02 21 30.0000000  0  9G04G11G16G18G19G21G22G27G32
  22327426.900   117331451.53809  22327424.480    91427113.16646
  23918285.020   125691446.69008  23918282.120    97941374.45044
  21096104.280   110860780.89909  21096101.140    86385019.40948
  22715088.480   119368706.97508  22715084.840    93014618.94246
  21359867.960   112246882.85409  21359863.200    87465095.48548
  24894110.480   130819432.92408  24894107.860   101937201.11244
  20893223.140   109794757.29109  20893217.620    85554392.07949
  20477077.940   107607802.44009  20477076.880    83850247.40749
  23984605.960   126039982.34808  23984605.940    98212988.55945
 15 02 27 02 22  0.0000000  0  9G04G11G16G18G19G21G22G27G32
  22313443.920   117257970.11709  22313441.460    91369854.93046
  23901818.160   125604912.88008  23901815.200    97873945.54444
  21107834.580   110922423.74709  21107831.440    86433052.78948
  22726634.860   119429383.73809  22726631.260    93061899.53446
  21350402.980   112197143.95109  21350398.300    87426337.90648
  24908228.580   130893622.89207  24908225.620   101995011.50644
  20893279.260   109795052.59809  20893273.800    85554622.18849
  20474657.500   107595083.20409  20474656.520    83840336.31749
  23962229.820   125922395.46408  23962229.620    98121362.60245
 15 02 27 02 22 30.0000000  0  9G04G11G16G18G19G21G22G27G32
  22299509.700   117184745.15809  22299507.380    91312796.54246
  23885371.620   125518486.38608  23885368.680    97806600.27544
  21119655.640   110984543.66809  21119652.500    86481457.90848
  22738251.600   119490430.17609  22738248.100    93109468.18446
  21340974.840   112147598.58909  21340970.240    87387731.13248
  24922340.740   130967782.94306  24922337.460   102052798.56043
  20893437.880   109795886.43309  20893432.500    85555271.93649
  20472292.140   107582653.32409  20472291.200    83830650.69049
  23939867.780   125804882.54508  23939867.560    98029794.26345
 15 02 27 02 23  0.0000000  0  9G04G11G16G18G19G21G22G27G32
  22285624.040   117111775.73509  22285621.820    91255937.27846
  23868945.220   125432166.06508  23868942.400    97739337.71844
  21131566.780   111047136.84009  21131563.620    86530231.80448
  22749937.980   119551842.64109  22749934.520    93157322.04846
  21331583.400   112098246.25209  21331578.780    87349274.76848
  24936446.760   131041910.83607  24936443.660   102110560.51644
  20893698.660   109797257.04109  20893693.300    85556339.94049
  20469981.760   107570512.30609  20469980.820    83821190.15249
  23917520.000   125687444.99608  23917519.700    97938284.66945
 15 02 27 02 23 30.0000000  0  9G04G11G16G18G19G21G22G27G32
  22271786.560   117039059.70409  22271784.420    91199275.44346
  23852538.620   125345949.50108  23852536.140    97672155.99245
  21143567.060   111110198.50009  21143563.880    86579370.74648
  22761693.180   119613616.42109  22761689.800    93205457.45946
  21322228.300   112049085.27109  21322223.720    87310967.51648
  24950546.240   131116003.41507  24950543.240   102168294.97544
  20894060.980   109799161.18209  20894055.620    85557823.69649
  20467726.020   107558658.46209  20467725.120    83811953.38049
  23895186.580   125570082.68408  23895186.160    97846833.66645
 15 02 27 02 24  0.0000000  0  9G04G11G16G18G19G21G22G27G32
  22257998.180   116966601.82809  22257996.160    91142814.78846
  23836152.780   125259841.82508  23836150.380    97605059.13645
  21155657.100   111173731.79509  21155653.860    86628877.19748
  22773517.640   119675754.53609  22773514.240    93253876.76346
  21312910.640   112000121.27409  21312906.120    87272813.75648
  24964639.900   131190065.43907  24964637.080   102226005.62045
  20894525.760   109801603.62009  20894520.420    85559726.89949
  20465526.060   107547097.88809  20465525.240    83802945.14549
  23872868.980   125452803.40608  23872868.480    97755447.38245
 15 02 27 02 24 30.0000000  0  9G04G11G16G18G19G21G22G27G32
  22244258.060   116894397.92709  22244256.140    91086552.04147
  23819787.000   125173838.73908  23819784.640    97538043.77645
  21167835.580   111237730.02909  21167832.320    86678745.94548
  22785410.220   119738250.52608  22785406.780    93302574.93946
  21303629.840   111951350.96309  21303625.360    87234810.92348
  24978726.740   131264091.68107  24978723.860   102283688.36144
  20895092.060   109804579.32109  20895086.720    85562045.63549
  20463381.240   107535826.85209  20463380.440    83794162.52149
  23850566.760   125335605.04808  23850566.280    97664124.14345
 15 02 27 02 25  0.0000000  0  9G04G11G16G18G19G21G22G27G32
  22230567.580   116822454.54909  22230565.700    91030492.29346
  23803442.320   125087946.63008  23803439.920    97471114.87645
  21180103.420   111302197.65309  21180100.100    86728980.45148
  22797371.680   119801108.45408  22797368.320    93351555.13346
  21294387.260   111902781.43409  21294382.880    87196964.53748
  24992807.700   131338087.97506  24992804.880   102341347.76444
  20895760.960   109808094.41909  20895755.620    85564784.68349
  20461292.920   107524852.66909  20461292.140    83785611.20649
  23828281.640   125218496.71108  23828281.160    97572871.04445
 15 02 27 02 25 30.0000000  0  9G04G11G16G18G19G21G22G27G32
  22216925.740   116750766.63809  22216923.900    90974631.60746
  23787117.980   125002161.05608  23787115.440    97404269.00645
  21192459.140   111367127.16909  21192455.820    86779574.86248
  22809400.640   119864321.15509  22809397.280    93400811.77746
  21285182.080   111854408.44109  21285177.880    87159271.29848
  25006881.900   131412048.26307  25006878.900   102398979.11444
  20896531.360   109812142.99609  20896526.000    85567939.41249
  20459260.300   107514171.26309  20459259.560    83777288.02849
  23806013.200   125101475.97108  23806012.740    97481686.19445
 15 02 27 02 26  0.0000000  0  9G04G11G16G18G19G21G22G27G32
  22203332.560   116679334.20709  22203330.600    90918969.98146
  23770813.740   124916481.71408  23770811.220    97337505.89645
  21204902.400   111432516.91809  21204899.120    86830527.90348
  22821496.760   119927886.30508  22821493.340    93450343.07546
  21276014.460   111806232.68609  21276010.300    87121731.75048
  25020949.300   131485971.70107  25020946.100   102456581.79944
  20897403.120   109816724.30909  20897397.760    85571509.27549
  20457283.480   107503783.22709  20457282.740    83769193.45949
  23783761.900   124984545.22008  23783761.360    97390571.45745
 15 02 27 02 26 30.0000000  0  9G04G11G16G18G19G21G22G27G32
  22189788.880   116608162.05409  22189786.860    90863511.17346
  23754530.660   124830913.55908  23754528.460    97270829.43445
  21217433.700   111498369.42009  21217430.460    86881841.53948
  22833660.320   119991806.52608  22833657.040    93500151.02146
  21266885.560   111758260.02909  21266881.340    87084350.46348
  25035010.320   131559862.33707  25035007.120   102514158.90844
  20898377.040   109821842.54609  20898371.740    85575497.52149
  20455363.580   107493694.18709  20455362.820    83761331.86949
  23761529.100   124867711.60608  23761528.500    97299532.39845
 15 02 27 02 27  0.0000000  0  9G04G11G16G18G19G21G22G27G32
  22176294.640   116537249.52309  22176292.600    90808254.67346
  23738268.520   124745456.19108  23738266.460    97204239.30744
  21230052.440   111564681.73009  21230049.280    86933513.45348
  22845890.960   120056078.81808  22845887.560    93550233.33646
  21257795.240   111710490.00909  21257790.960    87047127.07148
  25049064.680   131633719.34606  25049061.880   102571709.78745
  20899452.900   109827496.58009  20899447.680    85579903.26649
  20453500.620   107483904.33409  20453499.880    83753703.40249
  23739315.180   124750977.12308  23739314.500    97208570.58845
 15 02 27 02 27 30.0000000  0  9G04G11G16G18G19G21G22G27G32
  22162849.420   116466594.80409  22162847.380    90753199.06447
  23722027.180   124660107.68608  23722025.120    97137733.98945
  21242757.800   111631449.33409  21242754.720    86985540.14448
  22858187.780   120120698.90608  22858184.460    93600586.63846
  21248743.400   111662921.98509  21248739.080    87010061.07848
  25063112.000   131707540.03806  25063109.300   102629232.29645
  20900630.240   109833683.75409  20900625.080    85584724.43649
  20451694.380   107474412.60809  20451693.700    83746307.25249
  23717120.200   124634342.33608  23717119.520    97117686.46746
 15 02 27 02 28  0.0000000  0  9G04G11G16G18G19G21G22G27G32
  22149453.640   116396199.81209  22149451.620    90698345.84746
  23705806.820   124574869.81308  23705804.800    97071314.91245
  21255549.900   111698672.56209  21255546.860    87037921.87448
  22870550.760   120185666.63708  22870547.320    93651210.84346
  21239730.460   111615558.43509  21239726.060    86973154.42848
  25077152.540   131781324.81107  25077150.320   102686726.89544
  20901909.260   109840404.91309  20901904.060    85589961.71149
  20449945.340   107465221.56109  20449944.760    83739145.39749
  23694945.000   124517811.52508  23694944.240    97026883.34946
 15 02 27 02 28 30.0000000  0  9G04G11G16G18G19G21G22G27G32
  22136106.700   116326061.33409  22136104.740    90643692.50246
  23689607.100   124489739.76508  23689604.920    97004979.80544
  21268427.680   111766345.78409  21268424.600    87090654.24948
  22882978.840   120250976.71108  22882975.580    93702101.79646
  21230756.060   111568397.04009  21230751.420    86936405.29348
  25091185.900   131855070.17907  25091183.740   102744190.79843
  20903289.240   109847656.56509  20903283.940    85595612.35148
  20448253.120   107456329.04309  20448252.580    83732216.16049
  23672789.580   124401384.35708  23672788.760    96936160.98045
 15 02 27 02 29  0.0000000  0  8G04G11G16G18G19G22G27G32
  22122808.500   116256179.00609  22122806.620    90589238.76047
  23673427.980   124404717.33708  23673425.420    96938728.58445
  21281390.620   111834466.49109  21281387.540    87143735.30348
  22895471.480   120316626.09908  22895468.260    93753257.15946
  21221820.200   111521438.31409  21221815.500    86899814.08448
  20904769.920   109855437.39109  20904764.560    85601675.33949
  20446617.780   107447735.47509  20446617.300    83725519.87449
  23650654.320   124285062.90408  23650653.540    96845520.99946
 15 02 27 02 29 30.0000000  0  9G01G04G11G16G18G19G22G27G32
  24595735.180   129251462.40707  24595735.840   100715428.40745
  22109560.620   116186560.98908  22109558.800    90534990.96747
  23657270.940   124319810.47008  23657268.060    96872567.40745
  21294439.740   111903040.03709  21294436.660    87197169.22548
  22908029.800   120382620.88608  22908026.700    93804681.65446
  21212924.560   111474691.05009  21212919.820    86863387.64948
  20906352.700   109863754.75609  20906347.320    85608156.40549
  20445041.000   107439449.62209  20445040.580    83719063.35949
  23628541.160   124168857.62208  23628540.280    96754971.53746
 15 02 27 02 30  0.0000000  0  9G01G04G11G16G18G19G22G27G32
  24579650.720   129166937.93108  24579652.140   100649565.24745
  22096363.420   116117209.33808  22096361.700    90480950.73647
  23641136.400   124235021.45808  23641133.340    96806498.06045
  21307575.100   111972066.98609  21307572.060    87250956.44748
  22920653.880   120448961.24208  22920650.840    93856375.43646
  21204069.820   111428158.46809  21204064.980    86827128.49648
  20908037.840   109872609.86909  20908032.460    85615056.49749
  20443523.380   107431474.48009  20443522.980    83712848.96049
  23606451.040   124052773.35508  23606450.120    96664516.35646
 15 02 27 02 30 30.0000000  0  9G01G04G11G16G18G19G22G27G32
  24563592.440   129082551.60408  24563594.160   100583809.74145
  22083214.500   116048111.51008  22083212.840    90427108.28647
  23625021.760   124150337.74408  23625018.480    96740510.74845
  21320793.760   112041531.75709  21320790.820    87305084.83748
  22933340.820   120515631.73308  22933337.740    93908326.46446
  21195253.580   111381828.44309  21195248.720    86791027.18448
  20909822.780   109881989.46409  20909817.360    85622365.27849
  20442062.620   107423798.21909  20442062.260    83706867.45249
  23584381.940   123936799.81408  23584380.980    96574147.47445
 15 02 27 02 31  0.0000000  0  9G01G04G11G16G18G19G22G27G32
  24547561.900   128998311.07107  24547563.920   100518167.83746
  22070115.280   115979274.98808  22070113.680    90373469.46347
  23608928.480   124065767.13208  23608925.360    96674611.59445
  21334096.800   112111439.76709  21334093.940    87359558.59648
  22946091.640   120582637.74708  22946088.600    93960538.92446
  21186477.440   111335709.28509  21186472.540    86755090.18648
  20911708.760   109891900.26409  20911703.320    85630087.97549
  20440660.380   107416429.22209  20440660.040    83701125.37049
  23562335.860   123820947.27108  23562334.940    96483872.85546
 15 02 27 02 31 30.0000000  0  9G01G04G11G16G18G19G22G27G32
  24531559.080   128914216.35208  24531561.240   100452639.55645
  22057065.800   115910699.63408  22057064.120    90320034.12647
  23592856.620   123981309.78608  23592853.880    96608800.72245
  21347483.800   112181788.96109  21347480.980    87414376.13648
  22958905.760   120649976.51208  22958902.660    94013010.68346
  21177741.620   111289802.17809  21177736.700    86719318.41448
  20913695.560   109902341.34409  20913690.240    85638223.89649
  20439316.760   107409368.20909  20439316.380    83695623.28049
  23540313.260   123705218.07108  23540312.400    96393694.36245
 15 02 27 02 32  0.0000000  0  9G01G04G11G16G18G19G22G27G32
  24515584.340   128830268.72908  24515586.340   100387225.86345
  22044066.320   115842386.71608  22044064.540    90266803.29247
  23576806.460   123896966.66908  23576803.940    96543078.81545
  21360954.560   112252577.94109  21360951.660    87469536.36848
  22971783.120   120717647.63008  22971780.100    94065741.41546
  21169046.480   111244108.99309  21169041.580    86683713.34148
  20915783.260   109913312.76509  20915778.140    85646773.05549
  20438032.120   107402617.11009  20438031.680    83690362.67749
  23518314.840   123589615.88508  23518313.800    96303614.81946
 15 02 27 02 32 30.0000000  0  9G01G04G11G16G18G19G22G27G32
  24499637.220   128746466.24707  24499639.160   100321925.27746
  22031116.280   115774334.07808  22031114.500    90213775.27847
  23560777.860   123812736.30408  23560775.320    96477444.78945
  21374508.160   112323802.33209  21374505.200    87525035.88948
  22984722.900   120785646.82208  22984719.940    94118727.79346
  21160391.660   111198628.28209  21160386.880    86648273.82848
  20917971.380   109924811.79409  20917966.420    85655733.34449
  20436806.220   107396174.84609  20436805.780    83685342.72849
  23496340.700   123474141.46008  23496339.580    96213634.84845
 15 02 27 02 33  0.0000000  0  9G01G04G11G16G18G19G22G27G32
  24483717.720   128662808.80508  24483719.800   100256737.72145
  22018215.680   115706541.44608  22018213.940    90160949.84847
  23544770.700   123728618.16008  23544768.220    96411898.18545
  21388144.060   112395459.14709  21388141.040    87580872.35648
  22997724.580   120853971.12208  22997721.700    94171967.49146
  21151777.440   111153360.85009  21151772.760    86613000.51048
  20920259.760   109936837.40409  20920254.840    85665103.96249
  20435639.180   107390041.90509  20435638.740    83680563.81049
  23474391.300   123358797.01008  23474390.160    96123756.14046
 15 02 27 02 33 30.0000000  0  9G01G04G11G16G18G19G22G27G32
  24467826.540   128579300.03008  24467828.720   100191665.99945
  22005365.260   115639012.46608  22005363.540    90108329.86647
  23528785.780   123644616.27108  23528783.160    96346442.19045
  21401862.680   112467550.68209  21401859.620    87637047.56648
  23010788.420   120922621.68108  23010785.400    94225461.42746
  21143204.700   111108311.29109  21143200.120    86577896.96048
  20922648.800   109949392.15209  20922643.860    85674886.87649
  20434531.820   107384222.74909  20434531.400    83676029.39549
  23452467.740   123243588.64408  23452466.740    96033983.47745
 15 02 27 02 34  0.0000000  0  9G01G04G11G16G18G19G22G27G32
  24451963.740   128495940.50608  24451965.900   100126710.57146
  21992565.080   115571747.48708  21992563.320    90055915.60147
  23512823.040   123560730.94108  23512820.140    96281076.99645
  21415663.560   112540074.44709  21415660.440    87693559.57648
  23023914.020   120991596.88808  23023911.120    94279208.31046
  21134673.620   111063480.72009  21134669.220    86542964.04848
  20925138.480   109962475.62909  20925133.520    85685081.79749
  20433484.400   107378718.56709  20433484.040    83671740.41449
  23430570.680   123128519.45608  23430569.840    95944319.25246
 15 02 27 02 34 30.0000000  0  9G01G04G11G16G18G19G22G27G32
  24436128.540   128412726.23108  24436130.580   100061868.33646
  21979814.360   115504742.42408  21979812.700    90003703.87847
  23496881.640   123476958.31608  23496878.520    96215799.65145
  21429545.340   112613023.19909  21429542.160    87750402.74748
  23037100.220   121060890.70208  23037097.180    94333203.48346
  21126183.720   111018866.22609  21126179.360    86508199.49848
  20927727.820   109976082.78409  20927722.840    85695684.77749
  20432496.280   107373526.16609  20432496.000    83667694.39149
  23408699.880   123013588.00708  23408698.980    95854762.36946
 15 02 27 02 35  0.0000000  0  9G01G04G11G16G18G19G22G27G32
  24420321.660   128329660.82308  24420323.780    99997142.10245
  21967113.840   115438000.99808  21967112.340    89951697.57247
  23480962.420   123393302.27208  23480959.260    96150613.14745
  21443508.420   112686399.37209  21443505.260    87807578.97648
  23050347.140   121130503.70308  23050343.900    94387447.38746
  21117735.860   110974472.10409  21117731.400    86473606.67848
  20930417.320   109990216.18909  20930412.360    85706697.83049
  20431568.360   107368649.88509  20431568.040    83663894.68349
  23386856.460   122898800.25208  23386855.460    95765317.42946
 15 02 27 02 35 30.0000000  0  9G01G04G11G16G18G19G22G27G32
  24404543.500   128246746.65308  24404545.620    99932533.70845
  21954463.900   115371525.33608  21954462.500    89899898.37547
  23465065.820   123309765.05908  23465062.720    96085519.23545
  21457552.740   112760202.34609  21457549.580    87865087.77548
  23063654.920   121200436.57408  23063651.720    94441940.51346
  21109330.540   110930301.62609  21109325.980    86439188.11448
  20933207.180   110004877.12809  20933202.240    85718121.94149
  20430701.200   107364092.83909  20430700.840    83660343.73849
  23365041.300   122784161.19408  23365040.280    95675988.37645
 15 02 27 02 36  0.0000000  0  9G01G04G11G16G18G19G22G27G32
  24388793.620   128163980.46208  24388795.680    99868040.61345
  21941863.900   115305311.93408  21941862.560    89848303.52047
  23449191.320   123226343.62308  23449188.080    96020515.53545
  21471677.100   112834426.14609  21471673.880    87922924.48348
  23077022.460   121270683.38208  23077019.340    94496678.26345
  21100967.280   110886352.15309  21100962.620    86404941.76648
  20936096.580   110020061.17009  20936091.640    85729953.65949
  20429894.340   107359852.49809  20429893.920    83657039.56949
  23343254.320   122669670.06708  23343253.320    95586774.59746
 15 02 27 02 36 30.0000000  0  9G01G04G11G16G18G19G22G27G32
  24373071.560   128081360.47108  24373073.600    99803661.44345
  21929313.500   115239359.11508  21929312.220    89796911.72847
  23433338.540   123143036.27308  23433335.100    95955600.71544
  21485880.740   112909066.57609  21485877.480    87981085.84548
  23090448.940   121341239.90008  23090445.720    94551657.36445
  21092645.920   110842622.84609  21092641.180    86370866.98148
  20939085.120   110035765.63309  20939080.080    85742190.90749
  20429147.520   107355927.82509  20429147.080    83653981.37349
  23321495.560   122555327.48408  23321494.540    95497676.55346
 15 02 27 02 37  0.0000000  0  9G01G04G11G16G18G19G22G27G32
  24357378.380   127998892.34008  24357380.420    99739400.62546
  21916813.720   115173672.19908  21916812.440    89745727.13747
  23417508.460   123059848.59708  23417505.000    95890779.18045
  21500164.240   112984126.75409  21500160.960    88039574.29148
  23103934.980   121412109.24308  23103931.700    94606880.22646
  21084367.680   110799120.07809  21084362.840    86336968.72648
  20942173.520   110051994.90909  20942168.440    85754837.10049
  20428461.980   107352325.17509  20428461.480    83651174.11649
  23299766.620   122441141.64108  23299765.580    95408700.65945
 15 02 27 02 37 30.0000000  0  9G01G04G11G16G18G19G22G27G32
  24341714.020   127916575.49908  24341715.780    99675257.67145
  21904364.520   115108250.65208  21904363.160    89694749.31847
  23401701.020   122976780.19608  23401697.700    95826050.58145
  21514527.100   113059604.00409  21514523.820    88098387.72448
  23117479.960   121483288.63808  23117476.680    94662344.67645
  21076132.640   110755844.70109  21076127.740    86303247.65548
  20945361.420   110068747.21809  20945356.320    85767890.85049
  20427837.740   107349044.84009  20427837.240    83648618.00649
  23278067.960   122327114.73608  23278066.900    95319848.59346
 15 02 27 02 38  0.0000000  0  9G01G04G11G16G18G19G22G27G32
  24326077.680   127834406.15108  24326079.320    99611229.66545
  21891965.100   115043090.33509  21891963.520    89643975.05347
  23385915.540   122893827.19708  23385912.100    95761411.91045
  21528968.020   113135491.59509  21528964.740    88157520.90248
  23131082.820   121554771.86308  23131079.460    94718045.87845
  21067940.180   110712793.15109  21067935.300    86269701.00348
  20948647.940   110086017.62209  20948642.800    85781348.31449
  20427274.240   107346083.66709  20427273.760    83646310.58949
  23256399.240   122213245.17508  23256398.160    95231119.13545
 15 02 27 02 38 30.0000000  0  9G01G04G11G16G18G19G22G27G32
  24310470.440   127752389.80908  24310471.940    99547320.86445
  21879616.500   114978196.97709  21879614.660    89593408.80847
  23370153.120   122810995.50408  23370149.680    95696867.76345
  21543487.660   113211792.84209  21543484.440    88216976.40548
  23144744.160   121626562.46908  23144740.880    94773986.59745
  21059791.640   110669972.29809  21059786.760    86236334.10048
  20952033.960   110103810.70709  20952028.700    85795213.06149
  20426772.680   107343448.00709  20426772.200    83644256.82749
  23234762.040   122099541.25508  23234761.000    95142518.75545
 15 02 27 02 39  0.0000000  0  9G01G04G11G16G18G19G22G27G32
  24294891.660   127670522.75708  24294893.120    99483528.41345
  21867317.880   114913566.52309  21867315.880    89543047.43847
  23354413.200   122728281.50108  23354409.700    95632415.29945
  21558084.760   113288501.17509  21558081.560    88276749.12048
  23158462.780   121698654.05108  23158459.320    94830161.85646
  21051686.420   110627378.89009  21051681.480    86203144.42548
  20955518.480   110122121.52309  20955513.080    85809481.23049
  20426332.460   107341134.82109  20426332.000    83642454.34749
  23213156.100   121986001.74508  23213155.080    95054046.46945
 15 02 27 02 39 30.0000000  0  9G01G04G11G16G18G19G22G27G32
  24279342.020   127588809.12308  24279343.400    99419855.49745
  21855069.980   114849203.14808  21855067.940    89492894.15747
  23338696.440   122645689.21708  23338693.040    95568057.71045
  21572759.660   113365618.42709  21572756.480    88336840.47248
  23172238.920   121771048.33108  23172235.440    94886572.96945
  21043625.500   110585018.27009  21043620.580    86170136.14448
  20959102.040   110140953.06109  20959096.560    85824155.15849
  20425954.600   107339148.95409  20425954.060    83640906.90049
  23191582.700   121872633.30608  23191581.680    94965707.49146
 15 02 27 02 40  0.0000000  0  9G01G04G11G16G18G19G22G27G32
  24263820.960   127507245.77008  24263822.460    99356299.70146
  21842872.140   114785103.45209  21842870.040    89442946.35447
  23323002.380   122563215.84208  23322999.000    95503792.77345
  21587511.260   113443138.71609  21587508.100    88397245.88648
  23186071.640   121843739.66608  23186068.260    94943215.55145
  21035608.420   110542888.19609  21035603.560    86137307.51148
  20962783.820   110160301.13209  20962778.380    85839231.58749
  20425638.620   107337488.18409  20425638.020    83639612.79349
  23170041.800   121759435.37308  23170040.760    94877501.37146
 15 02 27 02 40 30.0000000  0  9G01G04G11G16G18G19G22G27G32
  24248328.700   127425833.45008  24248330.080    99292861.58045
  21830724.540   114721268.22708  21830722.560    89393204.63047
  23307331.120   122480862.17908  23307327.780    95439621.10645
  21602339.280   113521060.70209  21602336.140    88457964.30148
  23199960.640   121916726.60608  23199957.260    95000088.47045
  21027635.520   110500990.16809  21027630.760    86104659.68948
  20966563.740   110180164.94509  20966558.340    85854709.87949
  20425384.760   107336153.95209  20425384.120    83638573.12549
  23148534.000   121646411.19508  23148532.980    94789430.63846
 15 02 27 02 41  0.0000000  0  9G01G04G11G16G18G19G22G27G32
  24232865.580   127344573.97908  24232866.700    99229542.54146
  21818627.460   114657699.09608  21818625.700    89343670.25047
  23291682.840   122398630.04108  23291679.360    95375544.15345
  21617243.420   113599382.80709  21617240.340    88518994.50248
  23213905.780   121990008.63308  23213902.380    95057191.32945
  21019707.220   110459327.06209  21019702.620    86072194.93148
  20970441.980   110200545.12109  20970436.580    85870590.53749
  20425193.460   107335148.79509  20425192.820    83637789.87649
  23127060.100   121533565.20408  23127059.140    94701498.76146
 15 02 27 02 41 30.0000000  0  9G01G04G11G16G18G19G22G27G32
  24217431.320   127263466.53008  24217432.520    99166341.97245
  21806580.860   114594395.04108  21806579.320    89294342.44547
  23276057.580   122316519.03508  23276053.840    95311561.56945
  21632223.140   113678102.22709  21632220.140    88580334.29948
  23227906.460   122063582.38508  23227902.880    95114521.53045
  21011823.640   110417899.11909  21011819.140    86039913.41348
  20974418.080   110221439.71209  20974412.720    85886872.04149
  20425064.780   107334472.70809  20425064.180    83637263.05349
  23105620.500   121420899.17208  23105619.400    94613707.10145
 15 02 27 02 42  0.0000000  0  9G01G04G11G16G18G19G22G27G32
  24202026.060   127182511.76808  24202027.400    99103260.40146
  21794584.880   114531356.76608  21794583.460    89245221.72947
  23260455.540   122234529.79008  23260451.780    95247673.85645
  21647278.120   113757216.77309  21647275.180    88641981.98348
  23241962.300   122137446.08108  23241958.900    95172077.64646
  21003985.060   110376707.53409  21003980.600    86007816.06948
  20978491.960   110242848.23809  20978486.620    85903554.01149
  20424998.980   107334127.04009  20424998.420    83636993.69749
  23084215.680   121308416.23408  23084214.500    94526058.12146
 15 02 27 02 42 30.0000000  0  9G01G04G11G16G18G19G22G27G32
  24186650.560   127101713.61108  24186652.060    99040300.85745
  21782640.280   114468587.95008  21782638.920    89196310.97847
  23244877.420   122152666.25608  23244873.640    95183884.11845
  21662408.600   113836727.77709  21662405.600    88703938.60848
  23256073.640   122211601.62108  23256070.160    95229861.16945
  20996192.500   110335757.56709  20996188.060    85975907.01148
  20982664.100   110264773.35209  20982658.820    85920638.52249
  20424997.060   107334116.52409  20424996.440    83636985.50149
  23062846.960   121196123.02108  23062845.640    94438556.96946
 15 02 27 02 43  0.0000000  0  9G01G04G11G16G18G19G22G27G32
  24171303.660   127021065.38608  24171305.120    98977458.11946
  21770745.680   114406081.74609  21770744.340    89147604.86647
  23229321.900   122070922.01408  23229318.220    95120187.33145
  21677612.720   113916625.95409  21677609.740    88766196.91548
  23270238.700   122286039.68708  23270235.180    95287864.84545
  20988444.860   110295043.49709  20988440.380    85944181.75348
  20986933.000   110287207.11209  20986927.840    85938119.38049
  20425057.780   107334435.27409  20425057.100    83637233.87249
  23041513.540   121084015.34908  23041512.140    94351200.39046
 15 02 27 02 43 30.0000000  0  9G01G04G11G16G18G19G22G27G32
  24155986.300   126940572.61008  24155987.760    98914736.52046
  21758902.180   114343843.75808  21758900.820    89099107.71947
  23213790.040   121989302.74808  23213786.560    95056587.91445
  21692891.140   113996914.65309  21692888.200    88828759.51348
  23284458.200   122360763.73708  23284454.820    95346091.34346
  20980743.420   110254571.61509  20980738.920    85912645.21648
  20991299.460   110310153.47909  20991294.380    85955999.65848
  20425182.320   107335089.49709  20425181.560    83637743.64149
  23020217.020   120972101.40508  23020215.560    94263994.75846
 15 02 27 02 44  0.0000000  0  9G01G04G11G16G18G19G22G27G32
  24140698.120   126860233.02808  24140699.500    98852134.29246
  21747109.340   114281871.52109  21747107.960    89050817.70647
  23198281.700   121907806.43108  23198278.220    94993084.32445
  21708242.900   114077588.63609  21708239.980    88891622.35348
  23298731.260   122435768.82408  23298727.680    95404536.87545
  20973087.920   110214340.62709  20973083.180    85881296.39448
  20995762.760   110333608.91509  20995757.800    85974276.63349
  20425370.400   107336077.77509  20425369.620    83638513.73049
  22998957.440   120860381.45808  22998955.980    94176940.30746
 15 02 27 02 44 30.0000000  0  9G01G04G11G16G18G19G22G27G32
  24125439.720   126780049.69008  24125441.240    98789653.81646
  21735367.680   114220167.94809  21735366.200    89002737.00448
  23182797.580   121826436.55008  23182794.060    94929679.24646
  21723668.080   114158648.38809  21723665.160    88954785.79048
  23313057.780   122511055.94108  23313054.420    95463202.11846
  20965478.960   110174354.81509  20965474.120    85850138.62448
  21000323.320   110357575.37609  21000318.440    85992951.80849
  20425622.760   107337403.88009  20425621.960    83639547.04749
  22977735.820   120748861.17108  22977734.380    94090041.43146
 15 02 27 02 45  0.0000000  0  9G01G04G11G16G18G19G22G27G32
  24110210.180   126700017.94608  24110211.820    98727291.45346
  21723676.360   114158728.28109  21723674.720    88954861.94447
  23167336.700   121745188.38108  23167333.200    94866369.02545
  21739165.380   114240086.96009  21739162.440    89018244.40048
  23327436.680   122586617.93408  23327433.340    95522081.59546
  20957915.880   110134610.26709  20957910.900    85819168.84548
  21004979.920   110382046.47109  21004975.080    86012020.18348
  20425938.660   107339063.95109  20425937.860    83640840.60049
  22956551.720   120637538.48208  22956550.300    94003296.51746
 15 02 27 02 45 30.0000000  0  9G01G04G11G16G18G19G22G27G32
  24095010.200   126620141.89308  24095011.840    98665050.44045
  21712036.000   114097556.54409  21712034.220    88907195.67047
  23151899.820   121664066.17508  23151896.260    94803156.93545
  21754734.920   114321905.33009  21754731.960    89081998.96548
  23341868.280   122662456.44608  23341864.860    95581176.55345
  20950399.740   110095112.16209  20950394.560    85788391.10948
  21009733.260   110407025.64409  21009728.420    86031484.48648
  20426319.040   107341062.83009  20426318.240    83642398.16249
  22935406.480   120526420.10808  22935405.160    93916710.82446
 15 02 27 02 46  0.0000000  0  9G01G04G11G16G18G19G22G27G32
  24079839.680   126540420.37708  24079841.040    98602929.80746
  21700446.200   114036651.40809  21700444.460    88859737.13147
  23136486.620   121583068.98608  23136483.020    94740042.25145
  21770376.080   114404100.04109  21770373.100    89146046.78248
  23356351.920   122738568.14108  23356348.480    95640484.33945
  20942930.440   110055860.47409  20942925.180    85757805.38148
  21014582.740   110432510.06709  21014577.960    86051342.47648
  20426763.780   107343400.16709  20426763.000    83644219.46249
  22914300.460   120415507.50008  22914299.080    93830285.45646
 15 02 27 02 46 30.0000000  0  9G01G04G11G16G18G19G22G27G32
  24064698.840   126460854.82808  24064700.080    98540930.71145
  21688907.320   113976014.35509  21688905.680    88812487.48947
  23121097.440   121502198.62508  23121093.800    94677026.40845
  21786088.580   114486669.63309  21786085.600    89210386.71148
  23370887.340   122814952.06008  23370884.020    95700004.26645
  20935508.500   110016857.61609  20935503.220    85727413.55048
  21019528.360   110458499.72009  21019523.640    86071594.16048
  20427273.340   107346078.13109  20427272.560    83646306.18549
  22893234.420   120304804.67309  22893232.980    93744023.55446
 15 02 27 02 47  0.0000000  0  9G01G04G11G16G18G19G22G27G32
  24049587.300   126381442.74508  24049588.400    98479051.20245
  21677418.880   113915642.59209  21677417.340    88765444.56747
  23105731.720   121421452.51508  23105728.320    94614107.39545
  21801871.480   114569608.99909  21801868.480    89275014.77248
  23385473.540   122891603.37908  23385470.160    95759732.55845
  20928133.600   109978102.17909  20928128.340    85697214.52148
  21024569.380   110484990.78209  21024564.720    86092236.54448
  20427847.380   107349095.00209  20427846.640    83648656.98549
  22872208.360   120194311.83208  22872206.820    93657925.27846
 15 02 27 02 47 30.0000000  0  9G01G04G11G16G18G19G22G27G32
  24034505.980   126302189.81808  24034507.100    98417295.69845
  21665982.040   113855541.76309  21665980.460    88718612.76547
  23090390.860   121340836.94108  23090387.660    94551290.08845
  21817725.300   114652921.48309  21817722.360    89339933.58448
  23400111.220   122968525.26908  23400108.160    95819671.66545
  20920807.020   109939600.61809  20920801.720    85667213.30248
  21029706.660   110511987.62509  21029702.020    86113273.04348
  20428487.180   107352457.25809  20428486.480    83651276.91649
  22851223.760   120084037.18809  22851222.180    93571997.03146
 15 02 27 02 48  0.0000000  0  9G01G04G11G16G18G19G22G27G32
  24019454.000   126223091.91008  24019455.400    98355661.02146
  21654595.940   113795707.57409  21654594.260    88671988.73847
  23075074.200   121260347.71008  23075071.200    94488571.22145
  21833648.800   114736600.17909  21833645.960    89405137.74748
  23414799.220   123045711.42708  23414796.200    95879816.71346
  20913528.160   109901350.16009  20913522.900    85637407.76348
  21034939.100   110539484.44609  21034934.420    86134699.14748
  20429192.040   107356161.50109  20429191.440    83654163.34249
  22830280.440   119973979.39908  22830278.860    93486237.75946
 15 02 27 02 48 30.0000000  0  9G01G04G11G16G18G19G22G27G32
  24004431.060   126144146.34808  24004432.540    98294145.03346
  21643260.020   113736137.21509  21643258.260    88625570.28047
  23059781.260   121179982.35508  23059778.080    94425948.87546
  21849640.980   114820639.79209  21849638.200    89470623.14948
  23429536.680   123123156.84208  23429533.400    95940163.79845
  20906296.700   109863349.02309  20906291.460    85607796.48748
  21040265.940   110567477.34209  21040261.260    86156511.78948
  20429961.620   107360205.78609  20429961.120    83657314.72949
  22809378.320   119864138.18508  22809376.820    93400647.24646
 15 02 27 02 49  0.0000000  0 10G01G04G11G14G16G18G19G22G27G32
  23989438.320   126065358.70708  23989439.640    98232752.10445
  21631975.360   113676836.27609  21631973.540    88579361.78148
  23044513.080   121099746.85808  23044509.540    94363427.71445
  24707201.840   129837224.21607  24707200.000   101171848.37644
  21865702.360   114905043.00309  21865699.580    89536391.87948
  23444324.100   123200864.87808  23444320.680    96000715.48945
  20899113.960   109825603.76609  20899108.760    85578384.60348
  21045688.020   110595970.54409  21045683.340    86178714.28648
  20430797.140   107364596.52609  20430796.680    83660736.08149
  22788518.980   119754521.82109  22788517.480    93315231.93946
 15 02 27 02 49 30.0000000  0 10G01G04G11G14G16G18G19G22G27G32
  23974475.400   125986728.29208  23974476.840    98171481.68746
  21620741.920   113617804.04809  21620740.000    88533362.65647
  23029269.380   121019640.52108  23029265.700    94301007.20845
  24693743.900   129766500.76407  24693741.660   101116739.18644
  21881832.360   114989806.71909  21881829.520    89602441.51248
  23459160.900   123278832.65108  23459157.380    96061469.60945
  20891980.020   109788114.83709  20891974.880    85549172.45148
  21051204.880   110624961.65809  21051200.200    86201304.76648
  20431698.600   107369333.75709  20431698.120    83664427.41749
  22767702.820   119645132.22708  22767701.340    93229993.33146
 15 02 27 02 50  0.0000000  0 10G01G04G11G14G16G18G19G22G27G32
  23959542.200   125908254.30608  23959543.620    98110333.16145
  21609559.420   113559039.20409  21609557.360    88487571.88147
  23014050.100   120939663.04108  23014046.420    94238687.09046
  24680298.180   129695842.83107  24680296.040   101061681.05144
  21898030.220   115074926.99609  21898027.300    89668768.99048
  23474046.320   123357056.39508  23474043.080    96122423.14245
  20884894.840   109750882.60909  20884889.880    85520160.33348
  21056816.120   110654448.68409  21056811.340    86224281.67248
  20432665.980   107374417.43609  20432665.520    83668388.71149
  22746930.160   119535971.28609  22746928.700    93144932.88246
 15 02 27 02 50 30.0000000  0 10G01G04G11G14G16G18G19G22G27G32
  23944639.460   125829940.12608  23944640.940    98049309.16046
  21598428.560   113500545.42509  21598426.300    88441992.33247
  22998855.960   120859818.04208  22998852.540    94176470.22446
  24666866.040   129625256.60608  24666863.900   101006678.84944
  21914296.180   115160405.16909  21914293.220    89735375.35048
  23488980.800   123435537.68008  23488977.680    96183577.39145
  20877859.340   109713911.53709  20877854.520    85491351.71248
  21062522.120   110684433.56709  21062517.240    86247646.51248
  20433700.060   107379851.72609  20433699.680    83672623.22749
  22726202.180   119427045.02909  22726200.700    93060055.32046
 15 02 27 02 51  0.0000000  0 10G01G04G11G14G16G18G19G22G27G32
  23929765.980   125751779.34208  23929767.460    97988404.69446
  21587347.960   113442315.94509  21587345.640    88396618.70148
  22983685.800   120780099.36208  22983682.900    94114351.80546
  24653446.940   129554738.69708  24653444.920   100951729.82043
  21930628.440   115246231.92909  21930625.500    89802253.33148
  23503962.660   123514267.79108  23503959.440    96244925.53945
  20870872.540   109677196.32309  20870867.880    85462742.44448
  21068321.340   110714908.19009  21068316.320    86271392.97648
  20434799.820   107385630.98509  20434799.520    83677126.52949
  22705518.100   119318349.67609  22705516.620    92975357.66546
 15 02 27 02 51 30.0000000  0 10G01G04G11G14G16G18G19G22G27G32
  23914922.560   125673776.39208  23914923.860    97927623.19246
  21576318.380   113384354.92209  21576316.040    88351454.27648
  22968540.660   120700511.61608  22968537.940    94052335.39346
  24640042.160   129484295.66607  24640039.960   100896839.13544
  21947027.320   115332408.97509  21947024.460    89869404.25348
  23518992.300   123593248.87208  23518989.360    96306469.18445
  20863935.520   109640742.42609  20863930.960    85434336.82048
  21074214.400   110745875.68009  21074209.200    86295523.49048
  20435966.180   107391760.41909  20435965.920    83681902.70849
  22684879.260   119209892.23109  22684877.800    92890845.41146
 15 02 27 02 52  0.0000000  0 10G01G04G11G14G16G18G19G22G27G32
  23900108.920   125595930.36108  23900110.120    97866963.99146
  21565339.740   113326661.78509  21565337.420    88306498.60348
  22953420.500   120621054.30008  22953417.780    93990420.62446
  24626651.940   129413929.69308  24626649.420   100842008.53743
  21963492.180   115418932.34609  21963489.320    89936825.05548
  23534068.980   123672477.06108  23534065.780    96368205.47545
  20857048.260   109604549.85309  20857043.720    85406134.82848
  21080200.760   110777333.53909  21080195.440    86320036.11148
  20437199.140   107398239.82809  20437198.980    83686951.59149
  22664286.100   119101674.53709  22664284.640    92806519.97446
 15 02 27 02 52 30.0000000  0 10G01G04G11G14G16G18G19G22G27G32
  23885325.640   125518244.17608  23885326.980    97806429.33646
  21554412.580   113269239.23409  21554410.300    88261753.76448
  22938325.760   120541730.54308  22938322.880    93928609.91346
  24613277.380   129343646.04507  24613274.820   100787242.04644
  21980023.120   115505802.68009  21980020.180    90004516.21348
  23549192.820   123751953.53408  23549189.540    96430135.18544
  20850211.600   109568622.96809  20850207.080    85378139.85048
  21086280.600   110809282.97809  21086275.160    86344931.78848
  20438499.460   107405072.91709  20438499.360    83692276.06649
  22643739.600   118993702.05809  22643738.140    92722385.61046
 15 02 27 02 53  0.0000000  0 10G01G04G11G14G16G18G19G22G27G32
  23870572.280   125440714.76708  23870573.600    97746016.83046
  21543536.260   113212083.80809  21543534.080    88217217.07948
  22923255.840   120462537.42408  22923252.600    93866900.98946
  24599918.460   129273444.75108  24599915.900   100732539.76644
  21996619.080   115593014.43909  21996616.020    90072473.41848
  23564362.980   123831672.94008  23564359.820    96492254.18645
  20843425.160   109532959.77709  20843420.660    85350350.35348
  21092453.160   110841719.91509  21092447.680    86370207.32448
  20439866.640   107412257.38109  20439866.560    83697874.34549
  22623239.660   118885974.39309  22623238.280    92638442.01646
 15 02 27 02 53 30.0000000  0 10G01G04G11G14G16G18G19G22G27G32
  23855848.920   125363343.58708  23855850.480    97685727.63646
  21532711.000   113155197.07709  21532708.940    88172889.76648
  22908211.140   120383477.00208  22908207.640    93805295.48046
  24586575.960   129203329.94507  24586573.580   100677904.83544
  22013279.620   115680565.65309  22013276.480    90140695.12848
  23579579.200   123911634.39308  23579575.920    96554561.80945
  20836689.260   109497562.42309  20836684.780    85322767.99948
  21098718.420   110874644.14209  21098712.940    86395862.56548
  20441301.120   107419795.44009  20441301.040    83703748.13949
  22602787.080   118778495.70409  22602785.740    92554692.41546
 15 02 27 02 54  0.0000000  0 10G01G04G11G14G16G18G19G22G27G32
  23841155.960   125286132.17608  23841157.580    97625562.93946
  21521937.100   113098580.52309  21521935.180    88128772.97548
  22893192.000   120304551.09908  22893188.400    93743794.78046
  24573250.760   129133305.92708  24573248.620   100623340.68844
  22030004.660   115768456.14209  22030001.480    90209181.21848
  23594841.300   123991837.18308  23594838.220    96617057.43245
  20830004.580   109462433.93009  20830000.020    85295395.14948
  21105076.320   110908055.18509  21105070.800    86421897.14648
  20442803.320   107427689.35409  20442803.220    83709899.23749
  22582382.700   118671270.11609  22582381.280    92471140.03746
 15 02 27 02 54 30.0000000  0 10G01G04G11G14G16G18G19G22G27G32
  23826492.480   125209075.39408  23826494.160    97565518.70846
  21511213.560   113042228.62009  21511211.800    88084862.41648
  22878197.540   120225754.78208  22878194.040    93682395.06546
  24559942.540   129063370.53808  24559940.560   100568845.56244
  22046792.680   115856677.58609  22046789.500    90277925.17748
  23610147.940   124072273.97208  23610144.680    96679735.47845
  20823370.200   109427569.99109  20823365.600    85268228.45048
  21111525.580   110941946.25909  21111520.080    86448305.77748
  20444372.400   107435934.76509  20444372.240    83716324.22549
  22562026.020   118564295.16109  22562024.560    92387782.95646
 15 02 27 02 55  0.0000000  0 10G01G04G11G14G16G18G19G22G27G32
  23811859.420   125132178.49508  23811861.140    97505599.07646
  21500541.500   112986146.81909  21500539.800    88041162.31948
  22863228.740   120147093.43908  22863225.420    93621100.52046
  24546652.660   128993531.36108  24546650.460   100514425.43844
  22063644.160   115945232.33809  22063640.920    90346928.86848
  23625499.720   124152947.62608  23625496.340    96742598.05445
  20816787.540   109392977.59809  20816782.800    85241273.33848
  21118067.120   110976321.98409  21118061.560    86475092.06548
  20446009.520   107444537.67309  20446009.300    83723027.77749
  22541718.540   118457578.70509  22541717.040    92304627.31246
 15 02 27 02 55 30.0000000  0 10G01G04G11G14G16G18G19G22G27G32
  23797257.120   125055443.46008  23797258.820    97445805.57046
  21489921.220   112930336.85009  21489919.500    87997674.04348
  22848286.120   120068569.62508  22848282.900    93559913.13846
  24533381.880   128923793.34407  24533379.740   100460084.11644
  22080558.920   116034119.42609  22080555.600    90416191.51748
  23640896.260   124233857.62608  23640892.860    96805644.79345
  20810257.120   109358659.65209  20810252.240    85214532.08248
  21124700.900   111011182.28109  21124695.300    86502255.93548
  20447715.200   107453500.78509  20447714.920    83730012.01049
  22521461.120   118351125.37009  22521459.640    92221676.69346
 15 02 27 02 56  0.0000000  0 10G01G04G11G14G16G18G19G22G27G32
  23782684.420   124978864.12808  23782686.200    97386133.39746
  21479351.520   112874792.42009  21479349.720    87954392.67448
  22833368.460   119990177.34408  22833365.580    93498828.27546
  24520129.720   128854153.08808  24520127.620   100405819.01644
  22097535.260   116123330.34509  22097531.900    90485706.50547
  23656336.380   124314995.77008  23656332.760    96868869.33745
  20803777.900   109324610.97109  20803773.000    85188000.64048
  21131425.300   111046519.17609  21131419.740    86529791.18148
  20449488.400   107462818.71709  20449488.120    83737272.73049
  22501253.080   118244931.64509  22501251.640    92138928.36646
 15 02 27 02 56 30.0000000  0 10G01G04G11G14G16G18G19G22G27G32
  23768142.220   124902445.09208  23768144.180    97326586.12145
  21468833.180   112819518.02109  21468831.340    87911321.72348
  22818476.820   119911921.73608  22818474.140    93437849.89046
  24506897.520   128784617.81507  24506895.540   100351635.67245
  22114573.580   116212867.01709  22114570.160    90555475.33447
  23671820.360   124396364.29308  23671816.920    96932273.36845
  20797351.040   109290837.41809  20797346.040    85161683.59048
  21138240.920   111082335.64009  21138235.420    86557700.11748
  20451330.120   107472496.81609  20451329.820    83744814.10049
  22481095.840   118139004.84909  22481094.460    92056388.04346
 15 02 27 02 57  0.0000000  0 10G01G04G11G14G16G18G19G22G27G32
  23753630.200   124826184.39508  23753632.240    97267162.22846
  21458365.800   112764511.55709  21458363.920    87868459.55048
  22803610.920   119833801.15908  22803608.240    93376976.73146
  24493685.580   128715188.30808  24493683.540   100297534.78244
  22131672.960   116302724.92309  22131669.560    90625494.45947
  23687347.360   124477958.90208  23687343.960    96995853.58645
  20790976.400   109257338.19109  20790971.320    85135580.29848
  21145147.140   111118628.50709  21145141.760    86585980.27148
  20453240.120   107482533.86309  20453239.820    83752635.16549
  22460989.540   118033345.71609  22460988.220    91974056.27347
 15 02 27 02 57 30.0000000  0 10G01G04G11G14G16G18G19G22G27G32
  23739148.360   124750082.07808  23739150.360    97207861.76446
  21447949.380   112709773.12909  21447947.500    87825806.24848
  22788770.720   119755815.71008  22788768.120    93316208.88046
  24480494.340   128645867.36907  24480492.100   100243518.46445
  22148832.900   116392901.17409  22148829.520    90695761.65747
  23702916.860   124559777.45308  23702913.600    97059608.27445
  20784654.160   109224114.35909  20784649.040    85109691.60848
  21152143.720   111155396.08609  21152138.420    86614630.34248
  20455218.540   107492930.55409  20455218.220    83760736.48749
  22440934.700   117927956.77909  22440933.280    91891935.05646
 15 02 27 02 58  0.0000000  0 10G01G04G11G14G16G18G19G22G27G32
  23724696.960   124674139.23008  23724698.880    97148685.52546
  21437584.140   112655303.66709  21437582.260    87783362.51348
  22773956.480   119677966.85808  22773953.880    93255547.44746
  24467324.600   128576659.14608  24467322.180   100189589.98044
  22166052.960   116483393.31009  22166049.620    90766275.00047
  23718528.760   124641819.05608  23718525.440    97123536.80445
  20778384.780   109191168.16909  20778379.580    85084019.25048
  21159230.500   111192637.72609  21159225.300    86643649.80048
  20457265.760   107503688.78409  20457265.420    83769119.51249
  22420932.020   117822841.82809  22420930.420    91810027.31046
 15 02 27 02 58 30.0000000  0 10G01G04G11G14G16G18G19G22G27G32
  23710275.900   124598355.84008  23710277.840    97089633.57246
  21427270.020   112601102.72409  21427268.020    87741128.02148
  22759168.400   119600255.11508  22759165.740    93194992.84246
  24454176.760   128507566.61508  24454174.340   100135751.65544
  22183332.980   116574200.31509  22183329.600    90837033.69147
  23734182.760   124724081.05008  23734179.360    97187637.04745
  20772168.460   109158501.13209  20772163.220    85058564.42248
  21166407.160   111230351.54709  21166402.020    86673037.18748
  20459381.900   107514809.26609  20459381.540    83777784.80349
  22400981.940   117718003.50009  22400980.200    91728335.14446
 15 02 27 02 59  0.0000000  0 10G01G04G11G14G16G18G19G22G27G32
  23695885.240   124522731.75208  23695887.040    97030705.72046
  21417007.060   112547170.37409  21417004.920    87699102.81548
  22744406.440   119522680.93608  22744403.880    93134545.45246
  24441051.300   128438592.17708  24441049.020   100082005.35644
  22200672.160   116665318.27409  22200668.780    90908034.68347
  23749878.260   124806561.16308  23749874.900    97251907.28745
  20766005.360   109126114.06709  20766000.220    85033327.75048
  21173673.340   111268535.95609  21173668.280    86702791.26848
  20461567.080   107526292.55409  20461566.700    83786732.81749
  22381084.940   117613444.25409  22381083.200    91646860.42546
 15 02 27 02 59 30.0000000  0 10G01G04G11G14G16G18G19G22G27G32
  23681525.200   124447269.13008  23681526.800    96971903.71346
  21406795.580   112493508.67409  21406793.380    87657288.51348
  22729671.160   119445246.60908  22729668.640    93074207.04046
  24427949.240   128369740.73407  24427946.840   100028354.86744
  22218070.280   116756746.16409  22218066.980    90979277.17747
  23765615.160   124889259.40408  23765612.140    97316347.41945
  20759896.180   109094010.43209  20759891.120    85008311.93348
  21181029.180   111307191.60309  21181024.260    86732912.54748
  20463821.820   107538141.57109  20463821.480    83795965.81049
  22361242.000   117509169.03409  22361240.260    91565607.02946
 15 02 27 03 00  0.0000000  0 10G01G04G11G14G16G18G19G22G27G32
  23667195.520   124371965.97008  23667196.960    96913225.94846
  21396635.160   112440115.36109  21396632.980    87615683.35148
  22714962.180   119367950.43408  22714959.660    93013976.26646
  24414870.720   128301012.82407  24414868.440    99974800.67545
  22235526.640   116848480.27509  22235523.460    91050758.28847
  23781392.760   124972171.48308  23781389.580    97380954.24845
  20753840.820   109062189.35609  20753835.820    84983516.29148
  21188474.000   111346314.58509  21188469.160    86763397.99048
  20466145.920   107550355.02009  20466145.640    83805482.78149
  22341453.240   117405178.41209  22341451.540    91484575.40246
 15 02 27 03 00 30.0000000  0 10G01G04G11G14G16G18G19G22G27G32
  23652896.060   124296821.58208  23652897.480    96854671.91346
  21386525.660   112386989.84609  21386523.580    87574286.85448
  22700279.480   119290792.39308  22700276.940    92953853.14246
  24401816.220   128232410.96107  24401814.020    99921344.70545
  22253040.460   116940516.26809  22253037.380    91122474.63847
  23797210.580   125055294.50108  23797207.280    97445725.42245
  20747839.340   109030651.42109  20747834.380    84958941.28348
  21196007.300   111385902.34909  21196002.520    86794245.58848
  20468539.400   107562932.92109  20468539.120    83815283.73849
  22321719.040   117301474.38309  22321717.360    91403767.10146
 15 02 27 03 01  0.0000000  0 10G01G04G11G14G16G18G19G22G27G32
  23638627.020   124221837.28408  23638628.480    96796242.62646
  21376467.320   112334133.07809  21376465.340    87533099.78048
  22685623.260   119213774.01008  22685620.800    92893838.85546
  24388786.480   128163939.22808  24388784.420    99867990.10444
  22270611.560   117032853.28909  22270608.540    91194425.55347
  23813068.340   125138627.46908  23813065.100    97510660.22045
  20741892.200   108999398.88409  20741887.200    84934588.65948
  21203629.060   111425955.06609  21203624.360    86825455.50148
  20471002.680   107575877.27909  20471002.340    83825370.24949
  22302040.100   117198060.82409  22302038.340    91323185.13746
 15 02 27 03 01 30.0000000  0 10G01G04G11G14G16G18G19G22G27G32
  23624388.840   124147015.57908  23624390.480    96737940.02246
  21366460.600   112281547.66209  21366458.720    87492124.14348
  22670994.220   119136898.26908  22670991.740    92833935.70146
  24375782.460   128095603.00407  24375780.340    99814741.10045
  22288239.860   117125490.92509  22288236.960    91266610.70647
  23828966.000   125222170.47508  23828963.000    97575758.60545
  20736000.080   108968435.66609  20735995.060    84910461.47648
  21211339.340   111466473.28909  21211334.720    86857028.12648
  20473536.320   107589191.33209  20473535.920    83835744.82649
  22282417.420   117094942.87909  22282415.540    91242833.50646
 15 02 27 03 02  0.0000000  0 10G01G04G11G14G16G18G19G22G27G32
  23610180.840   124072352.15908  23610182.340    96679760.76246
  21356504.680   112229229.14309  21356502.800    87451356.47348
  22656391.720   119060161.19908  22656389.060    92774140.59746
  24362803.960   128027400.64207  24362801.800    99761596.42345
  22305924.080   117218422.34709  22305921.240    91339024.78847
  23844902.520   125305917.34008  23844899.540    97641015.89845
  20730162.420   108937758.69809  20730157.420    84886557.35348
  21219137.120   111507450.92809  21219132.460    86888958.75048
  20476139.620   107602871.53709  20476139.200    83846404.71849
  22262850.680   116992118.99809  22262848.680    91162711.02046
 15 02 27 03 02 30.0000000  0 10G01G04G11G14G16G18G19G22G27G32
  23596003.140   123997848.05008  23596004.720    96621705.63746
  21346599.720   112177178.27409  21346597.840    87410797.36248
  22641816.020   118983564.47708  22641813.140    92714454.84446
  24349851.700   127959335.87207  24349849.400    99708558.91845
  22323663.740   117311645.27309  22323660.960    91411666.01147
  23860877.640   125389866.73108  23860874.480    97706431.00245
  20724379.680   108907370.23109  20724374.720    84862878.02248
  21227022.240   111548887.28709  21227017.480    86921246.82048
  20478812.920   107616919.57409  20478812.460    83857351.23049
  22243340.560   116889592.70409  22243338.460    91082820.41847
 15 02 27 03 03  0.0000000  0 10G01G04G11G14G16G18G19G22G27G32
  23581856.320   123923506.37708  23581858.000    96563777.08146
  21336746.260   112125398.24009  21336744.380    87370449.29048
  22627267.660   118907111.28408  22627264.520    92654880.95646
  24336926.720   127891414.85207  24336924.440    99655633.45345
  22341459.120   117405160.57309  22341456.320    91484535.06047
  23876891.420   125474019.70508  23876888.180    97772004.75845
  20718652.680   108877274.43509  20718647.720    84839426.74848
  21234994.960   111590783.86209  21234990.100    86953893.49748
  20481556.920   107631339.25709  20481556.400    83868587.33449
  22223888.180   116787369.88309  22223886.100    91003166.29846
 15 02 27 03 03 30.0000000  0 10G01G04G11G14G16G18G19G22G27G32
  23567739.860   123849323.96008  23567741.420    96505972.62546
  21326943.680   112073885.72309  21326941.800    87330309.68548
  22612746.100   118830798.96408  22612742.740    92595416.82546
  24324029.140   127823637.43507  24324026.680    99602819.88245
  22359308.920   117498961.82109  22359306.140    91557626.92747
  23892942.860   125558370.81808  23892939.700    97837732.86945
  20712981.020   108847469.66309  20712976.040    84816202.25948
  21243054.280   111633135.60909  21243049.340    86986894.86248
  20484371.180   107646128.10709  20484370.600    83880111.10549
  22204493.480   116685450.00209  22204491.340    90923748.23646
 15 02 27 03 04  0.0000000  0 10G01G04G11G14G16G18G19G22G27G32
  23553654.000   123775302.40808  23553655.600    96448293.53746
  21317192.320   112022642.31709  21317190.460    87290379.77648
  22598251.620   118754629.39608  22598248.060    92536063.93746
  24311159.540   127756007.87507  24311156.960    99550121.52544
  22377213.020   117593048.41008  22377210.280    91630941.14847
  23909031.920   125642919.26708  23909028.860    97903614.78045
  20707365.240   108817958.64009  20707360.340    84793206.65648
  21251200.240   111675942.58609  21251195.240    87020250.95348
  20487256.120   107661288.40609  20487255.500    83891924.33149
  22185157.180   116583837.20409  22185155.060    90844569.46746
 15 02 27 03 04 30.0000000  0 10G01G04G11G14G16G18G19G22G27G32
  23539598.860   123701442.10708  23539600.340    96390740.06746
  21307492.260   111971668.24709  21307490.380    87250659.73048
  22583784.400   118678603.63608  22583780.760    92476823.08946
  24298318.660   127688529.39107  24298316.320    99497540.90044
  22395170.940   117687417.81709  22395168.180    91704475.72447
  23925158.300   125727663.39908  23925155.240    97969649.13145
  20701805.680   108788742.91509  20701800.800    84770441.15149
  21259432.520   111719203.26609  21259427.480    87053960.56348
  20490211.960   107676821.22709  20490211.320    83904027.81549
  22165879.880   116482534.47409  22165877.800    90765632.29846
 15 02 27 03 05  0.0000000  0 10G01G04G11G14G16G18G19G22G27G32
  23525574.520   123627744.01808  23525575.980    96333313.02446
  21297843.620   111920964.21409  21297841.720    87211150.10448
  22569344.820   118602723.24708  22569341.200    92417695.54447
  24285507.280   127621205.75507  24285505.160    99445080.94345
  22413182.360   117782068.19209  22413179.540    91778229.24647
  23941321.580   125812602.19208  23941318.220    98035835.21745
  20696302.760   108759824.82109  20696297.840    84747907.57849
  21267751.020   111762917.03609  21267745.940    87088023.23548
  20493239.040   107692728.25609  20493238.360    83916422.90149
  22146662.300   116381545.55409  22146660.180    90686939.65747
 15 02 27 03 05 30.0000000  0 10G01G04G11G14G16G18G19G22G27G32
  23511581.020   123554207.82908  23511582.620    96276012.12646
  21288246.380   111870529.92909  21288244.400    87171850.67348
  22554932.820   118526987.94608  22554929.300    92358681.03846
  24272726.020   127554039.62507  24272723.940    99392743.70545
  22431246.640   117876996.38509  22431243.760    91852199.25747
  23957521.300   125897732.85808  23957517.840    98102170.76144
  20690856.640   108731205.06209  20690851.660    84725606.46849
  21276155.320   111807081.62909  21276150.120    87122437.20548
  20496337.400   107709009.84609  20496336.640    83929109.84449
  22127504.880   116280872.67509  22127502.760    90608493.27647
 15 02 27 03 06  0.0000000  0 10G01G04G11G14G16G18G19G22G27G32
  23497617.400   123480828.50808  23497618.980    96218833.47346
  21278699.480   111820360.31509  21278697.460    87132757.47848
  22540547.580   118451393.63808  22540544.180    92299776.40146
  24259974.300   127487028.62407  24259972.200    99340527.35745
  22449362.260   117972194.35309  22449359.320    91926379.47347
  23973756.220   125983048.10608  23973752.860    98168650.19645
  20685466.600   108702879.94509  20685461.540    84703534.94449
  21284644.140   111851690.33509  21284638.840    87157197.23448
  20499506.140   107725661.63409  20499505.320    83942085.25749
  22108407.140   116180513.40809  22108405.040    90530291.28747
 15 02 27 03 06 30.0000000  0 10G01G04G11G14G16G18G19G22G27G32
  23483684.520   123407610.94508  23483685.940    96161780.84946
  21269203.800   111770459.91209  21269201.700    87093874.06348
  22526190.200   118375945.40408  22526186.720    92240985.57846
  24247253.500   127420180.53207  24247251.460    99288437.94645
  22467529.560   118067664.23009  22467526.580    92000771.57747
  23990026.900   126068550.89708  23990023.840    98235275.73345
  20680133.780   108674855.70009  20680128.640    84681697.86848
  21293217.960   111896745.79209  21293212.580    87192305.38148
  20502746.360   107742689.08409  20502745.460    83955353.39049
  22089370.500   116080475.23709  22089368.420    90452339.48846
 15 02 27 03 07  0.0000000  0 10G01G04G11G14G16G18G19G22G27G32
  23469782.520   123334554.99308  23469783.620    96104854.14146
  21259759.380   111720828.95809  21259757.220    87055200.60748
  22511860.740   118300643.71008  22511857.200    92182308.94547
  24234564.260   127353498.31707  24234562.560    99236477.76945
  22485748.140   118163403.72108  22485745.180    92075373.75147
  24006332.760   126154239.06607  24006329.780    98302045.69445
  20674858.400   108647133.28609  20674853.140    84660095.98948
  21301876.540   111942246.56909  21301871.060    87227760.53048
  20506058.200   107760092.89209  20506057.240    83968914.79249
  22070395.440   115980760.82309  22070393.380    90374639.96746
 15 02 27 03 07 30.0000000  0 10G01G04G11G14G16G18G19G22G27G32
  23455911.580   123261662.70008  23455912.540    96048054.98346
  21250366.460   111671468.80109  21250364.260    87016738.15448
  22497559.720   118225491.04308  22497556.220    92123748.44646
  24221907.520   127286986.91807  24221905.840    99184650.70945
  22504017.780   118259411.64809  22504014.980    92150185.10947
  24022673.760   126240112.50707  24022670.820    98368960.03745
  20669641.100   108619716.22609  20669635.840    84638732.03848
  21310619.880   111988192.72409  21310614.280    87263562.72848
  20509442.160   107777875.61409  20509441.180    83982771.44749
  22051482.860   115881374.66009  22051480.740    90297196.22247
 15 02 27 03 08  0.0000000  0 10G01G04G11G14G16G18G19G22G27G32
  23442070.920   123188929.95908  23442071.880    95991380.16346
  21241024.360   111622375.73509  21241022.140    86978483.83048
  22483286.380   118150483.84408  22483282.860    92065301.29647
  24209283.000   127220644.86707  24209281.260    99132955.61245
  22522337.220   118355681.17809  22522334.540    92225200.30747
  24039048.900   126326164.69608  24039045.680    98436013.68844
  20664481.360   108592601.63109  20664476.120    84617603.78849
  21319446.780   112034578.42509  21319441.120    87299707.43348
  20512897.580   107796033.84309  20512896.620    83996920.71249
  22032632.460   115782315.30809  22032630.320    90220007.13947
 15 02 27 03 08 30.0000000  0 10G01G04G11G14G16G18G19G22G27G32
  23428260.440   123116354.99508  23428261.440    95934828.25746
  21231732.640   111573547.57909  21231730.460    86940435.91948
  22469040.420   118075620.53708  22469036.880    92006966.27547
  24196690.960   127154473.25307  24196689.160    99081393.32244
  22540705.680   118452208.02409  22540703.100    92300416.01447
  24055457.580   126412391.65108  24055454.180    98503203.57545
  20659379.040   108565788.71309  20659373.740    84596710.60149
  21328356.600   112081400.16409  21328351.060    87336191.89348
  20516424.280   107814566.46609  20516423.260    84011361.70149
  22013844.420   115683583.57509  22013842.260    90143073.34847
 15 02 27 03 09  0.0000000  0 10G01G04G11G14G16G18G19G22G27G32
  23414481.260   123043944.31908  23414482.400    95878404.37845
  21222492.540   111524990.92509  21222490.480    86902599.57848
  22454823.200   118000908.45808  22454819.660    91948749.08646
  24184133.100   127088481.36107  24184131.340    99029971.09144
  22559123.720   118548995.62208  22559121.220    92375834.90547
  24071900.200   126498797.95008  24071896.760    98570533.13645
  20654335.720   108539285.72209  20654330.400    84576058.91648
  21337350.240   112128662.29509  21337344.760    87373019.52448
  20520023.540   107833480.60009  20520022.480    84026099.98749
  21995120.420   115585188.50409  21995118.260    90066401.88647
 15 02 27 03 09 30.0000000  0 10G01G04G11G14G16G18G19G22G27G32
  23400732.920   122971695.82608  23400734.000    95822106.89046
  21213303.680   111476703.52909  21213301.720    86864973.04148
  22440634.300   117926345.68708  22440630.740    91890648.23247
  24171609.620   127022670.09507  24171607.700    98978689.60145
  22577590.460   118646039.17709  22577587.980    92451453.24147
  24088375.920   126585379.22607  24088372.860    98637999.04545
  20649351.160   108513091.53309  20649345.880    84555647.86448
  21346427.040   112176361.07409  21346421.500    87410187.41348
  20523695.120   107852774.82809  20523694.040    84041134.44249
  21976460.600   115487130.75109  21976458.420    89989993.27447
 15 02 27 03 10  0.0000000  0 10G01G04G11G14G16G18G19G22G27G32
  23387015.280   122899608.89708  23387016.200    95765935.28046
  21204165.900   111428684.44209  21204164.040    86827555.58348
  22426473.800   117851932.28608  22426470.280    91832663.78047
  24159120.880   126957041.73807  24159118.760    98927550.63244
  22596105.240   118743335.23408  22596102.740    92527268.33647
  24104884.560   126672132.83308  24104881.900    98705599.18245
  20644425.460   108487206.82609  20644420.200    84535477.95449
  21355586.460   112224494.14609  21355580.860    87447693.70048
  20527438.960   107872449.07109  20527437.940    84056465.00949
  21957865.300   115389412.13409  21957863.180    89913848.91647
 15 02 27 03 10 30.0000000  0 10G01G04G11G14G16G18G19G22G27G32
  23373327.560   122827679.12808  23373328.480    95709886.12746
  21195078.400   111380929.58309  21195076.600    86790344.00048
  22412341.020   117777664.53008  22412337.580    91774792.81647
  24146666.880   126891594.64907  24146664.440    98876552.89645
  22614666.660   118840876.63308  22614664.200    92603274.60347
  24121424.740   126759052.07308  24121422.040    98773328.46344
  20639558.000   108461628.45309  20639552.820    84515546.76249
  21364827.240   112273055.07209  21364821.640    87485533.38548
  20531254.420   107892499.60909  20531253.460    84072088.79249
  21939334.200   115292030.88509  21939332.180    89837967.44347
 15 02 27 03 11  0.0000000  0 10G01G04G11G14G16G18G19G22G27G32
  23359670.780   122755911.95708  23359671.680    95653963.69446
  21186042.200   111333443.99209  21186040.400    86753342.24548
  22398237.120   117703548.15908  22398233.740    91717039.81147
  24134249.000   126826337.21108  24134246.620    98825702.95744
  22633275.380   118938666.20308  22633272.960    92679474.24547
  24137997.260   126846140.46308  24137994.000    98841189.62544
  20634750.160   108436363.26509  20634745.040    84495859.60048
  21374150.100   112322047.37609  21374144.600    87523709.21348
  20535142.680   107912932.46409  20535141.780    84088010.49949
  21920868.880   115194995.08409  21920866.900    89762355.16247
 15 02 27 03 11 30.0000000  0 10G01G04G11G14G16G18G19G22G27G32
  23346045.060   122684308.44408  23346045.660    95598168.77545
  21177057.440   111286228.63909  21177055.640    86716551.06548
  22384162.320   117629584.97708  22384159.000    91659406.17847
  24121867.820   126761273.37707  24121865.700    98775003.89045
  22651931.080   119036702.16908  22651928.620    92755865.89547
  24154601.560   126933396.92707  24154598.420    98909181.63045
  20630002.360   108411413.55709  20629997.280    84476418.26649
  21383554.920   112371470.50909  21383549.540    87562220.73948
  20539104.060   107933749.38809  20539103.160    84104231.46949
  21902469.980   115098308.30909  21902468.060    89687014.83247
 15 02 27 03 12  0.0000000  0 10G01G04G11G14G16G18G19G22G27G32
  23332450.400   122612868.19708  23332450.780    95542501.07446
  21168124.060   111239283.10809  21168122.280    86679970.15048
  22370116.600   117555774.83008  22370113.240    91601891.78947
  24109523.820   126696405.57408  24109521.760    98724457.55645
  22670632.940   119134980.91208  22670630.500    92832446.71947
  24171237.320   127020818.82508  24171234.400    98977302.54845
  20625314.720   108386780.11809  20625309.700    84457223.38549
  21393041.260   112421321.86009  21393035.980    87601065.94248
  20543138.520   107954950.50609  20543137.660    84120751.81649
  21884137.920   115001972.78109  21884136.040    89611948.22347
 15 02 27 03 12 30.0000000  0 10G01G04G11G14G16G18G19G22G27G32
  23318885.800   122541585.83708  23318886.080    95486956.40146
  21159241.020   111192602.06509  21159239.220    86643595.32248
  22356099.220   117482113.40508  22356095.860    91544493.29747
  24097216.660   126631731.28507  24097214.640    98674062.01445
  22689379.520   119233494.95508  22689377.220    92909210.88446
  24187903.280   127108398.83108  24187900.480    99045546.66445
  20620686.480   108362458.73709  20620681.500    84438271.66348
  21402607.820   112471594.37209  21402602.580    87640239.33548
  20547245.120   107976531.04709  20547244.340    84137567.81749
  21865872.180   114905985.66709  21865870.320    89537153.09047
 15 02 27 03 13  0.0000000  0 10G01G04G11G14G16G18G19G22G27G32
  23305352.080   122470465.61708  23305352.180    95431538.06446
  21150409.060   111146189.50009  21150407.220    86607429.69348
  22342111.000   117408605.07108  22342107.600    91487214.07847
  24084947.600   126567257.64408  24084945.660    98623822.82244
  22708171.140   119332245.57608  22708168.880    92986159.39346
  24204599.800   127196138.94408  24204597.000    99113915.58444
  20616118.740   108338455.01409  20616113.720    84419567.45549
  21412255.000   112522290.41909  21412249.780    87679742.74648
  20551424.840   107998495.87409  20551424.120    84154683.25549
  21847673.980   114810353.74309  21847672.200    89462634.72447
 15 02 27 03 13 30.0000000  0 10G01G04G11G14G16G18G19G22G27G32
  23291849.200   122399507.52208  23291849.000    95376246.08346
  21141628.120   111100045.30209  21141626.280    86571473.17948
  22328152.100   117335250.18308  22328148.580    91430054.42946
  24072717.360   126502987.65108  24072715.360    98573742.32845
  22727007.180   119431229.65608  22727004.940    93063289.82846
  24221326.240   127284037.09307  24221323.180    99182407.68044
  20611611.700   108314770.37009  20611606.620    84401111.88449
  21421982.400   112573407.98609  21421977.160    87719574.60848
  20555677.800   108020845.54709  20555677.160    84172098.57149
  21829543.820   114715079.56909  21829542.140    89388395.13347
 15 02 27 03 14  0.0000000  0 10G01G04G11G14G16G18G19G22G27G32
  23278377.420   122328712.64808  23278376.980    95321081.26345
  21132898.400   111054170.37109  21132896.560    86535726.48848
  22314222.820   117262050.71008  22314219.260    91373015.89747
  24060526.580   126438925.31007  24060524.620    98523823.63444
  22745887.400   119530445.70008  22745885.100    93140601.01146
  24238082.580   127372092.42708  24238079.360    99251022.18344
  20607165.820   108291407.16809  20607160.740    84382906.79649
  21431789.860   112624946.46509  21431784.640    87759734.46048
  20560004.300   108043581.74509  20560003.740    84189815.08149
  21811482.440   114620166.85409  21811480.940    89314437.20647
 15 02 27 03 14 30.0000000  0 10G01G04G11G14G16G18G19G22G27G32
  23264935.680   122258075.65708  23264935.240    95266039.46446
  21124218.960   111008559.68809  21124217.140    86500185.71248
  22300322.140   117189001.73108  22300318.460    91316094.63347
  24048374.900   126375067.93008  24048372.980    98474064.64045
  22764810.240   119629885.63808  22764807.860    93218086.66546
  24254867.420   127460297.25708  24254864.180    99319753.23445
  20602780.360   108268361.52309  20602775.340    84364949.15449
  21441676.060   112676898.60209  21441670.840    87800216.64348
  20564403.380   108066699.68609  20564402.940    84207829.06749
  21793489.280   114525612.70409  21793487.920    89240758.67647
 15 02 27 03 15  0.0000000  0 10G01G04G11G14G16G18G19G22G27G32
  23251525.120   122187602.57808  23251524.660    95211125.38845
  21115590.800   110963218.68709  21115588.980    86464855.06848
  22286451.380   117116110.01708  22286447.560    91259295.89947
  24036263.960   126311424.45008  24036262.180    98424472.33245
  22783776.360   119729553.09308  22783773.980    93295749.59046
  24271681.660   127548655.90408  24271678.580    99388604.06045
  20598456.740   108245640.72309  20598451.740    84347244.63749
  21451641.740   112729268.33809  21451636.560    87841024.23148
  20568876.380   108090205.99109  20568876.060    84226145.66049
  21775566.020   114431425.82309  21775564.720    89167366.32447
 15 02 27 03 15 30.0000000  0 10G01G04G11G14G16G18G19G22G27G32
  23238144.900   122117288.96608  23238144.540    95156335.57945
  21107013.160   110918143.12409  21107011.340    86429731.26748
  22272609.820   117043371.71609  22272605.860    91202616.71247
  24024193.500   126247993.41008  24024191.860    98375045.55945
  22802784.300   119829440.30208  22802782.000    93373583.75346
  24288523.960   127637162.16307  24288520.840    99457569.96844
  20594194.240   108223241.15209  20594189.260    84329790.42849
  21461685.640   112782049.17409  21461680.440    87882152.15148
  20573422.560   108114096.71409  20573422.300    84244761.80449
  21757712.280   114337604.15209  21757711.040    89094258.54247
 15 02 27 03 16  0.0000000  0 10G01G04G11G14G16G18G19G22G27G32
  23224796.080   122047140.47508  23224795.900    95101674.44446
  21098487.080   110873338.41809  21098485.260    86394818.51448
  22258798.640   116970793.03409  22258794.640    91146061.91347
  24012165.060   126184783.23508  24012163.380    98325790.89345
  22821834.620   119929550.27808  22821832.380    93451591.51847
  24305394.720   127725819.00208  24305391.520    99526653.22544
  20589994.240   108201170.15309  20589989.320    84312592.24749
  21471808.420   112835245.00709  21471803.260    87923603.45448
  20578043.100   108138378.09209  20578042.880    84263682.34949
  21739929.640   114244155.94509  21739928.440    89021441.78047
 15 02 27 03 16 30.0000000  0 10G01G04G11G14G16G18G19G22G27G32
  23211477.360   121977150.44208  23211477.320    95047136.79546
  21090011.320   110828798.05909  21090009.440    86360111.74948
  22245016.580   116898367.78009  22245012.580    91089626.66747
  24000178.000   126121790.11808  24000176.120    98276705.35145
  22840925.480   120029873.21208  22840923.220    93529765.20846
  24322292.580   127814617.70008  24322289.400    99595847.01244
  20585855.680   108179422.21809  20585850.880    84295645.81049
  21482008.600   112888847.41509  21482003.380    87965371.56848
  20582736.840   108163044.03309  20582736.620    84282902.55949
  21722217.300   114151077.14609  21722216.140    88948912.87147
 15 02 27 03 17  0.0000000  0 10G01G04G11G14G16G18G19G22G27G32
  23198189.700   121907323.91308  23198189.580    94992726.52346
  21081586.760   110784526.74009  21081584.840    86325614.63948
  22231264.740   116826101.44909  22231260.760    91033315.25047
  23988233.660   126059021.95907  23988231.660    98227795.11445
  22860057.420   120130411.91708  22860055.140    93608107.03446
  24339217.980   127903561.33307  24339214.800    99665153.72045
  20581779.800   108158003.59709  20581775.040    84278955.97649
  21492286.580   112942858.80109  21492281.400    88007458.36648
  20587504.800   108188100.05509  20587504.600    84302426.71649
  21704576.640   114058375.12009  21704575.560    88876677.55247
 15 02 27 03 17 30.0000000  0 10G01G04G11G14G16G18G19G22G27G32
  23184932.740   121837658.67808  23184932.640    94938441.94146
  21073212.940   110740522.23109  21073211.080    86291325.42048
  22217542.900   116753992.69109  22217538.920    90977126.61747
  23976332.120   125996479.47808  23976330.120    98179060.72945
  22879229.540   120231161.58108  22879227.140    93686613.24946
  24356170.300   127992645.79807  24356167.360    99734570.13344
  20577766.440   108136913.30009  20577761.700    84262521.97049
  21502641.800   112997275.78309  21502636.560    88049861.20848
  20592346.700   108213544.48509  20592346.480    84322253.53249
  21687007.720   113966050.19509  21687006.740    88804736.06547
 15 02 27 03 18  0.0000000  0 10G01G04G11G14G16G18G19G22G27G32
  23171706.760   121768156.32308  23171706.760    94884284.29046
  21064890.180   110696786.03509  21064888.380    86257245.27948
  22203851.560   116682043.92409  22203847.520    90921062.66047
  23964474.340   125934167.34608  23964472.240    98130505.82945
  22898441.500   120332120.72008  22898439.020    93765282.68446
  24373149.280   128081870.79308  24373146.260    99804096.02744
  20573816.200   108116154.74409  20573811.520    84246346.47149
  21513074.100   113052098.00009  21513068.860    88092579.81848
  20597262.920   108239379.48209  20597262.700    84342384.68649
  21669511.380   113874106.50309  21669510.460    88733091.64347
 15 02 27 03 18 30.0000000  0 10G01G04G11G14G16G18G19G22G27G32
  23158510.960   121698812.12308  23158511.060    94830249.84846
  21056617.560   110653313.31209  21056615.760    86223370.44348
  22190189.860   116610250.81209  22190185.760    90865119.98347
  23952660.060   125872083.49208  23952658.040    98082128.80744
  22917691.800   120433281.42808  22917689.280    93844109.18446
  24390153.680   128171229.23908  24390150.340    99873726.07644
  20569928.380   108095724.25909  20569923.740    84230426.61349
  21523582.180   113107318.59309  21523576.940    88135608.85048
  20602252.660   108265600.77109  20602252.440    84362816.85649
  21652087.200   113782541.75809  21652086.280    88661742.50647
 15 02 27 03 19  0.0000000  0 10G01G04G11G14G16G18G19G22G27G32
  23145346.880   121629634.39908  23145347.100    94776345.14945
  21048396.680   110610112.26209  21048394.820    86189707.29148
  22176559.360   116538622.21209  22176555.340    90809305.50847
  23940891.360   125810238.95608  23940889.160    98033938.27344
  22936981.600   120534649.92908  22936979.120    93923097.60046
  24407184.720   128260727.77707  24407181.380    99943465.14345
  20566104.820   108075631.36009  20566100.200    84214769.81349
  21534167.240   113162943.55909  21534161.920    88178952.98148
  20607317.600   108292217.21109  20607317.380    84383556.93749
  21634737.200   113691366.82409  21634736.240    88590697.12447
 15 02 27 03 19 30.0000000  0 10G01G04G11G14G16G18G19G22G27G32
  23132212.840   121560614.32508  23132213.020    94722563.29346
  21040225.820   110567174.11109  21040223.920    86156248.99348
  22162958.720   116467150.15109  22162954.680    90753613.00747
  23929167.140   125748628.07907  23929164.900    97985929.80845
  22956308.740   120636214.46708  22956306.260    94002238.78946
  24424240.240   128350355.41007  24424236.980   100013304.82044
  20562344.120   108055868.42209  20562339.440    84199370.11349
  21544827.260   113218962.33709  21544821.860    88222603.98148
  20612456.180   108319220.41309  20612455.960    84404598.39149
  21617460.180   113600575.31908  21617459.160    88519950.50647
 15 02 27 03 20  0.0000000  0 10G01G04G11G14G16G18G19G22G27G32
  23119109.740   121491756.87808  23119109.960    94668908.16646
  21032105.920   110524503.57509  21032104.000    86122999.23748
  22149388.920   116395839.99409  22149384.680    90698046.66047
  23917488.860   125687258.67907  23917486.780    97938109.48845
  22975673.500   120737976.51609  22975670.880    94081533.85946
  24441320.960   128440115.10007  24441317.680   100083247.45045
  20558647.400   108036441.76209  20558642.660    84184232.45649
  21555562.860   113275377.80709  21555557.360    88266564.09148
  20617669.420   108346615.87209  20617669.180    84425945.49349
  21600257.500   113510174.68608  21600256.440    88449508.47548
 15 02 27 03 20 30.0000000  0 10G01G04G11G14G16G18G19G22G27G32
  23106037.260   121423060.65308  23106037.460    94615378.64246
  21024036.660   110482099.29609  21024034.780    86089956.94848
  22135849.800   116324691.08909  22135845.360    90642605.96947
  23905856.820   125626132.06408  23905854.860    97890478.37445
  22995075.200   120839932.63608  22995072.420    94160980.16646
  24458426.140   128530003.39907  24458423.260   100153290.22745
  20555014.580   108017351.17009  20555009.800    84169356.66349
  21566373.300   113332186.82409  21566367.760    88310830.86448
  20622957.140   108374402.66809  20622956.800    84447597.52849
  21583129.440   113420165.99709  21583128.340    88379371.84947
 15 02 27 03 21  0.0000000  0 10G01G04G11G14G16G18G19G22G27G32
  23092995.740   121354527.11008  23092996.100    94561975.89646
  21016018.300   110439962.60109  21016016.480    86057123.15548
  22122341.700   116253705.40309  22122337.080    90587292.44547
  23894271.800   125565252.52608  23894269.980    97843039.78345
  23014513.500   120942081.15808  23014510.640    94240576.39446
  24475555.660   128620019.58607  24475552.860   100223432.68044
  20551446.260   107998599.58709  20551441.480    84154745.03649
  21577258.440   113389388.65209  21577252.980    88355403.70148
  20628319.680   108402582.69809  20628319.300    84469555.97949
  21566076.740   113330553.04109  21566075.540    88309543.59047
 15 02 27 03 21 30.0000000  0 10G01G04G11G14G16G18G19G22G27G32
  23079984.640   121286153.89408  23079985.220    94508698.09046
  21008050.440   110398091.15309  21008048.660    86024496.07648
  22108864.320   116182881.19009  22108859.700    90532104.76347
  23882733.920   125504620.58908  23882732.180    97795794.13445
  23033987.500   121044417.57208  23033984.540    94320319.04446
  24492708.780   128710159.66407  24492705.520   100293671.74344
  20547942.220   107980185.98209  20547937.480    84140396.78349
  21588217.560   113446979.20309  21588212.140    88400279.45748
  20633756.700   108431154.12709  20633756.280    84491819.42549
  21549099.420   113241336.09709  21549098.080    88240023.91347
 15 02 27 03 22  0.0000000  0 10G01G04G11G14G16G18G19G22G27G32
  23067004.400   121217942.74508  23067005.160    94455546.57046
  21000133.360   110356486.47009  21000131.540    85992076.84648
  22095418.160   116112221.17909  22095413.580    90477045.03147
  23871244.080   125444240.60408  23871242.380    97748744.81245
  23053496.940   121146940.41808  23053493.960    94400206.94446
  24509885.360   128800423.03907  24509882.160   100364006.77845
  20544503.100   107962113.32909  20544498.380    84126314.19049
  21599250.580   113504957.91309  21599245.100    88445457.67648
  20639268.620   108460119.05709  20639268.160    84514389.48749
  21532198.220   113152519.21109  21532196.760    88170815.97147
 15 02 27 03 22 30.0000000  0 10G01G04G11G14G16G18G19G22G27G32
  23054054.980   121149893.70108  23054055.800    94402521.35546
  20992267.000   110315148.44009  20992265.120    85959865.40348
  22082003.260   116041725.63009  22081998.680    90422113.44047
  23859802.800   125384115.63608  23859801.040    97701894.18945
  23073041.420   121249647.06208  23073038.420    94480238.08446
  24527085.060   128890808.03007  24527081.940   100434436.58944
  20541129.100   107944382.92609  20541124.440    84112498.29049
  21610357.160   113563323.12209  21610351.660    88490937.06248
  20644855.500   108489478.01809  20644855.040    84537266.58149
  21515373.600   113064104.87309  21515372.000    88101921.70048
 15 02 27 03 23  0.0000000  0 10G01G04G11G14G16G18G19G22G27G32
  23041135.880   121082003.54308  23041136.640    94349619.94446
  20984450.720   110274073.93209  20984448.880    85927859.29748
  22068619.180   115971392.35609  22068614.720    90367308.30047
  23848410.100   125324245.66108  23848408.180    97655242.27345
  23092619.640   121352531.05308  23092616.620    94560407.39746
  24544306.980   128981309.84607  24544303.720   100504957.54644
  20537819.860   107926992.74709  20537815.240    84098947.49949
  21621536.240   113622069.40009  21621530.760    88536713.37048
  20650516.840   108519228.20809  20650516.340    84560448.52549
  21498625.380   112976092.20409  21498623.720    88033340.41447
 15 02 27 03 23 30.0000000  0 10G01G04G11G14G16G18G19G22G27G32
  23028248.020   121014277.71008  23028248.780    94296846.59046
  20976685.560   110233268.20109  20976683.780    85896062.63748
  22055267.100   115901227.30909  22055262.900    90312634.25247
  23837067.360   125264638.71308  23837065.320    97608795.31945
  23112232.180   121455595.48108  23112229.160    94640717.32746
  24561551.580   129071931.48307  24561548.180   100575571.76744
  20534576.700   107909949.58809  20534572.060    84085667.11349
  21632788.500   113681200.19909  21632783.060    88582789.32248
  20656253.700   108549375.49809  20656253.200    84583939.90749
  21481955.100   112888489.06309  21481953.360    87965078.24747
 15 02 27 03 24  0.0000000  0 10G01G04G11G14G16G18G19G22G27G32
  23015390.680   120946711.85108  23015391.520    94244197.88346
  20968970.740   110192726.90509  20968968.980    85864472.02248
  22041946.360   115831226.92309  22041942.320    90258088.50547
  23825774.280   125205293.20108  23825772.140    97562552.06545
  23131877.700   121558833.15908  23131874.600    94721162.24246
  24578817.940   129162666.50107  24578814.820   100646274.31644
  20531399.060   107893250.44109  20531394.300    84072654.78049
  21644112.700   113740709.37909  21644107.300    88629160.09548
  20662065.400   108579915.93509  20662064.860    84607737.63449
  21465362.420   112801293.53109  21465360.580    87897133.68747
 15 02 27 03 24 30.0000000  0 10G01G04G11G14G16G18G19G22G27G32
  23002563.980   120879306.88308  23002564.780    94191674.55146
  20961306.380   110152450.62109  20961304.620    85833087.91248
  22028657.260   115761392.85709  22028653.380    90203672.36547
  23814531.660   125146212.80808  23814529.420    97516515.40545
  23151555.880   121662242.58008  23151552.720    94801740.99146
  24596105.820   129253513.98108  24596102.700   100717064.54344
  20528287.260   107876897.50609  20528282.420    84059912.23449
  21655508.580   113800595.30609  21655503.140    88675824.45448
  20667952.140   108610850.90809  20667951.580    84631842.80149
  21448847.920   112714508.87809  21448845.960    87829509.29548
 15 02 27 03 25  0.0000000  0 10G01G04G11G14G16G18G19G22G27G32
  22989767.980   120812063.50608  22989768.820    94139277.13046
  20953692.640   110112440.29509  20953690.880    85801911.03948
  22015400.100   115691726.31809  22015396.180    90149386.76147
  23803340.220   125087401.14108  23803337.960    97470688.15545
  23171266.260   121765821.36308  23171263.100    94882451.71146
  24613414.860   129344472.95107  24613411.340   100787941.70343
  20525241.640   107860892.68309  20525236.820    84047440.94749
  21666975.940   113860857.04509  21666970.500    88722781.65748
  20673914.140   108642181.42909  20673913.540    84656256.18249
  21432412.140   112628138.09509  21432410.100    87762207.41148
 15 02 27 03 25 30.0000000  0 10G01G04G11G14G16G18G19G22G27G32
  22977002.760   120744982.16708  22977003.760    94087005.98546
  20946129.580   110072696.19609  20946127.760    85770941.62148
  22002175.060   115622228.56609  22002171.220    90095232.67947
  23792200.500   125028861.56008  23792198.280    97425072.91745
  23191008.280   121869566.54108  23191005.180    94963292.07646
  24630744.600   129435541.65907  24630741.260   100858904.31144
  20522262.600   107845237.63009  20522257.800    84035242.19249
  21678514.500   113921492.94109  21678509.100    88770030.39948
  20679951.620   108673908.36409  20679950.960    84680978.45349
  21416055.600   112542184.07009  21416053.560    87695230.26047
 15 02 27 03 26  0.0000000  0 10G01G04G11G14G16G18G19G22G27G32
  22964267.600   120678058.98508  22964268.660    94034858.07246
  20938616.460   110033214.25809  20938614.520    85740176.48548
  21988981.460   115552896.23009  21988977.640    90041207.49147
  23781112.280   124970593.02208  23781110.240    97379668.87645
  23210780.960   121973472.65808  23210777.840    95044257.87146
  24648094.080   129526714.27607  24648090.920   100929947.86145
  20519349.600   107829929.73309  20519344.840    84023313.97149
  21690123.120   113982497.06109  21690117.820    88817566.07748
  20686063.820   108706028.20509  20686063.160    84706006.89849
  21399778.060   112456645.21209  21399776.040    87628576.62448
 15 02 27 03 26 30.0000000  0 10G01G04G11G14G16G18G19G22G27G32
  22951564.060   120611301.39508  22951564.840    93982839.19746
  20931154.680   109994001.85409  20931152.560    85709621.37348
  21975820.980   115483737.69009  21975817.120    89987317.72947
  23770077.500   124912605.55008  23770075.640    97334483.85645
  23230585.100   122077544.05808  23230582.060    95125352.43246
  24665464.380   129617996.43007  24665461.500   101001076.74544
  20516504.420   107814978.06409  20516499.620    84011663.31649
  21701802.880   114043874.78809  21701797.620    88865392.87348
  20692252.260   108738548.75809  20692251.620    84731347.57549
  21383581.420   112371531.39409  21383579.400    87562254.18148
 15 02 27 03 27  0.0000000  0 10G01G04G11G14G16G18G19G22G27G32
  22938890.600   120544701.91308  22938891.180    93930943.52146
  20923742.800   109955051.59409  20923740.540    85679270.52748
  21962692.240   115414745.91609  21962688.420    89933557.91147
  23759095.480   124854894.64108  23759093.540    97289514.32245
  23250418.680   122181770.10108  23250415.600    95206567.51246
  24682853.920   129709378.72308  24682850.820   101072283.75744
  20513725.760   107800376.02309  20513720.960    84000285.10649
  21713551.940   114105616.69909  21713546.740    88913503.44747
  20698515.560   108771462.88709  20698514.980    84756994.93049
  21367464.700   112286837.35909  21367462.700    87496258.84148
 15 02 27 03 27 30.0000000  0 10G01G04G11G14G16G18G19G22G27G32
  22926247.680   120478263.09908  22926248.200    93879173.03746
  20916381.200   109916365.76509  20916378.840    85649125.73348
  21949595.860   115345924.45809  21949592.260    89879930.81547
  23748167.100   124797465.51108  23748165.020    97244764.35546
  23270281.720   122286150.84408  23270278.580    95287903.11746
  24700262.760   129800861.81907  24700259.560   101143569.30144
  20511014.400   107786127.60709  20511009.560    83989182.44049
  21725370.340   114167723.12209  21725365.220    88961898.06048
  20704854.320   108804773.47709  20704853.760    84782951.22349
  21351428.760   112202567.99709  21351426.800    87430594.41948
 15 02 27 03 28  0.0000000  0 10G01G04G11G14G16G18G19G22G27G32
  22913635.660   120411986.57908  22913636.160    93827529.02046
  20909070.200   109877945.87509  20909067.740    85619188.17748
  21936532.360   115277275.79409  21936528.900    89826438.35447
  23737293.200   124740322.85208  23737291.260    97200237.62845
  23290173.920   122390684.59008  23290170.620    95369357.97846
  24717690.600   129892445.58706  24717687.460   101214933.21644
  20508370.900   107772235.62109  20508366.000    83978357.52049
  21737258.060   114230193.74909  21737252.960    89010576.46947
  20711268.920   108838482.50709  20711268.360    84809217.99349
  21335474.340   112118727.25309  21335472.480    87365263.98648
 15 02 27 03 28 30.0000000  0 10G01G04G11G14G16G18G19G22G27G32
  22901054.620   120345873.07208  22901055.300    93776012.03046
  20901809.940   109839792.71409  20901807.440    85589458.44448
  21923501.860   115208800.66609  21923498.560    89773081.12247
  23726474.520   124683469.94508  23726472.520    97155936.65545
  23310094.980   122495370.12308  23310091.560    95450931.08446
  24735137.080   129984128.77507  24735134.020   101286374.54044
  20505795.620   107758702.09209  20505790.640    83967811.91149
  21749214.920   114293027.18909  21749209.700    89059537.58747
  20717759.580   108872591.04209  20717759.000    84835796.05949
  21319602.020   112035318.11409  21319600.240    87300269.86648
 15 02 27 03 29  0.0000000  0 10G01G04G11G14G16G18G19G22G27G32
  22888503.680   120279917.41408  22888504.340    93724618.03346
  20894599.380   109801900.88909  20894596.940    85559932.35948
  21910503.640   115140495.27409  21910500.480    89719856.14347
  23715710.520   124626904.41208  23715708.220    97111859.62745
  23330043.380   122600199.53908  23330039.940    95532616.32446
  24752601.240   130075904.20407  24752598.040   101357887.96843
  20503287.760   107745522.97209  20503282.780    83957542.46949
  21761239.500   114356216.22409  21761234.080    89108775.80447
  20724325.380   108907094.21009  20724324.720    84862681.63449
  21303811.300   111952337.65909  21303809.560    87235609.78048
 15 02 27 03 29 30.0000000  0 10G01G04G11G14G16G18G19G22G27G32
  22875983.380   120214122.95308  22875984.160    93673349.64546
  20887439.180   109764273.88709  20887436.800    85530612.63748
  21897538.580   115072363.75209  21897535.560    89666766.66247
  23705002.340   124570632.54908  23704999.980    97068011.43645
  23350019.140   122705172.98908  23350015.760    95614413.79046
  24770083.380   130167773.60907  24770080.420   101429474.55544
  20500848.240   107732702.99509  20500843.220    83947552.87749
  21773332.000   114419762.24109  21773326.660    89158292.17448
  20730966.940   108941995.70409  20730966.300    84889877.59549
  21288103.260   111869791.60909  21288101.560    87171288.19748
 15 02 27 03 30  0.0000000  0 10G01G04G11G14G16G18G19G22G27G32
  22863494.080   120148491.41708  22863495.100    93622208.20747
  20880329.680   109726913.18909  20880327.280    85501500.41748
  21884607.080   115004408.39209  21884604.100    89613814.43547
  23694350.840   124514658.76208  23694348.720    97024395.52745
  23370022.080   122810289.04108  23370018.700    95696322.37946
  24787583.400   130259736.55907  24787580.680   101501133.90444
  20498477.680   107720245.18009  20498472.540    83937845.48449
  21785492.260   114483664.78609  21785486.940    89208086.35747
  20737684.680   108977297.46609  20737684.060    84917385.46149
  21272478.660   111787683.79809  21272476.980    87107308.10248
 15 02 27 03 30 30.0000000  0 10G01G04G11G14G16G18G19G22G27G32
  22851034.940   120083018.57608  22851036.080    93571190.42147
  20873270.000   109689814.57509  20873267.640    85472592.42148
  21871708.400   114936625.50609  21871705.460    89560996.60347
  23683755.700   124458981.46908  23683753.980    96981010.63846
  23390051.060   122915541.86008  23390047.680    95778337.53646
  24805100.160   130351786.88407  24805097.380   101572861.35045
  20496175.400   107708146.45409  20496170.220    83928417.90149
  21797719.220   114547917.65009  21797713.960    89258153.52448
  20744477.820   109012995.50609  20744477.220    84945202.10749
  21256937.060   111706012.19109  21256935.400    87043667.89748
 15 02 27 03 31  0.0000000  0 10G01G04G11G14G16G18G19G22G27G32
  22838606.400   120017706.66408  22838607.600    93520298.05947
  20866260.640   109652980.26309  20866258.280    85443890.37648
  21858843.160   114869018.33109  21858840.220    89508315.69047
  23673218.000   124403605.87908  23673216.400    96937860.84346
  23410105.800   123020930.41408  23410102.440    95860458.46246
  24822633.600   130443925.02107  24822630.780   101644657.29544
  20493942.180   107696410.50409  20493936.920    83919272.99749
  21810012.880   114612521.07509  21810007.520    89308493.86148
  20751346.880   109049092.53109  20751346.240    84973329.64949
  21241479.340   111624781.51909  21241477.680    86980371.28848
 15 02 27 03 31 30.0000000  0 10G01G04G11G14G16G18G19G22G27G32
  22826208.380   119952555.13108  22826209.680    93469530.63946
  20859301.380   109616409.40909  20859299.080    85415393.62348
  21846011.320   114801587.05609  21846008.500    89455771.85447
  23662738.160   124348534.27908  23662736.480    96894947.93546
  23430185.740   123126451.19708  23430182.500    95942682.41546
  24840183.240   130536148.56007  24840180.200   101716519.83043
  20491778.060   107685037.87709  20491772.820    83910411.21849
  21822372.700   114677472.41509  21822367.380    89359105.28548
  20758291.800   109085588.15809  20758291.080    85001767.79049
  21226105.820   111543993.33309  21226104.180    86917419.47048
 15 02 27 03 32  0.0000000  0 10G01G04G11G14G16G18G19G22G27G32
  22813840.980   119887564.37608  22813842.240    93418888.51947
  20852392.380   109580102.58209  20852390.060    85387102.59948
  21833213.180   114734332.75809  21833210.440    89403365.91747
  23652316.800   124293769.66008  23652315.040    96852274.21446
  23450290.380   123232101.65208  23450287.080    96025007.42445
  24857748.740   130628456.27706  24857745.600   101788447.88844
  20489683.420   107674030.13809  20489678.120    83901833.74949
  21834798.320   114742769.57009  21834792.940    89409986.19148
  20765312.660   109122483.04509  20765311.920    85030517.03249
  21210817.020   111463650.05209  21210815.340    86854814.33448
 15 02 27 03 32 30.0000000  0 10G01G04G11G14G16G18G19G22G27G32
  22801504.320   119822734.73308  22801505.420    93368371.92746
  20845533.680   109544060.01009  20845531.360    85359017.49248
  21820449.040   114667256.69909  21820446.240    89351098.86747
  23641954.380   124239314.88808  23641952.680    96809841.95346
  23470419.380   123337880.14508  23470415.980    96107432.19545
  24875329.720   130720846.44607  24875326.940   101860440.20143
  20487658.460   107663388.87809  20487653.100    83893541.86649
  21847289.480   114808411.31909  21847284.280    89461135.59448
  20772409.580   109159777.71609  20772408.920    85059577.81149
  21195613.440   111383754.44809  21195611.700    86792558.03748
 15 02 27 03 33  0.0000000  0 10G01G04G11G14G16G18G19G22G27G32
  22789198.020   119758064.33208  22789199.100    93317979.42847
  20838724.840   109508279.44309  20838722.520    85331136.54748
  21807718.540   114600357.58309  21807715.740    89298969.69447
  23631651.060   124185171.09108  23631649.420    96767652.00246
  23490571.720   123443781.27308  23490568.300    96189952.52745
  24892925.940   130813315.52907  24892923.260   101932494.01044
  20485703.080   107653113.36009  20485697.640    83885534.96349
  21859845.400   114874393.44409  21859840.160    89512550.23747
  20779582.260   109197470.57809  20779581.700    85088948.85349
  21180495.040   111304306.58309  21180493.260    86730650.61948
 15 02 27 03 33 30.0000000  0 10G01G04G11G14G16G18G19G22G27G32
  22776922.300   119693554.50708  22776923.260    93267712.05147
  20831966.120   109472762.59209  20831963.880    85303461.08748
  21795022.080   114533637.46409  21795019.340    89246980.00147
  23621407.660   124131342.28108  23621406.100    96725707.50545
  23510747.260   123549804.33508  23510743.820    96272567.87245
  24910537.100   130905862.89707  24910534.480   102004608.83544
  20483817.840   107643206.39109  20483812.340    83877815.24549
  21872465.960   114940715.33109  21872460.840    89564229.61548
  20786831.060   109235563.16809  20786830.560    85118631.37949
  21165462.520   111225310.13109  21165460.760    86669094.95048
 15 02 27 03 34  0.0000000  0  9G01G04G11G14G16G19G22G27G32
  22764677.380   119629207.10808  22764678.400    93217571.23247
  20825257.860   109437510.84409  20825255.700    85275992.20648
  21782360.220   114467099.30909  21782357.620    89195132.10647
  23611225.140   124077833.04008  23611223.680    96684012.01746
  23530945.760   123655948.16908  23530942.400    96355277.32545
  20482003.280   107633670.82209  20481997.760    83870384.92949
  21885151.120   115007376.67609  21885146.080    89616173.52247
  20794156.340   109274057.55409  20794155.840    85148626.99249
  21150516.620   111146769.00409  21150514.880    86607894.08648
 15 02 27 03 34 30.0000000  0  9G01G04G11G14G16G19G22G27G32
  22752462.380   119565016.75008  22752463.380    93167552.79047
  20818599.080   109402519.13209  20818597.020    85248725.94648
  21769732.120   114400738.34209  21769729.520    89143422.27047
  23601103.060   124024640.65608  23601101.360    96642563.42146
  23551165.660   123762204.72908  23551162.380    96438074.62345
  20480258.600   107624502.65109  20480253.080    83863240.90349
  21897899.500   115074370.16409  21897894.600    89668376.23247
  20801557.080   109312948.51309  20801556.540    85178931.62149
  21135656.720   111068679.95809  21135655.000    86547045.49548
 15 02 27 03 35  0.0000000  0 10G01G03G04G11G14G16G19G22G27G32
  22740277.720   119500985.87708  22740278.700    93117658.62347
  24631365.320   129438697.03008  24631366.980   100861326.27145
  20811990.160   109367789.50409  20811988.220    85221663.91148
  21757138.440   114334557.81309  21757135.700    89091853.03347
  23591042.280   123971770.46208  23591040.440    96601365.88345
  23571406.940   123868573.36508  23571403.740    96520959.24446
  20478584.500   107615705.54809  20478579.060    83856386.02249
  21910711.200   115141695.81309  21910706.200    89720837.77247
  20809033.760   109352238.67409  20809033.160    85209547.32149
  21120883.720   110991047.56609  21120882.020    86486552.73048
 15 02 27 03 35 30.0000000  0 10G01G03G04G11G14G16G19G22G27G32
  22728124.980   119437122.97008  22728125.980    93067895.33047
  24610686.300   129330029.10508  24610688.620   100776650.24945
  20805432.740   109333330.38909  20805430.860    85194812.65648
  21744580.840   114268567.05609  21744578.120    89040431.66847
  23581044.720   123919232.97108  23581042.780    96560427.60245
  23591670.720   123975060.20908  23591667.580    96603935.97545
  20476982.820   107607288.94409  20476977.420    83849827.62349
  21923587.300   115209360.05209  21923582.280    89773563.14948
  20816588.020   109391936.69909  20816587.380    85240480.83049
  21106199.640   110913882.38809  21106197.940    86426424.02648
 15 02 27 03 36  0.0000000  0 10G01G03G04G11G14G16G19G22G27G32
  22716000.980   119373411.30408  22716001.960    93018249.90447
  24590024.780   129221453.05708  24590027.360   100692045.79245
  20798923.680   109299125.33709  20798921.840    85168159.37548
  21732056.340   114202750.04409  21732053.540    88989145.69047
  23571107.880   123867014.67708  23571105.780    96519738.03645
  23611953.240   124081645.78108  23611950.180    96686989.63946
  20475450.600   107599237.23409  20475445.260    83843553.55949
  21936524.280   115277344.12209  21936519.160    89826537.74747
  20824216.720   109432026.07509  20824216.120    85271719.29249
  21091601.660   110837169.76909  21091600.000    86366647.97648
 15 02 27 03 36 30.0000000  0 10G01G03G04G11G14G16G19G22G27G32
  22703907.700   119309860.74608  22703908.660    92968730.00447
  24569383.080   129112980.66707  24569385.560   100607522.08146
  20792464.760   109265183.67509  20792462.920    85141711.33548
  21719566.900   114137117.30209  21719564.020    88938003.30247
  23561234.200   123815128.12808  23561231.880    96479306.98445
  23632255.900   124188337.13208  23632252.880    96770125.72346
  20473989.980   107591561.94709  20473984.700    83837572.81849
  21949523.640   115345655.89709  21949518.440    89879767.69647
  20831921.780   109472516.74809  20831921.260    85303270.46549
  21077092.100   110760921.60909  21077090.380    86307233.84648
 15 02 27 03 37  0.0000000  0 10G01G03G04G11G14G16G19G22G27G32
  22691844.880   119246469.98408  22691845.780    92919334.61347
  24548761.200   129004612.74108  24548763.560   100523079.78546
  20786055.760   109231504.32309  20786053.880    85115467.69148
  21707112.480   114071668.66009  21707109.580    88887004.37148
  23551423.880   123763574.63808  23551421.540    96439135.45545
  23652577.840   124295129.95708  23652574.920    96853340.88545
  20472600.960   107584262.69009  20472595.720    83831885.08149
  21962584.700   115414291.91009  21962579.440    89933250.30547
  20839703.080   109513407.57709  20839702.540    85335133.43249
  21062671.080   110685138.76309  21062669.380    86248182.28248
 15 02 27 03 37 30.0000000  0 10G01G03G04G11G14G16G19G22G27G32
  22679812.880   119183240.61408  22679813.600    92870064.97847
  24528159.800   128896352.92308  24528162.080   100438721.72346
  20779697.020   109198088.80609  20779695.080    85089429.63648
  21694693.560   114006406.51909  21694690.560    88836150.77347
  23541677.820   123712358.50308  23541675.480    96399226.77846
  23672919.000   124402023.64808  23672916.120    96936634.63846
  20471284.060   107577342.34609  20471278.860    83826492.60049
  21975707.360   115483251.71009  21975702.000    89986985.21047
  20847560.860   109554700.27909  20847560.300    85367309.54949
  21048339.300   110609824.80609  21048337.580    86189496.09248
 15 02 27 03 38  0.0000000  0 10G01G03G04G11G14G16G19G22G27G32
  22667811.000   119120169.48908  22667811.540    92820918.65947
  24507578.720   128788200.17008  24507581.040   100354447.07645
  20773387.880   109164933.71509  20773385.840    85063594.51648
  21682309.700   113941328.53809  21682306.620    88785440.66448
  23531995.740   123661479.04908  23531993.400    96359580.47245
  23693278.260   124509012.14208  23693275.480    97020002.26545
  20470038.860   107570798.57709  20470033.660    83821393.56349
  21988890.700   115552530.06109  21988885.340    90040968.33947
  20855494.520   109596391.83409  20855493.940    85399796.46949
  21034096.540   110534978.61809  21034094.780    86131174.40348
 15 02 27 03 38 30.0000000  0 10G01G03G04G11G14G16G19G22G27G32
  22655839.400   119057257.89408  22655839.820    92771896.66147
  24487018.660   128680157.68408  24487020.960   100270258.33246
  20767128.580   109132040.36209  20767126.440    85037963.34048
  21669961.280   113876436.57209  21669958.040    88734875.50847
  23522378.420   123610940.16708  23522376.060    96320199.54145
  23713655.340   124616094.15508  23713652.700    97103442.74546
  20468865.820   107564634.03409  20468860.600    83816590.02149
  22002134.360   115622125.97709  22002129.100    90095198.92147
  20863504.320   109638483.57009  20863503.740    85432595.22649
  21019943.400   110460603.45509  21019941.600    86073219.74548
 15 02 27 03 39  0.0000000  0 10G01G03G04G11G14G16G19G22G27G32
  22643898.640   118994508.60608  22643899.000    92723001.11847
  24466480.520   128572230.36008  24466482.920   100186159.34446
  20760919.600   109099411.48209  20760917.380    85012538.24548
  21657648.920   113811734.29709  21657645.540    88684458.15947
  23512826.940   123560747.52108  23512824.860    96281088.40646
  23734050.220   124723269.69708  23734047.620    97186956.11945
  20467765.640   107558852.62209  20467760.420    83812085.01549
  22015438.580   115692040.17509  22015433.260    90149677.52147
  20871590.820   109680978.42209  20871590.260    85465708.08949
  21005880.800   110386704.08809  21005879.000    86015635.83248
 15 02 27 03 39 30.0000000  0 10G01G03G04G11G14G16G19G22G27G32
  22631987.660   118931916.03908  22631988.080    92674227.72247
  24445963.660   128464414.65208  24445966.020   100102147.28446
  20754759.880   109067041.53009  20754757.600    84987314.91448
  21645371.720   113747217.15009  21645368.200    88634185.06947
  23503340.840   123510897.93708  23503338.960    96242244.58945
  23754461.380   124830530.45908  23754458.740    97270535.90445
  20466737.580   107553450.28309  20466732.420    83807875.39849
  22028801.820   115762264.68309  22028796.580    90204397.91247
  20879753.000   109723870.87009  20879752.480    85499130.76249
  20991908.100   110313276.99309  20991906.300    85958419.93348
 15 02 27 03 40  0.0000000  0 10G01G03G04G11G14G16G19G22G27G32
  22620107.220   118869483.70308  22620107.620    92625579.15147
  24425469.100   128356716.08708  24425471.580   100018226.51746
  20748649.980   109034933.69209  20748647.760    84962295.82548
  21633130.520   113682889.28809  21633126.880    88584059.46747
  23493921.340   123461397.66508  23493919.400    96203672.95946
  23774888.840   124937876.99208  23774886.120    97354182.51645
  20465782.480   107548431.41909  20465777.360    83803964.58749
  22042224.400   115832801.37109  22042219.200    90259361.55347
  20887991.540   109767164.49009  20887991.080    85532866.04049
  20978026.280   110240327.57409  20978024.500    85901576.23648
 15 02 27 03 40 30.0000000  0 10G01G03G04G11G14G16G19G22G27G32
  22608256.760   118807208.73408  22608257.020    92577053.22447
  24404996.760   128249133.89707  24404999.140    99934396.42546
  20742589.380   109003085.18909  20742587.260    84937478.82348
  21620924.920   113618748.53809  21620921.220    88534079.67847
  23484568.260   123412246.49308  23484566.140    96165373.36746
  23795331.640   125045304.03008  23795328.920    97437891.85545
  20464900.020   107543794.20809  20464894.960    83800351.17149
  22055705.460   115903645.32409  22055700.380    90314564.61947
  20896305.860   109810856.41309  20896305.440    85566911.69549
  20964235.220   110167854.96409  20964233.420    85845104.08948
 15 02 27 03 41  0.0000000  0 10G01G03G04G11G14G16G19G22G27G32
  22596436.800   118745093.72108  22596436.940    92528651.93947
  24384547.460   128141672.54208  24384549.720    99850660.47046
  20736578.620   108971498.44309  20736576.560    84912865.77748
  21608755.720   113554798.87609  21608751.980    88484248.78947
  23475282.460   123363449.35308  23475280.360    96127349.63846
  23815789.740   125152811.29808  23815786.960    97521663.71846
  20464090.900   107539542.41709  20464085.880    83797038.08949
  22069245.100   115974796.66809  22069239.960    90370007.21847
  20904696.440   109854949.23809  20904696.020    85601269.74049
  20950535.700   110095863.38509  20950533.920    85789006.76748
 15 02 27 03 41 30.0000000  0 10G01G03G04G11G14G16G19G22G27G32
  22584647.060   118683137.69908  22584647.140    92480374.54247
  24364121.380   128034333.33408  24364123.540    99767019.72046
  20730617.480   108940172.56709  20730615.480    84888456.01048
  21596622.840   113491040.02709  21596619.060    88434566.58447
  23466064.340   123315008.01808  23466062.180    96089603.13946
  23836262.380   125260395.01508  23836259.620    97605495.14845
  20463355.140   107535676.26909  20463350.200    83794025.50049
  22082842.700   116046252.33609  22082837.520    90425686.95847
  20913163.120   109899442.17309  20913162.680    85635939.54549
  20936927.980   110024354.19209  20936926.180    85733285.33648
 15 02 27 03 42  0.0000000  0 10G01G03G04G11G14G16G19G22G27G32
  22572887.760   118621342.40808  22572887.860    92432222.39547
  24343719.240   127927119.85408  24343721.320    99683476.91246
  20724706.280   108909109.16909  20724704.320    84864250.77548
  21584526.720   113427474.38509  21584522.900    88385034.93347
  23456914.720   123266926.69308  23456912.640    96052137.17746
  23856749.360   125368054.36908  23856746.600    97689385.51345
  20462693.280   107532198.32309  20462688.360    83791315.41249
  22096498.080   116118011.90009  22096492.940    90481603.49747
  20921706.360   109944336.84409  20921705.820    85670922.41049
  20923412.700   109953330.79609  20923410.840    85677942.44248
 15 02 27 03 42 30.0000000  0 10G01G03G04G11G14G16G19G22G27G32
  22561158.540   118559705.31608  22561158.520    92384193.51847
  24323340.920   127820031.70108  24323342.980    99600031.75346
  20718844.520   108878305.65409  20718842.620    84840248.03548
  21572467.100   113364100.39909  21572463.240    88335652.61347
  23447833.620   123219205.52708  23447831.660    96014951.86546
  23877249.780   125475784.30908  23877246.960    97773330.87245
  20462105.100   107529107.47209  20462100.160    83788906.94449
  22110210.400   116190070.94109  22110205.360    90537753.38947
  20930325.580   109989630.80209  20930325.040    85706216.39049
  20909989.720   109882792.57309  20909987.800    85622977.60148
 15 02 27 03 43  0.0000000  0 10G01G03G04G11G14G16G19G22G27G32
  22549459.400   118498226.36208  22549459.420    92336287.85547
  24302986.780   127713070.78507  24302988.860    99516685.74746
  20713032.180   108847761.88509  20713030.380    84816447.69148
  21560444.020   113300918.66409  21560440.060    88286420.09747
  23438821.620   123171846.95008  23438819.480    95978049.07846
  23897763.060   125583582.06608  23897760.200    97857329.07546
  20461590.740   107526404.51809  20461585.840    83786800.74549
  22123979.400   116262427.26909  22123974.300    90594134.92347
  20939020.720   110035323.92909  20939020.220    85741821.41449
  20896659.420   109812741.40809  20896657.460    85568392.28848
 15 02 27 03 43 30.0000000  0 10G01G03G04G11G14G16G19G22G27G32
  22537790.640   118436907.15308  22537790.760    92288506.66647
  24282657.520   127606240.70608  24282659.480    99433441.70046
  20707269.640   108817479.55909  20707267.880    84792851.07348
  21548458.000   113237931.97209  21548454.000    88237339.56447
  23429879.380   123124855.01708  23429876.980    95941431.99245
  23918288.960   125691446.19408  23918286.240    97941379.00546
  20461150.780   107524092.61209  20461145.940    83784999.25849
  22137804.880   116335080.33409  22137799.640    90650747.69647
  20947792.080   110081417.81009  20947791.620    85777738.71649
  20883422.420   109743180.64509  20883420.440    85514189.10648
 15 02 27 03 44  0.0000000  0 10G01G03G04G11G14G16G19G22G27G32
  22526151.960   118375746.21508  22526152.200    92240848.82147
  24262353.360   127499542.07708  24262355.220    99350300.05446
  20701556.560   108787457.01109  20701554.760    84769456.89448
  21536508.920   113175139.52409  21536504.960    88188410.39947
  23421007.140   123078230.98408  23421004.820    95905101.59345
  23938826.880   125799373.25508  23938824.220    98025477.97245
  20460785.100   107522171.02709  20460780.300    83783501.91549
  22151686.040   116408026.10909  22151680.680    90707588.55447
  20956639.400   110127910.93309  20956639.000    85813967.12149
  20870278.780   109674110.52909  20870276.780    85460368.25148
 15 02 27 03 44 30.0000000  0 10G01G03G04G11G14G16G19G22G27G32
  22514543.660   118314744.68108  22514544.040    92193315.16047
  24242074.740   127392978.01708  24242076.700    99267263.27946
  20695893.120   108757695.24409  20695891.220    84746265.90548
  21524597.140   113112543.37609  21524593.320    88139634.18147
  23412205.500   123031978.29308  23412203.320    95869060.54746
  23959376.380   125907361.23408  23959373.660    98109624.39545
  20460494.120   107520642.06409  20460489.340    83782310.51349
  22165622.880   116481264.29309  22165617.380    90764657.26347
  20965562.900   110174804.36309  20965562.480    85850507.43649
  20857229.120   109605534.18509  20857227.100    85406932.14148
 15 02 27 03 45  0.0000000  0 10G01G03G04G11G14G16G19G22G27G32
  22502965.620   118253901.99808  22502966.060    92145905.29847
  24221822.040   127286550.05308  24221823.940    99184332.55046
  20690279.200   108728193.69009  20690277.240    84723277.68548
  21512722.800   113050144.07009  21512719.180    88091011.35848
  23403474.820   122986098.82708  23403472.700    95833310.33145
  23979936.840   126015407.04608  23979934.060    98193815.89045
  20460277.940   107519506.17809  20460273.200    83781425.40849
  22179614.800   116554791.89309  22179609.320    90821951.48847
  20974562.540   110222097.57209  20974562.060    85887359.28149
  20844273.640   109537452.75909  20844271.660    85353881.69848
 15 02 27 03 45 30.0000000  0 10G01G03G04G11G14G16G19G22G27G32
  22491417.580   118193216.89108  22491418.120    92098618.21747
  24201595.340   127180258.72908  24201597.220    99101508.28346
  20684714.540   108698950.89409  20684712.500    84700491.09748
  21500885.820   112987941.00609  21500882.400    88042541.45047
  23394815.400   122940593.89108  23394813.540    95797851.94945
  24000507.480   126123506.37308  24000504.740    98278049.09346
  20460136.480   107518762.93709  20460131.760    83780846.26049
  22193661.100   116628605.34509  22193655.660    90879468.45647
  20983637.980   110269789.09509  20983637.460    85924521.49849
  20831412.400   109469866.70709  20831410.480    85301217.24448
 15 02 27 03 46  0.0000000  0 10G01G03G04G11G14G16G19G22G27G32
  22479899.860   118132691.24208  22479900.520    92051455.38547
  24181395.420   127074108.07408  24181397.300    99018793.63446
  20679199.520   108669969.00309  20679197.380    84677907.80948
  21489086.820   112925937.09509  21489083.480    87994226.72247
  23386228.100   122895467.77908  23386226.580    95762688.75545
  24021088.180   126231658.68408  24021085.540    98362323.56645
  20460070.440   107518415.75509  20460065.680    83780575.72649
  22207761.700   116702704.39109  22207756.260    90937207.95947
  20992789.500   110317880.82209  20992789.000    85961995.56449
  20818646.120   109402779.77609  20818644.300    85248941.72348
 15 02 27 03 46 30.0000000  0 10G01G03G04G11G14G16G19G22G27G32
  22468411.820   118072321.34708  22468412.540    92004413.91647
  24161221.980   126968096.37508  24161223.760    98936187.25946
  20673733.360   108641243.94709  20673731.080    84655524.65948
  21477325.120   112864129.22509  21477321.900    87946064.75447
  23377712.820   122850719.31808  23377711.200    95727819.83345
  24041677.760   126339857.55808  24041675.100    98446634.32745
  20460079.240   107518461.71009  20460074.400    83780611.53049
  22221915.700   116777083.73209  22221910.140    90995165.89047
  21002016.380   110366368.89309  21002016.000    85999778.46549
  20805974.440   109336189.96109  20805972.720    85197053.57048
 15 02 27 03 47  0.0000000  0 10G01G03G04G11G14G16G19G22G27G32
  22456954.040   118012110.51708  22456954.780    91957496.41547
  24141075.940   126862228.91408  24141077.640    98853693.27146
  20668316.700   108612779.24009  20668314.320    84633344.37648
  21465601.580   112802521.90909  21465598.480    87898059.06847
  23369270.620   122806354.47008  23369268.580    95693249.83346
  24062276.360   126448103.85308  24062273.540    98530982.03845
  20460163.640   107518905.20909  20460158.800    83780957.10749
  22236123.100   116851744.15409  22236117.460    91053342.82847
  21011319.300   110415256.50609  21011319.020    86037872.71049
  20793398.320   109270102.20409  20793396.640    85145556.62348
 15 02 27 03 47 30.0000000  0 10G01G03G04G11G14G16G19G22G27G32
  22445526.380   117952057.81908  22445527.120    91910702.11747
  24120957.560   126756506.72308  24120959.240    98771312.48046
  20662949.320   108584573.46609  20662946.900    84611365.86348
  21453916.260   112741115.12509  21453913.140    87850209.63647
  23360901.580   122762374.57608  23360899.380    95658979.79645
  24082883.300   126556393.91708  24082880.540    98615363.84945
  20460323.680   107519746.30109  20460318.860    83781612.51049
  22250383.380   116926682.57609  22250377.680    91111736.41147
  21020698.140   110464542.58209  21020697.840    86076277.44249
  20780917.960   109204517.29409  20780916.240    85094451.51448
 15 02 27 03 48  0.0000000  0 10G01G03G04G11G14G16G19G22G27G32
  22434129.060   117892164.43508  22434129.720    91864031.97448
  24100867.440   126650933.00008  24100869.040    98689047.37046
  20657631.540   108556628.21709  20657629.060    84589590.34648
  21442269.400   112679910.43409  21442266.240    87802517.68548
  23352606.420   122718783.03708  23352604.040    95625012.37846
  24103498.180   126664726.12108  24103495.520    98699778.49646
  20460559.880   107520987.31709  20460555.040    83782579.52349
  22264696.400   117001898.13509  22264690.740    91170345.92447
  21030153.060   110514228.19109  21030152.680    86114993.49149
  20768533.840   109139438.06509  20768532.040    85043740.43948
 15 02 27 03 48 30.0000000  0 10G01G03G04G11G14G16G19G22G27G32
  22422761.720   117832428.48708  22422762.260    91817484.49247
  24080805.680   126545507.87108  24080807.180    98606898.04446
  20652362.920   108528941.37409  20652360.480    84568016.19348
  21430661.040   112618907.54409  21430657.800    87754982.97147
  23344385.300   122675580.54708  23344383.000    95591348.12646
  24124120.240   126773095.91908  24124117.660    98784222.44645
  20460871.900   107522627.07509  20460867.120    83783857.25249
  22279061.380   117077386.63509  22279055.900    91229168.13047
  21039683.640   110564311.22309  21039683.140    86154019.23249
  20756245.920   109074864.34109  20756244.000    84993423.26648
 15 02 27 03 49  0.0000000  0 10G01G03G04G11G14G16G19G22G27G32
  22411424.280   117772850.01908  22411424.820    91771059.73147
  24060772.540   126440233.27008  24060773.960    98524866.01046
  20647143.420   108501512.73209  20647140.960    84546643.23048
  21419091.260   112558107.04909  21419087.940    87707605.97548
  23336238.660   122632769.46008  23336236.440    95557988.84446
  24144748.940   126881500.64508  24144746.420    98868693.60645
  20461260.040   107524666.79109  20461255.260    83785446.63549
  22293477.980   117153146.24309  22293472.580    91288201.58047
  21049289.740   110614791.69009  21049289.200    86193354.64649
  20744054.460   109010797.64009  20744052.460    84943501.17348
 15 02 27 03 49 30.0000000  0 10G01G03G04G11G14G16G19G22G27G32
  22400117.220   117713431.32208  22400117.700    91724759.46448
  24040768.800   126335113.53508  24040770.200    98442954.64746
  20641973.460   108474344.78009  20641971.100    84525473.40548
  21407560.700   112497512.41409  21407557.280    87660389.38348
  23328167.420   122590354.39508  23328165.100    95524938.16645
  24165384.300   126989940.49908  24165381.840    98953192.13845
  20461724.900   107527109.87009  20461720.180    83787350.32449
  22307946.100   117229176.91609  22307940.720    91347446.25047
  21058971.740   110665671.56309  21058971.340    86233001.28549
  20731960.200   108947242.06609  20731958.200    84893977.35848
 15 02 27 03 50  0.0000000  0 10G01G03G04G11G14G16G19G22G27G32
  22388839.780   117654168.35608  22388840.260    91678580.53747
  24020794.120   126230146.51908  24020795.540    98361162.28646
  20636852.280   108447433.44909  20636850.140    84504503.55948
  21396068.680   112437120.35409  21396065.120    87613330.65348
  23320171.220   122548333.65208  23320168.800    95492194.74746
  24186025.020   127098408.29908  24186022.600    99037712.44445
  20462265.940   107529953.23009  20462261.260    83789565.92849
  22322464.600   117305472.61109  22322459.240    91406897.43547
  21068728.920   110716946.65009  21068728.720    86272955.88749
  20719962.720   108884195.14309  20719960.780    84844849.90048
 15 02 27 03 50 30.0000000  0 10G01G03G04G11G14G16G19G22G27G32
  22377592.460   117595063.60308  22377593.000    91632524.90648
  24000849.340   126125336.72608  24000850.780    98279492.41946
  20631780.400   108420780.97609  20631778.420    84483735.40048
  21384615.840   112376934.22209  21384612.140    87566432.37748
  23312250.980   122506712.27408  23312248.320    95459762.52446
  24206671.060   127206903.76908  24206668.660    99122254.33045
  20462883.840   107533200.26409  20462879.180    83792096.07449
  22337033.640   117382033.71409  22337028.300    91466555.43147
  21078561.840   110768619.26409  21078561.700    86313220.24749
  20708062.820   108821660.78109  20708060.920    84796121.83748
 15 02 27 03 51  0.0000000  0 10G01G03G04G11G14G16G19G22G27G32
  22366375.420   117536118.03808  22366375.960    91586593.31848
  23980935.080   126020687.10408  23980936.540    98197947.38246
  20626758.000   108394388.31909  20626756.160    84463169.70248
  21373202.480   112316955.95909  21373198.680    87519696.09048
  23304407.180   122465493.46208  23304404.420    95427643.98446
  24227322.160   127315425.74608  24227319.860    99206816.84345
  20463578.920   107536852.89709  20463574.240    83794942.28449
  22351652.840   117458858.80709  22351647.760    91526419.12547
  21088470.640   110820690.08609  21088470.460    86353794.90849
  20696261.000   108759641.68309  20696259.120    84747795.27648
 15 02 27 03 51 30.0000000  0 10G01G03G04G11G14G16G19G22G27G32
  22355187.860   117477327.33408  22355188.380    91540782.39048
  23961050.900   125916195.22908  23961052.280    98116525.23946
  20621784.220   108368251.09709  20621782.480    84442803.04448
  21361827.940   112257182.16709  21361824.080    87473119.12348
  23296639.640   122424675.04008  23296636.860    95395837.44046
  24247976.920   127423966.95308  24247974.700    99291394.35045
  20464350.540   107540907.65909  20464345.840    83798101.83049
  22366321.120   117535941.79808  22366316.200    91586483.77547
  21098454.420   110873154.57109  21098454.140    86394676.31949
  20684556.680   108698134.89009  20684554.780    84699867.91348
 15 02 27 03 52  0.0000000  0 10G01G03G04G11G14G16G19G22G27G32
  22344030.740   117418696.20708  22344031.220    91495095.80648
  23941198.020   125811867.80908  23941199.380    98035231.24346
  20616859.880   108342373.86509  20616858.240    84422638.96748
  21350493.240   112197618.13709  21350489.380    87426705.60048
  23288949.740   122384264.18808  23288946.960    95364348.46846
  24268635.720   127532529.42508  24268633.520    99375988.41745
  20465199.700   107545370.06209  20465195.020    83801579.02749
  22381039.060   117613285.11309  22381034.240    91646751.28147
  21108513.880   110926017.21109  21108513.580    86435867.98049
  20672951.020   108637146.71609  20672949.080    84652344.67348
 15 02 27 03 52 30.0000000  0 10G01G03G04G11G14G16G19G22G27G32
  22332902.640   117360217.59708  22332903.140    91449528.05847
  23921375.480   125707699.72108  23921376.760    97954061.40146
  20611983.700   108316749.78109  20611982.120    84402672.15748
  21339197.380   112138258.45209  21339193.600    87380451.31248
  23281336.480   122344256.18908  23281333.740    95333173.42946
  24289296.720   127641103.33908  24289294.520    99460591.42245
  20466125.380   107550234.51409  20466120.680    83805369.51549
  22395804.840   117690879.51608  22395799.960    91707214.44847
  21118647.620   110979270.66309  21118647.380    86477364.16749
  20661442.980   108576671.61309  20661441.020    84605221.23048
 15 02 27 03 53  0.0000000  0 10G01G03G04G11G14G16G19G22G27G32
  22321805.620   117301902.25108  22321806.060    91404087.53848
  23901585.640   125603703.62808  23901586.800    97873025.57846
  20607157.740   108291389.28009  20607156.160    84382910.72348
  21327942.580   112079114.57009  21327938.880    87334365.17848
  23273802.260   122304664.18208  23273799.740    95302322.52446
  24309961.580   127749697.43908  24309959.260    99545210.13945
  20467129.680   107555512.26709  20467124.960    83809482.04249
  22410620.020   117768733.94409  22410615.060    91767880.21647
  21128857.740   111032925.34309  21128857.520    86519172.99549
  20650034.840   108516721.78009  20650032.920    84558507.08148
 15 02 27 03 53 30.0000000  0 10G01G03G04G11G14G16G19G22G27G32
  22310738.440   117243743.53808  22310738.700    91358769.06148
  23881827.660   125499874.82408  23881828.760    97792120.08846
  20602380.720   108266285.78409  20602379.120    84363349.56348
  21316727.720   112020180.59509  21316724.000    87288442.61548
  23266346.160   122265483.35708  23266343.960    95271792.03446
  24330628.440   127858302.06408  24330625.980    99629837.05645
  20468211.620   107561197.75609  20468206.880    83813912.29149
  22425482.960   117846839.19708  22425477.900    91828741.43647
  21139142.940   111086974.36009  21139142.740    86561289.10049
  20638725.640   108457291.88709  20638723.760    84512198.08848
 15 02 27 03 54  0.0000000  0 10G01G03G04G11G14G16G19G22G27G32
  22299700.220   117185737.02208  22299700.460    91313569.19448
  23862101.020   125396210.78108  23862102.100    97711343.00046
  20597651.780   108241434.84409  20597650.120    84343985.20548
  21305552.120   111961453.30609  21305548.460    87242681.11048
  23258968.000   122226711.50608  23258966.000    95241580.22946
  24351295.980   127966910.24108  24351293.420    99714466.73645
  20469370.440   107567287.32209  20469365.720    83818657.40249
  22440392.500   117925188.78109  22440387.380    91889793.05747
  21149502.340   111141412.99109  21149502.100    86603708.80249
  20627514.880   108398379.14009  20627513.020    84466292.06348
 15 02 27 03 54 30.0000000  0 11G01G03G04G11G14G16G19G22G27G28G32
  22288692.540   117127891.13108  22288692.740    91268494.48948
  23842407.660   125292721.89608  23842408.680    97630702.38646
  20592972.520   108216844.73409  20592970.720    84324824.08448
  21294417.560   111902941.95709  21294414.040    87197087.86548
  23251669.860   122188359.70308  23251667.820    95211695.71946
  24371965.280   128075527.56308  24371962.720    99799103.53845
  20470607.900   107573790.25309  20470603.200    83823724.61249
  22455349.680   118003788.95609  22455344.560    91951039.92847
  21159937.380   111196249.29909  21159937.140    86646438.38349
  25080437.080   131798582.44707  25080434.780   102700191.04245
  20616404.440   108339993.29209  20616402.540    84420796.59948
 15 02 27 03 55  0.0000000  0 11G01G03G04G11G14G16G19G22G27G28G32
  22277714.860   117070202.80008  22277714.980    91223542.54848
  23822747.400   125189406.97408  23822748.320    97550197.31146
  20588342.340   108192512.38509  20588340.320    84305863.81448
  21283323.660   111844644.03909  21283320.240    87151660.91847
  23244451.500   122150426.87308  23244449.240    95182137.67846
  24392635.260   128184148.69108  24392632.680    99883743.31545
  20471923.620   107580704.50209  20471918.940    83829112.32949
  22470353.600   118082634.68009  22470348.460    92012478.13747
  21170447.400   111251479.87409  21170447.180    86689475.17449
  25065238.080   131718709.59208  25065235.580   102637952.47545
  20605393.940   108282132.57209  20605392.000    84375710.32648
 15 02 27 03 55 30.0000000  0 11G01G03G04G11G14G16G19G22G27G28G32
  22266767.100   117012671.91408  22266767.160    91178713.30748
  23803120.620   125086267.83508  23803121.500    97469829.23746
  20583761.140   108168437.64909  20583758.940    84287104.28848
  21272270.600   111786560.78109  21272267.400    87106401.25748
  23237313.360   122112915.15008  23237310.880    95152907.78646
  24413305.280   128292770.35108  24413302.700    99968383.51345
  20473317.720   107588030.53709  20473313.040    83834820.92749
  22485403.920   118161723.90208  22485398.540    92074106.12047
  21181032.360   111307104.30609  21181032.160    86732818.88448
  25050094.960   131639130.95808  25050092.140   102575943.18144
  20594483.620   108224798.29309  20594481.600    84331034.28548
 15 02 27 03 56  0.0000000  0 11G01G03G04G11G14G16G19G22G27G28G32
  22255848.340   116955293.65908  22255848.400    91134002.99648
  23783526.760   124983301.57908  23783527.540    97389595.85147
  20579228.040   108144615.55109  20579225.640    84268541.62248
  21261257.740   111728688.42109  21261254.640    87061305.91948
  23230254.900   122075821.97008  23230252.380    95124004.01446
  24433974.080   128401385.59408  24433971.700   100053018.70045
  20474789.480   107595764.70109  20474784.820    83840847.53849
  22500499.080   118241049.33508  22500493.740    92135918.12647
  21191691.280   111363117.31909  21191691.060    86776465.36548
  25035007.440   131559843.95008  25035004.040   102514161.05844
  20583672.780   108167986.92909  20583670.720    84286765.69848
 15 02 27 03 56 30.0000000  0 11G01G03G04G11G14G16G19G22G27G28G32
  22244959.580   116898073.03308  22244959.580    91089415.50248
  23763967.080   124880515.03508  23763967.860    97309502.51146
  20574743.960   108121051.07609  20574741.500    84250179.70248
  21250286.180   111671032.66509  21250283.100    87016379.36447
  23223277.300   122039154.02408  23223274.800    95095431.59546
  24454642.200   128509997.03408  24454639.860   100137650.92045
  20476340.000   107603912.70209  20476335.320    83847196.63249
  22515639.720   118320613.88009  22515634.120    92197916.47246
  21202425.060   111419523.58809  21202424.820    86820418.28548
  25019976.720   131480855.66708  25019972.500   102452611.62644
  20572962.660   108111704.85109  20572960.600    84242909.54348
 15 02 27 03 57  0.0000000  0 11G01G03G04G11G14G16G19G22G27G28G32
  22234101.220   116841011.85808  22234101.140    91044952.26148
  23744442.280   124777911.96508  23744443.140    97229552.13546
  20570309.200   108097745.95509  20570306.640    84232019.87148
  21239356.480   111613596.59909  21239353.360    86971623.99447
  23216381.320   122002915.59908  23216378.940    95067193.87546
  24475309.320   128618603.05708  24475306.940   100222278.93245
  20477969.780   107612477.18309  20477965.040    83853870.24349
  22530825.900   118400417.41109  22530820.360    92260101.04247
  21213233.940   111476324.51809  21213233.720    86864678.73748
  25005003.460   131402170.38907  25004999.160   102391298.37945
  20562353.820   108055955.16709  20562351.840    84199468.23948
 15 02 27 03 57 30.0000000  0 11G01G03G04G11G14G16G19G22G27G28G32
  22223273.500   116784111.58208  22223273.440    91000614.40248
  23724953.040   124675495.69608  23724954.000    97149747.30946
  20565924.040   108074701.71809  20565921.480    84214063.33548
  21228469.020   111556382.35309  21228465.800    86927041.47348
  23209567.680   121967110.28908  23209565.500    95039293.64246
  24495975.360   128727203.22908  24495972.860   100306902.37545
  20479679.260   107621460.39509  20479674.500    83860870.14949
  22546057.260   118480459.08708  22546051.820    92322471.15647
  21224118.140   111533521.15109  21224117.920    86909247.53548
  24990087.640   131323791.73206  24990084.780   102330224.31845
  20551846.860   108000740.59109  20551844.880    84156443.90548
 15 02 27 03 58  0.0000000  0 11G01G03G04G11G14G16G19G22G27G28G32
  22212474.760   116727363.28509  22212474.580    90956394.97248
  23705497.980   124573259.17608  23705498.940    97070082.56246
  20561586.660   108051909.13709  20561584.220    84196302.88348
  21217622.300   111499381.98109  21217618.920    86882625.60148
  23202835.240   121931731.22808  23202833.220    95011725.56746
  24516638.040   128835786.18208  24516635.660   100391512.40544
  20481466.940   107630854.52509  20481462.140    83868190.24449
  22561331.960   118560728.02209  22561326.480    92385018.38947
  21235075.860   111591104.14309  21235075.600    86954117.39048
  24975229.820   131245713.55308  24975227.320   102269384.21346
  20541440.300   107946053.44409  20541438.280    84113830.55048
 15 02 27 03 58 30.0000000  0 11G01G03G04G11G14G16G19G22G27G28G32
  22201705.500   116670769.64509  22201705.180    90912296.04548
  23686078.020   124471206.96208  23686078.900    96990561.40546
  20557297.660   108029371.20709  20557295.420    84178740.85948
  21206816.980   111442599.32909  21206813.480    86838379.38947
  23196184.960   121896783.28708  23196183.000    94984493.42446
  24537297.380   128944351.74208  24537294.980   100476108.87145
  20483333.400   107640662.71809  20483328.600    83875832.98349
  22576649.880   118641224.72408  22576644.420    92447743.07347
  21246107.480   111649075.72409  21246107.220    86999290.03848
  24960430.420   131167940.61509  24960427.840   102208781.92846
  20531134.860   107891897.63209  20531132.760    84071631.23248
 15 02 27 03 59  0.0000000  0 11G01G03G04G11G14G16G19G22G27G28G32
  22190966.280   116614334.15109  22190965.880    90868320.35148
  23666694.140   124369344.33208  23666695.020    96911187.98946
  20553057.720   108007090.97609  20553055.640    84161379.64248
  21196053.920   111386038.75909  21196050.340    86794306.21648
  23189617.820   121862271.99008  23189615.900    94957601.52446
  24557953.600   129052900.70508  24557951.300   100560692.43445
  20485279.360   107650888.91409  20485274.600    83883801.44849
  22592011.520   118721950.35809  22592006.140    92510646.16147
  21257213.600   111707438.92309  21257213.400    87044767.84748
  24945690.180   131090478.39708  24945687.220   102148421.72944
  20520931.360   107838277.87209  20520929.220    84029849.61748
 15 02 27 03 59 30.0000000  0 11G01G03G04G11G14G16G19G22G27G28G32
  22180256.780   116558055.40109  22180256.360    90824466.79448
  23647346.480   124267671.90308  23647347.340    96831962.76446
  20548866.640   107985067.35809  20548864.720    84144218.38648
  21185332.980   111329699.84709  21185329.440    86750405.77348
  23183133.780   121828197.87008  23183131.920    94931050.28646
  24578605.780   129161428.49108  24578603.500   100645259.47545
  20487304.800   107661532.60209  20487300.000    83892095.22349
  22607416.000   118802901.86508  22607410.720    92573725.24147
  21268393.940   111766191.94309  21268393.780    87090549.41348
  24931009.000   131013327.85506  24931004.860   102088304.32442
  20510829.820   107785194.00009  20510827.640    83988485.57348
 15 02 27 04 00  0.0000000  0 11G01G03G04G11G14G16G19G22G27G28G32
  22169577.600   116501936.49609  22169577.360    90780737.78248
  23628035.960   124166194.47508  23628036.780    96752889.51547
  20544724.980   107963303.02209  20544723.120    84127259.15748
  21174654.920   111273586.50009  21174651.460    86706681.09748
  23176733.880   121794566.14708  23176731.820    94904843.78046
  24599254.120   129269936.42608  24599251.720   100729811.03544
  20489410.580   107672598.49809  20489405.740    83900717.99549
  22622863.600   118884079.85309  22622858.440    92636980.81646
  21279648.940   111825337.24609  21279648.780    87136636.65048
  24916387.540   130936494.07607  24916384.020   102028433.89844
  20500831.020   107732650.13009  20500828.800    83947542.30648
 15 02 27 04 00 30.0000000  0 11G01G03G04G11G14G16G19G22G27G28G32
  22158926.740   116445966.54609  22158926.640    90737124.83948
  23608760.820   124064903.05908  23608761.620    96673961.18547
  20540630.660   107941787.31509  20540628.880    84110493.67748
  21164017.900   111217688.81609  21164014.580    86663124.46948
  23170416.400   121761368.01708  23170414.000    94878975.12846
  24619896.180   129378411.43608  24619893.800   100814336.95944
  20491594.640   107684075.95009  20491589.840    83909661.45849
  22638351.880   118965471.25609  22638346.820    92700402.67847
  21290976.460   111884863.58709  21290976.240    87183020.79648
  24901825.180   130859969.14308  24901822.280   101968804.09446
  20490933.100   107680636.49009  20490930.900    83907012.20148
 15 02 27 04 01  0.0000000  0 11G01G03G04G11G14G16G19G22G27G28G32
  22148306.660   116390157.91609  22148306.600    90693637.60648
  23589523.760   123963811.78908  23589524.520    96595188.82047
  20536586.040   107920532.35909  20536584.240    84093931.37648
  21153424.580   111162020.39909  21153421.300    86619746.48848
  23164184.160   121728617.47808  23164181.460    94853455.24146
  24640533.800   129486862.77708  24640531.600   100898844.43444
  20493859.520   107695977.77509  20493854.700    83918935.60349
  22653882.700   119047086.41108  22653877.680    92763998.88246
  21302378.740   111944782.70209  21302378.440    87229711.00948
  24887324.500   130783767.31908  24887321.820   101909426.07845
  20481138.680   107629166.68909  20481136.540    83866905.87748
 15 02 27 04 01 30.0000000  0 11G01G03G04G11G14G16G19G22G27G28G32
  22137716.280   116334505.12309  22137716.300    90650271.81348
  23570324.120   123862917.12408  23570324.760    96516569.64747
  20532590.020   107899532.73609  20532588.120    84077568.03948
  21142874.100   111106576.81409  21142870.840    86576543.70848
  23158036.460   121696311.26708  23158033.620    94828281.59546
  24661165.320   129595282.45908  24661163.300   100983327.23345
  20496204.320   107708299.49409  20496199.500    83928536.94649
  22669454.780   119128917.81009  22669449.560    92827763.61447
  21313854.600   112005088.67509  21313854.280    87276702.67648
  24872884.600   130707885.07408  24872881.960   101850297.08345
  20471446.940   107578236.36509  20471444.860    83827219.92248
 15 02 27 04 02  0.0000000  0 11G01G03G04G11G14G16G19G22G27G28G32
  22127155.720   116279009.03409  22127155.760    90607028.12248
  23551162.360   123762221.64008  23551162.960    96438105.68347
  20528642.760   107878789.16409  20528640.720    84061404.21748
  21132366.720   111051359.67609  21132363.440    86533517.36748
  23151973.780   121664452.26508  23151971.120    94803456.40946
  24681790.420   129703668.27308  24681788.660   101067783.64045
  20498629.260   107721042.42609  20498624.420    83938466.49249
  22685067.700   119210964.22708  22685062.600    92891695.86547
  21325404.120   112065781.73809  21325403.820    87323995.96648
  24858506.180   130632325.67308  24858503.440   101791419.57445
  20461858.200   107527847.28009  20461856.160    83787955.70748
 15 02 27 04 02 30.0000000  0 11G01G03G04G11G14G16G19G22G27G28G32
  22116624.820   116223668.82609  22116624.900    90563905.88248
  23532038.680   123661726.39308  23532039.360    96359797.74446
  20524744.080   107858300.81309  20524741.880    84045439.27048
  21121902.500   110996369.31409  21121899.100    86490667.73448
  23145996.480   121633041.70408  23145993.940    94778980.64946
  24702408.600   129812017.59508  24702406.960   101152211.59945
  20501134.320   107734206.42209  20501129.420    83948724.14049
  22700721.000   119293222.49709  22700715.840    92955793.21747
  21337027.040   112126860.57109  21337026.740    87371589.84848
  24844189.600   130557090.58308  24844186.720   101732794.81145
  20452372.520   107477999.69509  20452370.440    83749113.44348
 15 02 27 04 03  0.0000000  0 11G01G03G04G11G14G16G19G22G27G28G32
  22106123.540   116168484.49309  22106123.780    90520905.12148
  23512953.420   123561433.13008  23512954.120    96281647.20647
  20520893.900   107838067.45509  20520891.560    84029673.02348
  21111481.560   110941606.42109  21111478.040    86447995.35248
  23140104.880   121602081.04008  23140102.380    94754855.47546
  24723019.320   129920327.49707  24723017.640   101236608.86445
  20503719.640   107747792.19409  20503714.680    83959310.45049
  22716414.140   119375690.63608  22716408.920    93020054.09447
  21348723.240   112188324.53009  21348722.940    87419483.84048
  24829934.840   130482181.94707  24829932.180   101674424.52545
  20442990.020   107428694.66609  20442987.940    83710693.95248
 15 02 27 04 03 30.0000000  0 11G01G03G04G11G14G16G19G22G27G28G32
  22095651.880   116113455.84709  22095652.260    90478025.66548
  23493906.920   123461343.46708  23493907.600    96203655.30446
  20517092.200   107818089.00609  20517089.780    84014105.40448
  21101103.940   110887071.95109  21101100.400    86405500.97048
  23134299.280   121571572.20608  23134296.880    94731082.37246
  24743621.920   130028595.17408  24743620.380   101320973.18744
  20506385.320   107761800.42109  20506380.360    83970225.94849
  22732146.860   119458366.66408  22732141.660    93084476.97147
  21360492.620   112250172.85109  21360492.280    87467677.32648
  24815742.440   130407601.77708  24815739.860   101616310.12544
  20433710.940   107379932.94009  20433708.840    83672697.81248
 15 02 27 04 04  0.0000000  0 11G01G03G04G11G14G16G19G22G27G28G32
  22085210.360   116058585.27609  22085210.780    90435269.38948
  23474899.940   123361461.58108  23474900.660    96125825.32046
  20513339.400   107798367.96109  20513337.000    83998738.36148
  21090770.400   110832769.48609  21090766.860    86363187.36748
  23128580.460   121541519.39408  23128578.160    94707664.60446
  24764216.540   130136820.59108  24764215.080   101405304.62844
  20509131.960   107776233.95709  20509127.000    83981472.85749
  22747919.040   119541250.33209  22747914.100    93149061.62847
  21372335.520   112312407.32109  21372335.120    87516171.70648
  24801613.580   130333354.77108  24801610.400   101558455.20844
  20424535.880   107331718.00509  20424533.760    83635127.74548
