     2.11           OBSERVATION DATA    G                   RINEX VERSION / TYPE
SPIDER V4,0,0,3554                      2015 03 24 06:20    PGM / RUN BY / DATE 
CNAJ                                                        MARKER NAME         
CNAJ                                                        MARKER NUMBER       
                                                            OBSERVER / AGENCY   
496642              LEICA GRX1200+GNSS  8.10/4.007          REC # / TYPE / VERS 
10321018            LEIAR25         NONE                    ANT # / TYPE        
  5206098.7325   612081.0247  3621806.3029                  APPROX POSITION XYZ 
        0.0720        0.0000        0.0000                  ANTENNA: DELTA H/E/N
     1     1                                                WAVELENGTH FACT L1/2
     4    C1    L1    P2    L2                              # / TYPES OF OBSERV 
    30.000                                                  INTERVAL            
  2015    01    18    00    00    0.0000000     GPS         TIME OF FIRST OBS   
  2015    01    18    23    59   30.0000000     GPS         TIME OF LAST OBS    
    16                                                      LEAP SECONDS        
    30                                                      # OF SATELLITES     
   G 1   817   817   817   817                              PRN / # OF OBS      
   G 2   945   943   944   943                              PRN / # OF OBS      
   G 3   848   848   848   848                              PRN / # OF OBS      
   G 4   842   842   841   841                              PRN / # OF OBS      
   G 5   651   651   651   651                              PRN / # OF OBS      
   G 6   812   812   804   804                              PRN / # OF OBS      
   G 7   668   668   665   665                              PRN / # OF OBS      
   G 9   810   810   808   808                              PRN / # OF OBS      
   G10   760   760   760   760                              PRN / # OF OBS      
   G11   780   780   780   780                              PRN / # OF OBS      
   G12   843   843   841   841                              PRN / # OF OBS      
   G13   800   796   797   796                              PRN / # OF OBS      
   G14   948   948   944   944                              PRN / # OF OBS      
   G15   705   702   697   696                              PRN / # OF OBS      
   G16   665   665   662   662                              PRN / # OF OBS      
   G17   939   939   938   938                              PRN / # OF OBS      
   G18   903   903   902   902                              PRN / # OF OBS      
   G19   759   759   759   759                              PRN / # OF OBS      
   G20   845   845   845   845                              PRN / # OF OBS      
   G21   743   743   741   741                              PRN / # OF OBS      
   G22   655   655   654   654                              PRN / # OF OBS      
   G23   753   753   748   748                              PRN / # OF OBS      
   G24   830   830   830   830                              PRN / # OF OBS      
   G25   862   861   861   860                              PRN / # OF OBS      
   G27   797   796   797   796                              PRN / # OF OBS      
   G28   873   872   869   869                              PRN / # OF OBS      
   G29   774   771   770   770                              PRN / # OF OBS      
   G30   709   709   706   706                              PRN / # OF OBS      
   G31   850   849   848   848                              PRN / # OF OBS      
   G32   773   773   766   766                              PRN / # OF OBS      
BIT 2 OF LLI FLAGS DATA COLLECTED UNDER A/S CONDITION       COMMENT             
SNR is mapped to RINEX snr flag value [2-9]                 COMMENT             
Lx:     = 25dBHz -> 1; 26-27dBHz -> 2; 28-31dBHz -> 3       COMMENT             
       32-35dBHz -> 4; 36-38dBHz -> 5; 39-41dBHz -> 6       COMMENT             
       42-44dBHz -> 7; 45-48dBHz -> 8; >=49dBHz -> 9        COMMENT             
                                                            END OF HEADER       
 15 01 18 00 00  0.0000000  0  7G02G12G14G21G25G29G31
  24177693.620   127054658.79607  24177688.620    99003598.40044
  23083367.540   121304055.42908  23083363.660    94522717.57543
  23283874.120   122357586.55307  23283871.580    95343541.18944
  23219029.440   122016954.90708  23219028.140    95078094.97245
  20858793.940   109613746.19709  20858794.260    85413352.96148
  20160558.480   105944717.24708  20160559.040    82554368.98948
  21695344.460   114009819.50709  21695338.640    88838814.73646
 15 01 18 00 00 30.0000000  0  7G02G12G14G21G25G29G31
  24191460.260   127127002.00607  24191454.660    99059969.72844
  23095781.180   121369289.49508  23095776.800    94573549.33543
  23297364.800   122428483.76406  23297363.460    95398785.71545
  23201906.800   121926973.94908  23201905.460    95007980.01745
  20862640.900   109633962.34709  20862641.280    85429105.80848
  20164144.340   105963559.95408  20164144.640    82569051.61448
  21683548.380   113947832.16209  21683543.040    88790512.90746
 15 01 18 00 01  0.0000000  0  7G02G12G14G21G25G29G31
  24205288.820   127199670.93807  24205282.780    99116594.88644
  23108220.960   121434660.82808  23108216.300    94624488.04644
  23310901.460   122499624.89404  23310901.700    95454220.33244
  23184817.460   121837168.63808  23184815.880    94938001.95744
  20866533.940   109654420.25309  20866534.200    85445047.03148
  20167803.460   105982786.50008  20167803.280    82584033.32848
  21671828.540   113886244.26009  21671823.800    88742522.33447
 15 01 18 00 01 30.0000000  0  7G02G12G14G21G25G29G31
  24219178.000   127272658.90307  24219171.720    99173468.60744
  23120685.980   121500165.66208  23120681.460    94675530.78344
  23324483.180   122571002.62705  23324484.660    95509839.24445
  23167761.240   121747537.60508  23167759.480    94868159.64044
  20870472.260   109675116.25909  20870472.320    85461173.77947
  20171534.660   106002391.01708  20171533.920    82599309.56948
  21660184.600   113825053.80509  21660180.460    88694841.46447
 15 01 18 00 02  0.0000000  0  7G02G12G14G21G25G29G31
  24233126.720   127345959.71107  24233120.360    99230586.09744
  23133175.500   121565799.66008  23133171.320    94726674.15745
  23338109.380   122642609.50407  23338111.160    95565636.70644
  23150737.640   121658078.59008  23150735.540    94798451.38344
  20874455.140   109696046.65309  20874454.900    85477483.16447
  20175336.720   106022367.73508  20175335.420    82614875.83848
  21648616.000   113764258.72009  21648612.340    88647468.66447
 15 01 18 00 02 30.0000000  0  7G02G12G14G21G25G29G31
  24247134.740   127419571.86207  24247128.600    99287946.21644
  23145689.820   121631563.49408  23145686.200    94777918.65045
  23351779.420   122714443.25006  23351780.720    95621611.04045
  23133747.380   121568794.94108  23133744.900    94728879.77044
  20878482.920   109717212.69809  20878482.400    85493976.18247
  20179209.460   106042715.86009  20179207.620    82630731.52248
  21637123.280   113703862.22709  21637119.880    88600406.46048
 15 01 18 00 03  0.0000000  0  7G02G12G14G21G25G29G31
  24261202.980   127493500.67007  24261197.100    99345553.06244
  23158229.920   121697464.54808  23158226.400    94829270.06945
  23365493.640   122786507.41207  23365494.220    95677764.87045
  23116792.180   121479695.81707  23116789.320    94659451.93844
  20882556.960   109738621.76009  20882556.320    85510658.56247
  20183153.760   106063440.28809  20183151.440    82646880.42748
  21625708.080   113643873.40909  21625704.760    88553661.93448
 15 01 18 00 03 30.0000000  0  7G02G12G14G21G25G29G31
  24275330.060   127567739.02907  24275324.540    99403401.09544
  23170795.160   121763497.25008  23170791.900    94880724.15645
  23379250.260   122858794.58907  23379249.920    95734092.49445
  23099871.680   121390778.76708  23099869.000    94590165.96244
  20886676.420   109760269.54209  20886675.700    85527526.95647
  20187168.340   106084534.82309  20187165.720    82663317.71748
  21614369.700   113584289.07909  21614366.440    88507232.58848
 15 01 18 00 04  0.0000000  0  7G02G12G14G21G25G29G31
  24289516.480   127642289.69807  24289511.260    99461492.52744
  23183386.660   121829668.03908  23183384.140    94932285.75245
  23393049.420   122931306.33807  23393048.400    95790595.12545
  23082987.220   121302050.90908  23082984.860    94521027.46244
  20890842.340   109782161.41309  20890841.500    85544585.55447
  20191253.880   106106003.04309  20191251.020    82680046.20448
  21603109.600   113525116.79409  21603106.340    88461124.32048
 15 01 18 00 04 30.0000000  0  7G02G12G14G21G25G29G31
  24303761.080   127717146.40407  24303756.080    99519822.40544
  23196003.980   121895972.36908  23196001.500    94983951.45845
  23406889.760   123004035.30708  23406888.200    95847266.98945
  23066138.520   121213510.70108  23066136.420    94452035.16545
  20895054.000   109804293.60709  20895053.020    85561831.42847
  20195409.280   106127838.94209  20195406.200    82697061.18348
  21591927.420   113466354.39009  21591924.140    88415335.44348
 15 01 18 00 05  0.0000000  0  7G02G12G14G21G25G29G31
  24318063.320   127792305.88408  24318058.360    99578388.21344
  23208646.360   121962408.59808  23208643.740    95035719.92244
  23420770.420   123076976.88807  23420768.560    95904104.54045
  23049325.740   121125158.86908  23049323.640    94383189.65045
  20899311.220   109826665.31809  20899310.180    85579263.94047
  20199633.920   106150039.46509  20199630.740    82714360.29348
  21580823.400   113408002.83709  21580820.140    88369866.70848
 15 01 18 00 05 30.0000000  0  7G02G12G14G21G25G29G31
  24332423.320   127867768.80308  24332418.380    99637190.51444
  23221314.680   122028979.99208  23221311.780    95087593.72545
  23434691.460   123150131.31008  23434689.540    95961107.97345
  23032549.860   121037000.92808  23032547.760    94314495.21945
  20903614.620   109849280.12609  20903613.680    85596885.86947
  20203928.120   106172606.06709  20203924.860    82731944.66248
  21569798.460   113350066.96109  21569795.260    88324721.87048
 15 01 18 00 06  0.0000000  0  7G02G12G14G21G25G29G31
  24346840.480   127943531.97308  24346835.460    99696226.79044
  23234008.320   122095685.82307  23234005.380    95139572.26545
  23448652.080   123223494.27708  23448649.940    96018273.86045
  23015811.060   120949038.00308  23015808.920    94245952.74845
  20907964.120   109872137.41009  20907963.360    85614696.75047
  20208291.360   106195535.88609  20208288.020    82749812.06848
  21558852.880   113292548.01009  21558849.720    88279901.92847
 15 01 18 00 06 30.0000000  0  7G02G12G14G21G25G29G31
  24361314.900   128019595.88408  24361309.880    99755497.36644
  23246728.000   122162528.27108  23246724.900    95191657.25544
  23462652.220   123297065.30408  23462649.860    96075601.88044
  22999110.260   120861275.20608  22999108.120    94177566.22045
  20912360.340   109895240.38509  20912359.760    85632699.05647
  20212723.960   106218830.18409  20212720.540    82767963.47948
  21547987.560   113235450.83009  21547984.380    88235410.61747
 15 01 18 00 07  0.0000000  0  7G02G12G14G21G25G29G31
  24375845.420   128095954.99407  24375840.220    99814997.96744
  23259473.080   122229504.39407  23259469.760    95243846.42444
  23476690.660   123370837.63107  23476688.140    96133086.79345
  22982447.260   120773711.14108  22982445.120    94109334.54145
  20916802.720   109918585.77809  20916802.260    85650890.26547
  20217224.840   106242483.53709  20217221.400    82786394.67648
  21537202.160   113178773.63909  21537198.900    88191246.59447
 15 01 18 00 07 30.0000000  0  7G02G12G14G21G25G29G31
  24390432.020   128172608.89907  24390426.800    99874728.25644
  23272243.980   122296615.66408  23272240.540    95296140.91144
  23490767.100   123444809.86207  23490764.340    96190727.42144
  22965822.800   120686349.90208  22965820.700    94041260.91245
  20921291.660   109942175.83209  20921291.280    85669272.12147
  20221794.080   106266496.12009  20221790.700    82805105.78348
  21526497.580   113122520.69409  21526494.080    88147413.15147
 15 01 18 00 08  0.0000000  0  7G02G12G14G21G25G29G31
  24405074.280   128249555.04107  24405069.020    99934686.27844
  23285040.520   122363862.00607  23285036.860    95348540.61844
  23504880.740   123518978.41007  23504877.560    96248521.09543
  22949237.260   120599193.46808  22949234.960    93973346.86445
  20925827.140   109966010.78609  20925826.880    85687844.79647
  20226431.320   106290865.65009  20226428.020    82824095.02648
  21515874.080   113066693.55909  21515870.100    88103911.49247
 15 01 18 00 08 30.0000000  0  7G02G12G14G21G25G29G31
  24419772.300   128326793.91007  24419767.060    99994872.40544
  23297863.460   122431246.52008  23297859.100    95401048.02944
  23519031.500   123593343.38206  23519027.880    96306467.75043
  22932691.780   120512247.10908  22932689.300    93905596.51044
  20930409.880   109990093.77809  20930409.680    85706610.75647
  20231136.800   106315593.39009  20231133.560    82843363.38948
  21505332.660   113011296.99309  21505327.820    88060745.33347
 15 01 18 00 09  0.0000000  0  7G02G12G14G21G25G29G31
  24434525.120   128404320.61508  24434519.620   100055282.83144
  23310712.160   122498766.53608  23310707.540    95453661.02144
  23533218.160   123667898.45605  23533214.500    96364562.60643
  22916186.160   120425509.94708  22916183.100    93838009.13844
  20935039.460   110014422.52509  20935039.300    85725568.20648
  20235909.660   106340674.71809  20235906.360    82862907.28348
  21494873.060   112956330.09709  21494867.260    88017913.97947
 15 01 18 00 09 30.0000000  0  7G02G12G14G21G25G29G31
  24449332.080   128482131.18407  24449326.280   100115914.44044
  23323586.200   122566420.05808  23323581.560    95506378.00144
  23547440.000   123742638.77106  23547437.000    96422801.90043
  22899720.640   120338982.58008  22899717.200    93770585.22645
  20939715.620   110038995.77709  20939715.540    85744716.18748
  20240749.140   106366106.08709  20240745.840    82882723.93648
  21484495.320   112901793.41009  21484488.780    87975417.83547
 15 01 18 00 10  0.0000000  0  7G02G12G14G21G25G29G31
  24464192.600   128560222.89807  24464186.240   100176765.10944
  23336485.700   122634206.43908  23336480.700    95559198.58944
  23561696.540   123817560.70006  23561694.580    96481182.53643
  22883295.560   120252667.05108  22883291.740    93703326.43044
  20944438.260   110063813.47609  20944438.280    85764054.65348
  20245654.740   106391885.47209  20245651.620    82902811.78948
  21474199.660   112847688.55809  21474192.640    87933258.20847
 15 01 18 00 10 30.0000000  0  7G02G12G14G21G25G29G31
  24479107.360   128638599.78107  24479100.100   100237838.01443
  23349411.520   122702131.74508  23349405.780    95612127.35043
  23575988.260   123892666.72806  23575987.380    96539706.63443
  22866912.380   120166571.37008  22866908.620    93636238.91245
  20949208.580   110088881.97609  20949208.720    85783588.54148
  20250627.220   106418017.39209  20250624.580    82923174.33648
  21463987.580   112794023.26309  21463980.580    87891441.07247
 15 01 18 00 11  0.0000000  0  7G02G12G14G21G25G29G31
  24494074.760   128717252.79307  24494066.900   100299126.06244
  23362362.640   122770189.66008  23362356.160    95665159.52344
  23590313.420   123967947.09805  23590313.040    96598366.65244
  22850570.060   120080690.83908  22850566.320    93569319.07645
  20954025.460   110114194.75209  20954025.440    85803312.77648
  20255664.920   106444492.58709  20255662.840    82943804.36448
  21453858.100   112740792.35009  21453851.280    87849962.43947
 15 01 18 00 11 30.0000000  0  7G02G12G14G21G25G29G31
  24509094.720   128796182.02007  24509086.680   100360629.36244
  23375339.480   122838383.05908  23375332.760    95718297.21943
  23604672.140   124043401.56906  23604671.760    96657162.23344
  22834269.700   119995030.90808  22834266.060    93502571.13045
  20958889.640   110139755.25509  20958889.160    85823230.06348
  20260768.360   106471312.61909  20260766.420    82964703.09548
  21443812.240   112688001.21509  21443805.600    87808826.48947
 15 01 18 00 12  0.0000000  0  7G02G12G14G21G25G29G31
  24524167.340   128875388.35307  24524158.940   100422348.58744
  23388342.560   122906714.83708  23388335.960    95771542.77744
  23619064.080   124119029.85906  23619063.820    96716093.30545
  22818012.220   119909596.79608  22818008.660    93435999.15445
  20963801.680   110165566.88509  20963800.780    85843343.00848
  20265937.740   106498478.46509  20265935.760    82985871.29048
  21433850.880   112635654.63209  21433844.740    87768036.94047
 15 01 18 00 12 30.0000000  0  7G02G12G14G21G25G29G31
  24539292.040   128954868.72007  24539283.600   100484281.30644
  23401371.780   122975183.52208  23401365.600    95824894.97644
  23633488.480   124194827.73406  23633488.320    96775156.47145
  22801797.700   119824389.00708  22801794.260    93369603.52245
  20968761.380   110191629.05209  20968760.120    85863651.16148
  20271172.500   106525987.67209  20271170.380    83007307.04448
  21423974.180   112583753.18509  21423968.700    87727594.24647
 15 01 18 00 13  0.0000000  0  7G02G12G14G21G25G29G31
  24554468.500   129034623.04306  24554460.840   100546427.55844
  23414427.340   123043791.45208  23414421.960    95878355.65444
  23647944.880   124270793.94806  23647944.480    96834350.83044
  22785627.080   119739412.13608  22785623.860    93303387.85645
  20973769.140   110217944.12109  20973767.700    85884156.41348
  20276472.660   106553840.23209  20276470.240    83029010.35248
  21414183.040   112532301.23009  21414178.080    87687501.81347
 15 01 18 00 13 30.0000000  0  7G02G12G14G21G25G29G31
  24569696.160   129114646.77606  24569689.680   100608783.71745
  23427509.040   123112536.50708  23427504.120    95931923.22144
  23662432.180   124346923.24506  23662431.560    96893672.30545
  22769500.500   119654666.46508  22769497.240    93237352.31145
  20978824.700   110244510.38509  20978823.280    85904857.40148
  20281837.520   106582032.36209  20281834.900    83050978.25048
  21404477.380   112481298.37309  21404472.860    87647759.33148
 15 01 18 00 14  0.0000000  0  7G02G12G14G21G25G29G31
  24584974.420   129194935.44107  24584968.760   100671346.25045
  23440616.200   123181416.28808  23440611.680    95985595.77345
  23676949.420   124423210.13506  23676948.460    96953116.49145
  22753417.840   119570151.73908  22753414.480    93171496.70145
  20983927.680   110271325.94309  20983926.400    85925752.63848
  20287266.240   106610559.91609  20287263.600    83073207.52548
  21394857.140   112430744.17009  21394852.980    87608366.45448
 15 01 18 00 14 30.0000000  0  7G02G12G14G21G25G29G31
  24600303.040   129275487.78007  24600297.740   100734114.29944
  23453749.220   123250432.02008  23453745.280    96039374.24344
  23691496.300   124499652.65307  23691495.020    97012681.96744
  22737379.820   119485871.36208  22737376.220    93105823.69945
  20989078.420   110298392.52109  20989077.180    85946843.46848
  20292758.660   106639422.31509  20292756.160    83095697.69648
  21385322.980   112380641.92809  21385319.020    87569325.74748
 15 01 18 00 15  0.0000000  0  7G02G12G14G21G25G29G31
  24615681.400   129356301.79707  24615676.440   100797086.26645
  23466908.260   123319584.15608  23466904.680    96093259.02644
  23706072.260   124576247.50407  23706070.320    97072366.21944
  22721386.660   119401827.29308  22721382.860    93040334.86145
  20994276.900   110325710.44709  20994275.780    85968130.17448
  20298314.300   106668617.23009  20298312.000    83118446.98648
  21375875.280   112330993.52509  21375871.340    87530638.68948
 15 01 18 00 15 30.0000000  0  7G02G12G14G21G25G29G31
  24631109.580   129437378.00507  24631104.940   100860262.54445
  23480093.720   123388875.60808  23480090.580    96147252.33344
  23720677.200   124652994.54608  23720674.740    97132168.99044
  22705439.480   119318025.09308  22705435.640    92975034.51145
  20999523.980   110353283.25309  20999522.880    85989615.47948
  20303933.540   106698146.86109  20303931.400    83141457.10948
  21366514.880   112281803.88109  21366510.900    87492309.10948
 15 01 18 00 16  0.0000000  0  7G02G12G14G21G25G29G31
  24646586.460   129518711.02507  24646582.360   100923638.97045
  23493305.280   123458302.86208  23493301.720    96201351.46345
  23735309.800   124729887.09207  23735306.900    97192085.27244
  22689537.980   119234463.39208  22689534.180    92909921.53844
  21004818.960   110381107.84609  21004817.740    86011296.98748
  20309615.400   106728005.54409  20309613.240    83164723.62448
  21357241.380   112233071.12309  21357237.400    87454335.54648
 15 01 18 00 16 30.0000000  0  7G02G12G14G21G25G29G31
  24662112.620   129600303.44607  24662109.320   100987217.48645
  23506543.760   123527871.02308  23506539.620    96255560.37144
  23749970.300   124806927.26007  23749966.860    97252116.50244
  22673683.720   119151149.41308  22673679.740    92845001.57145
  21010162.820   110409189.82509  21010161.580    86033179.05048
  20315360.640   106758196.81409  20315358.320    83188249.29248
  21348056.120   112184802.39009  21348052.180    87416723.56248
 15 01 18 00 17  0.0000000  0  7G02G12G14G21G25G29G31
  24677686.740   129682148.59206  24677684.380   101050992.91544
  23519808.400   123597575.55608  23519803.920    96309875.58944
  23764657.280   124884107.25107  23764653.840    97312256.65543
  22657876.300   119068081.00508  22657872.300    92780272.99045
  21015554.840   110437525.10009  21015553.640    86055258.47748
  20321168.100   106788714.34409  20321165.540    83212029.17248
  21338958.660   112136994.98109  21338954.740    87379471.03148
 15 01 18 00 17 30.0000000  0  7G02G12G14G21G25G29G31
  24693309.060   129764247.21006  24693307.900   101114965.87045
  23533099.600   123667418.62908  23533094.800    96364298.73945
  23779370.680   124961426.74007  23779367.460    97372505.55843
  22642116.660   118985262.99108  22642112.600    92715739.49345
  21020995.600   110466116.96509  21020994.480    86077537.84448
  20327037.920   106819558.96709  20327035.120    83236063.95148
  21329949.860   112089653.63609  21329946.000    87342581.66548
 15 01 18 00 18  0.0000000  0  7G02G12G14G21G25G29G31
  24708978.840   129846594.96906  24708978.600   101179132.91445
  23546416.920   123737399.64808  23546411.940    96418829.37845
  23794109.600   125038880.75007  23794106.900    97432859.26642
  22626404.760   118902695.51408  22626400.580    92651401.23445
  21026484.760   110494963.76709  21026483.800    86100015.86448
  20332969.200   106850727.06009  20332966.280    83260350.77748
  21321029.760   112042778.17309  21321026.000    87306055.32448
 15 01 18 00 18 30.0000000  0  7G02G12G14G21G25G29G31
  24724695.800   129929189.85406  24724696.080   101243492.57345
  23559760.320   123807517.65408  23559754.900    96473466.76945
  23808873.260   125116466.30606  23808870.620    97493315.54041
  22610740.960   118820381.39308  22610736.620    92587260.41445
  21032022.540   110524066.34309  21032021.780    86122693.18348
  20338961.620   106882217.15609  20338958.620    83284888.50248
  21312198.740   111996370.69709  21312195.140    87269893.65148
 15 01 18 00 19  0.0000000  0  7G02G12G14G21G25G29G31
  24740459.060   130012026.65207  24740459.340   101308040.72144
  23573129.420   123877770.96008  23573123.840    96528209.59645
  23823660.600   125194177.51905  23823656.200    97553869.70343
  22595125.100   118738319.47908  22595120.560    92523316.09845
  21037608.600   110553422.28709  21037608.040    86145567.94348
  20345014.280   106914024.26509  20345011.200    83309673.26648
  21303456.540   111950430.32309  21303453.220    87234095.96148
 15 01 18 00 19 30.0000000  0  7G02G12G14G21G25G29G31
  24756268.900   130095106.73907  24756268.700   101372778.47245
  23586524.620   123948162.56708  23586519.460    96583060.17345
  23838471.960   125272014.55006  23838467.660    97614521.76743
  22579558.240   118656515.92108  22579553.720    92459573.11744
  21043243.640   110583035.41109  21043243.320    86168643.10048
  20351127.660   106946150.79809  20351124.560    83334706.93448
  21294804.100   111904962.02409  21294801.140    87198666.13648
 15 01 18 00 20  0.0000000  0  7G02G12G14G21G25G29G31
  24772123.900   130178423.04107  24772122.920   101437700.26745
  23599945.020   124018687.08209  23599940.140    96638014.31845
  23853306.260   125349969.04107  23853302.840    97675265.42441
  22564039.980   118574967.65508  22564035.560    92396029.03445
  21048926.820   110612901.23609  21048926.680    86191915.15748
  20357300.540   106978589.86909  20357297.400    83359984.13848
  21286240.900   111859962.82709  21286238.140    87163601.83348
 15 01 18 00 20 30.0000000  0  7G02G12G14G21G25G29G31
  24788024.320   130261977.18507  24788022.320   101502807.40745
  23613391.340   124089349.00608  23613386.760    96693075.53745
  23868163.500   125428042.03907  23868160.160    97736101.43244
  22548571.380   118493680.45708  22548567.260    92332688.39145
  21054659.020   110643024.22609  21054658.980    86215387.60148
  20363533.280   107011343.43908  20363530.200    83385506.40048
  21277768.200   111815438.58009  21277765.360    87128907.61348
 15 01 18 00 21  0.0000000  0  7G02G12G14G21G25G29G31
  24803969.800   130345767.53807  24803966.820   101568098.57945
  23626863.900   124160148.99808  23626859.880    96748244.32345
  23883043.020   125506231.24907  23883040.080    97797027.98544
  22533153.160   118412657.61608  22533149.280    92269553.74845
  21060440.400   110673405.35709  21060440.340    86239061.19948
  20369825.580   107044410.17408  20369822.740    83411272.68348
  21269386.380   111771391.57709  21269383.220    87094585.27447
 15 01 18 00 21 30.0000000  0  6G12G14G21G25G29G31
  23640360.060   124231072.69108  23640356.640    96803509.50745
  23897941.360   125584519.18108  23897938.500    97858031.41044
  22517782.960   118331886.73308  22517779.240    92206615.42345
  21066268.300   110704030.67909  21066268.220    86262925.07648
  20376174.480   107077774.41208  20376171.900    83437270.78748
  21261092.900   111727808.99309  21261089.360    87060624.81547
 15 01 18 00 22  0.0000000  0  6G12G14G21G25G29G31
  23653887.360   124302161.07408  23653884.520    96858903.00345
  23912865.500   125662943.45908  23912862.620    97919141.13744
  22502469.160   118251411.37208  22502465.480    92143907.37445
  21072150.580   110734942.00109  21072150.500    86287011.81048
  20382587.400   107111475.55408  20382585.100    83463531.41948
  21252895.920   111684734.04009  21252891.980    87027059.91347
 15 01 18 00 22 30.0000000  0  6G12G14G21G25G29G31
  23667439.720   124373381.51308  23667437.280    96914399.43145
  23927808.680   125741468.68408  23927805.840    97980329.48143
  22487205.740   118171200.90408  22487201.920    92081405.73945
  21078081.100   110766107.23609  21078080.920    86311296.38748
  20389057.820   107145479.01508  20389055.720    83490027.62748
  21244789.660   111642136.02909  21244785.380    86993866.64347
 15 01 18 00 23  0.0000000  0  6G12G14G21G25G29G31
  23681019.060   124444742.87208  23681016.620    96970005.69945
  23942771.960   125820100.27708  23942769.020    98041600.71543
  22471994.680   118091265.75308  22471990.720    92019118.61544
  21084061.620   110797534.99109  21084061.160    86335785.54748
  20395587.080   107179791.44908  20395584.900    83516764.60848
  21236776.060   111600025.04109  21236771.720    86961052.87647
 15 01 18 00 23 30.0000000  0  6G12G14G21G25G29G31
  23694624.000   124516238.77708  23694621.560    97025716.77444
  23957753.540   125898828.67507  23957750.400    98102947.42443
  22456834.980   118011601.54908  22456831.020    91957042.64645
  21090090.960   110829219.47409  21090090.160    86360474.74148
  20402173.640   107214404.96908  20402171.280    83543736.20948
  21228854.260   111558396.16609  21228850.020    86928614.78847
 15 01 18 00 24  0.0000000  0  6G12G14G21G25G29G31
  23708254.960   124587871.52208  23708252.320    97081534.46845
  23972753.300   125977652.87407  23972749.520    98164368.78444
  22441727.520   117932212.84208  22441723.960    91895181.35145
  21096169.640   110861163.36309  21096168.520    86385366.08348
  20408817.520   107249319.72408  20408815.040    83570942.52248
  21221025.080   111517253.32409  21221020.900    86896555.43047
 15 01 18 00 24 30.0000000  0  6G12G14G21G25G29G31
  23721911.700   124659638.48008  23721908.340    97137456.77744
  23987770.420   126056567.56107  23987766.260    98225860.60843
  22426672.320   117853099.59707  22426669.360    91833534.72845
  21102297.260   110893364.89109  21102296.000    86410458.18147
  20415518.040   107284532.27208  20415515.620    83598380.85748
  21213288.360   111476596.22409  21213284.180    86864874.56047
 15 01 18 00 25  0.0000000  0  6G12G14G21G25G29G31
  23735595.180   124731545.30808  23735591.600    97193488.06844
  24002805.260   126135575.28007  24002800.980    98287424.93843
  22411671.000   117774269.49107  22411668.460    91772108.70245
  21108475.020   110925830.02709  21108473.760    86435755.69448
  20422275.960   107320046.14108  20422273.720    83626053.99548
  21205645.340   111436431.78008  21205641.120    86833577.57747
 15 01 18 00 25 30.0000000  0  6G12G14G21G25G29G31
  23749305.080   124803591.04008  23749301.520    97249627.56944
  24017856.940   126214671.74306  24017853.140    98349058.43143
  22396723.660   117695723.30807  22396721.420    91710903.92145
  21114702.880   110958557.99609  21114701.640    86461258.01047
  20429090.840   107355858.38208  20429088.620    83653959.63448
  21198096.060   111396760.64208  21198091.960    86802665.00247
 15 01 18 00 26  0.0000000  0  6G12G14G21G25G29G31
  23763042.500   124875780.41608  23763038.900    97305879.00844
  24032925.640   126293858.70106  24032922.420    98410762.33044
  22381831.840   117617467.99008  22381829.820    91649925.77445
  21120981.900   110991554.07709  21120980.600    86486969.24847
  20435963.280   107391972.19008  20435960.940    83682100.26948
  21190641.840   111357589.62708  21190638.020    86772142.12647
 15 01 18 00 26 30.0000000  0  6G12G14G21G25G29G31
  23776806.360   124948108.06808  23776802.900    97362238.23144
  24048009.760   126373127.43706  24048007.460    98472529.94244
  22366995.100   117539500.41108  22366992.620    91589171.83245
  21127311.140   111024813.50209  21127309.640    86512885.68347
  20442891.800   107428380.22908  20442889.200    83710470.17048
  21183281.900   111318914.48608  21183278.500    86742005.64547
 15 01 18 00 27  0.0000000  0  6G12G14G21G25G29G31
  23790597.280   125020578.31308  23790594.220    97418708.50145
  24063109.700   126452479.45807  24063108.280    98534362.47444
  22352214.600   117461827.11908  22352211.480    91528647.18144
  21133691.400   111058340.92009  21133689.600    86539010.94348
  20449876.820   107465085.24308  20449873.960    83739071.48048
  21176017.380   111280741.45708  21176014.620    86712260.43647
 15 01 18 00 27 30.0000000  0  6G12G14G21G25G29G31
  23804414.580   125093186.62508  23804411.900    97475286.38645
  24078224.200   126531907.21707  24078222.920    98596254.01643
  22337489.700   117384445.24508  22337486.100    91468349.62744
  21140121.820   111092132.32209  21140119.740    86565341.90647
  20456917.260   107502081.02909  20456914.080    83767899.36148
  21168847.800   111243067.49808  21168845.780    86682904.10047
 15 01 18 00 28  0.0000000  0  6G12G14G21G25G29G31
  23818257.600   125165930.05008  23818255.080    97531969.56045
  24093352.140   126611404.31108  24093351.260    98658199.60243
  22322820.140   117307353.80108  22322816.240    91408278.38045
  21146601.820   111126184.79909  21146599.580    86591876.30647
  20464012.160   107539362.51609  20464008.620    83796949.87448
  21161772.980   111205890.88608  21161771.500    86653935.32448
 15 01 18 00 28 30.0000000  0  6G12G14G21G25G29G31
  23832126.780   125238811.73508  23832124.420    97588760.48345
  24108493.500   126690971.28408  24108492.900    98720199.64243
  22308206.840   117230558.20008  22308202.840    91348437.65645
  21153132.120   111160502.07509  21153129.960    86618617.04047
  20471161.800   107576931.33709  20471157.840    83826224.28648
  21154794.000   111169216.60008  21154792.700    86625357.96248
 15 01 18 00 29  0.0000000  0  6G12G14G21G25G29G31
  23846022.200   125311832.36908  23846020.020    97645659.64345
  24123647.760   126770605.77308  24123647.360    98782252.30343
  22293650.260   117154061.24508  22293646.320    91288829.67446
  21159712.960   111195085.43209  21159711.040    86645565.11347
  20478365.820   107614786.43709  20478361.480    83855721.78148
  21147911.320   111133047.06608  21147909.920    86597173.92648
 15 01 18 00 29 30.0000000  0  6G12G14G21G25G29G31
  23859944.080   125384992.72308  23859942.280    97702667.69145
  24138814.340   126850304.86608  24138813.500    98844355.34542
  22279150.860   117077865.57408  22279147.000    91229456.44545
  21166344.720   111229935.77909  21166343.020    86672721.22148
  20485623.880   107652926.65709  20485619.200    83885441.43148
  21141125.220   111097384.23608  21141123.560    86569384.70648
 15 01 18 00 30  0.0000000  0  6G12G14G21G25G29G31
  23873891.860   125458289.94408  23873890.500    97759782.39744
  24153992.140   126930062.86708  24153989.120    98906504.27541
  22264708.460   117001970.51808  22264704.860    91170317.47145
  21173026.980   111265051.06409  21173025.440    86700083.78348
  20492935.140   107691347.62909  20492930.260    83915379.84547
  21134435.480   111062227.07908  21134433.340    86541989.52747
 15 01 18 00 30 30.0000000  0  6G12G14G21G25G29G31
  23887866.120   125531727.38608  23887865.000    97817006.35145
  24169181.160   127009880.37408  24169175.780    98968699.71641
  22250324.080   116926381.55408  22250320.920    91111417.02746
  21179760.380   111300435.02509  21179759.000    86727655.68848
  20500300.120   107730051.27009  20500295.080    83945538.52647
  21127842.920   111027580.46208  21127840.320    86514992.16748
 15 01 18 00 31  0.0000000  0  6G12G14G21G25G29G31
  23901866.620   125605302.75108  23901865.940    97874337.81145
  24184380.420   127089752.09907  24184374.560    99030937.20941
  22235997.860   116851098.44708  22235994.920    91052754.90045
  21186544.620   111336085.71909  21186543.240    86755435.45048
  20507718.120   107769033.47309  20507713.060    83975914.27948
  21121347.380   110993443.66508  21121344.340    86488392.07848
 15 01 18 00 31 30.0000000  0  6G12G14G21G25G29G31
  23915893.160   125679013.89108  23915892.760    97931775.04444
  24199589.020   127169672.88607  24199584.320    99093212.91342
  22221729.720   116776120.90208  22221727.040    90994330.89446
  21193379.260   111372001.46409  21193378.020    86783421.74748
  20515188.420   107808290.18809  20515183.420    84006503.93347
  21114948.680   110959815.82608  21114945.260    86462188.58947
 15 01 18 00 32  0.0000000  0  6G12G14G21G25G29G31
  23929946.300   125752863.90308  23929946.060    97989320.48545
  24214806.940   127249642.44707  24214803.660    99155526.66343
  22207520.800   116701454.07108  22207518.200    90936148.97445
  21200264.920   111408185.74409  21200263.940    86811617.27348
  20522711.100   107847822.56408  20522706.360    84037308.37848
  21108647.680   110926701.65808  21108643.980    86436385.33248
 15 01 18 00 32 30.0000000  0  6G12G14G21G25G29G31
  23944025.940   125826852.52708  23944025.740    98046973.93245
  24230033.620   127329658.01107  24230030.700    99217876.13341
  22193371.420   116627100.19808  22193368.800    90878210.91845
  21207201.780   111444639.03409  21207201.040    86840022.42848
  20530285.800   107887629.46808  20530281.480    84068326.73047
  21102444.600   110894102.71108  21102440.680    86410983.56948
 15 01 18 00 33  0.0000000  0  6G12G14G21G25G29G31
  23958132.380   125900982.27008  23958132.180    98104737.33945
  24245268.780   127409718.62807  24245266.720    99280260.75843
  22179282.260   116553062.67108  22179279.460    90820519.35945
  21214190.300   111481363.76809  21214189.800    86868639.09648
  20537912.360   107927710.59308  20537908.820    84099558.73747
  21096340.100   110862022.20409  21096335.940    86385985.76948
 15 01 18 00 33 30.0000000  0  6G12G14G21G25G29G31
  23972265.460   125975251.92808  23972265.100    98162609.78545
  24260511.740   127489820.37207  24260509.780    99342677.41043
  22165253.740   116479343.31508  22165250.640    90763075.70345
  21221230.360   111518359.35409  21221229.980    86897466.81548
  20545590.860   107968063.91108  20545587.800    84131002.85847
  21090334.320   110830460.63409  21090329.840    86361392.32848
 15 01 18 00 34  0.0000000  0  6G12G14G21G25G29G31
  23986425.300   126049661.83208  23986424.740    98220591.50745
  24275761.920   127569960.36206  24275759.900    99405123.86943
  22151286.260   116405943.93508  22151282.880    90705881.41445
  21228322.020   111555626.46609  21228321.760    86926506.11948
  20553321.180   108008687.80208  20553318.180    84162657.85247
  21084427.560   110799419.48609  21084422.800    86337204.42048
 15 01 18 00 34 30.0000000  0  6G12G14G21G25G29G31
  24000611.320   126124209.33908  24000610.640    98278680.44345
  24291018.280   127650133.12206  24291015.920    99467595.90041
  22137379.720   116332864.04408  22137376.020    90648936.03445
  21235464.940   111593163.13209  21235464.720    86955755.46348
  20561102.300   108049577.82208  20561099.180    84194520.21847
  21078619.660   110768897.97809  21078614.660    86313421.41447
 15 01 18 00 35  0.0000000  0  6G12G14G21G25G29G31
  24014823.380   126198893.14208  24014822.520    98336875.60145
  24306280.140   127730334.46407  24306277.200    99530090.17643
  22123534.240   116260104.20708  22123530.280    90592240.07845
  21242658.900   111630968.67409  21242658.760    86985214.31848
  20568933.440   108090731.32908  20568930.420    84226587.88947
  21072910.580   110738896.45209  21072905.460    86290043.59447
 15 01 18 00 35 30.0000000  0  6G12G14G21G25G29G31
  24029062.340   126273718.07808  24029061.100    98395180.73845
  24321548.000   127810566.28107  24321545.100    99592608.20643
  22109751.080   116187671.48108  22109746.940    90535798.99445
  21249905.000   111669048.00609  21249904.860    87014886.51948
  20576815.140   108132151.09008  20576812.360    84258863.01847
  21067301.440   110709420.71109  21067296.320    86267075.48047
 15 01 18 00 36  0.0000000  0  6G12G14G21G25G29G31
  24043326.940   126348678.33508  24043325.320    98453591.33845
  24336820.140   127890819.98707  24336817.440    99655143.26744
  22096029.280   116115561.70608  22096025.020    90479609.56145
  21257202.300   111707395.89209  21257202.140    87044767.97448
  20584746.340   108173830.24808  20584743.720    84291340.27347
  21061791.420   110680466.59609  21061786.480    86244513.81947
 15 01 18 00 36 30.0000000  0  6G12G14G21G25G29G31
  24057618.120   126423778.95608  24057616.280    98512111.28445
  24352096.700   127971097.17507  24352094.400    99717696.58443
  22082370.220   116043782.27008  22082365.980    90423677.54345
  21264551.800   111746017.64109  21264551.560    87074862.83248
  20592727.840   108215771.81309  20592724.980    84324022.01547
  21056381.780   110652040.13809  21056377.080    86222363.31947
 15 01 18 00 37  0.0000000  0  6G12G14G21G25G29G31
  24071935.620   126499018.28108  24071933.760    98570739.30345
  24367376.900   128051393.74407  24367375.080    99780265.01144
  22068773.980   115972333.37808  22068769.780    90368003.09745
  21271953.320   111784912.33909  21271952.980    87105170.39748
  20600758.920   108257972.47809  20600755.580    84356905.67047
  21051072.540   110624141.02909  21051068.000    86200623.74747
 15 01 18 00 37 30.0000000  0  6G12G14G21G25G29G31
  24086279.560   126574396.20208  24086277.660    98629475.32745
  24382660.180   128131706.52507  24382658.700    99842846.08244
  22055240.940   115901216.74708  22055236.640    90312587.54445
  21279406.820   111824080.13409  21279406.440    87135690.76948
  20608839.080   108300430.69209  20608835.060    84389990.01547
  21045864.000   110596770.73309  21045859.520    86179296.24447
 15 01 18 00 38  0.0000000  0  6G12G14G21G25G29G31
  24100649.600   126649911.54208  24100647.420    98688318.46245
  24397945.660   128212031.29507  24397943.980    99905436.44544
  22041771.360   115830433.16608  22041766.720    90257431.51744
  21286912.040   111863520.17409  21286911.700    87166423.27348
  20616967.440   108343143.18109  20616962.880    84423272.47747
  21040756.160   110569929.17409  21040751.520    86158380.72047
 15 01 18 00 38 30.0000000  0  6G12G14G21G25G29G31
  24115046.380   126725568.10407  24115043.960    98747271.62644
  24413233.580   128292369.47305  24413231.680    99968037.25844
  22028366.260   115759988.73508  22028361.320    90202539.75145
  21294470.000   111903237.31409  21294469.680    87197371.68648
  20625144.440   108386112.66608  20625139.600    84456755.18347
  21035750.080   110543622.03809  21035745.220    86137881.63947
 15 01 18 00 39  0.0000000  0  5G12G21G25G29G31
  24129472.060   126801377.86106  24129469.760    98806344.13345
  22015028.120   115689896.68108  22015023.100    90147922.58245
  21302082.880   111943243.05009  21302082.580    87228544.99348
  20633371.880   108429348.55408  20633367.100    84490445.48647
  21030848.000   110517861.52009  21030842.960    86117808.50247
 15 01 18 00 39 30.0000000  0  5G12G21G25G29G31
  24143921.200   126877310.50407  24143919.480    98865512.38845
  22001751.700   115620129.09808  22001746.840    90093558.25045
  21309745.040   111983507.93309  21309744.780    87259920.22748
  20641644.120   108472820.30708  20641639.600    84524319.58147
  21026044.460   110492619.18909  21026039.260    86098139.15547
 15 01 18 00 40  0.0000000  0  6G12G14G21G25G29G31
  24158392.160   126953355.98507  24158390.920    98924768.59745
  24459102.660   128533441.74206  24459097.440   100155906.05542
  21988535.380   115550677.27808  21988530.680    90039439.97745
  21317454.600   112024022.39709  21317454.380    87291489.93848
  20649958.960   108516515.54809  20649954.800    84558367.83847
  21021337.760   110467886.15409  21021332.540    86078866.66947
 15 01 18 00 40 30.0000000  0  6G12G14G21G25G29G31
  24172893.440   127029560.44007  24172892.580    98984148.67945
  24474391.940   128613785.65306  24474387.780   100218511.27743
  21975388.580   115481589.98308  21975384.180    89985605.71846
  21325220.420   112064833.02809  21325220.320    87323290.41848
  20658324.800   108560478.84908  20658321.020    84592624.96647
  21016736.920   110443709.89009  21016731.780    86060028.01347
 15 01 18 00 41  0.0000000  0  6G12G14G21G25G29G31
  24187422.060   127105911.17305  24187421.980    99043642.68944
  24489681.820   128694133.39606  24489679.340   100281119.48544
  21962309.180   115412856.24208  21962305.120    89932046.96546
  21333040.200   112105927.55009  21333040.320    87355312.12048
  20666738.920   108604696.08208  20666735.500    84627079.96447
  21012239.780   110420078.89708  21012234.920    86041614.25347
 15 01 18 00 41 30.0000000  0  6G12G14G21G25G29G31
  24201977.120   127182399.64107  24201977.380    99103244.01944
  24504970.080   128774473.26906  24504969.060   100343721.52145
  21949295.800   115344469.23908  21949292.000    89878758.40746
  21340912.440   112147297.68609  21340912.740    87387548.58548
  20675199.180   108649156.88208  20675196.240    84661724.74347
  21007844.980   110396985.78808  21007840.520    86023619.62447
 15 01 18 00 42  0.0000000  0  6G12G14G21G25G29G31
  24216557.980   127259020.41808  24216558.100    99162948.59244
  24520255.220   128854797.41605  24520255.420   100406311.28144
  21936347.840   115276426.11008  21936344.180    89825737.81646
  21348836.300   112188938.98909  21348836.800    87419996.35148
  20683704.460   108693854.78408  20683702.040    84696554.26847
  21003551.760   110374426.58608  21003547.800    86006041.02547
 15 01 18 00 42 30.0000000  0  5G12G21G25G29G31
  24231166.580   127335786.33308  24231166.480    99222766.23445
  21923468.020   115208741.42908  21923464.420    89772996.50846
  21356814.440   112230864.98609  21356815.000    87452665.94148
  20692257.240   108738801.11308  20692255.100    84731577.37747
  20999362.880   110352415.62508  20999359.480    85988889.62547
 15 01 18 00 43  0.0000000  0  5G12G21G25G29G31
  24245800.620   127412686.88507  24245800.300    99282688.74445
  21910654.620   115141405.80308  21910650.820    89720527.18946
  21364844.760   112273064.72309  21364845.240    87485548.84148
  20700855.080   108783982.96008  20700853.080    84766784.00647
  20995276.440   110330942.55208  20995273.500    85972157.34447
 15 01 18 00 43 30.0000000  0  5G12G21G25G29G31
  24260461.040   127489730.30105  24260461.280    99342722.44745
  21897909.400   115074429.16208  21897905.400    89668337.61546
  21372928.960   112315546.75809  21372929.200    87518651.72548
  20709499.060   108829407.28108  20709497.220    84802179.57347
  20991294.240   110310016.62809  20991291.640    85955851.42147
 15 01 18 00 44  0.0000000  0  5G12G21G25G29G31
  24275147.100   127566907.82207  24275147.340    99402860.65345
  21885231.200   115007805.23908  21885226.920    89616422.88746
  21381065.420   112358303.03809  21381065.320    87551968.30748
  20718187.060   108875064.08608  20718185.600    84837756.30847
  20987414.940   110289630.78409  20987412.480    85939966.32947
 15 01 18 00 44 30.0000000  0  5G12G21G25G29G31
  24289857.160   127644207.78308  24289856.800    99463094.40544
  21872618.180   114941524.63808  21872613.700    89564775.66945
  21389252.000   112401322.61109  21389251.540    87585490.03248
  20726916.520   108920940.30908  20726915.600    84873503.98047
  20983636.520   110269774.76109  20983634.140    85924494.07147
 15 01 18 00 45  0.0000000  0  5G12G21G25G29G31
  24304592.840   127721641.07008  24304591.580    99523432.11144
  21860072.700   114875599.40908  21860068.040    89513405.36546
  21397490.820   112444616.73309  21397490.000    87619225.71748
  20735689.660   108967045.13408  20735689.100    84909429.81147
  20979961.320   110250460.63009  20979959.020    85909444.08648
 15 01 18 00 45 30.0000000  0  5G12G21G25G29G31
  24319355.720   127799217.49808  24319354.200    99583881.32544
  21847597.120   114810041.65708  21847592.480    89462321.41646
  21405783.720   112488195.60709  21405782.680    87653183.27548
  20744508.380   109013387.04208  20744507.640    84945540.39047
  20976391.280   110231698.70609  20976388.960    85894824.39348
 15 01 18 00 46  0.0000000  0  5G12G21G25G29G31
  24334145.020   127876933.95508  24334143.400    99644439.63445
  21835191.280   114744849.89608  21835186.760    89411522.63446
  21414130.220   112532056.54809  21414129.040    87687360.62648
  20753371.580   109059960.94008  20753370.340    84981831.75347
  20972925.900   110213486.95509  20972923.560    85880633.42048
 15 01 18 00 46 30.0000000  0  5G12G21G25G29G31
  24348961.360   127954795.25406  24348959.820    99705110.68745
  21822856.380   114680030.43408  21822852.120    89361013.99346
  21422531.360   112576204.63409  21422530.100    87721761.71747
  20762279.480   109106770.10008  20762277.880    85018306.43947
  20969566.380   110195831.36009  20969563.800    85866875.80948
 15 01 18 00 47  0.0000000  0  5G12G21G25G29G31
  24363801.520   128032782.50807  24363800.260    99765879.82945
  21810589.280   114615566.79908  21810585.280    89310782.59246
  21430983.620   112620621.86009  21430982.300    87756372.52447
  20771228.200   109153794.80608  20771226.440    85054949.06148
  20966309.340   110178714.26109  20966306.380    85853537.80248
 15 01 18 00 47 30.0000000  0  5G12G21G25G29G31
  24378667.520   128110903.40808  24378665.960    99826753.20645
  21798391.740   114551468.24308  21798388.020    89260835.67846
  21439488.480   112665316.08609  21439487.240    87791199.18447
  20780218.920   109201041.42108  20780217.260    85091764.59347
  20963156.400   110162144.12309  20963153.000    85840626.00848
 15 01 18 00 48  0.0000000  0  5G12G21G25G29G31
  24393559.640   128189160.80509  24393557.740    99887732.97044
  21786264.600   114487739.11208  21786260.880    89211176.63546
  21448046.560   112710290.51108  21448045.560    87826244.17447
  20789252.060   109248510.94808  20789250.440    85128753.80847
  20960108.300   110146124.87809  20960104.480    85828143.48048
 15 01 18 00 48 30.0000000  0  5G12G21G25G29G31
  24408477.640   128267554.06808  24408475.280    99948818.64643
  21774208.240   114424381.48508  21774204.240    89161807.05846
  21456658.040   112755545.45208  21456657.220    87861507.75247
  20798327.380   109296201.19608  20798325.420    85165915.04047
  20957165.100   110130657.29609  20957161.000    85816090.82648
 15 01 18 00 49  0.0000000  0  5G12G21G25G29G31
  24423422.040   128346085.75408                                
  21762223.340   114361398.88108  21762218.960    89112729.70746
  21465323.500   112801083.35609  21465322.860    87896991.81547
  20807445.140   109344113.43308  20807442.440    85203249.25347
  20954327.420   110115744.44809  20954323.260    85804470.42848
 15 01 18 00 49 30.0000000  0  5G12G21G25G29G31
  24438392.580   128424753.96105  24438391.300   100071123.41644
  21750309.860   114298791.71308  21750305.180    89063944.89845
  21474042.780   112846903.10909  21474042.140    87932695.50847
  20816604.460   109392244.64908  20816600.780    85240754.10946
  20951595.100   110101385.65509  20951591.100    85793281.74848
 15 01 18 00 50  0.0000000  0  5G12G21G25G29G31
  24453392.020   128503433.33006  24453391.700   100132534.33444
  21738474.460   114236595.04508  21738469.500    89015479.97046
  21482822.260   112893038.58909  21482821.480    87968645.22547
  20825811.160   109440625.93008  20825806.540    85278453.83546
  20948974.720   110087615.09509  20948971.000    85782551.43748
 15 01 18 00 50 30.0000000  0  5G12G21G25G29G31
  24468412.400   128582358.01608  24468411.280   100194034.03745
  21726701.380   114174726.24508  21726696.300    88967270.53246
  21491645.840   112939405.71709  21491644.920    88004775.44647
  20835049.200   109489172.74908  20835044.100    85316282.52746
  20946450.360   110074349.21809  20946446.920    85772214.38448
 15 01 18 00 51  0.0000000  0  5G12G21G25G29G31
  24483457.120   128661411.96409  24483455.180   100255634.49346
  21714999.160   114113230.55408  21714993.960    88919351.83246
  21500521.840   112986048.67309  21500520.860    88041120.60347
  20844326.720   109537927.13108  20844321.680    85354272.94946
  20944030.520   110061632.89409  20944027.300    85762305.56248
 15 01 18 00 51 30.0000000  0  5G12G21G25G29G31
  24498530.260   128740617.61609  24498527.600   100317353.14845
  21703372.300   114052132.09108  21703367.240    88871742.66746
  21509454.660   113032990.25009  21509453.700    88077698.45047
  20853647.740   109586909.67908  20853643.180    85392441.16847
  20941719.560   110049489.36609  20941716.540    85752843.06448
 15 01 18 00 52  0.0000000  0  5G12G21G25G29G31
  24513629.220   128819960.61708  24513626.100   100379178.83444
  21691818.620   113991418.81608  21691813.820    88824433.65246
  21518441.560   113080216.63309  21518440.760    88114498.22847
  20863009.060   109636104.25208  20863005.180    85430774.58547
  20939514.940   110037905.05009  20939512.120    85743816.32548
 15 01 18 00 52 30.0000000  0  5G12G21G25G29G31
  24528753.720   128899438.02505  24528750.460   100441109.23543
  21680338.040   113931089.22008  21680333.260    88777423.58146
  21527482.040   113127725.15709  21527481.380    88151517.82647
  20872409.980   109685507.09608  20872406.680    85469270.29147
  20937416.380   110026877.75509  20937413.600    85735223.61148
 15 01 18 00 53  0.0000000  0  5G12G21G25G29G31
  24543898.520   128979054.74506  24543900.580   100503152.80643
  21668930.160   113871140.79708  21668925.480    88730710.52245
  21536575.480   113175511.98809  21536574.820    88188754.31147
  20881849.560   109735112.88308  20881846.620    85507924.12947
  20935423.100   110016403.97809  20935420.300    85727062.22648
 15 01 18 00 53 30.0000000  0  5G12G21G25G29G31
  24559339.600   129060193.15208                                
  21657861.880   113812976.02508  21657857.200    88685387.31446
  21545988.600   113224978.55109  21545987.940    88227299.66947
  20891593.960   109786320.77108  20891591.320    85547826.36747
  20933801.920   110007885.59909  20933799.180    85720424.52548
 15 01 18 00 54  0.0000000  0  5G12G21G25G29G31
  24574332.180   129138975.36708  24574327.660   100627757.76844
  21646393.620   113752708.92708  21646389.040    88638425.93446
  21554981.820   113272237.87609  21554981.160    88264125.11347
  20900903.060   109835241.86408  20900900.860    85585946.68347
  20931813.320   109997435.94809  20931810.680    85712281.94748
 15 01 18 00 54 30.0000000  0  5G12G21G25G29G31
  24589506.920   129218716.28409  24589501.680   100689893.50544
  21635156.580   113693656.73508  21635151.940    88592411.22146
  21564185.980   113320605.28809  21564185.160    88301813.99147
  20910407.540   109885190.03008  20910405.880    85624867.29948
  20930088.380   109988370.78109  20930085.680    85705218.18348
 15 01 18 00 55  0.0000000  0  5G12G21G25G29G31
  24604755.240   129298845.24108  24604749.800   100752331.62445
  21624042.340   113635250.21908  21624037.840    88546899.65046
  21573492.520   113369510.61109  21573491.580    88339922.02447
  20919998.920   109935593.45108  20919997.500    85664142.67747
  20928518.680   109980120.40709  20928515.720    85698789.32648
 15 01 18 00 55 30.0000000  0  5G12G21G25G29G31
  24620033.620   129379132.98408  24620028.200   100814893.46744
  21613007.640   113577262.02708  21613003.240    88501714.05846
  21582857.860   113418725.01909  21582856.860    88378270.90247
  20929633.240   109986220.85408  20929631.780    85703592.60848
  20927060.540   109972456.03709  20927057.300    85692817.10648
 15 01 18 00 56  0.0000000  0  5G12G21G25G29G31
  24635338.300   129459562.60506  24635333.500   100877565.76844
  21602049.520   113519676.53408  21602045.100    88456842.24546
  21592278.860   113468231.87309  21592277.860    88416847.65047
  20939306.980   110037054.88008  20939305.320    85743203.52148
  20925710.680   109965361.29509  20925707.200    85687288.72648
 15 01 18 00 56 30.0000000  0  5G12G21G25G29G31
  24650668.820   129540130.26307  24650664.920   100940345.62244
  21591167.680   113462491.79008  21591163.200    88412282.72246
  21601754.980   113518028.11909  21601753.960    88455649.90947
  20949019.080   110088090.51008  20949017.140    85782971.53848
  20924468.540   109958833.63709  20924464.840    85682202.23547
 15 01 18 00 57  0.0000000  0  5G12G21G25G29G31
  24666021.140   129620809.31908  24666017.240   101003212.39743
  21580357.380   113405683.29508  21580352.960    88368016.38047
  21611281.180   113568087.95909  21611280.200    88494657.56347
  20958764.120   110139300.00308  20958762.020    85822875.03547
  20923329.320   109952847.26909  20923325.400    85677537.52847
 15 01 18 00 57 30.0000000  0  5G12G21G25G29G31
  24681398.960   129701620.02308  24681394.740   101066181.87242
  21569622.640   113349272.08708  21569618.420    88324059.60646
  21620861.140   113618430.95809  21620860.260    88533885.86147
  20968545.520   110190701.18408  20968543.300    85862927.89547
  20922296.880   109947422.18609  20922292.760    85673310.18547
 15 01 18 00 58  0.0000000  0  5G12G21G25G29G31
  24696802.500   129782565.15508  24696798.960   101129256.08943
  21558964.320   113293263.21008  21558960.400    88280416.34246
  21630495.680   113669060.89909  21630494.860    88573337.74547
  20978363.680   110242296.03408  20978361.340    85903131.67047
  20921371.980   109942562.47409  20921367.620    85669523.37747
 15 01 18 00 58 30.0000000  0  5G12G21G25G29G31
  24712231.660   129863644.72908  24712228.680   101192434.99544
  21548382.740   113237658.15608  21548379.280    88237087.74847
  21640184.900   113719978.34609  21640184.060    88613013.67847
  20988218.400   110294083.53908  20988215.980    85943485.57047
  20920554.800   109938268.72609  20920550.240    85666177.59647
 15 01 18 00 59  0.0000000  0  5G12G21G25G29G31
  24727685.500   129944854.22107  24727683.040   101255715.09645
  21537877.300   113182454.04208  21537874.560    88194071.59947
  21649928.080   113771179.06009  21649927.100    88652910.34147
  20998108.840   110346058.75608  20998106.340    85983985.75847
  20919844.760   109934537.25709  20919839.940    85663269.96247
 15 01 18 00 59 30.0000000  0  5G12G21G25G29G31
  24743164.180   130026195.66506  24743162.220   101319097.94944
  21527448.560   113127654.15608  21527446.640    88151370.42246
  21659725.620   113822665.25709  21659724.400    88693029.44347
  21008034.860   110398221.27608  21008032.440    86024631.87147
  20919242.220   109931370.02609  20919237.000    85660801.99447
 15 01 18 01 00  0.0000000  0  4G21G25G29G31
  21517097.760   113073263.57808  21517096.420    88108988.18846
  21669578.200   113874440.57809  21669576.780    88733373.84347
  21017996.940   110450573.13507  21017994.680    86065425.53346
  20918747.920   109928770.89909  20918742.180    85658776.70647
 15 01 18 01 00 30.0000000  0  4G21G25G29G31
  21506823.360   113019273.25708  21506822.040    88066917.83246
  21679483.900   113926495.06509  21679482.360    88773935.76247
  21027992.860   110503103.27307  21027990.860    86106358.08446
  20918359.880   109926730.32409  20918353.740    85657186.63347
 15 01 18 01 01  0.0000000  0  4G21G25G29G31
  21496626.380   112965688.02808  21496624.700    88025163.12346
  21689443.340   113978832.68009  21689441.800    88814718.29747
  21038022.960   110555813.72507  21038021.300    86147431.15646
  20918078.720   109925252.18709  20918072.400    85656034.82647
 15 01 18 01 01 30.0000000  0  4G21G25G29G31
  21486507.940   112912514.18408  21486505.580    87983728.96945
  21699457.480   114031457.92409  21699456.060    88855724.98347
  21048087.980   110608707.18907  21048086.400    86188646.83446
  20917905.300   109924340.83809  20917899.120    85655324.66547
 15 01 18 01 02  0.0000000  0  4G21G25G29G31
  21476468.660   112859755.06808  21476465.280    87942617.97845
  21709526.760   114084373.06809  21709525.520    88896957.53947
  21058188.320   110661784.49308  21058186.540    86230005.74747
  20917840.100   109923999.01109  20917834.340    85655058.27847
 15 01 18 01 02 30.0000000  0  4G21G25G29G31
  21466508.440   112807411.12108  21466504.120    87901830.49545
  21719651.040   114137577.27009  21719649.960    88938415.36547
  21068323.580   110715044.08308  21068321.260    86271506.73447
  20917883.060   109924226.05209  20917877.920    85655235.19148
 15 01 18 01 03  0.0000000  0  4G21G25G29G31
  21456625.780   112755475.15008  21456620.760    87861360.90845
  21729828.900   114191062.94709  21729827.900    88980092.49847
  21078491.660   110768475.68808  21078488.960    86313141.74347
  20918032.840   109925014.32909  20918028.180    85655849.42948
 15 01 18 01 03 30.0000000  0  4G21G25G29G31
  21446820.700   112703947.39408  21446815.240    87821209.40345
  21740060.120   114244828.79209  21740059.180    89021987.94547
  21088691.820   110822077.05808  21088689.140    86354909.04247
  20918289.240   109926362.59509  20918284.860    85656900.01348
 15 01 18 01 04  0.0000000  0  4G21G25G29G31
  21437094.320   112652833.77408  21437088.580    87781380.59445
  21750345.620   114298879.52209  21750344.680    89064105.37547
  21098924.780   110875851.33908  21098922.260    86396811.05347
  20918653.100   109928275.15409  20918648.720    85658390.31748
 15 01 18 01 04 30.0000000  0  4G21G25G29G31
  21427444.100   112602121.03408  21427438.140    87741864.17145
  21760682.640   114353200.88709  21760681.880    89106433.69647
  21109187.740   110929782.72808  21109185.100    86438835.51847
  20919121.800   109930738.19709  20919117.320    85660309.57648
 15 01 18 01 05  0.0000000  0  4G21G25G29G31
  21417877.660   112551849.28708  21417871.520    87702691.38745
  21771078.580   114407832.05209  21771077.920    89149003.40747
  21119487.940   110983909.16208  21119484.980    86481011.96647
  20919702.760   109933791.12609  20919698.260    85662688.45948
 15 01 18 01 05 30.0000000  0  4G21G25G29G31
  21408389.800   112501991.62808  21408383.920    87663841.26745
  21781528.080   114462744.78109  21781527.460    89191792.53847
  21129819.420   111038200.63108  21129816.280    86523317.01747
  20920390.500   109937405.38409  20920386.040    85665504.77247
 15 01 18 01 06  0.0000000  0  4G21G25G29G31
  21398980.160   112452546.38708  21398975.080    87625312.51646
  21792030.660   114517936.15609  21792029.960    89234798.79047
  21140181.180   111092652.23708  21140178.120    86565746.82147
  20921184.420   109941577.73309  20921179.900    85668755.93847
 15 01 18 01 06 30.0000000  0  4G21G25G29G31
  21389650.360   112403520.72408  21389646.080    87587110.74646
  21802587.620   114573412.64609  21802586.760    89278027.22447
  21150574.320   111147269.76208  21150571.520    86608305.94447
  20922085.840   109946314.79209  20922081.200    85672447.15448
 15 01 18 01 07  0.0000000  0  4G21G25G29G31
  21380401.460   112354919.26008  21380397.860    87549239.49646
  21813199.640   114629177.58809  21813198.480    89321480.40047
  21160999.420   111202055.18808  21160996.980    86650995.86447
  20923095.360   109951619.79509  20923090.680    85676580.90447
 15 01 18 01 07 30.0000000  0  4G21G25G29G31
  21371233.560   112306742.64008  21371230.680    87511699.29746
  21823866.440   114685230.53409  21823865.060    89365157.99847
  21171456.160   111257006.51308  21171453.960    86693815.08347
  20924212.900   109957492.65509  20924208.260    85681157.16848
 15 01 18 01 08  0.0000000  0  4G21G25G29G31
  21362148.160   112258997.96808  21362145.680    87474495.68346
  21834589.220   114741577.75409  21834587.660    89409064.90347
  21181945.620   111312128.42808  21181943.280    86736767.20347
  20925439.580   109963939.23309  20925435.120    85686180.46548
 15 01 18 01 08 30.0000000  0  4G21G25G29G31
  21353139.320   112211654.11908  21353136.840    87437604.40346
  21845361.860   114798187.17209  21845360.200    89453176.12347
  21192461.300   111367387.57708  21192458.660    86779826.27547
  20926769.300   109970927.25009  20926765.140    85691625.67248
 15 01 18 01 09  0.0000000  0  4G21G25G29G31
  21344217.700   112164767.79608  21344214.860    87401069.63546
  21856194.760   114855114.17709  21856193.200    89497534.81447
  21203013.420   111422838.11808  21203010.360    86823034.48646
  20928212.560   109978511.95909  20928208.760    85697535.82048
 15 01 18 01 09 30.0000000  0  4G21G25G29G31
  21335377.500   112118309.06008  21335373.960    87364868.04746
  21867082.140   114912327.77709  21867080.780    89542116.82047
  21213595.700   111478447.14708  21213592.200    86866366.20847
  20929763.440   109986662.24009  20929759.980    85703886.67248
 15 01 18 01 10  0.0000000  0  4G21G25G29G31
  21326618.540   112072277.57709  21326614.320    87328999.36746
  21878023.760   114969826.82509  21878022.660    89586921.24247
  21224207.740   111534212.74308  21224203.960    86909819.91447
  20931421.740   109995376.87809  20931418.500    85710677.28748
 15 01 18 01 10 30.0000000  0  4G21G25G29G31
  21317940.700   112026673.33609  21317935.640    87293463.58846
  21889019.400   115027609.99909  21889018.480    89631947.06147
  21234848.980   111590132.14508  21234845.140    86953393.45447
  20933187.220   110004654.22609  20933184.200    85717906.36248
 15 01 18 01 11  0.0000000  0  4G21G25G29G31
  21309343.820   111981495.75409  21309338.020    87258260.28446
  21900068.880   115085676.11009  21900068.160    89677193.35147
  21245519.000   111646202.78808  21245515.120    86997084.87447
  20935059.620   110014492.89009  20935056.720    85725572.85448
 15 01 18 01 11 30.0000000  0  4G21G25G29G31
  21300828.800   111936748.90409  21300822.480    87223392.61446
  21911172.720   115144027.82409  21911172.120    89722662.19247
  21256217.860   111702425.99508  21256214.320    87040895.15547
  20937039.340   110024895.36609  20937036.440    85733678.67148
 15 01 18 01 12  0.0000000  0  4G21G25G29G31
  21292395.100   111892429.71109  21292388.500    87188858.16845
  21922330.320   115202661.76009  21922329.780    89768350.95547
  21266944.780   111758797.28308  21266941.720    87084820.82047
  20939125.760   110035858.08809  20939122.740    85742221.04348
 15 01 18 01 12 30.0000000  0  4G21G25G29G31
  21284044.120   111848545.25108  21284037.160    87154662.48745
  21933542.660   115261583.29409  21933542.180    89814263.82847
  21277700.540   111815320.63108  21277697.960    87128864.97947
  20941319.800   110047386.14609  20941316.560    85751203.94648
 15 01 18 01 13  0.0000000  0  4G21G25G29G31
  21275776.300   111805098.31008  21275769.320    87120807.73245
  21944810.060   115320794.40609  21944809.740    89860402.33047
  21288485.320   111871996.47208  21288483.100    87173027.97247
  20943621.760   110059481.24809  20943618.220    85760628.67848
 15 01 18 01 13 30.0000000  0  4G21G25G29G31
  21267593.660   111762099.12208  21267586.560    87087301.86345
  21956134.380   115380304.55309  21956134.160    89906773.85947
  21299300.740   111928833.53008  21299298.900    87217316.58547
  20946033.260   110072152.40009  20946029.420    85770502.28948
 15 01 18 01 14  0.0000000  0  4G21G25G29G31
  21259489.200   111719511.32608  21259482.040    87054116.57845
  21967508.540   115440076.32509  21967508.340    89953349.25647
  21310139.320   111985792.86007  21310137.800    87261700.48447
  20948547.100   110085362.17209  20948543.080    85780795.60948
 15 01 18 01 14 30.0000000  0  4G21G25G29G31
  21251467.100   111677356.93508  21251460.020    87021268.99845
  21978936.540   115500130.81509  21978936.420    90000144.93047
  21321004.660   112042894.69007  21321003.840    87306195.39247
  20951167.240   110099131.21309  20951163.140    85791524.73348
 15 01 18 01 15  0.0000000  0  4G21G25G29G31
  21243527.340   111635635.92108  21243520.520    86988759.11345
  21990418.260   115560467.28809  21990418.120    90047160.33447
  21331896.760   112100137.09807  21331896.620    87350799.82346
  20953893.560   110113458.55309  20953889.500    85802688.86948
 15 01 18 01 15 30.0000000  0  4G21G25G29G31
  21235671.640   111594357.01808  21235665.420    86956593.75145
  22001955.160   115621093.38109  22001954.900    90094401.43447
  21342817.300   112157525.97607  21342817.380    87395518.42347
  20956727.460   110128351.33409  20956723.520    85814293.62348
 15 01 18 01 16  0.0000000  0  4G21G25G29G31
  21227901.460   111553527.05008  21227896.100    86924778.20246
  22013548.240   115682014.96809  22013547.860    90141872.80047
  21353767.200   112215066.28708  21353766.940    87440355.02546
  20959670.040   110143815.18509  20959666.240    85826343.36748
 15 01 18 01 16 30.0000000  0  4G21G25G29G31
  21220216.220   111513141.73508  21220211.620    86893309.13346
  22025196.500   115743226.81409  22025196.060    90189570.33047
  21364745.000   112272752.14308  21364744.200    87485305.06547
  20962720.200   110159844.49609  20962716.520    85838833.73148
 15 01 18 01 17  0.0000000  0  4G21G25G29G31
  21212616.220   111473202.16708  21212612.040    86862187.39846
  22036900.060   115804729.17209  22036899.480    90237494.24547
  21375750.200   112330582.61008  21375748.960    87530367.76747
  20965877.880   110176439.14909  20965874.200    85851764.62347
 15 01 18 01 17 30.0000000  0  4G21G25G29G31
  21205100.040   111433701.86808  21205096.200    86831407.95846
  22048657.480   115866514.54409  22048656.620    90285638.68747
  21386780.940   112388548.50208  21386779.380    87575535.98447
  20969141.540   110193591.01209  20969137.780    85865129.70747
 15 01 18 01 18  0.0000000  0  4G21G25G29G31
  21197668.020   111394643.20208  21197664.240    86800972.63647
  22060469.040   115928584.83509  22060468.040    90334005.13947
  21397837.300   112446650.49508  21397835.680    87620810.25847
  20972511.560   110211301.89809  20972507.760    85878930.37147
 15 01 18 01 18 30.0000000  0  4G21G25G29G31
  21190320.960   111356031.06409  21190317.080    86770885.26347
  22072335.440   115990943.66809  22072334.380    90382596.41847
  21408920.060   112504891.93708  21408918.560    87666193.17847
  20975988.460   110229574.62809  20975984.800    85893168.85047
 15 01 18 01 19  0.0000000  0  5G16G21G25G29G31
  24579162.180   129164365.02607                                
  21183057.420   111317858.24209  21183053.360    86741140.21347
  22084255.240   116053583.06308  22084254.220    90431406.30347
  21420027.540   112563263.04008  21420026.180    87711677.14347
  20979570.680   110248400.99009  20979567.280    85907838.72147
 15 01 18 01 19 30.0000000  0  5G16G21G25G29G31
  24562183.820   129075139.04907  24562182.040   100578021.43344
  21175860.580   111280036.49609  21175856.320    86711668.73047
  22096211.640   116116414.12808  22096210.580    90480365.55147
  21431142.800   112621674.32808  21431141.380    87757192.41247
  20983241.260   110267691.50208  20983238.040    85922870.27547
 15 01 18 01 20  0.0000000  0  5G16G21G25G29G31
  24545219.180   128985987.67707  24545217.240   100508552.91344
  21168767.700   111242761.78109  21168763.200    86682623.50647
  22108241.720   116179631.82809  22108240.560    90529626.08947
  21442302.760   112680319.86108  21442301.120    87802890.21847
  20987037.280   110287640.72909  20987034.020    85938415.11947
 15 01 18 01 20 30.0000000  0  5G16G21G25G29G31
  24528246.420   128896794.30107  24528243.980   100439051.56643
  21161756.520   111205917.07209  21161751.920    86653913.35547
  22120322.920   116243118.30309  22120321.680    90579096.04747
  21453484.800   112739080.59608  21453482.800    87848677.78747
  20990936.300   110308130.17209  20990932.560    85954380.90947
 15 01 18 01 21  0.0000000  0  5G16G21G25G29G31
  24511267.960   128807571.57408  24511265.260   100369527.40543
  21154829.400   111169514.96609  21154824.880    86625548.09247
  22132457.460   116306885.35508  22132456.160    90628784.64147
  21464690.780   112797967.14408  21464688.420    87894563.40547
  20994940.360   110329171.10609  20994935.960    85970776.44547
 15 01 18 01 21 30.0000000  0  5G16G21G25G29G31
  24494285.060   128718326.05507  24494281.400   100299985.39244
  21147987.520   111133561.36909  21147983.180    86597532.31047
  22144646.180   116370938.16808  22144645.000    90678695.90547
  21475921.480   112856984.06408  21475918.920    87940550.59147
  20999050.480   110350768.79209  20999045.520    85987605.81147
 15 01 18 01 22  0.0000000  0  5G16G21G25G29G31
  24477297.580   128629057.28308  24477293.500   100230425.31444
  21141230.860   111098055.77408  21141226.700    86569865.61747
  22156888.800   116435274.96608  22156888.000    90728828.46047
  21487176.400   112916128.46608  21487173.580    87986637.11646
  21003266.100   110372920.25609  21003260.620    86004866.68246
 15 01 18 01 22 30.0000000  0  5G16G21G25G29G31
  24460306.460   128539769.70307  24460301.840   100160850.56444
  21134560.140   111063002.18908  21134556.200    86542551.14747
  22169186.000   116499899.32708  22169185.700    90779185.08946
  21498456.120   112975402.73308  21498452.840    88032824.85046
  21007587.740   110395628.63109  21007581.820    86022561.51946
 15 01 18 01 23  0.0000000  0  5G16G21G25G29G31
  24443310.780   128450457.81108  24443306.260   100091256.90844
  21127974.160   111028394.50408  21127970.480    86515584.13247
  22181536.800   116564804.43508  22181536.800    90829760.49446
  21509759.160   113034799.34808  21509755.220    88079107.92946
  21012013.980   110418886.61109  21012007.740    86040684.61547
 15 01 18 01 23 30.0000000  0  5G16G21G25G29G31
  24426310.880   128361123.59508  24426306.460   100021645.88244
  21121473.180   110994233.91408  21121469.740    86488965.50847
  22193941.360   116629990.79108  22193941.420    90880555.04646
  21521085.440   113094317.91408  21521080.640    88125486.05046
  21016544.660   110442694.05009  21016538.400    86059235.86447
 15 01 18 01 24  0.0000000  0  5G16G21G25G29G31
  24409307.300   128271770.21508  24409303.100    99952019.90844
  21115057.980   110960523.93608  21115054.860    86462698.01347
  22206399.840   116695460.87308  22206399.900    90931570.68747
  21532435.140   113153959.71608  21532429.620    88171960.18846
  21021180.200   110467052.83409  21021173.980    86078216.72947
 15 01 18 01 24 30.0000000  0  5G16G21G25G29G31
  24392299.900   128182396.49708  24392295.960    99882378.02244
  21108728.200   110927262.53608  21108725.320    86436780.05347
  22218911.840   116761212.01108  22218911.960    90982805.31746
  21543807.520   113213721.01708  21543801.260    88218527.46445
  21025919.940   110491959.60809  21025913.700    86097624.59447
 15 01 18 01 25  0.0000000  0  5G16G21G25G29G31
  24375289.040   128093004.65207  24375285.360    99812722.09444
  21102484.100   110894451.10608  21102481.320    86411212.72247
  22231477.440   116827244.98708  22231477.740    91034259.57847
  21555202.640   113273602.57408  21555196.040    88265188.42246
  21030763.920   110517414.61909  21030757.640    86117459.66647
 15 01 18 01 25 30.0000000  0  5G16G21G25G29G31
  24358275.420   128003598.01407  24358271.940    99743054.60045
  21096326.260   110862092.66808  21096323.520    86385998.36546
  22244097.140   116893561.93508  22244097.420    91085935.09947
  21566620.740   113333605.34708  21566614.180    88311943.85245
  21035712.440   110543419.28809  21035705.980    86137723.03646
 15 01 18 01 26  0.0000000  0  5G16G21G25G29G31
  24341258.100   127914171.47507  24341254.540    99673371.58944
  21090253.540   110830181.52108  21090250.740    86361132.53746
  22256769.720   116960156.34308  22256770.040    91137826.81947
  21578060.520   113393721.87608  21578054.180    88358787.89446
  21040764.140   110569966.30309  21040757.460    86158409.00146
 15 01 18 01 26 30.0000000  0  5G16G21G25G29G31
  24324238.120   127824731.52006  24324234.540    99603678.18145
  21084267.100   110798723.45208  21084264.060    86336619.75846
  22269496.080   117027033.35608  22269496.400    91189938.76547
  21589522.900   113453956.66308  21589516.960    88405724.09046
  21045919.860   110597060.33109  21045913.140    86179521.22047
 15 01 18 01 27  0.0000000  0  5G16G21G25G29G31
  24307216.140   127735281.87006  24307212.600    99533977.20044
  21078367.620   110767721.73008  21078364.240    86312462.58146
  22282276.660   117094195.48908  22282276.940    91242272.89147
  21601008.140   113514311.10808  21601002.640    88452753.51546
  21051180.080   110624703.26009  21051173.580    86201061.15547
 15 01 18 01 27 30.0000000  0  5G16G21G25G29G31
  24290191.160   127645816.58905  24290187.880    99464264.04944
  21072553.960   110737169.87308  21072550.180    86288655.93546
  22295109.980   117161635.27208  22295110.380    91294823.36147
  21612514.460   113574776.97608  21612509.380    88499869.75546
  21056543.260   110652886.74809  21056536.940    86223022.31847
 15 01 18 01 28  0.0000000  0  5G16G21G25G29G31
  24273163.860   127556338.19807  24273160.460    99394540.72643
  21066826.380   110707069.72108  21066822.160    86265201.26346
  22307996.480   117229354.13708  22307996.780    91347591.28747
  21624042.040   113635355.46108  21624037.460    88547073.74346
  21062009.500   110681611.49409  21062003.300    86245405.22847
 15 01 18 01 28 30.0000000  0  5G16G21G25G29G31
  24256134.000   127466845.03607  24256130.060    99324805.75844
  21061184.240   110677418.56708  21061179.780    86242096.45746
  22320935.560   117297348.87808  22320935.760    91400574.19047
  21635590.020   113696042.14308  21635586.120    88594362.02847
  21067577.940   110710873.59709  21067572.000    86268206.86847
 15 01 18 01 29  0.0000000  0  5G16G21G25G29G31
  24239102.040   127377339.64108  24239097.520    99255061.34944
  21055627.780   110648218.38708  21055623.380    86219343.07846
  22333927.420   117365620.60708  22333927.360    91453772.93147
  21647158.580   113756837.48308  21647155.400    88641734.99147
  21073248.660   110740673.50509  21073243.020    86291427.56147
 15 01 18 01 29 30.0000000  0  5G16G21G25G29G31
  24222067.720   127287820.51608  24222062.020    99185306.15243
  21050156.560   110619467.18208  21050152.500    86196939.56246
  22346971.520   117434166.40408  22346971.120    91507185.25546
  21658747.240   113817737.96008  21658744.600    88689189.89247
  21079020.960   110771007.54109  21079015.660    86315064.48047
 15 01 18 01 30  0.0000000  0  5G16G21G25G29G31
  24205033.140   127198300.09108  24205026.480    99115549.98143
  21044772.900   110591176.22308  21044769.140    86174894.66946
  22360069.800   117502997.10508  22360069.260    91560819.54947
  21670358.100   113878753.57008  21670355.560    88736734.50946
  21084896.780   110801885.63309  21084891.700    86339125.32347
 15 01 18 01 30 30.0000000  0  5G16G21G25G29G31
  24187997.920   127108776.67308  24187990.760    99045791.47544
  21039476.420   110563343.08208  21039472.780    86153206.51647
  22373221.600   117572109.71908  22373221.060    91614673.50946
  21681990.420   113939880.66308  21681987.680    88784366.01647
  21090875.400   110833303.84209  21090870.520    86363607.03247
 15 01 18 01 31  0.0000000  0  5G16G21G25G29G31
  24170961.740   127019249.46308  24170954.320    98976030.00344
  21034266.540   110535965.78508  21034262.940    86131873.56347
  22386426.480   117641501.63208  22386425.960    91668745.11347
  21693643.400   114001115.86208  21693640.360    88832081.73147
  21096956.280   110865259.07409  21096951.520    86388507.19547
 15 01 18 01 31 30.0000000  0  5G16G21G25G29G31
  24153924.600   126929718.83608  24153917.240    98906265.93144
  21029143.300   110509044.32708  21029139.720    86110895.82946
  22399684.220   117711172.02008  22399683.800    91723033.71747
  21705316.700   114062457.77508  21705313.300    88879880.60246
  21103139.000   110897749.50009  21103134.340    86413824.40247
 15 01 18 01 32  0.0000000  0  6G16G18G21G25G29G31
  24136887.360   126840189.00408  24136880.360    98836502.45244
  24481504.240   128651168.53606  24481500.260   100247636.64144
  21024107.520   110482581.90008  21024103.960    86090275.76447
  22412995.420   117781123.72508  22412995.340    91777541.51947
  21717010.620   114123908.32408  21717006.920    88927764.15246
  21109423.940   110930776.94109  21109419.400    86439560.06848
 15 01 18 01 32 30.0000000  0  6G16G18G21G25G29G31
  24119845.420   126750635.68207  24119839.260    98766720.65944
  24466911.560   128574485.39507  24466907.280   100187883.74744
  21019154.440   110456553.39408  21019150.900    86069993.80546
  22426354.980   117851330.60008  22426355.400    91832248.14247
  21728720.080   114185441.42008  21728716.000    88975712.00646
  21115806.040   110964314.99509  21115801.700    86465693.60448
 15 01 18 01 33  0.0000000  0  6G16G18G21G25G29G31
  24102808.120   126661107.15608  24102802.740    98696958.19244
  24452310.500   128497756.96907  24452306.020   100128095.59543
  21014293.020   110431006.06008  21014289.560    86050086.78747
  22439771.800   117921839.38708  22439772.980    91887190.01947
  21740453.860   114247102.92708  21740449.480    89023759.92946
  21122293.920   110998409.29209  21122289.780    86492260.56448
 15 01 18 01 33 30.0000000  0  6G16G18G21G25G29G31
  24085770.520   126571576.94107  24085766.100    98627194.43545
  24437696.140   128420958.47006  24437690.940   100068252.75243
  21009518.000   110405912.43808  21009514.600    86030533.33247
  22453240.820   117992622.36808  22453242.680    91942345.57747
  21752206.640   114308864.49708  21752201.960    89071885.84245
  21128882.060   111033030.79009  21128878.220    86519238.35548
 15 01 18 01 34  0.0000000  0  6G16G18G21G25G29G31
  24068733.040   126482046.31107  24068729.600    98557430.34945
  24423068.840   128344091.67906  24423062.660   100008356.77841
  21004829.480   110381272.80408  21004826.000    86011333.62547
  22466762.080   118063678.90008  22466764.320    91997714.27847
  21763978.120   114370724.69608  21763972.880    89120088.58045
  21135570.200   111068178.40709  21135566.800    86546626.09448
 15 01 18 01 34 30.0000000  0  6G16G18G21G25G29G31
  24051695.720   126392515.58008  24051692.900    98487666.18845
  24408428.840   128267158.66106  24408421.580    99948409.15843
  21000227.260   110357086.41908  21000223.600    85992487.09147
  22480335.440   118135007.68308  22480337.680    92053295.14446
  21775768.060   114432681.95008  21775762.400    89168366.96645
  21142357.940   111103849.75809  21142355.140    86574421.94248
 15 01 18 01 35  0.0000000  0  6G16G18G21G25G29G31
  24034659.640   126302990.70908  24034657.160    98417906.58745
  24393777.540   128190166.39307  24393769.560    99888415.34143
  20995712.100   110333358.16308  20995708.420    85973997.56247
  22493961.860   118206613.07408  22493963.840    92109091.55747
  21787577.140   114494740.31708  21787571.660    89216724.11045
  21149246.040   111140048.36309  21149243.740    86602628.63548
 15 01 18 01 35 30.0000000  0  6G16G18G21G25G29G31
  24017624.360   126213469.59608  24017622.040    98348149.90445
  24379114.820   128113114.23807  24379106.840    99828374.76644
  20991283.300   110310084.46008  20991279.740    85955862.22747
  22507640.360   118278491.16808  22507641.740    92165100.45747
  21799404.700   114556895.12708  21799399.220    89265156.44846
  21156233.680   111176769.57409  21156231.720    86631242.55548
 15 01 18 01 36  0.0000000  0  6G16G18G21G25G29G31
  24000590.940   126123957.24208  24000588.320    98278400.03745
  24364441.580   128036007.96207  24364434.060    99768292.12444
  20986941.700   110287269.71808  20986938.220    85938084.50447
  22521371.500   118350645.49908  22521372.240    92221324.60547
  21811251.340   114619149.33008  21811246.240    89313666.20646
  21163321.400   111214015.96208  21163319.500    86660265.67748
 15 01 18 01 36 30.0000000  0  6G16G18G21G25G29G31
  23983559.340   126034453.85708  23983556.200    98208657.19044
  24349758.400   127958849.70507  24349751.860    99708168.93244
  20982687.180   110264913.27608  20982683.860    85920663.91847
  22535154.900   118423074.66709  22535155.160    92277762.91647
  21823116.720   114681501.09008  21823111.940    89362251.98846
  21170508.540   111251785.02408  21170506.600    86689696.09148
 15 01 18 01 37  0.0000000  0  6G16G18G21G25G29G31
  23966529.400   125944959.53308  23966525.960    98138921.36244
  24335065.280   127881639.87607  24335059.300    99648005.60944
  20978519.440   110243013.10408  20978516.300    85903598.86047
  22548990.140   118495776.72209  22548989.960    92334413.86347
  21835000.180   114743948.06708  21834995.620    89410911.96547
  21177794.580   111290073.85608  21177792.580    86719531.50748
 15 01 18 01 37 30.0000000  0  6G16G18G21G25G29G31
  23949501.820   125855478.67808  23949498.160    98069196.04144
  24320363.360   127804384.67707  24320357.880    99587806.86343
  20974439.360   110221572.79908  20974436.240    85886892.14947
  22562877.740   118568754.64509  22562877.180    92391279.77547
  21846902.160   114806492.69209  21846897.820    89459648.04147
  21185179.740   111328884.13208  21185177.820    86749773.26348
 15 01 18 01 38  0.0000000  0  6G16G18G21G25G29G31
  23932476.800   125766012.43307  23932472.920    97999482.09544
  24305653.240   127727086.36607  24305648.140    99527574.52842
  20970446.940   110200592.61408  20970443.780    85870543.96947
  22576817.480   118642007.55909  22576816.680    92448359.96647
  21858822.380   114869133.41909  21858818.320    89508458.99347
  21192663.820   111368214.35408  21192662.040    86780420.17348
 15 01 18 01 38 30.0000000  0  6G16G18G21G25G29G31
  23915454.180   125676559.40307  23915450.100    97929778.40944
  24290934.900   127649744.83007  24290930.160    99467308.42843
  20966541.660   110180070.12408  20966538.300    85854552.43247
  22590808.900   118715532.66208  22590807.860    92505652.23847
  21870760.280   114931867.23609  21870756.500    89557342.49947
  21200246.280   111408060.70008  21200244.520    86811469.25348
 15 01 18 01 39  0.0000000  0  6G16G18G21G25G29G31
  23898433.960   125587119.53806  23898429.280    97860085.01244
  24276208.580   127572361.03506  24276205.180    99407009.37143
  20962723.200   110160003.83408  20962719.660    85838916.36447
  22604851.560   118789327.93008  22604850.380    92563155.02546
  21882715.540   114994692.43109  21882711.860    89606297.16847
  21207926.640   111448420.51308  21207924.780    86842918.43348
 15 01 18 01 39 30.0000000  0  6G16G18G21G25G29G31
  23881417.400   125497699.16107  23881412.540    97790406.78643
  24261475.520   127494942.20005  24261474.160    99346683.15644
  20958992.420   110140398.05308  20958988.660    85823639.14147
  22618946.280   118863397.51308  22618945.280    92620871.56946
  21894688.780   115057612.01408  21894685.180    89655325.40447
  21215705.280   111489296.41809  21215703.320    86874769.76348
 15 01 18 01 40  0.0000000  0  6G16G18G21G25G29G31
  23864405.380   125408303.49307  23864400.860    97720747.81142
  24246736.320   127417495.61605  24246737.360    99286335.39944
  20955350.120   110121257.12508  20955346.220    85808724.14647
  22633093.880   118937745.45008  22633093.320    92678804.99646
  21906680.540   115120629.91808  21906677.080    89704430.24447
  21223582.640   111530691.44108  21223580.700    86907025.61948
 15 01 18 01 40 30.0000000  0  6G16G18G21G25G29G31
  23847395.440   125318918.81006  23847391.820    97651097.40743
  24231989.640   127340008.27605  24231992.560    99225955.81843
  20951793.420   110102566.16208  20951789.480    85794159.76447
  22647291.460   119012355.95208  22647291.340    92736943.02146
  21918687.840   115183729.98508  21918684.560    89753599.10747
  21231555.500   111572588.84308  21231553.660    86939672.92948
 15 01 18 01 41  0.0000000  0  6G16G18G21G25G29G31
  23830388.660   125229550.16606  23830386.160    97581459.52144
  24217237.340   127262486.57105  24217240.700    99165549.39244
  20948322.920   110084328.49108  20948319.140    85779948.60148
  22661539.540   119087231.93608  22661539.920    92795287.91146
  21930711.200   115246914.53708  21930708.160    89802833.79447
  21239624.360   111614990.72508  21239622.620    86972713.33448
 15 01 18 01 41 30.0000000  0  6G16G18G21G25G29G31
  23813385.800   125140201.32306  23813384.400    97511837.10045
  24202479.960   127184935.29805  24202483.080    99105119.96745
  20944939.020   110066546.10208  20944935.540    85766092.21347
  22675838.660   119162375.47808  22675839.300    92853841.29146
  21942750.980   115310185.48507  21942748.180    89852135.80747
  21247789.360   111657897.80108  21247787.560    87006147.41948
 15 01 18 01 42  0.0000000  0  6G16G18G21G25G29G31
  23796386.880   125050871.40107  23796386.180    97442229.36644
  24187717.340   127107354.88406  24187719.880    99044667.86145
  20941641.560   110049217.97508  20941638.360    85752589.80548
  22690188.320   119237783.93908  22690189.140    92912601.10846
  21954806.620   115373540.31607  21954803.920    89901503.18746
  21256049.880   111701306.37508  21256047.720    87039972.27848
 15 01 18 01 42 30.0000000  0  6G16G18G21G25G29G31
  23779392.380   124961563.37107  23779392.060    97372638.75345
  24172950.080   127029749.33407  24172951.740    98984196.12645
  20938430.640   110032344.97008  20938427.640    85739442.03248
  22704588.700   119313458.18908  22704589.500    92971568.04046
  21966878.360   115436979.33307  21966875.620    89950936.15446
  21264405.840   111745216.24809  21264403.080    87074187.76147
 15 01 18 01 43  0.0000000  0  6G16G18G21G25G29G31
  23762402.500   124872278.73907  23762402.040    97303066.31846
  24158178.480   126952121.20207  24158179.400    98923706.81145
  20935306.300   110015926.89408  20935303.420    85726648.74248
  22719039.660   119389397.89208  22719040.180    93030741.83346
  21978966.160   115500501.73707  21978963.100    90000434.10546
  21272856.960   111789626.10609  21272853.300    87108792.84647
 15 01 18 01 43 30.0000000  0  6G16G18G21G25G29G31
  23745417.980   124783021.96207  23745417.280    97233515.59945
  24143403.680   126874476.46007  24143403.960    98863204.55445
  20932269.020   109999966.67108  20932266.200    85714212.22547
  22733541.580   119465605.48608  22733541.720    93090124.37646
  21991070.520   115564109.72608  21991066.920    90049998.75646
  21281403.400   111834537.09509  21281398.720    87143788.43447
 15 01 18 01 44  0.0000000  0  6G16G18G21G25G29G31
  23728438.480   124693791.96708  23728437.500    97163985.77445
  24128625.600   126796814.92108  24128625.180    98802689.19444
  20929318.360   109984461.45808  20929315.560    85702130.25947
  22748093.700   119542077.78208  22748093.660    93149713.15946
  22003190.800   115627800.15208  22003186.320    90099627.67745
  21290044.360   111879944.95309  21290038.960    87179171.19647
 15 01 18 01 44 30.0000000  0  6G16G18G21G25G29G31
  23711465.080   124604594.60507  23711463.760    97094481.35545
  24113845.540   126719143.81308  24113844.620    98742166.36544
  20926455.260   109969415.93108  20926452.360    85690406.48047
  22762696.940   119618819.02708  22762696.920    93209511.51246
  22015327.580   115691576.99908  22015322.420    90149323.93446
  21298780.460   111925852.91409  21298774.740    87214943.61747
 15 01 18 01 45  0.0000000  0  6G16G18G21G25G29G31
  23694497.320   124515427.50007  23694496.040    97025000.52445
  24099063.280   126641461.93908  24099061.780    98681635.11144
  20923678.940   109954826.07608  20923675.840    85679037.76747
  22777350.520   119695824.43008  22777350.660    93269515.68746
  22027479.840   115755435.34908  22027474.560    90199083.66946
  21307610.640   111972255.01909  21307604.680    87251101.11047
 15 01 18 01 45 30.0000000  0  6G16G18G21G25G29G31
  23677535.360   124426291.06007  23677533.980    96955543.55846
  24084279.200   126563770.80108  24084277.220    98621096.68344
  20920989.220   109940690.83808  20920985.820    85668023.30948
  22792054.220   119773092.88808  22792054.580    93329724.84446
  22039647.400   115819373.90708  22039642.100    90248905.94046
  21316534.340   112019148.87109  21316528.340    87287641.77847
 15 01 18 01 46  0.0000000  0  6G16G18G21G25G29G31
  23660580.200   124337190.46808  23660578.740    96886114.59044
  24069494.520   126486076.51008  24069492.180    98560555.77943
  20918386.680   109927013.77508  20918383.060    85657365.87247
  22806808.520   119850627.09208  22806809.060    93390141.08246
  22051830.640   115883395.18708  22051825.280    90298792.65247
  21325551.820   112066536.09909  21325545.940    87324566.89447
 15 01 18 01 46 30.0000000  0  6G16G18G21G25G29G31
  23643630.940   124248120.54907  23643629.120    96816709.42845
  24054708.500   126408375.03808  24054705.960    98500009.25743
  20915869.980   109913787.95408  20915866.280    85647060.04847
  22821612.220   119928419.86008  22821612.680    93450758.78346
  22064028.100   115947491.62208  22064022.760    90348737.92447
  21334661.580   112114408.43709  21334655.880    87361870.00747
 15 01 18 01 47  0.0000000  0  6G16G18G21G25G29G31
  23626688.920   124159088.88407  23626686.860    96747334.10944
  24039922.760   126330675.01908  24039919.880    98439463.83344
  20913440.200   109901018.77508  20913436.380    85637110.06547
  22836466.280   120006476.61708  22836466.400    93511582.19946
  22076240.900   116011668.80608  22076235.560    90398746.12147
  21343864.400   112162769.91808  21343858.980    87399554.28847
 15 01 18 01 47 30.0000000  0  6G16G18G21G25G29G31
  23609754.060   124070094.94208  23609751.840    96677988.22144
  24025137.440   126252977.37308  24025134.420    98378920.30444
  20911097.000   109888704.09108  20911092.860    85627514.20748
  22851370.140   120084794.90908  22851369.680    93572609.42846
  22088468.460   116075924.32908  22088463.260    90448815.33747
  21353159.520   112211617.19108  21353154.640    87437617.08047
 15 01 18 01 48  0.0000000  0  6G16G18G21G25G29G31
  23592826.820   123981141.41508  23592824.380    96608673.77444
  24010353.200   126175285.84308  24010350.340    98318381.58144
  20908840.580   109876845.06308  20908836.120    85618273.42048
  22866323.880   120163375.29608  22866322.580    93633840.89245
  22100710.700   116140258.14908  22100705.700    90498945.57147
  21362546.840   112260949.60708  21362542.600    87476057.90147
 15 01 18 01 48 30.0000000  0  7G16G18G21G25G27G29G31
  23575907.120   123892227.62508  23575904.480    96539390.32244
  23995570.100   126097600.85108  23995567.440    98257847.94844
  20906670.400   109865439.24708  20906665.700    85609385.77247
  22881326.860   120242214.86508  22881324.740    93695274.31845
  24629097.060   129426773.49308  24629100.560   100852055.81345
  22112967.160   116204667.76108  22112962.620    90549134.84547
  21372025.600   112310762.54808  21372022.040    87514873.15948
 15 01 18 01 49  0.0000000  0  7G16G18G21G25G27G29G31
  23558995.440   123803356.11008  23558992.180    96470139.81444
  23980788.840   126019925.92508  23980786.480    98197322.10344
  20904586.580   109854487.52008  20904581.700    85600851.96848
  22896379.180   120321314.05508  22896376.340    93756910.06545
  24614714.880   129351193.31108  24614716.100   100793162.23044
  22125237.940   116269153.49407  22125234.000    90599383.44647
  21381595.840   112361055.69408  21381592.900    87554062.60548
 15 01 18 01 49 30.0000000  0  7G16G18G21G25G27G29G31
  23542091.860   123714527.74708  23542087.940    96400922.91144
  23966009.920   125942263.25308  23966007.780    98136805.81344
  20902588.940   109843988.91508  20902583.880    85592671.24648
  22911480.480   120400671.59408  22911477.300    93818747.10045
  24600350.180   129275705.10007  24600351.480   100734340.28846
  22137522.560   116333714.00107  22137519.520    90649690.26547
  21391257.040   112411826.39408  21391254.640    87593624.17748
 15 01 18 01 50  0.0000000  0  7G16G18G21G25G27G29G31
  23525196.780   123625744.59308  23525192.200    96331741.21644
  23951233.840   125864616.11007  23951231.880    98076301.63044
  20900677.480   109833943.65008  20900672.260    85584843.76448
  22926630.880   120480287.41808  22926627.660    93880785.39245
  24586003.200   129200309.39508  24586002.900   100675590.37245
  22149821.520   116398349.23708  22149819.320    90700055.36046
  21401009.100   112463073.49708  21401006.920    87633556.97348
 15 01 18 01 50 30.0000000  0  7G16G18G21G25G27G29G31
  23508311.240   123537012.10808  23508306.220    96262599.01244
  23936461.600   125786990.57907  23936460.360    98015814.31844
  20898852.800   109824355.04108  20898847.500    85577372.12948
  22941830.940   120560164.75008  22941827.540    93943027.47145
  24571674.420   129125010.05208  24571673.460   100616915.61145
  22162135.500   116463062.10908  22162133.480    90750480.96246
  21410852.420   112514799.00109  21410850.180    87673862.54648
 15 01 18 01 51  0.0000000  0  7G16G18G21G25G27G29G31
  23491434.060   123448323.05508  23491427.860    96193490.67644
  23921692.420   125709380.49208  23921691.600    97955339.06444
  20897113.120   109815214.06708  20897107.840    85570249.28447
  22957078.860   120640294.12808  22957075.620    94005465.93745
  24557362.120   129049798.23208  24557360.500   100558309.03545
  22174462.680   116527843.25408  22174460.800    90800959.74746
  21420784.760   112566991.79209  21420782.280    87714532.24148
 15 01 18 01 51 30.0000000  0  7G16G18G21G25G27G29G31
  23474566.340   123359682.86208  23474559.520    96124420.41443
  23906927.960   125631792.85408  23906926.660    97894881.25143
  20895459.120   109806523.90708  20895453.880    85563477.73347
  22972375.240   120720678.57108  22972372.260    94068103.14944
  24543066.960   128974677.67108  24543064.940   100499773.61044
  22186803.680   116592695.75408  22186801.580    90851494.17146
  21430806.400   112619653.99809  21430803.540    87755567.70548
 15 01 18 01 52  0.0000000  0  7G16G18G21G25G27G29G31
  23457708.020   123271091.40308  23457700.880    96055388.11443
  23892168.300   125554228.82008  23892166.180    97834441.77443
  20893890.660   109798282.98708  20893885.420    85557056.24747
  22987719.700   120801316.07608  22987717.380    94130937.57145
  24528788.940   128899647.12108  24528786.760   100441308.28345
  22199158.200   116657618.01508  22199155.420    90902082.94646
  21440916.520   112672782.10709  21440913.440    87796966.22648
 15 01 18 01 52 30.0000000  0  7G16G18G21G25G27G29G31
  23440860.060   123182553.48808  23440852.640    95986397.51144
  23877414.100   125476693.22608  23877410.540    97774024.42643
  20892408.300   109790493.85508  20892402.900    85550986.78947
  23003112.560   120882208.46608  23003111.040    94193970.57545
  24514528.600   128824709.06708  24514526.120   100382914.96444
  22211526.620   116722612.03108  22211523.000    90952727.64846
  21451115.340   112726376.84709  21451112.360    87838728.33248
 15 01 18 01 53  0.0000000  0  7G16G18G21G25G27G29G31
  23424022.680   123094071.22408  23424015.500    95917450.31144
  23862665.980   125399189.91808  23862661.660    97713632.31242
  20891012.100   109783156.77408  20891006.520    85545269.58047
  23018554.040   120963356.04108  23018553.540    94257202.42145
  24500285.840   128749864.45008  24500283.280   100324594.51044
  22223908.820   116787677.69108  22223904.420    91003428.18346
  21461402.800   112780437.17309  21461400.020    87880853.24748
 15 01 18 01 53 30.0000000  0  7G16G18G21G25G27G29G31
  23407196.120   123005645.88608  23407189.540    95848547.46644
  23847924.400   125321721.03408  23847919.840    97653266.99943
  20889701.760   109776270.74408  20889695.980    85539903.85247
  23034043.980   121044757.46008  23034044.240    94320632.08446
  24486060.760   128675112.72708  24486058.280   100266346.41044
  22236304.360   116852813.87208  22236299.760    91054183.65746
  21471778.460   112834960.59909  21471775.780    87923339.02848
 15 01 18 01 54  0.0000000  0  7G16G18G21G25G27G29G31
  23390380.280   122917276.41808  23390374.100    95779688.17344
  23833189.420   125244286.72308  23833184.940    97592928.58142
  20888476.700   109769832.77108  20888470.780    85534887.26447
  23049581.680   121126409.64108  23049582.560    94384257.13646
  24471852.880   128600451.31907  24471850.600   100208168.72245
  22248712.800   116918017.61108  22248707.920    91104991.77146
  21482241.320   112889942.41709  21482238.680    87966181.99448
 15 01 18 01 54 30.0000000  0  7G16G18G21G25G27G29G31
  23373575.560   122828965.34008  23373569.880    95710874.34244
  23818461.620   125166890.43708  23818457.940    97532619.82643
  20887336.860   109763842.94308  20887330.900    85530219.87347
  23065167.340   121208312.59308  23065168.580    94448077.59746
  24457662.560   128525881.16207  24457660.620   100150062.08645
  22261133.880   116983288.75108  22261129.040    91155852.37746
  21492791.120   112945381.53309  21492788.480    88009381.29948
 15 01 18 01 55  0.0000000  0  7G16G18G21G25G27G29G31
  23356782.640   122740717.20808  23356777.540    95642109.58044
  23803741.760   125089537.85708  23803738.960    97472345.20744
  20886282.800   109758304.15908  20886277.000    85525903.92847
  23080801.400   121290468.53808  23080802.680    94512095.18846
  24443490.220   128451405.11507  24443488.660   100092028.76646
  22273568.060   117048630.24808  22273563.500    91206767.78547
  21503428.020   113001278.75409  21503425.220    88052937.55548
 15 01 18 01 55 30.0000000  0  7G16G18G21G25G27G29G31
  23340001.720   122652533.24608  23339997.400    95573394.83644
  23789030.440   125012231.30108  23789028.520    97412106.44144
  20885314.500   109753215.72908  20885308.840    85521938.92147
  23096483.400   121372876.40408  23096484.500    94576309.08946
  24429335.760   128377022.79507  24429334.220   100034068.59045
  22286015.300   117114040.97808  22286011.180    91257737.17247
  21514151.500   113057631.73909  21514148.440    88096848.97047
 15 01 18 01 56  0.0000000  0  7G16G18G21G25G27G29G31
  23323232.540   122564411.56208  23323228.820    95504728.59444
  23774327.780   124934970.01708  23774326.380    97351902.90243
  20884431.140   109748573.23908  20884425.560    85518321.39547
  23112212.640   121455531.93708  23112213.080    94640715.99246
  24415198.580   128302730.77608  24415197.040    99976178.74444
  22298474.840   117179516.96808  22298471.260    91308757.38547
  21524960.400   113114434.78109  21524957.040    88141111.06847
 15 01 18 01 56 30.0000000  0  7G16G18G21G25G27G29G31
  23306475.660   122476354.81908  23306472.300    95436112.96744
  23759634.540   124857757.29508  23759633.140    97291737.21844
  20883632.800   109744377.29008  20883627.280    85515051.82847
  23127989.000   121538435.17408  23127988.680    94705315.92945
  24401078.760   128228529.78608  24401077.020    99918359.79945
  22310946.700   117245058.35108  22310943.620    91359828.55847
  21535854.620   113171687.03709  21535850.960    88185723.22247
 15 01 18 01 57  0.0000000  0  7G16G18G21G25G27G29G31
  23289731.440   122388364.92308  23289728.460    95367549.43644
  23744951.300   124780596.56608  23744949.760    97231612.07343
  20882919.320   109740627.41208  20882913.840    85512129.85248
  23143812.240   121621585.72408  23143811.660    94770108.54145
  24386976.320   128154420.18608  24386974.080    99860612.04845
  22323431.040   117310664.82508  22323428.260    91410950.46547
  21546833.980   113229386.37509  21546830.300    88230683.73147
 15 01 18 01 57 30.0000000  0  7G16G18G21G25G27G29G31
  23273000.200   122300444.01207  23272997.280    95299039.65444
  23730278.560   124703490.30308  23730276.420    97171529.39243
  20882290.660   109737323.16408  20882285.160    85509555.11347
  23159682.300   121704982.87908  23159681.600    94835093.31345
  24372891.260   128080401.98608  24372888.780    99802935.53745
  22335927.840   117376336.05208  22335925.160    91462122.82146
  21557898.280   113287530.64409  21557894.780    88275990.93547
 15 01 18 01 58  0.0000000  0  7G16G18G21G25G27G29G31
  23256282.260   122212593.52207  23256279.640    95230584.77144
  23715616.880   124626441.60607  23715613.780    97111491.49143
  20881746.700   109734464.24908  20881741.180    85507327.37047
  23175599.080   121788626.09108  23175597.980    94900269.85445
  24358823.540   128006475.43208  24358821.200    99745330.45945
  22348437.000   117442071.45908  22348434.260    91513345.20246
  21569047.180   113346118.04609  21569043.900    88321643.45047
 15 01 18 01 58 30.0000000  0  7G16G18G21G25G27G29G31
  23239577.940   122124815.26707  23239576.120    95162186.18044
  23700966.460   124549453.21107  23700962.540    97051500.61643
  20881287.360   109732050.37208  20881281.900    85505446.42548
  23191562.400   121872514.50308  23191561.220    94965637.42545
  24344773.140   127932640.43108  24344771.120    99687796.75445
  22360958.400   117507870.99108  22360955.560    91564617.56646
  21580280.220   113405146.20709  21580276.880    88367639.40547
 15 01 18 01 59  0.0000000  0  7G16G18G21G25G27G29G31
  23222887.880   122037111.14807  23222886.680    95093845.36145
  23686327.640   124472527.81007  23686324.280    96991558.83343
  20880912.500   109730080.62508  20880907.180    85503911.55548
  23207572.260   121956647.34508  23207571.080    95031195.47145
  24330740.160   127858896.93707  24330738.560    99630334.24346
  22373491.800   117573733.89808  22373488.880    91615939.27746
  21591596.900   113464613.28409  21591593.240    88413977.37947
 15 01 18 01 59 30.0000000  0  7G16G18G21G25G27G29G31
  23206212.540   121949483.54407  23206211.900    95025564.15744
  23671701.420   124395668.42907  23671698.680    96931668.51043
  20880622.180   109728555.15108  20880616.920    85502722.87648
  23223628.760   122041024.52808  23223627.380    95096943.95045
  24316724.600   127785245.80107  24316723.640    99572943.79146
  22386037.160   117639660.30708  22386034.300    91667310.50346
  21602996.840   113524517.81709  21602992.760    88460656.23047
 15 01 18 02 00  0.0000000  0  7G16G18G21G25G27G29G31
  23189551.640   121861930.56508  23189551.440    94957341.09344
  23657087.800   124318874.69608  23657085.360    96871829.37541
  20880415.580   109727469.92008  20880410.380    85501877.25647
  23239730.900   122125641.82408  23239729.940    95162879.50945
  24302725.860   127711683.39508  24302725.780    99515622.46846
  22398593.740   117705646.26608  22398591.140    91718728.12945
  21614478.880   113584854.04509  21614474.400    88507671.46248
 15 01 18 02 00 30.0000000  0  7G16G18G21G25G27G29G31
  23172905.560   121774453.88108  23172905.420    94889177.45944
  23642487.440   124242148.96508  23642485.520    96812043.12443
  20880292.620   109726823.96908  20880287.460    85501373.91348
  23255878.500   122210498.14708  23255878.180    95229001.27745
  24288743.880   127638209.52007  24288744.560    99458370.10846
  22411161.440   117771691.23108  22411158.600    91770191.76745
  21626042.480   113645619.56009  21626037.700    88555021.21048
 15 01 18 02 01  0.0000000  0  7G16G18G21G25G27G29G31
  23156275.780   121687061.89708  23156275.000    94821079.77344
  23627902.000   124165500.25308  23627898.660    96752316.78842
  20880254.360   109726623.05008  20880249.160    85501217.36847
  23272072.700   122295599.18008  23272072.960    95295313.74545
  24274779.680   127564830.59906  24274781.340    99401191.75946
  22423741.320   117837801.09108  22423737.460    91821705.95644
  21637688.460   113706818.43709  21637683.440    88602708.63047
 15 01 18 02 01 30.0000000  0  7G16G18G21G25G27G29G31
  23139661.560   121599751.07008  23139659.580    94753045.35443
  23613330.860   124088926.56408  23613325.980    96692649.01141
  20880299.780   109726861.64708  20880294.480    85501403.29647
  23288312.320   122380939.00608  23288312.740    95361812.31345
  24260832.420   127491541.55606  24260835.200    99344083.49446
  22436332.620   117903970.39008  22436327.860    91873266.48445
  21649415.420   113768443.50409  21649410.120    88650728.16747
 15 01 18 02 02  0.0000000  0  7G16G18G21G25G27G29G31
  23123063.380   121512524.30208  23123060.260    94685076.42844
  23598774.640   124012431.57707  23598769.580    96633042.55843
  20880429.020   109727540.39008  20880423.620    85501932.17847
  23304597.420   122466517.74008  23304597.840    95428497.03045
  24246902.500   127418343.43705  24246906.100    99287045.96345
  22448935.200   117970199.56007  22448930.160    91924873.61145
  21661223.180   113830493.35809  21661217.580    88699078.70947
 15 01 18 02 02 30.0000000  0  7G16G18G21G25G27G29G31
  23106481.040   121425381.31308  23106476.660    94617172.77544
  23584233.440   123936016.18308  23584228.720    96573498.13642
  20880641.460   109728656.46808  20880635.940    85502801.84947
  23320927.500   122552332.79708  23320927.780    95495365.88845
  24232989.800   127345234.28007  24232993.680    99230077.89146
  22461548.680   118036486.25107  22461544.460    91976525.53145
  21673110.940   113892964.16109  21673105.180    88747757.26247
 15 01 18 02 03  0.0000000  0  7G16G18G21G25G27G29G31
  23089914.580   121338322.29108  23089909.500    94549334.61144
  23569707.400   123859681.44908  23569703.900    96514016.58042
  20880936.620   109730207.34208  20880931.000    85504010.31647
  23337302.020   122638381.45208  23337302.060    95562416.77745
  24219094.060   127272212.52506  24219097.900    99173177.75746
  22474172.920   118102828.54707  22474169.360    92028220.78345
  21685077.920   113955851.80109  21685072.040    88796760.60847
 15 01 18 02 03 30.0000000  0  7G16G18G21G25G27G29G31
  23073365.320   121251353.96108  23073359.800    94481567.07744
  23555198.060   123783434.61208  23555195.100    96454603.52243
  20881315.280   109732197.05108  20881309.500    85505560.74347
  23353721.700   122724667.61308  23353721.440    95629652.74744
  24205216.160   127199282.48306  24205219.480    99116349.22946
  22486808.840   118169230.66208  22486805.460    92079962.64446
  21697124.620   114019158.61409  21697118.720    88846090.59446
 15 01 18 02 04  0.0000000  0  7G16G18G21G25G27G29G31
  23056832.520   121164472.29708  23056826.780    94413867.10744
  23540704.960   123707272.87908  23540702.140    96395256.76043
  20881776.240   109734619.49608  20881770.380    85507448.37147
  23370185.300   122811184.87708  23370184.620    95697068.76644
  24191355.020   127126438.84206  24191357.560    99059587.96446
  22499455.220   118235686.49508  22499451.800    92131746.38646
  21709249.580   114082876.97209  21709243.740    88895741.25746
 15 01 18 02 04 30.0000000  0  7G16G18G21G25G27G29G31
  23040317.320   121077683.35708  23040311.640    94346239.37544
  23526229.320   123631202.99008  23526226.520    96335981.53243
  20882320.040   109737477.69708  20882314.180    85509675.54847
  23386693.440   122897936.28208  23386692.520    95764667.23144
  24177511.180   127053685.53507  24177512.860    99002897.08646
  22512112.600   118302199.47608  22512108.980    92183574.65046
  21721452.960   114147008.13009  21721447.360    88945713.56946
 15 01 18 02 05  0.0000000  0  7G16G18G21G25G27G29G31
  23023819.480   120990986.25508  23023813.920    94278683.21645
  23511771.160   123555225.26408  23511768.320    96276778.13243
  20882946.020   109740768.16908  20882940.260    85512239.55947
  23403245.580   122984918.54907  23403244.340    95832445.62145
  24163684.040   126981020.03407  24163684.860    98946274.63846
  22524780.360   118368766.92108  22524776.400    92235445.35546
  21733734.080   114211547.35409  21733728.640    88996003.84946
 15 01 18 02 05 30.0000000  0  7G16G18G21G25G27G29G31
  23007340.520   120904388.86208  23007335.260    94211204.75844
  23497332.040   123479348.17308  23497328.920    96217653.17344
  20883655.180   109744496.28008  20883649.760    85515144.59347
  23419842.500   123072136.58308  23419841.180    95900407.69044
  24149874.520   126908448.14407  24149874.700    98889725.14045
  22537459.380   118435394.15508  22537455.120    92287362.66846
  21746093.720   114276498.33909  21746088.320    89046614.99846
 15 01 18 02 06  0.0000000  0  7G16G18G21G25G27G29G31
  22990880.460   120817891.37008  22990875.700    94143804.12745
  23482912.020   123403572.64707  23482908.780    96158607.30944
  20884447.180   109748659.69508  20884442.080    85518388.81847
  23436483.880   123159587.64908  23436482.620    95968551.35544
  24136082.240   126835968.06008  24136082.120    98833247.14045
  22550149.340   118502079.02008  22550144.820    92339324.87446
  21758531.100   114341856.88109  21758525.780    89097543.72246
 15 01 18 02 06 30.0000000  0  7G16G18G21G25G27G29G31
  22974439.080   120731492.21208  22974434.760    94076480.12745
  23468511.100   123327898.39206  23468507.740    96099640.37544
  20885321.280   109753253.97008  20885316.300    85521968.77747
  23453168.920   123247267.58408  23453167.740    96036873.36544
  24122306.660   126763576.49308  24122306.120    98776838.11745
  22562849.540   118568817.98408  22562844.760    92391329.23545
  21771045.120   114407617.50409  21771040.020    89148785.76046
 15 01 18 02 07  0.0000000  0  7G16G18G21G25G27G29G31
  22958017.020   120645194.88708  22958013.120    94009235.46844
  23454129.960   123252329.68406  23454127.880    96040755.73544
  20886277.640   109758279.71008  20886272.540    85525884.95247
  23469897.700   123335177.09708  23469896.680    96105374.25145
  24108548.140   126691274.96208  24108547.780    98720499.28646
  22575560.220   118635611.88608  22575555.000    92443376.41545
  21783635.480   114473779.01609  21783630.720    89200340.16447
 15 01 18 02 07 30.0000000  0  7G16G18G21G25G27G29G31
  22941614.420   120558999.99808  22941611.020    93942070.61945
  23439769.480   123176868.39907  23439768.420    95981954.79344
  20887316.080   109763736.00008  20887310.860    85530136.60947
  23486669.960   123423314.45208  23486669.180    96174052.69345
  24094806.640   126619062.67708  24094806.520    98664229.96046
  22588281.080   118702459.69208  22588275.480    92495465.60245
  21796301.580   114540338.55109  21796297.100    89252204.72347
 15 01 18 02 08  0.0000000  0  7G16G18G21G25G27G29G31
  22925231.960   120472910.86708  22925228.960    93874988.19845
  23425430.440   123101518.16406  23425430.140    95923240.33744
  20888436.400   109769622.29908  20888431.100    85534723.34247
  23503485.560   123511679.49208  23503484.900    96242908.56245
  24081082.320   126546940.38408  24081082.440    98608030.75946
  22601012.380   118769362.28708  22601006.540    92547597.48644
  21809043.080   114607294.47209  21809038.700    89304378.14747
 15 01 18 02 08 30.0000000  0  7G16G18G21G25G27G29G31
  22908869.580   120386927.16708  22908866.920    93807987.92544
  23411112.900   123026279.38807  23411112.800    95864612.78145
  20889637.900   109775935.70708  20889632.640    85539642.90347
  23520343.760   123600269.02208  23520343.360    96311939.34645
  24067374.580   126474905.81008  24067374.520    98551899.95346
  22613753.420   118836316.85707  22613747.440    92599769.88844
  21821859.020   114674642.08909  21821854.640    89356856.78947
 15 01 18 02 09  0.0000000  0  7G16G18G21G25G27G29G31
  22892528.040   120301052.32308  22892525.440    93741072.48444
  23396817.900   122951156.38907  23396817.320    95806075.42344
  20890920.720   109782676.91908  20890915.580    85544895.80947
  23537244.680   123689083.78808  23537244.540    96381145.65344
  24053683.800   126402960.61807  24053683.660    98495838.75646
  22626504.360   118903324.44507  22626498.320    92651983.57144
  21834749.240   114742380.49209  21834744.680    89409639.94647
 15 01 18 02 09 30.0000000  0  7G16G18G21G25G27G29G31
  22876208.080   120215290.18108  22876205.320    93674244.84144
  23382546.040   122876154.28607  23382544.920    95747632.26444
  20892285.120   109789847.24608  20892280.220    85550483.08847
  23554188.600   123778124.98008  23554188.500    96450528.38644
  24040010.300   126331106.88108  24040010.140    98439848.87646
  22639265.420   118970387.10307  22639259.840    92704240.16944
  21847713.740   114810509.63109  21847708.960    89462727.58147
 15 01 18 02 10  0.0000000  0  7G16G18G21G25G27G29G31
  22859909.520   120129639.83208  22859906.340    93607504.29344
  23368297.160   122801272.69307  23368295.200    95689282.98844
  20893730.400   109797442.80408  20893725.740    85556401.71847
  23571174.840   123867388.66008  23571174.820    96520084.51844
  24026353.460   126259341.66007  24026353.600    98383927.96846
  22652036.180   119037501.38907  22652031.080    92756537.04044
  21860751.420   114879024.00809  21860746.480    89516115.39147
 15 01 18 02 10 30.0000000  0  7G16G18G21G25G27G29G31
  22843632.800   120044104.01908  22843629.140    93540853.02844
  23354071.860   122726515.22508  23354069.460    95631030.42744
  20895256.640   109805463.77508  20895252.120    85562651.83247
  23588203.260   123956874.62008  23588203.500    96589813.81345
  24012713.640   126187665.73507  24012713.980    98328076.56347
  22664816.480   119104667.87006  22664812.400    92808874.51545
  21873862.040   114947921.81409  21873857.120    89569801.97846
 15 01 18 02 11  0.0000000  0  7G16G18G21G25G27G29G31
  22827378.060   119958683.76708  22827373.940    93474291.80545
  23339870.500   122651883.72908  23339867.960    95572876.01645
  20896863.520   109813907.63708  20896858.860    85569231.48347
  23605273.640   124046580.98608  23605274.000    96659714.85644
  23999090.660   126116078.05008  23999091.340    98272293.99646
  22677606.680   119171884.92706  22677603.600    92861251.45845
  21887045.100   115017199.80609  21887040.300    89623784.82746
 15 01 18 02 11 30.0000000  0  7G16G18G21G25G27G29G31
  22811145.500   119873380.07908  22811141.080    93407821.41245
  23325693.300   122577380.18308  23325690.580    95514821.32345
  20898550.680   109822773.20708  20898545.680    85576139.72847
  23622385.700   124136505.74208  23622385.940    96729786.08644
  23985484.520   126044577.69308  23985485.440    98216579.47747
  22690406.620   119239152.03707  22690404.720    92913667.34346
  21900299.860   115086854.37609  21900295.280    89678061.11146
 15 01 18 02 12  0.0000000  0  7G16G18G21G25G27G29G31
  22794935.400   119788194.77208  22794930.600    93341443.28945
  23311540.600   122503006.88008  23311538.000    95456868.12045
  20900317.740   109832058.61108  20900312.500    85583375.11547
  23639539.120   124226647.63608  23639539.040    96800026.52843
  23971895.140   125973164.27808  23971896.160    98160932.70446
  22703216.260   119306468.09307  22703214.980    92966121.39045
  21913625.720   115156882.85208  21913621.560    89732628.74346
 15 01 18 02 12 30.0000000  0  7G16G18G21G25G27G29G31
  22778747.820   119703127.87908  22778742.920    93275157.41145
  23297412.720   122428764.75308  23297410.340    95399017.12945
  20902164.120   109841761.26908  20902158.820    85590935.63247
  23656733.400   124317003.97708  23656733.420    96870434.06344
  23958322.100   125901836.09208  23958323.200    98105352.30546
  22716035.100   119373830.91307  22716034.220    93018611.88146
  21927021.920   115227281.11308  21927018.320    89787484.51246
 15 01 18 02 13  0.0000000  0  7G16G18G21G25G27G29G31
  22762584.460   119618188.38108  22762579.300    93208970.80145
  23283311.540   122354663.63208  23283309.320    95341276.01045
  20904091.080   109851887.84308  20904085.960    85598826.48847
  23673969.600   124407580.82407  23673970.020    96941013.39444
  23944766.660   125830600.21608  23944767.720    98049843.87546
  22728864.240   119441247.57407  22728863.720    93071144.31245
  21940489.360   115298053.39508  21940486.320    89842631.73746
 15 01 18 02 13 30.0000000  0  7G16G18G21G25G27G29G31
  22746444.960   119533374.47608  22746439.660    93142882.05245
  23269236.780   122280702.29208  23269234.680    95283643.83845
  20906097.760   109862433.19108  20906092.820    85607043.64247
  23691246.680   124498373.16007  23691247.380    97011760.60344
  23931228.020   125759452.61608  23931228.760    97994404.20646
  22741702.980   119508713.89807  22741702.340    93123715.47745
  21954026.880   115369193.32209  21954024.060    89898065.42746
 15 01 18 02 14  0.0000000  0  7G16G18G21G25G27G29G31
  22730329.320   119448686.61508  22730323.880    93076891.54945
  23255189.000   122206881.93908  23255186.680    95226121.48545
  20908183.560   109873394.43308  20908178.700    85615584.87247
  23708564.400   124589378.46608  23708565.360    97082673.80844
  23917705.900   125688391.77208  23917706.180    97939032.12446
  22754550.660   119576227.62707  22754550.180    93176323.55346
  21967633.700   115440697.12909  21967630.600    89953782.67346
 15 01 18 02 14 30.0000000  0  7G16G18G21G25G27G29G31
  22714238.100   119364127.69308  22714232.640    93011001.47345
  23241168.800   122133206.19008  23241166.320    95168711.83145
  20910348.520   109884771.85008  20910343.600    85624450.38347
  23725922.740   124680596.46208  23725923.740    97153752.78244
  23904200.420   125617418.46708  23904200.060    97883728.27046
  22767407.720   119643789.76608  22767407.300    93228969.35546
  21981309.400   115512562.93909  21981305.840    90009782.00646
 15 01 18 02 15  0.0000000  0  7G16G18G21G25G27G29G31
  22698172.080   119279701.62508  22698166.760    92945214.94744
  23227177.020   122059679.84608  23227174.120    95111418.60944
  20912592.860   109896566.52508  20912587.820    85633641.04747
  23743321.740   124772028.27008  23743322.560    97224998.34144
  23890711.940   125546534.77009  23890710.680    97828494.24145
  22780274.280   119711402.13408  22780273.900    93281654.29146
  21995053.820   115584790.20609  21995049.740    90066062.99646
 15 01 18 02 15 30.0000000  0  7G16G18G21G25G27G29G31
  22682131.100   119195407.16408  22682125.900    92879530.98244
  23213213.680   121986302.46408  23213210.300    95054241.44444
  20914915.740   109908773.61808  20914910.480    85643153.07247
  23760760.500   124863669.45108  23760761.300    97296407.05444
  23877239.840   125475737.27208  23877237.780    97773327.34845
  22793149.640   119779060.64508  22793149.120    93334375.19046
  22008865.840   115657373.12409  22008861.240    90122621.12245
 15 01 18 02 16  0.0000000  0  7G16G18G21G25G27G29G31
  22666115.900   119111247.55608  22666110.740    92813952.08345
  23199279.560   121913078.03508  23199275.600    94997183.45644
  20917317.140   109921393.70108  20917311.840    85652986.91147
  23778239.180   124955520.19108  23778239.820    97367979.03144
  23863784.320   125405027.16709  23863781.980    97718228.58245
  22806034.160   119846766.81408  22806033.460    93387133.22146
  22022745.160   115730310.15808  22022740.180    90179455.17245
 15 01 18 02 16 30.0000000  0  7G16G18G21G25G27G29G31
  22650126.300   119027222.16408  22650120.920    92748477.73744
  23185374.420   121840006.55207  23185370.140    94940244.65844
  20919796.400   109934422.81508  20919791.040    85663139.47647
  23795757.000   125047576.63008  23795757.420    97439711.32644
  23850344.880   125334401.70309  23850342.580    97663195.72645
  22818927.200   119914517.70008  22818926.180    93439926.12645
  22036690.760   115803595.92608  22036685.580    90236560.96345
 15 01 18 02 17  0.0000000  0  7G16G18G21G25G27G29G31
  22634163.880   118943339.58508  22634158.360    92683114.69944
  23171500.060   121767097.29108  23171495.760    94883432.29044
  20922354.480   109947866.03408  20922349.080    85673614.71547
  23813315.020   125139844.25108  23813315.180    97511608.17444
  23836922.740   125263867.37909  23836920.780    97608233.92445
  22831829.680   119982319.29008  22831828.440    93492758.50045
  22050703.260   115877234.40708  22050698.240    90293941.57745
 15 01 18 02 17 30.0000000  0  7G16G18G21G25G27G29G31
  22618228.760   118859600.51808  22618223.080    92617863.47644
  23157656.760   121694351.63808  23157652.720    94826747.36145
  20924991.140   109961721.81308  20924985.680    85684411.44047
  23830912.660   125232320.78907  23830912.460    97583667.78144
  23823517.600   125193422.90108  23823516.560    97553342.12045
  22844741.440   120050169.99808  22844739.940    93545629.15545
  22064782.180   115951222.20308  22064777.620    90351594.37745
 15 01 18 02 18  0.0000000  0  7G16G18G21G25G27G29G31
  22602320.160   118776000.38708  22602314.380    92552720.53344
  23143843.920   121621765.85608  23143840.220    94770187.03745
  20927704.780   109975981.90608  20927699.400    85695523.22047
  23848548.640   125324998.52108  23848548.200    97655884.21044
  23810128.160   125123061.68908  23810127.960    97498515.24945
  22857661.380   120118063.31708  22857659.540    93598533.04244
  22078926.060   116025549.68508  22078921.800    90409511.88945
 15 01 18 02 18 30.0000000  0  7G16G18G21G25G27G29G31
  22586439.880   118692548.39308  22586434.080    92487693.03244
  23130063.460   121549349.46008  23130060.240    94713758.70945
  20930496.500   109990652.57808  20930491.460    85706954.92047
  23866224.000   125417883.16207  23866223.800    97728261.84645
  23796755.740   125052790.54208  23796756.040    97443758.51645
  22870590.480   120186005.50508  22870588.320    93651475.00545
  22093135.760   116100221.08008  22093131.460    90467697.39446
 15 01 18 02 19  0.0000000  0  7G16G18G21G25G27G29G31
  22570587.300   118609241.24108  22570581.260    92422778.37845
  23116315.060   121477099.79308  23116312.000    94657460.27945
  20933365.120   110005727.52708  20933360.620    85718701.63047
  23883937.440   125510968.61107  23883937.540    97800795.88244
  23783399.300   124982604.31008  23783399.880    97389067.98246
  22883527.880   120253991.39908  22883525.620    93704451.01845
  22107409.700   116175228.83409  22107405.400    90526144.99846
 15 01 18 02 19 30.0000000  0  7G16G18G21G25G27G29G31
  22554764.080   118526087.82409  22554757.920    92357983.50645
  23102600.380   121405027.10508  23102597.340    94601299.76845
  20936311.720   110021212.19908  20936307.720    85730767.61247
  23901690.080   125604260.62807  23901690.580    97873490.90144
  23770060.280   124912509.94308  23770061.160    97334449.04246
  22896475.000   120322028.18608  22896472.780    93757466.67845
  22121748.520   116250577.04609  22121744.460    90584857.90146
 15 01 18 02 20  0.0000000  0  7G16G18G21G25G27G29G31
  22538968.480   118443079.43909  22538962.180    92293301.67045
  23088917.680   121333122.93808  23088914.640    94545270.56945
  20939334.000   110037094.32408  20939330.300    85743143.30047
  23919479.880   125697747.12307  23919480.340    97946337.53144
  23756736.780   124842496.46708  23756737.880    97279893.10946
  22909429.480   120390104.45108  22909427.420    93810513.11245
  22136149.500   116326252.17909  22136145.840    90643825.54147
 15 01 18 02 20 30.0000000  0  7G16G18G21G25G27G29G31
  22523202.240   118360225.43909  22523195.820    92228740.11445
  23075268.840   121261397.22408  23075265.680    94489380.40545
  20942433.140   110053380.60908  20942429.680    85755833.91047
  23937307.940   125791434.23207  23937307.880    98019340.43144
  23743430.280   124772571.06508  23743431.360    97225405.81146
  22922392.800   120458226.91808  22922390.700    93863595.55244
  22150613.360   116402258.97809  22150610.180    90703051.61047
 15 01 18 02 21  0.0000000  0  7G16G18G21G25G27G29G31
  22507465.120   118277525.25909  22507458.700    92164298.42945
  23061653.980   121189850.09508  23061650.480    94433629.39745
  20945608.360   110070067.19708  20945605.020    85768836.45247
  23955173.520   125885318.23107  23955173.240    98092496.74344
  23730140.340   124702731.10308  23730141.060    97170985.10446
  22935364.480   120526393.13908  22935362.400    93916712.05545
  22165139.060   116478592.01509  22165136.480    90762531.86847
 15 01 18 02 21 30.0000000  0  7G16G18G21G25G27G29G31
  22491757.380   118194980.36509  22491750.940    92099977.72945
  23048073.420   121118483.24508  23048069.480    94378018.87145
  20948859.260   110087151.47508  20948855.920    85782148.86647
  23973076.260   125979397.01808  23973075.740    98165804.90444
  23716866.700   124632975.73608  23716866.620    97116630.28946
  22948344.100   120594601.80208  22948342.060    93969861.62545
  22179726.000   116555247.64609  22179723.980    90822263.50847
 15 01 18 02 22  0.0000000  0  7G16G18G21G25G27G29G31
  22476079.400   118112592.78609  22476073.060    92035779.62145
  23034527.860   121047299.93008  23034523.380    94322551.36145
  20952185.900   110104633.20408  20952182.400    85795770.99547
  23991015.880   126073669.71108  23991014.960    98239264.18243
  23703609.280   124563305.05608  23703608.680    97062341.47146
  22961331.880   120662852.96008  22961329.600    94023044.32745
  22194373.780   116632223.64509  22194372.320    90882244.76947
 15 01 18 02 22 30.0000000  0  7G16G18G21G25G27G29G31
  22460432.540   118030369.24609  22460426.220    91971709.33645
  23021018.640   120976307.12808  23021013.480    94267232.29245
  20955588.880   110122515.61108  20955585.080    85809705.34247
  24008993.000   126168139.80408  24008992.040    98312877.28243
  23690368.900   124493723.79608  23690367.560    97008122.33445
  22974328.700   120731151.25808  22974326.160    94076263.77245
  22209083.000   116709521.79809  22209081.860    90942477.07247
 15 01 18 02 23  0.0000000  0  7G16G18G21G25G27G29G31
  22444816.880   117948309.99608  22444810.700    91907767.06845
  23007545.820   120905505.92508  23007540.220    94212062.53645
  20959067.560   110140795.48108  20959063.540    85823949.40247
  24027007.080   126262804.23408  24027006.580    98386641.79544
  23677145.040   124424229.95908  23677142.760    96953971.32245
  22987334.000   120799494.77808  22987331.300    94129518.43945
  22223852.800   116787137.61309  22223851.680    91002956.91147
 15 01 18 02 23 30.0000000  0  7G16G18G21G25G27G29G31
  22429232.700   117866416.25908  22429226.800    91843953.78745
  22994109.640   120834898.21508  22994103.940    94157043.56745
  20962621.460   110159470.82308  20962617.280    85838501.60547
  24045057.660   126357660.85908  24045057.820    98460556.02245
  23663937.460   124354822.60108  23663934.580    96899887.67745
  23000347.640   120867882.07008  23000344.840    94182807.22445
  22238682.400   116865067.28809  22238680.980    91063681.30847
 15 01 18 02 24  0.0000000  0  7G16G18G21G25G27G29G31
  22413680.600   117784690.96208  22413675.040    91780271.73145
  22980710.820   120764486.84808  22980705.120    94102177.56445
  20966250.520   110178540.85008  20966246.160    85853361.37047
  24063144.680   126452708.99307  24063145.320    98534619.46445
  23650746.220   124285502.10708  23650742.380    96845871.73245
  23013369.740   120936313.41008  23013366.760    94236130.33745
  22253571.260   116943308.75109  22253569.440    91124648.65447
 15 01 18 02 24 30.0000000  0  7G16G18G21G25G27G29G31
  22398160.900   117703135.97208  22398155.720    91716722.40945
  22967349.800   120694274.89508  22967344.420    94047466.96545
  20969954.500   110198004.30608  20969949.900    85868527.71248
  24081267.960   126547947.55107  24081268.940    98608831.30745
  23637571.400   124216268.64608  23637566.960    96791923.57945
  23026400.280   121004789.23408  23026397.340    94289488.08945
  22268518.900   117021859.46909  22268516.800    91185856.98947
 15 01 18 02 25  0.0000000  0  7G16G18G21G25G27G29G31
  22382673.700   117621751.57408  22382668.720    91653305.99945
  22954026.640   120624262.63508  22954021.700    93992911.97445
  20973732.620   110217857.38608  20973727.840    85883997.65547
  24099426.800   126643373.12007  24099427.920    98683188.86645
  23624412.600   124147119.89908  23624407.780    96738041.43944
  23039438.780   121073306.62007  23039435.780    94342878.22745
  22283524.380   117100714.37609  22283522.080    91247302.34746
 15 01 18 02 25 30.0000000  0  7G16G18G21G25G27G29G31
  22367219.160   117540538.65808  22367214.320    91590023.20745
  22940741.860   120554452.18008  22940737.380    93938514.22045
  20977584.460   110238098.44308  20977579.700    85899769.91347
  24117620.740   126738983.61106  24117621.780    98757690.51745
  23611269.740   124078055.01208  23611264.960    96684224.63544
  23052484.960   121141864.94507  23052481.820    94396300.27245
  22298586.980   117179869.45709  22298584.580    91308981.61046
 15 01 18 02 26  0.0000000  0  7G16G18G21G25G27G29G31
  22351798.480   117459503.57008  22351793.600    91526878.97144
  22927496.560   120484850.08908  22927492.800    93884278.86645
  20981510.440   110258729.99307  20981505.900    85915846.45247
  24135850.380   126834781.83807  24135851.200    98832338.43344
  23598143.520   124009077.93708  23598139.400    96630476.26744
  23065539.560   121210468.05107  23065536.260    94449757.20944
  22313707.100   117259326.35809  22313704.380    91370896.06846
 15 01 18 02 26 30.0000000  0  8G16G18G21G22G25G27G29G31
  22336411.720   117378646.55508  22336406.980    91463873.49445
  22914291.360   120415457.21708  22914287.960    93830206.49245
  20985510.100   110279749.34708  20985505.980    85932225.16147
  24543542.260   128977181.43507  24543528.540   100501657.71941
  24154115.160   126930764.56407  24154115.980    98907130.15444
  23585033.520   123940186.74208  23585030.560    96576794.80845
  23078601.700   121279113.85406  23078598.620    94503247.39844
  22328883.820   117339080.35209  22328880.760    91433042.02346
 15 01 18 02 27  0.0000000  0  8G16G18G21G22G25G27G29G31
  22321058.740   117297966.79108  22321054.460    91401006.17045
  22901125.940   120346273.23208  22901122.740    93776296.91645
  20989582.760   110301152.12608  20989578.960    85948902.65347
  24525806.280   128883980.16807                                
  24172414.240   127026927.99306  24172415.040    98982062.71644
  23571939.520   123871378.79508  23571937.640    96523178.28345
  23091671.320   121347799.43207  23091668.600    94556768.61444
  22344116.080   117419126.26909  22344112.660    91495415.45046
 15 01 18 02 27 30.0000000  0  8G16G18G21G22G25G27G29G31
  22305742.540   117217479.62208  22305738.820    91338288.90245
  22888003.340   120277313.72208  22888000.060    93722562.24945
  20993730.780   110322949.62508  20993726.940    85965887.71047
  24508056.320   128790706.17607  24508048.760   100356357.89342
  24190749.740   127123283.60006  24190751.100    99057144.95644
  23558863.960   123802666.70708  23558862.860    96469636.39945
  23104751.120   121416537.25407  23104748.420    94610330.49243
  22359405.760   117499473.71209  22359402.000    91558023.83346
 15 01 18 02 28  0.0000000  0  8G16G18G21G22G25G27G29G31
  22290456.700   117137151.00008  22290453.320    91275695.20146
  22874917.260   120208545.34808  22874913.660    93668976.50544
  20997946.920   110345104.60408  20997942.920    85983151.35448
  24490286.140   128697325.84606  24490279.280   100283594.46842
  24209114.760   127219794.06607  24209116.700    99132347.88044
  23545799.960   123734014.42008  23545799.320    96416141.12445
  23117834.200   121485291.10307  23117831.480    94663904.88344
  22374745.480   117580083.88009  22374741.240    91620836.95946
 15 01 18 02 28 30.0000000  0  8G16G18G21G22G25G27G29G31
  22275209.880   117057026.83109  22275206.540    91213260.80046
  22861876.360   120140014.43308  22861872.520    93615575.81244
  21002239.260   110367659.94708  21002235.080    86000726.94748
  24472504.660   128603885.42407  24472499.680   100210784.10843
  24227517.640   127316501.64307  24227519.720    99207704.40745
  23532755.660   123665465.49008  23532755.080    96362726.40145
  23130929.000   121554105.00207  23130925.980    94717526.06543
  22390143.000   117660997.63509  22390138.200    91683886.62845
 15 01 18 02 29  0.0000000  0  8G16G18G21G22G25G27G29G31
  22259998.520   116977088.64809  22259995.000    91150971.30846
  22848877.200   120071702.68508  22848872.880    93562345.87444
  21006603.400   110390593.27908  21006599.100    86018597.07847
  24454708.440   128510366.61607  24454704.840   100137912.73543
  24245954.100   127413384.52808  24245955.900    99283197.55844
  23519727.120   123596999.30208  23519726.880    96309376.13646
  23144031.620   121622958.04508  23144027.940    94771177.75143
  22405593.800   117742191.61109  22405588.540    91747154.64945
 15 01 18 02 29 30.0000000  0  8G16G18G21G22G25G27G29G31
  22244822.860   116897337.82209  22244818.980    91088827.83046
  22835920.240   120003612.58808  22835915.180    93509288.65544
  21011038.920   110413901.87308  21011034.460    86036759.63047
  24436897.840   128416771.25807  24436894.300   100064981.68542
  24264423.620   127510440.72408  24264424.900    99358825.73844
  23506714.120   123528615.11508  23506713.920    96256089.76546
  23157141.800   121691849.18508  23157137.420    94824859.14443
  22421097.300   117823662.44409  22421091.760    91810638.43145
 15 01 18 02 30  0.0000000  0  8G16G18G21G22G25G27G29G31
  22229683.940   116817780.38209  22229679.640    91026835.00546
  22823006.520   119935750.47908  22823001.220    93456409.06644
  21015546.280   110437588.64408  21015541.780    86055216.85147
  24419073.820   128323105.65807  24419069.920    99991995.82643
  24282926.620   127607672.94008  24282927.240    99434591.07844
  23493717.380   123460316.84908  23493717.440    96202870.34746
  23170260.020   121760782.40408  23170254.640    94878573.30444
  22436653.600   117905411.09209  22436648.140    91874338.65446
 15 01 18 02 30 30.0000000  0  8G16G18G21G22G25G27G29G31
  22214581.340   116738414.60809  22214576.820    90964991.56646
  22810135.620   119868114.98308  22810130.380    93403706.11744
  21020124.520   110461648.66907  21020120.100    86073964.91647
  24401236.000   128229368.32107  24401232.040    99918954.06843
  24301462.100   127705075.92107  24301461.920    99510489.47843
  23480736.180   123392100.55508  23480736.320    96149714.81046
  23183385.340   121829753.58308  23183378.860    94932317.05543
  22452261.480   117987430.83209  22452256.260    91938250.12346
 15 01 18 02 31  0.0000000  0  8G16G18G21G22G25G27G29G31
  22199516.260   116659246.66908  22199511.680    90903302.28346
  22797309.040   119800712.18508  22797303.940    93351184.45444
  21024774.120   110486084.06807  21024769.800    86093005.47347
  24383385.660   128135565.48607  24383381.700    99845861.27743
  24320030.500   127802651.98407  24320028.940    99586522.76643
  23467771.180   123323969.82208  23467771.440    96096625.93146
  23196518.460   121898766.26708  23196511.000    94986093.12742
  22467921.220   118069722.49609  22467916.280    92002373.48046
 15 01 18 02 31 30.0000000  0  8G16G18G21G22G25G27G29G31
  22184489.920   116580283.01108  22184485.480    90841772.19046
  22784528.320   119733549.48408  22784523.460    93298849.86844
  21029495.960   110510898.18007  21029491.620    86112341.14347
  24365524.140   128041704.06007  24365519.900    99772722.77643
  24338632.160   127900404.29706  24338629.580    99662693.46143
  23454823.240   123255928.99708  23454823.780    96043607.13747
  23209660.280   121967824.89508  23209650.340    95039905.06441
  22483633.080   118152287.56409  22483628.320    92066709.89846
 15 01 18 02 32  0.0000000  0  8G16G18G21G22G25G27G29G31
  22169501.540   116501519.14908  22169497.240    90780397.77345
  22771792.640   119666623.01008  22771788.260    93246699.37744
  21034288.320   110536082.68007  21034283.860    86131965.42247
  24347650.580   127947779.90207  24347646.100    99699535.37643
  24357265.700   127998324.85707  24357263.720    99738995.12843
  23441891.140   123187971.46408  23441891.820    95990653.22446
  23222809.480   122036922.70008  23222795.440    95093747.55841
  22499395.120   118235116.58709  22499390.540    92131251.98046
 15 01 18 02 32 30.0000000  0  8G16G18G21G22G25G27G29G31
  22154553.060   116422965.05308  22154548.840    90719186.81646
  22759103.900   119599942.58308  22759099.940    93194740.59845
  21039152.320   110561643.72707  21039147.760    86151883.12147
  24329767.000   127853803.27006  24329762.300    99626307.08744
  24375932.540   128096419.90508  24375931.460    99815432.78744
  23428976.380   123120104.79107  23428977.260    95937770.11047
  23235967.400   122106066.83008                                
  22515208.260   118318214.43909  22515203.800    92196003.54046
 15 01 18 02 33  0.0000000  0  8G16G18G21G22G25G27G29G31
  22139640.940   116344601.82008  22139636.680    90658124.56645
  22746458.580   119533490.30208  22746454.900    93142959.60945
  21044083.620   110587559.19507  21044079.200    86172076.99847
  24311869.980   127759756.06006  24311865.460    99553023.83844
  24394628.520   128194667.61708  24394628.000    99891989.39344
  23416075.100   123052308.45108  23416075.760    95884941.80546
  23249130.260   122175237.18008  23249137.780    95201335.29643
  22531067.940   118401557.53608  22531063.700    92260946.19346
 15 01 18 02 33 30.0000000  0  8G16G18G21G22G25G27G29G31
  22124769.840   116266453.66208  22124765.400    90597229.90045
  22733861.300   119467290.66808  22733857.780    93091375.48844
  21049086.140   110613849.46507  21049082.100    86192562.91747
  24293964.300   127665661.81006  24293959.200    99479703.85643
  24413357.340   128293087.97308  24413356.960    99968680.53444
  23403191.220   122984603.63308  23403191.740    95832184.79246
  23262302.040   122244454.68108  23262307.760    95255270.94043
  22546977.680   118485164.58208  22546973.640    92326094.51446
 15 01 18 02 34  0.0000000  0  8G16G18G21G22G25G27G29G31
  22109938.800   116188515.82909  22109934.040    90536499.13545
  22721311.180   119401338.61208  22721307.560    93039984.28045
  21054158.420   110640506.04507  21054154.740    86213334.29047
  24276049.000   127571516.77706  24276043.360    99406344.31743
  24432117.480   128391672.79807  24432117.120   100045499.81544
  23390323.360   122916983.57107  23390323.500    95779493.88446
  23275481.360   122313712.88008  23275485.760    95309238.31443
  22562935.640   118569025.96808  22562931.800    92391441.01846
 15 01 18 02 34 30.0000000  0  8G16G18G21G22G25G27G29G31
  22095148.340   116110791.14209  22095143.200    90475934.44045
  22708808.880   119335637.57308  22708804.900    92988788.67145
  21059300.300   110667527.71807  21059296.960    86234390.13747
  24258124.640   127477324.06607  24258118.860    99332947.60444
  24450908.680   128490421.31807  24450908.100   100122446.64843
  23377471.640   122849448.78707  23377471.780    95726869.39746
  23288668.400   122383011.87108  23288671.400    95363237.46044
  22578941.420   118653139.20308  22578937.860    92456983.77646
 15 01 18 02 35  0.0000000  0  8G16G18G21G22G25G27G29G31
  22080399.000   116033282.81609  22080393.540    90415538.33645
  22696355.040   119270191.96608  22696350.760    92937792.08245
  21064511.920   110694915.08407  21064508.720    86255730.92847
  24240191.840   127383087.35407  24240186.240    99259516.57443
  24469730.760   128589333.60007  24469729.900   100199521.17243
  23364636.280   122782000.63008  23364636.380    95674312.42546
  23301863.380   122452352.98608  23301865.000    95417269.38544
  22594994.800   118737502.83308  22594991.620    92522721.62245
 15 01 18 02 35 30.0000000  0  8G16G18G21G22G25G27G29G31
  22065690.440   115955988.75709  22065684.660    90355309.20145
  22683949.220   119204999.32208  22683944.860    92886992.63445
  21069791.860   110722661.36707  21069788.720    86277351.39847
  24222250.080   127288804.44306  24222244.740    99186049.55943
  24488582.800   128688403.48907  24488582.360   100276718.42143
  23351816.580   122714634.37607  23351816.780    95621819.27046
  23315065.380   122521731.69608  23315065.820    95471330.66444
  22611094.520   118822109.41908  22611091.720    92588648.80846
 15 01 18 02 36  0.0000000  0  8G16G18G21G22G25G27G29G31
  22051023.380   115878912.78609  22051017.420    90295249.99945
  22671592.320   119140063.74008  22671587.960    92836393.49344
  21075140.120   110750766.82807  21075136.920    86299251.76747
  24204300.140   127194479.45406  24204295.160    99112549.75244
  24507465.160   128787631.15508  24507464.960   100354038.67843
  23339012.980   122647351.54808  23339013.140    95569391.08446
  23328274.720   122591149.19808  23328274.680    95525422.14544
  22627240.460   118906957.28008  22627237.820    92654764.02645
 15 01 18 02 36 30.0000000  0  8G16G18G21G22G25G27G29G31
  22036397.900   115802055.26209  22036391.940    90235361.00945
  22659284.520   119075386.12408  22659280.340    92785995.36144
  21080556.200   110779228.68407  21080552.940    86321429.83547
  24186342.300   127100113.29206  24186337.600    99039017.81144
  24526377.260   128887013.61308  24526377.200   100431479.54043
  23326225.240   122580150.54808  23326225.400    95517026.68345
  23341491.300   122660603.90608  23341491.000    95579542.64644
  22643431.740   118992042.02608  22643429.020    92721063.81645
 15 01 18 02 37  0.0000000  0  8G16G18G21G22G25G27G29G31
  22021814.800   115725420.53608  22021809.080    90175645.63645
  22647026.400   119010970.48008  22647022.340    92735801.37844
  21086040.060   110808046.71207  21086036.720    86343885.42947
  24168377.380   127005710.22506  24168373.620    98965457.20244
  24545318.980   128986551.08508  24545319.060   100509041.19843
  23313453.500   122513032.99108  23313453.300    95464727.26746
  23354715.260   122730097.33108  23354715.140    95633693.28245
  22659668.040   119077362.55609  22659665.080    92787547.34645
 15 01 18 02 37 30.0000000  0  8G16G18G21G22G25G27G29G31
  22007274.580   115649011.56908  22007269.320    90116106.20446
  22634818.480   118946821.12707  22634814.800    92685814.91644
  21091591.760   110837220.91107  21091588.360    86366618.57547
  24150406.340   126911274.14206  24150403.020    98891870.79044
  24564290.140   129086243.40608  24564290.640   100586723.51844
  23300697.900   122445999.98708  23300697.420    95412493.78546
  23367946.960   122799630.84408  23367947.120    95687875.19944
  22675948.860   119162916.96709  22675945.740    92854213.11246
 15 01 18 02 38  0.0000000  0  8G16G18G21G22G25G27G29G31
  21992777.540   115572830.06108  21992772.920    90056744.01846
  22622661.780   118882939.43408  22622658.460    92636037.00044
  21097210.940   110866748.96107  21097207.400    86389627.45347
  24132429.700   126816806.84207  24132426.100    98818260.07644
  24583290.400   129186088.62507  24583291.080   100664524.88944
  23287958.220   122379050.89308  23287957.420    95360325.66846
  23381186.260   122869203.81908  23381186.200    95742087.90344
  22692273.520   119248702.23909  22692270.180    92921058.79146
 15 01 18 02 38 30.0000000  0  8G16G18G21G22G25G27G29G31
  21978324.400   115496879.99808  21978320.600    89997562.16946
  22610557.120   118819330.16008  22610554.360    92586471.33945
  21102897.720   110896631.68907  21102894.000    86412912.69847
  24114447.980   126722312.79106  24114443.780    98744628.48443
  24602319.740   129286087.16807  24602320.320   100742445.75043
  23275234.840   122312187.71608  23275233.680    95308224.47846
  23394433.400   122938817.82508  23394433.080    95796332.50644
  22708641.800   119334717.13808  22708638.120    92988083.38146
 15 01 18 02 39  0.0000000  0  8G16G18G21G22G25G27G29G31
  21963914.620   115421158.36308  21963911.720    89938558.33146
  22598503.860   118755990.11908  22598501.580    92537115.49045
  21108650.600   110926861.55307  21108646.660    86436468.43447
  24096460.740   126627789.13607  24096455.680    98670973.82743
  24621376.800   129386232.08507  24621377.280   100820480.66844
  23262526.680   122245404.81008  23262525.040    95256185.86745
  23407687.460   123008467.69508  23407686.320    95850605.14444
  22725052.000   119420953.00308  22725048.140    93055280.15745
 15 01 18 02 39 30.0000000  0  8G16G18G21G22G25G27G29G31
  21949550.120   115345674.32408  21949548.000    89879739.63446
  22586503.760   118692928.24008  22586501.540    92487976.38045
  21114470.360   110957443.65307  21114466.260    86460298.63547
  24078469.680   126533245.10207  24078463.700    98597303.29244
  24640462.540   129486528.72807  24640463.560   100898633.78343
  23249835.000   122178708.91708  23249832.940    95204215.06745
  23420949.440   123078159.91508  23420947.880    95904910.75344
  22741504.800   119507413.80708  22741501.080    93122652.20246
 15 01 18 02 40  0.0000000  0  8G16G18G21G22G25G27G29G31
  21935230.140   115270423.37208  21935228.540    89821102.55946
  22574556.040   118630140.96108  22574553.420    92439051.21145
  21120355.400   110988369.56307  21120351.320    86484396.75147
  24060473.980   126438676.33707  24060467.540    98523613.48944
  24659575.680   129586968.62008  24659576.660   100976898.53842
  23237158.580   122112093.02908  23237156.360    95152306.59545
  23434218.040   123147887.23308  23434215.900    95959243.70243
  22757998.180   119594089.48708  22757995.040    93190191.64645
 15 01 18 02 40 30.0000000  0  8G16G18G21G22G25G27G29G31
  21920956.000   115195412.13108  21920954.520    89762652.26246
  22562662.020   118567635.45608  22562659.080    92390345.60545
  21126306.540   111019643.57207  21126302.680    86508766.11547
  24042475.120   126344090.85107  24042468.500    98449910.66244
  24678717.000   129687555.71608  24678717.040   101055278.09242
  23224498.360   122045562.60608  23224496.020    95100464.73046
  23447494.300   123217655.40408  23447491.760    96013608.47444
  22774532.840   119680982.44708  22774530.440    93257900.40346
 15 01 18 02 41  0.0000000  0  8G16G18G21G22G25G27G29G31
  21906727.620   115120640.77008  21906726.020    89704388.85746
  22550821.480   118505411.01208  22550818.460    92341859.02945
  21132322.900   111051260.74507  21132319.320    86533402.87147
  24024472.960   126249487.82208  24024466.460    98376194.15344
  24697885.460   129788285.28708  24697883.040   101133768.76142
  23211853.680   121979114.28008  23211851.600    95048686.82045
  23460777.500   123287460.77808  23460774.500    96068002.28444
  22791108.040   119768086.98008  22791106.180    93325774.00646
 15 01 18 02 41 30.0000000  0  8G16G18G21G22G25G27G29G31
  21892545.200   115046110.96708  21892543.400    89646313.68246
  22539034.640   118443469.75708  22539031.760    92293593.13845
  21138404.180   111083219.19607  21138400.920    86558305.57647
  24006468.160   126154869.94908  24006461.600    98302466.03544
  24717080.700   129889155.76108  24717076.220   101212369.14941
  23199224.500   121912747.89008  23199222.440    94996972.78345
  23474067.900   123357303.46008  23474064.760    96122425.14544
  22807723.280   119855399.66808  22807721.560    93393809.83646
 15 01 18 02 42  0.0000000  0  8G16G18G21G22G25G27G29G31
  21878409.480   114971826.47409  21878407.560    89588429.67445
  22527302.620   118381816.65609  22527299.420    92245551.77345
  21144550.420   111115519.20007  21144547.420    86583474.41147
  23988461.340   126060241.41908  23988454.900    98228729.64945
  24736302.820   129990167.48808  24736297.960   101291079.57543
  23186611.240   121846465.29508  23186609.120    94945324.02446
  23487365.980   123427185.29808  23487362.840    96176878.50444
  22824378.320   119942919.75808  22824376.420    93462007.28046
 15 01 18 02 42 30.0000000  0  8G16G18G21G22G25G27G29G31
  21864320.800   114897789.26709  21864318.680    89530738.34246
  22515625.860   118320453.63809  22515622.060    92197736.43145
  21150761.260   111148158.70907  21150758.500    86608907.78647
  23970452.740   125965604.38708  23970446.680    98154986.64445
  24755551.380   130091318.36007  24755547.220   101369898.33443
  23174013.780   121780265.82108  23174012.020    94893740.05745
  23500671.600   123497105.48908  23500668.520    96231361.74544
  22841072.120   120030643.31908  22841069.800    93530363.28945
 15 01 18 02 43  0.0000000  0  8G16G18G21G22G25G27G29G31
  21850280.480   114824006.22509  21850278.120    89473245.06045
  22504005.380   118259387.08109  22504001.260    92150152.10645
  21157037.360   111181140.32307  21157034.660    86634607.74847
  23952443.820   125870966.00908  23952437.900    98081242.58044
  24774826.840   130192611.67807  24774823.360   101448828.13943
  23161432.960   121714154.22508  23161431.300    94842224.54245
  23513985.480   123567068.77408  23513982.460    96285878.54244
  22857804.880   120118572.09408  22857802.040    93598879.21145
 15 01 18 02 43 30.0000000  0  8G16G18G21G22G25G27G29G31
  21836287.920   114750474.63408  21836285.160    89415947.68445
  22492440.860   118198614.97109  22492436.580    92102797.22646
  21163377.780   111214458.69108  21163374.920    86660570.09747
  23934434.060   125776324.23408  23934428.280    98007495.88245
  24794128.040   130294041.20707  24794125.220   101527864.04944
  23148867.800   121648125.71608  23148866.520    94790773.78845
  23527306.800   123637070.41608  23527303.520    96340425.24344
  22874575.060   120206698.68108  22874571.580    93667549.29244
 15 01 18 02 44  0.0000000  0  8G16G18G21G22G25G27G29G31
  21822344.140   114677200.13008  21822340.900    89358850.64145
  22480933.380   118138142.78209  22480929.200    92055676.04546
  21169782.660   111248114.37308  21169779.280    86686795.30147
  23916424.660   125681684.85008  23916418.820    97933751.01244
  24813455.220   130395608.39107  24813453.520   101607007.23443
  23136318.980   121582183.34208  23136318.060    94739390.15545
  23540635.960   123707113.11508  23540632.580    96395003.93145
  22891382.520   120295023.09708  22891378.780    93736373.53744
 15 01 18 02 44 30.0000000  0  7G16G18G21G22G27G29G31
  21808449.000   114604182.28208  21808445.580    89301953.61145
  22469482.780   118077970.09009  22469478.980    92008788.25046
  21176250.980   111282102.95508  21176246.900    86713279.90647
  23898415.380   125587047.28407  23898409.340    97860007.58943
  23123786.020   121516324.26808  23123785.440    94688071.43545
  23553972.400   123777194.51808  23553968.940    96449612.78744
  22908226.040   120383539.47208  22908222.460    93805347.31844
 15 01 18 02 45  0.0000000  0  7G16G18G21G22G27G29G31
  21794602.940   114531422.65308  21794599.600    89245257.78445
  22458089.560   118018098.58809  22458086.100    91962135.13446
  21182782.160   111316422.70608  21182777.540    86740022.56147
  23880406.780   125492413.70908  23880399.540    97786267.13943
  23111268.920   121450547.75408  23111268.760    94636817.04545
  23567315.900   123847313.69108  23567312.360    96504251.10644
  22925105.020   120472244.13907  22925102.360    93874467.83044
 15 01 18 02 45 30.0000000  0  7G16G18G21G22G27G29G31
  21780806.360   114458922.62108  21780803.300    89188764.26845
  22446754.020   117958529.89209  22446750.780    91915717.98646
  21189375.600   111351071.22507  21189370.660    86767021.40947
  23862399.320   125397786.07208  23862390.080    97712531.34141
  23098767.580   121384853.10808  23098767.280    94585626.42844
  23580666.380   123917470.19908  23580663.060    96558918.49444
  22942019.140   120561133.43707  22942017.680    93943732.18845
 15 01 18 02 46  0.0000000  0  7G16G18G21G22G27G29G31
  21767059.200   114386681.71408  21767056.600    89132472.66746
  22435476.120   117899264.00409  22435473.060    91869536.78946
  21196030.420   111386044.12507  21196025.580    86794273.00147
  23844392.940   125303164.33208  23844383.940    97638800.16843
  23086281.460   121319237.68708  23086280.620    94534497.53545
  23594023.220   123987661.05608  23594020.000    96613612.68344
  22958967.640   120650201.65308  22958967.100    94013135.93345
 15 01 18 02 46 30.0000000  0  7G16G18G21G22G27G29G31
  21753363.280   114314709.27108  21753361.040    89076390.25646
  22424257.620   117840310.08608  22424254.720    91823598.68846
  21202747.680   111421346.26307  21202743.300    86821781.14847
  23826389.640   125208557.88108  23826382.340    97565080.89444
  23073811.820   121253708.31908  23073810.160    94483435.71945
  23607387.720   124057893.16808  23607384.800    96668339.01844
  22975951.580   120739453.19708  22975951.440    94082682.54345
 15 01 18 02 47  0.0000000  0  7G16G18G21G22G27G29G31
  21739718.400   114243004.06508  21739716.300    89020516.08446
  22413098.040   117781667.04308  22413095.400    91777902.84146
  21209526.800   111456973.17307  21209522.960    86849542.38647
  23808389.220   125113965.97408  23808383.800    97491373.01144
  23061357.800   121188261.58507  23061355.400    94432438.28044
  23620759.300   124128163.15508  23620756.880    96723094.81844
  22992969.500   120828881.09408  22992969.120    94152366.60145
 15 01 18 02 47 30.0000000  0  7G16G18G21G22G27G29G31
  21726126.140   114171574.68509  21726123.860    88964856.83746
  22401999.260   117723343.80108  22401996.780    91732456.16946
  21216368.760   111492929.23908  21216365.360    86877560.08647
  23790393.480   125019397.69008  23790389.200    97417683.51945
  23048920.600   121122904.08107  23048918.020    94381510.37945
  23634139.220   124198477.61608  23634137.060    96777885.27844
  23010021.880   120918489.35508  23010020.920    94222191.15645
 15 01 18 02 48  0.0000000  0  7G16G18G21G22G27G29G31
  21712585.520   114100416.13409  21712582.880    88909408.62646
  22390960.300   117665335.11209  22390957.900    91687254.61446
  21223271.800   111529205.23308  21223268.640    86905827.10247
  23772401.320   124924847.81508  23772397.640    97344008.39645
  23036498.820   121057628.05307  23036496.500    94330645.96345
  23647526.140   124268828.79908  23647524.380    96832704.35344
  23027106.500   121008267.01108  23027104.600    94292147.75945
 15 01 18 02 48 30.0000000  0  7G16G18G21G22G27G29G31
  21699097.360   114029533.14909  21699094.300    88854175.13346
  22379982.220   117607645.86108  22379979.760    91642301.95446
  21230236.120   111565802.30308  21230232.960    86934344.30447
  23754413.620   124830321.96308  23754410.200    97270352.00945
  23024093.180   120992436.20108  23024091.340    94279847.15645
  23660920.700   124339219.43108  23660918.960    96887554.16845
  23044223.340   121098213.81908  23044220.340    94362236.16545
 15 01 18 02 49  0.0000000  0  7G16G18G21G22G27G29G31
  21685661.280   113958923.99909  21685657.900    88799155.01046
  22369064.660   117550273.94509  22369061.840    91597596.56245
  21237260.580   111602715.09708  21237257.340    86963107.52647
  23736430.240   124735818.71608  23736426.740    97196713.21945
  23011702.920   120927324.54308  23011701.740    94229110.81545
  23674322.080   124409645.33808  23674320.120    96942431.48645
  23061370.980   121188322.87208  23061367.140    94432451.01345
 15 01 18 02 49 30.0000000  0  7G16G18G21G22G27G29G31
  21672278.140   113888593.56609  21672274.480    88744352.07346
  22358208.620   117493224.83609  22358205.360    91553142.72145
  21244345.280   111639944.29608  21244341.840    86992117.28947
  23718452.160   124641343.13408  23718448.500    97123095.97744
  22999328.600   120862295.70508  22999327.800    94178439.02045
  23687730.960   124480109.60508  23687728.620    96997338.69444
  23078549.160   121278593.65508  23078544.800    94502791.85245
 15 01 18 02 50  0.0000000  0  7G16G18G21G22G27G29G31
  21658948.320   113818544.16409  21658944.600    88689768.12846
  22347414.500   117436500.58309  22347410.760    91508941.98946
  21251489.820   111677487.95808  21251486.180    87021372.10247
  23700479.960   124546898.12808  23700475.940    97049502.56644
  22986970.140   120797349.61008  22986969.420    94127831.68945
  23701147.140   124550611.78608  23701144.620    97052275.44245
  23095757.460   121369023.47808  23095752.820    94573256.61245
 15 01 18 02 50 30.0000000  0  7G16G18G21G22G27G29G31
  21645672.680   113748779.89509  21645668.840    88635406.36646
  22336683.040   117380105.70509  22336678.780    91464997.93345
  21258694.280   111715346.92308  21258690.520    87050872.61047
  23682514.540   124452488.34708  23682509.560    96975936.57144
  22974627.920   120732488.47808  22974627.280    94077290.55245
  23714570.940   124621154.16307  23714568.460    97107243.49345
  23112995.700   121459610.96708  23112990.900    94643844.24344
 15 01 18 02 51  0.0000000  0  7G16G18G21G22G27G29G31
  21632451.220   113679300.92409  21632447.240    88581266.91846
  22326014.060   117324040.01009  22326009.780    91421310.36846
  21265957.760   111753516.27208  21265953.900    87080614.97047
  23664555.780   124358113.82508  23664549.300    96902398.00044
  22962301.320   120667709.70808  22962300.360    94026813.60345
  23728001.980   124691734.05507  23727999.420    97162240.79845
  23130262.900   121550351.01208  23130258.220    94714550.74445
 15 01 18 02 51 30.0000000  0  7G16G18G21G22G27G29G31
  21619284.020   113610107.54908  21619279.880    88527350.00245
  22315407.700   117268303.59509  22315403.680    91377879.39646
  21273279.660   111791992.73508  21273275.660    87110596.63847
  23646603.840   124263775.30708  23646596.140    96828887.50243
  22949989.900   120603011.33808  22949988.320    93976399.31545
  23741439.820   124762349.75907  23741437.440    97217265.99445
  23147558.200   121641238.75008  23147553.820    94785372.29644
 15 01 18 02 52  0.0000000  0  7G16G18G21G22G27G29G31
  21606173.280   113541211.19908  21606168.900    88473664.54145
  22304866.280   117212908.17209  22304862.640    91334714.13546
  21280661.640   111830784.75308  21280657.560    87140824.17847
  23628661.020   124169484.97608  23628652.640    96755414.53744
  22937695.440   120538403.00508  22937693.680    93926055.17145
  23754886.180   124833010.71307  23754883.820    97272326.44345
  23164882.940   121732280.61808  23164878.680    94856313.97344
 15 01 18 02 52 30.0000000  0  7G16G18G21G22G27G29G31
  21593118.160   113472607.64908  21593113.700    88420207.26245
  22294388.980   117157849.41109  22294385.680    91291811.21246
  21288102.060   111869883.44908  21288097.840    87171290.69947
  23610726.540   124075238.48908  23610718.580    96681975.76144
  22925416.680   120473877.82208  22925414.720    93875775.82544
  23768339.760   124903709.94507  23768337.540    97327416.70945
  23182235.220   121823466.76108  23182230.960    94927368.09644
 15 01 18 02 53  0.0000000  0  7G16G18G21G22G27G29G31
  21580119.380   113404299.85708  21580114.980    88366980.43845
  22283976.260   117103130.33709  22283973.260    91249172.97746
  21295600.740   111909287.81508  21295596.320    87201995.39147
  23592801.100   123981039.37208  23592794.160    96608573.91145
  22913153.800   120409436.71708  22913151.600    93825561.98745
  23781800.940   124974448.62907  23781798.820    97382537.71645
  23199614.500   121914795.01608  23199610.180    94998532.93744
 15 01 18 02 53 30.0000000  0  7G16G18G21G22G27G29G31
  21567177.320   113336288.65509  21567172.900    88313984.70446
  22273628.280   117048751.40909  22273625.620    91206799.78846
  21303156.880   111948994.31108  21303152.320    87232935.50847
  23574884.860   123886888.91408  23574878.880    96535209.99145
  22900906.580   120345078.13208  22900904.340    93775412.45245
  23795269.440   125045225.31507  23795267.100    97437688.33845
  23217019.840   122006260.64008  23217015.740    95069804.81345
 15 01 18 02 54  0.0000000  0  7G16G18G21G22G27G29G31
  21554292.460   113268576.82709  21554287.780    88261222.25346
  22263345.620   116994715.40809  22263343.280    91164693.83047
  21310770.260   111989002.01508  21310765.620    87264110.34447
  23556978.460   123792790.34108  23556972.960    96461886.50646
  22888675.120   120280802.55608  22888673.000    93725327.58845
  23808745.280   125116040.49907  23808742.500    97492868.99245
  23234450.860   122097861.54608  23234447.060    95141182.10045
 15 01 18 02 54 30.0000000  0  7G16G18G21G22G27G29G31
  21541465.320   113201167.74909  21541460.200    88208695.70546
  22253129.000   116941026.13009  22253126.700    91122858.03547
  21318440.840   112029311.07508  21318436.300    87295520.01847
  23539082.620   123698747.57408  23539077.680    96388606.47945
  22876459.800   120216611.48808  22876457.760    93675308.59544
  23822228.600   125186895.10107  23822225.480    97548080.33644
  23251907.300   122189595.92308  23251903.600    95212663.37745
 15 01 18 02 55  0.0000000  0  7G16G18G21G22G27G29G31
  21528696.260   113134064.12309  21528690.580    88156407.16346
  22242978.820   116887686.09509  22242976.320    91081294.37646
  21326168.280   112069919.54308  21326164.060    87327162.97847
  23521197.800   123604763.41708  23521193.520    96315372.13246
  22864260.700   120152505.20808  22864259.080    93625355.63945
  23835719.540   125257789.70707  23835716.240    97603322.83345
  23269388.740   122281461.32408  23269384.980    95284246.77344
 15 01 18 02 55 30.0000000  0  7G16G18G21G22G27G29G31
  21515984.700   113067263.43109  21515978.560    88104354.66646
  22232894.460   116834692.13209  22232891.780    91040000.37846
  21333951.180   112110820.15108  21333947.480    87359033.56147
  23503323.860   123510835.75108  23503319.980    96242181.77646
  22852076.820   120088478.74408  22852075.220    93575464.88145
  23849217.140   125328719.53507  23849213.400    97658592.80044
  23286893.600   122373449.44608  23286889.780    95355925.77844
 15 01 18 02 56  0.0000000  0  7G16G18G21G22G27G29G31
  21503332.200   113000773.89709  21503325.940    88052544.64446
  22222877.500   116782052.41809  22222874.620    90998982.42346
  21341790.580   112152017.98708  21341787.460    87391135.74647
  23485462.240   123416973.04308  23485458.800    96169042.06546
  22839909.300   120024538.17608  22839907.460    93525641.09545
  23862722.500   125399690.57907  23862718.860    97713894.86344
  23304422.500   122465563.54308  23304418.760    95427702.96844
 15 01 18 02 56 30.0000000  0  7G16G18G21G22G27G29G31
  21490738.680   112934594.91609  21490732.480    88000976.60846
  22212927.740   116729766.10509  22212924.600    90958239.84646
  21349685.780   112193508.61508  21349683.000    87423466.09147
  23467613.020   123323175.07708  23467609.780    96095952.80246
  22827757.660   119960680.53308  22827755.580    93475881.91545
  23876235.160   125470699.76307  23876231.320    97769226.63344
  23321974.200   122557797.39308  23321970.660    95499573.47244
 15 01 18 02 57  0.0000000  0  7G16G18G21G22G27G29G31
  21478204.920   112868730.20909  21478198.680    87949653.45645
  22203046.060   116677837.72008  22203042.580    90917776.16246
  21357636.740   112235291.66508  21357634.120    87456024.31247
  23449777.020   123229446.76308  23449773.880    96022917.82046
  22815622.200   119896907.96908  22815620.060    93426189.02245
  23889755.580   125541749.37407  23889751.080    97824589.93043
  23339548.500   122650150.46608  23339545.020    95571536.86944
 15 01 18 02 57 30.0000000  0  7G16G18G21G22G27G29G31
  21465731.280   112803182.05509  21465724.940    87898576.97645
  22193232.660   116626268.70408  22193228.780    90877592.51946
  21365643.100   112277365.08708  21365640.360    87488808.80147
  23431954.420   123135789.81308  23431951.480    95949938.46946
  22803502.780   119833219.75808  22803500.720    93376561.86745
  23903283.640   125612838.52708  23903278.260    97879984.04943
  23357144.620   122742618.56408  23357141.180    95643589.91045
 15 01 18 02 58  0.0000000  0  7G16G18G21G22G27G29G31
  21453317.640   112737950.12509  21453311.460    87847746.90145
  22183487.540   116575058.82208  22183483.280    90837688.70946
  21373703.960   112319724.59308  21373700.980    87521816.21847
  23414145.720   123042204.81008  23414142.780    95877015.13446
  22791399.040   119769613.87308  22791397.200    93326998.84446
  23916818.860   125683965.18808  23916812.940    97935407.40243
  23374761.620   122835196.81308  23374758.080    95715728.79544
 15 01 18 02 58 30.0000000  0  7G16G18G21G22G27G29G31
  21440965.160   112673040.18708  21440959.460    87797167.76145
  22173811.660   116524213.42708  22173807.300    90798068.90845
  21381819.680   112362372.60608  21381816.440    87555048.44247
  23396351.860   122948698.13608  23396348.860    95804152.86046
  22779311.620   119706094.14708  22779310.240    93277502.97446
  23930362.000   125755133.18808  23930355.180    97990863.00743
  23392399.700   122927885.83608  23392395.880    95787953.98445
 15 01 18 02 59  0.0000000  0  7G16G18G21G22G27G29G31
  21428674.120   112608452.38008  21428668.860    87746839.59845
  22164205.080   116473732.30308  22164200.840    90758732.95145
  21389989.340   112405304.54308  21389985.880    87588501.89247
  23378572.940   122855269.64808  23378569.560    95731351.46845
  22767240.020   119642657.66508  22767238.960    93228071.93946
  23943912.420   125826339.70408  23943905.360    98046348.60243
  23410057.900   123020680.20808  23410053.660    95860261.26745
 15 01 18 02 59 30.0000000  0  7G16G18G21G22G27G29G31
  21416445.520   112544191.77209  21416440.560    87696766.41246
  22154668.800   116423620.57408  22154664.800    90719684.86646
  21398213.160   112448521.56608  21398209.580    87622177.48447
  23360810.060   122761924.95808  23360806.040    95658615.37444
  22755184.800   119579307.57708  22755183.920    93178708.24446
  23957470.640   125897588.06108  23957464.120    98101866.72643
  23427736.160   123113579.73208  23427731.920    95932650.47346
 15 01 18 03 00  0.0000000  0  7G16G18G21G22G27G29G31
  21404279.540   112480259.53609  21404274.800    87646949.09346
  22145203.300   116373879.52408  22145199.480    90680925.59946
  21406490.700   112492020.91308  21406486.900    87656073.06847
  23343063.480   122668666.14208  23343058.520    95585946.14944
  22743145.880   119516043.09008  22743145.180    93129411.24846
  23971036.560   125968877.18608  23971030.500    98157416.67544
  23445433.660   123206580.30409  23445429.480    96005118.39746
 15 01 18 03 00 30.0000000  0  7G16G18G21G22G27G29G31
  21392176.940   112416659.51609  21392172.200    87597390.63146
  22135809.260   116324512.78808  22135805.460    90642458.02046
  21414822.180   112535802.92808  21414818.140    87690188.93547
  23325334.060   122575497.85808  23325328.720    95513347.48845
  22731123.700   119452866.19708  22731122.900    93080182.52146
  23984610.560   126040208.98208  23984605.460    98212999.88544
  23463150.220   123299681.06608  23463146.280    96077664.40046
 15 01 18 03 01  0.0000000  0  7G16G18G21G22G27G29G31
  21380137.980   112353392.94609  21380133.080    87548091.99746
  22126486.660   116275520.93409  22126482.780    90604282.56546
  21423206.840   112579863.92808  21423202.540    87724522.19247
  23307621.880   122482420.69608  23307616.720    95440819.85645
  22719117.940   119389775.25608  22719116.920    93031020.74446
  23998192.280   126111581.81207  23998188.000    98268614.99844
  23480885.060   123392877.80109  23480881.360    96150285.17746
 15 01 18 03 01 30.0000000  0  7G16G18G21G22G27G29G31
  21368162.420   112290458.92709  21368157.300    87499052.50446
  22117235.280   116226902.81709  22117231.180    90566398.34546
  21431643.760   112624199.30908  21431639.200    87759069.27347
  23289927.180   122389434.93208  23289922.540    95368363.46245
  22707128.140   119326767.61708  22707126.780    92981923.91146
  24011781.340   126182993.61707  24011777.500    98324260.49444
  23498636.960   123486164.36308  23498633.560    96222975.95846
 15 01 18 03 02  0.0000000  0  7G16G18G21G22G27G29G31
  21356251.120   112227862.53709  21356245.920    87450276.08047
  22108055.900   116178663.20709  22108051.720    90528809.03946
  21440133.240   112668810.35608  21440128.400    87793831.12747
  23272251.060   122296545.73308  23272246.980    95295982.31046
  22695154.720   119263845.83808  22695153.220    92932893.96446
  24025378.180   126254446.25507  24025374.580    98379937.84445
  23516405.820   123579540.24508  23516402.640    96295736.32846
 15 01 18 03 02 30.0000000  0  7G16G18G21G22G27G29G31
  21344404.600   112165606.83109  21344399.480    87401765.13647
  22098948.980   116130805.17609  22098944.800    90491517.07346
  21448675.060   112713696.08108  21448669.960    87828807.03047
  23254594.140   122203756.49908  23254590.200    95223679.06346
  22683197.860   119201011.01108  22683196.300    92883931.78546
  24038982.900   126325940.73707  24038979.700    98435647.82344
  23534191.200   123673003.29508  23534188.280    96368564.63146
 15 01 18 03 03  0.0000000  0  7G16G18G21G22G27G29G31
  21332623.120   112103693.53009  21332618.260    87353521.00147
  22089914.840   116083330.16609  22089910.620    90454523.56346
  21457268.680   112758854.20908  21457263.380    87863995.17747
  23236956.760   122111069.74709  23236952.700    95151455.65246
  22671257.380   119138262.72908  22671255.880    92835037.03546
  24052595.480   126397476.91407  24052592.620    98491390.22644
  23551992.540   123766550.29908  23551989.760    96441458.31745
 15 01 18 03 03 30.0000000  0  7G16G18G21G22G27G29G31
  21320906.620   112042122.23409  21320902.060    87305543.37247
  22080953.500   116036238.10409  22080949.440    90417828.46246
  21465913.300   112804280.65909  21465907.820    87899392.41147
  23219338.860   122018485.48608  23219334.600    95079312.11646
  22659332.920   119075598.99808  22659331.560    92786208.17046
  24066215.700   126469052.47907  24066213.080    98547163.35645
  23569808.840   123860176.46008  23569806.300    96514413.71344
 15 01 18 03 04  0.0000000  0  7G16G18G21G22G27G29G31
  21309256.060   111980897.62609  21309251.760    87257835.88748
  22072065.720   115989532.04209  22072061.680    90381434.12246
  21474608.820   112849975.11808  21474603.280    87934998.48547
  23201741.260   121926008.40008  23201736.760    95007252.08346
  22647424.760   119013021.34508  22647423.620    92737446.39946
  24079843.720   126540669.31607  24079841.240    98602968.61044
  23587639.860   123953879.54908  23587637.360    96587429.05044
 15 01 18 03 04 30.0000000  0  7G16G18G21G22G27G29G31
  21297671.580   111920020.49909  21297667.380    87210399.16548
  22063251.640   115943213.27709  22063247.620    90345341.58546
  21483354.760   112895935.25908  21483349.380    87970811.57647
  23184164.160   121833640.10508  23184159.460    94935276.83145
  22635532.740   118950528.84108  22635531.880    92688750.96846
  24093479.460   126612326.37307  24093477.020    98658805.25144
  23605485.040   124047656.36408  23605482.420    96660501.85044
 15 01 18 03 05  0.0000000  0  7G16G18G21G22G27G29G31
  21286153.000   111859490.19509  21286148.880    87163232.68847
  22054511.240   115897281.07409  22054507.120    90309550.26146
  21492150.280   112942156.69608  21492145.280    88006828.27647
  23166607.660   121741380.80308  23166602.660    94863386.48845
  22623656.480   118888119.07808  22623655.860    92640119.99846
  24107122.640   126684020.99507  24107120.100    98714671.13344
  23623343.200   124141500.83708  23623340.180    96733627.39344
 15 01 18 03 05 30.0000000  0  7G16G18G21G22G27G29G31
  21274701.240   111799311.70409  21274697.260    87116340.36447
  22045845.280   115851739.57909  22045841.060    90274063.38146
  21500995.480   112988639.74208  21500990.960    88043048.82947
  23149072.980   121649235.55608  23149067.180    94791584.98544
  22611796.400   118825794.56308  22611796.000    92591555.45546
  24120773.680   126755755.62707  24120770.520    98770568.19143
  23641214.200   124235412.79608  23641210.920    96806805.53044
 15 01 18 03 06  0.0000000  0  7G16G18G21G22G27G29G31
  21263316.740   111739487.15109  21263312.960    87069723.83747
  22037253.880   115806590.56609  22037249.700    90238882.33846
  21509889.840   113035382.15508  21509886.000    88079471.49247
  23131560.480   121557206.71508  23131553.920    94719874.20444
  22599952.500   118763555.28108  22599952.340    92543057.33246
  24134432.420   126827530.49107  24134428.760    98826496.60743
  23659097.400   124329389.05208  23659094.040    96880033.76244
 15 01 18 03 06 30.0000000  0  7G16G18G21G22G27G29G31
  21251999.820   111680018.13209  21251996.360    87023384.36447
  22028737.320   115761835.39109  22028733.220    90204008.18547
  21518833.160   113082382.58308  21518830.080    88116095.21147
  23114070.660   121465296.45508  23114063.680    94648255.81245
  22588124.800   118701400.91309  22588124.660    92494625.36546
  24148098.800   126899345.14108  24148093.960    98882456.12041
  23676992.020   124423425.68408  23676989.080    96953309.00644
 15 01 18 03 07  0.0000000  0  7G16G18G21G22G27G29G31
  21240751.820   111620910.89109  21240748.560    86977326.79047
  22020296.740   115717480.14609  22020292.740    90169445.65046
  21527825.960   113129642.87208  21527823.620    88152921.40247
  23096604.760   121373511.70908  23096597.840    94576735.22444
  22576314.100   118639335.52009  22576313.760    92446262.72346
  24161773.440   126971203.44908  24161767.900    98938449.69942
  23694898.340   124517524.52407  23694896.000    97026632.73545
 15 01 18 03 07 30.0000000  0  7G16G18G21G22G27G29G31
  21229572.780   111562165.59809  21229569.560    86931551.23347
  22011932.140   115673524.70709  22011928.360    90135194.66046
  21536867.640   113177159.15808  21536865.780    88189947.07347
  23079162.880   121281853.32808  23079156.220    94505313.09244
  22564520.100   118577357.37709  22564519.520    92397968.06646
  24175455.940   127043103.83307  24175450.120    98994475.94344
  23712815.360   124611680.51907  23712813.580    97100000.92544
 15 01 18 03 08  0.0000000  0  7G16G18G21G22G27G29G31
  21218463.720   111503788.10509  21218460.580    86886062.29047
  22003644.540   115629974.11309  22003640.980    90101259.14046
  21545958.620   113224933.41608  21545956.920    88227173.77347
  23061745.720   121190327.07408  23061739.820    94433993.99345
  22552743.400   118515469.99409  22552742.620    92349744.13946
  24189146.780   127115049.66907  24189141.360    99050537.54444
  23730743.400   124705894.10307  23730742.380    97173414.01644
 15 01 18 03 08 30.0000000  0  7G16G18G21G22G27G29G31
  21207424.880   111445779.63709  21207421.920    86840860.88247
  21995434.080   115586829.19709  21995430.700    90067639.73846
  21555098.360   113272962.57908  21555096.520    88264599.08147
  23044353.680   121098934.98608  23044348.820    94362779.43245
  22540983.840   118453672.54009  22540982.820    92301590.27746
  24202845.580   127187039.94807  24202840.640    99106633.81844
  23748681.920   124800161.18408  23748681.360    97246868.79244
 15 01 18 03 09  0.0000000  0  7G16G18G21G22G27G29G31
  21196455.660   111388136.48609  21196452.860    86795944.14747
  21987300.140   115544086.61209  21987297.100    90034333.83846
  21564285.460   113321239.53708  21564283.260    88302217.47747
  23026986.640   121007674.09908  23026982.480    94291667.10645
  22529240.340   118391959.62609  22529239.240    92253502.30546
  24216551.820   127259069.07107  24216547.320    99162760.38344
  23766629.160   124894473.03708  23766628.720    97320358.51343
 15 01 18 03 09 30.0000000  0  7G16G18G21G22G27G29G31
  21185557.440   111330865.77909  21185554.700    86751317.62547
  21979243.960   115501752.65809  21979241.140    90001346.36646
  21573520.360   113369767.04908  21573517.680    88340031.10547
  23009646.400   120916551.90208  23009642.440    94220662.82345
  22517513.840   118330336.08709  22517512.640    92205483.98746
  24230266.440   127331142.33006  24230261.960    99218921.37244
  23784585.340   124988831.78408  23784585.000    97393884.79943
 15 01 18 03 10  0.0000000  0  7G16G18G21G22G27G29G31
  21174731.600   111273974.67109  21174728.660    86706986.87647
  21971266.780   115459833.55809  21971264.100    89968682.14646
  21582803.540   113418548.06908  21582800.240    88378042.27347
  22992334.200   120825575.51908  22992330.080    94149772.14746
  22505805.240   118268806.67209  22505803.960    92157539.00946
  24243989.660   127403264.06305  24243986.440    99275119.97643
  23802550.720   125083239.14508  23802548.740    97467449.02442
 15 01 18 03 10 30.0000000  0  7G16G18G21G22G27G29G31
  21163976.140   111217453.32809  21163972.920    86662944.27147
  21963366.820   115418319.56109  21963364.060    89936333.58946
  21592132.400   113467569.13408  21592128.380    88416240.50147
  22975048.280   120734735.96209  22975043.760    94078988.10846
  22494112.360   118207359.75709  22494110.920    92109658.31746
  24257720.420   127475422.60006  24257718.260    99331347.33744
  23820522.500   125177680.56508  23820519.060    97541039.70343
 15 01 18 03 11  0.0000000  0  7G16G18G21G22G27G29G31
  21153291.680   111161304.82709  21153287.980    86619192.19947
  21955544.560   115377213.19409  21955541.620    89904302.67346
  21601506.600   113516829.25308  21601502.080    88454625.01047
  22957789.260   120644036.89308  22957784.240    94008313.53346
  22482435.320   118145996.55809  22482433.700    92061842.86446
  24271458.940   127547618.89407  24271457.180    99387604.16344
  23838500.160   125272153.36408  23838496.400    97614654.83544
 15 01 18 03 11 30.0000000  0  7G16G18G21G22G27G29G31
  21142679.320   111105535.65509  21142675.160    86575735.68947
  21947801.120   115336520.81409  21947798.080    89872594.33346
  21610926.660   113566331.29608  21610921.780    88493198.03047
  22940558.200   120553485.34308  22940552.840    93937753.91645
  22470774.980   118084721.52309  22470773.300    92014096.09146
  24285205.740   127619857.59406  24285203.880    99443894.03743
  23856484.040   125366659.54108  23856480.580    97688295.95445
 15 01 18 03 12  0.0000000  0  7G16G18G21G22G27G29G31
  21132140.640   111050153.95809  21132136.080    86532581.11247
  21940137.900   115296249.76209  21940134.680    89841214.28846
  21620393.400   113616079.22108  21620388.260    88531962.65146
  22923356.880   120463090.13808  22923351.080    93867316.11145
  22459132.520   118023540.91009  22459130.820    91966422.89946
  24298961.720   127692145.00506  24298959.900    99500221.86543
  23874474.880   125461202.50808  23874472.000    97761965.69645
 15 01 18 03 12 30.0000000  0  7G16G18G21G22G27G29G31
  21121674.120   110995151.78209  21121669.420    86489722.27647
  21932553.300   115256391.58109  21932549.840    89810155.97246
  21629904.620   113666061.45608  21629899.360    88570909.86847
  22906183.940   120372843.90808  22906177.500    93796994.40044
  22447506.040   117962444.84309  22447504.460    91918815.59046
  24312725.320   127764470.83607  24312723.440    99556579.65643
  23892470.280   125555769.10208  23892467.820    97835653.86945
 15 01 18 03 13  0.0000000  0  7G16G18G21G22G27G29G31
  21111281.440   110940537.76209  21111276.720    86447165.89847
  21925048.760   115216954.34509  21925045.140    89779425.66246
  21639461.200   113716282.12508  21639455.880    88610042.86946
  22889040.900   120282755.55008  22889033.920    93726795.67544
  22435896.800   117901439.80709  22435895.420    91871279.18846
  24326497.620   127836841.55007  24326495.720    99612972.40543
  23910470.900   125650362.62308  23910468.740    97909363.00045
 15 01 18 03 13 30.0000000  0  7G16G18G21G22G27G29G31
  21100962.820   110886312.92709  21100958.060    86404912.77847
  21917624.500   115177939.20709  21917620.840    89749024.26546
  21649062.720   113766739.01808  21649057.400    88649359.94046
  22871927.940   120192826.83008  22871920.700    93656721.36044
  22424304.740   117840524.90909  22424303.600    91823813.05246
  24340278.040   127909255.94407  24340276.360    99669399.17143
  23928476.000   125744978.96108  23928473.940    97983089.93345
 15 01 18 03 14  0.0000000  0  7G16G18G21G22G27G29G31
  21090718.480   110832478.38909  21090713.600    86362963.78347
  21910280.400   115139345.99209  21910276.720    89718951.63746
  21658708.600   113817428.88008  21658703.280    88688858.54046
  22854845.540   120103059.20508  22854837.840    93586772.52744
  22412729.840   117779699.14809  22412728.720    91776416.35146
  24354066.220   127981713.34306  24354065.200    99725859.43542
  23946484.740   125839614.21208  23946482.640    98056831.60745
 15 01 18 03 14 30.0000000  0  7G16G18G21G22G27G29G31
  21080556.900   110779078.70809  21080551.860    86321353.64247
  21903025.000   115101219.30209  21903021.360    89689242.55046
  21668406.560   113868392.48408  21668401.320    88728570.44246
  22837801.940   120013497.73608  22837795.120    93516984.40645
  22401180.160   117719005.29409  22401179.040    91729122.45546
  24367870.500   128054256.23505  24367868.980    99782356.58243
  23964504.500   125934307.83908  23964502.280    98130618.76145
 15 01 18 03 15  0.0000000  0  7G16G18G21G22G27G29G31
  21070459.080   110726013.83809  21070453.860    86280004.38747
  21895839.320   115063458.90009  21895835.700    89659818.87346
  21678136.940   113919526.29208  21678131.800    88768414.98446
  22820778.960   119924043.51108  22820772.820    93447279.82945
  22389636.400   117658341.91309  22389635.340    91681852.30546
  24381671.920   128126783.15606  24381671.100    99838871.00044
  23982515.380   126028955.59708  23982512.860    98204370.18544
 15 01 18 03 15 30.0000000  0  8G16G18G19G21G22G27G29G31
  21060439.080   110673358.07209  21060433.740    86238973.91447
  21888737.160   115026137.24909  21888733.540    89630737.06546
  24548385.980   129002627.55506  24548386.360   100521527.32445
  21687913.000   113970899.91308  21687908.100    88808446.37646
  22803790.540   119834770.56408  22803784.920    93377716.52045
  22378112.100   117597780.30409  22378111.000    91634661.44547
  24395483.980   128199364.98807  24395483.420    99895428.21545
  24000530.480   126123625.74208  24000527.840    98278139.00344
 15 01 18 03 16  0.0000000  0  8G16G18G19G21G22G27G29G31
  21050497.060   110621112.94109  21050491.880    86198263.43647
  21881718.780   114989255.91309  21881715.200    89601998.35746
  24533567.660   128924761.84707  24533566.880   100460852.84944
  21697734.240   114022510.93208  21697729.660    88848662.75846
  22786837.400   119745681.09909  22786832.080    93308296.16445
  22366607.280   117537320.55609  22366606.060    91587549.95547
  24409306.400   128272002.04607  24409305.660    99952028.52445
  24018549.160   126218314.90908  24018546.360    98351922.69744
 15 01 18 03 16 30.0000000  0  8G16G18G19G21G22G27G29G31
  21040630.480   110569264.35909  21040625.480    86157861.95447
  21874781.560   114952800.87309  21874778.040    89573591.84246
  24518758.260   128846940.85206  24518756.220   100400213.06945
  21707597.280   114074342.20408  21707593.120    88889050.75346
  22769916.760   119656762.07808  22769911.320    93239008.64645
  22355118.900   117476946.77509  22355117.560    91540505.44647
  24423136.260   128344678.06705  24423135.420   100008659.18145
  24036567.760   126313004.29208  24036564.780    98425706.53144
 15 01 18 03 17  0.0000000  0  7G16G18G19G21G22G27G31
  21030842.900   110517830.62309  21030837.960    86117783.72447
  21867928.840   114916789.32809  21867925.280    89545530.89346
  24503961.560   128769180.78307  24503958.400   100339620.89044
  21717504.840   114126407.91308  21717501.240    88929621.42747
  22753032.240   119568032.37008  22753026.640    93169868.60845
  22343649.960   117416675.48109  22343648.440    91493540.80747
  24054588.940   126407707.21808  24054585.900    98499500.93943
 15 01 18 03 17 30.0000000  0  8G16G18G19G21G22G27G29G31
  21021125.740   110466766.61609  21021120.780    86077993.59347
  21861151.880   114881175.75309  21861148.280    89517780.06346
  24489167.840   128691434.13407  24489162.680   100279039.04844
  21727447.640   114178659.04008  21727444.560    88970336.57147
  22736175.060   119479447.15508  22736169.360    93100841.22945
  22332191.420   117356459.49809  22332189.800    91446619.26647
  24450819.120   128489925.40306  24450820.000   100122006.15045
  24072603.240   126502373.55808  24072600.420    98573266.83044
 15 01 18 03 18  0.0000000  0  8G16G18G19G21G22G27G29G31
  21011491.700   110416139.08709  21011486.700    86038543.57047
  21854463.260   114846026.39209  21854459.760    89490390.95546
  24474388.860   128613765.69507  24474382.340   100218518.16844
  21737437.800   114231158.52108  21737434.980    89011245.24347
  22719358.220   119391074.10108  22719351.960    93031979.13845
  22320755.720   117296364.00509  22320754.060    91399791.61647
  24464674.840   128562738.12907  24464675.580   100178743.37644
  24090622.380   126597065.24308  24090620.200    98647052.41544
 15 01 18 03 18 30.0000000  0  8G16G18G19G21G22G27G29G31
  21001934.760   110365916.61309  21001929.740    85999409.17347
  21847856.840   114811309.24009  21847853.320    89463338.63246
  24459618.220   128536141.90507  24459611.360   100158032.05844
  21747468.700   114283870.65508  21747465.780    89052319.61947
  22702575.640   119302881.95408  22702569.220    92963258.03644
  22309336.480   117236355.45709  22309334.780    91353031.71547
  24478538.020   128635590.37207  24478538.700   100235511.38745
  24108639.460   126691745.91008  24108637.660    98720829.43844
 15 01 18 03 19  0.0000000  0  8G16G18G19G21G22G27G29G31
  20992456.320   110316106.72009  20992451.380    85960596.27748
  21841333.880   114777030.73309  21841330.220    89436628.11546
  24444856.820   128458568.00507  24444850.040   100097584.81744
  21757541.020   114336799.48208  21757537.780    89093562.86547
  22685829.120   119214878.83609  22685822.160    92894684.20844
  22297934.780   117176439.36709  22297933.120    91306343.86447
  24492409.640   128708487.44607  24492410.120   100292314.27545
  24126655.040   126786417.78608  24126653.520    98794599.63344
 15 01 18 03 19 30.0000000  0  8G16G18G19G21G22G27G29G31
  20983057.500   110266715.40909  20983052.680    85922109.55447
  21834895.380   114743196.52009  21834891.680    89410263.80446
  24430105.080   128381048.32006  24430098.820   100037179.76845
  21767655.200   114389947.58209  21767651.480    89134976.97247
  22669120.080   119127071.98409  22669112.020    92826263.28444
  22286551.520   117116620.42809  22286549.960    91259731.70847
  24506290.780   128781433.90506  24506290.920   100349155.61845
  24144669.440   126881082.55208  24144668.300    98868364.24244
 15 01 18 03 20  0.0000000  0  8G16G18G19G21G22G27G29G31
  20973737.640   110217739.30809  20973732.980    85883946.36547
  21828540.700   114709802.94809  21828536.860    89384242.83946
  24415362.340   128303577.20806  24415356.760    99976812.72545
  21777809.640   114443307.37708  21777805.460    89176556.03047
  22652447.880   119039458.17509  22652438.860    92757992.77343
  22275185.660   117056893.29809  22275184.280    91213191.08547
  24520180.540   128854424.19005  24520180.180   100406031.05545
  24162680.940   126975731.71608  24162679.940    98942116.70444
 15 01 18 03 20 30.0000000  0  8G16G18G19G21G22G27G29G31
  20964497.340   110169181.88509  20964492.880    85846109.41147
  21822270.320   114676852.49609  21822266.440    89358567.16247
  24400628.980   128226155.85807  24400624.740    99916484.31445
  21788004.100   114496878.13608  21787999.560    89218299.47247
  22635813.340   118952041.44509  22635803.600    92689875.78843
  22263837.420   116997259.31609  22263836.240    91166723.05147
  24534078.940   128927459.40106  24534078.060   100462941.48045
  24180689.160   127070363.41708  24180688.080    99015855.58044
 15 01 18 03 21  0.0000000  0  8G16G18G19G21G22G27G29G31
  20955337.740   110121048.78109  20955333.440    85808603.10548
  21816085.180   114644350.15208  21816081.380    89333240.65647
  24385905.800   128148787.82806  24385902.640    99856197.59146
  21798238.920   114550661.85008  21798234.060    89260208.85847
  22619217.300   118864828.09909  22619208.560    92621917.30244
  22252507.660   116937722.67009  22252506.720    91120330.86647
  24547986.400   129000543.63907  24547985.440   100519890.19745
  24198694.240   127164978.84608  24198692.980    99089581.76343
 15 01 18 03 21 30.0000000  0  7G16G18G19G21G22G27G31
  20946257.960   110073335.54209  20946253.880    85771423.95847
  21809984.440   114612291.03009  21809980.780    89308259.52647
  24371191.980   128071467.24107  24371189.180    99795947.80646
  21808512.720   114604651.03908  21808507.560    89302278.35846
  22602659.380   118777814.69409  22602652.080    92554114.64844
  22241195.260   116878277.34608  22241194.580    91074009.86547
  24216694.340   127259568.88808  24216693.000    99163288.19743
 15 01 18 03 22  0.0000000  0  7G16G18G19G21G22G27G31
  20937258.320   110026043.34709  20937254.380    85734572.89947
  21803968.380   114580676.45109  21803964.860    89283624.79547
  24356487.480   127994193.35308  24356484.800    99735734.38046
  21818824.980   114658842.99608  21818819.540    89344505.85446
  22586139.820   118691003.23409  22586133.560    92486469.37545
  22229900.160   116818922.94209  22229899.640    91027759.69047
  24234688.780   127354130.05908  24234687.140    99236972.09943
 15 01 18 03 22 30.0000000  0  7G16G18G19G21G22G27G31
  20928339.580   109979175.96609  20928335.680    85698052.85447
  21798037.340   114549508.11509  21798033.940    89259337.78547
  24341792.340   127916967.18808  24341789.240    99675558.19745
  21829175.660   114713237.22708  21829169.980    89386890.96946
  22569659.120   118604396.90509  22569653.420    92418983.96145
  22218622.540   116759660.62009  22218622.200    90981581.26746
  24252677.300   127448660.49108  24252674.820    99310632.11243
 15 01 18 03 23  0.0000000  0  7G16G18G19G21G22G27G31
  20919503.080   109932740.02709  20919498.980    85661868.99747
  21792192.480   114518792.57209  21792189.160    89235403.60547
  24327107.320   127839793.77608  24327103.700    99615423.08746
  21839565.300   114767836.59408  21839559.500    89429435.95345
  22553219.160   118518004.02708  22553213.640    92351664.88246
  22207363.460   116700495.92308  22207363.500    90935478.94147
  24270660.420   127543162.47107  24270657.020    99384269.94244
 15 01 18 03 23 30.0000000  0  7G16G18G19G21G22G27G31
  20910749.220   109886737.81709  20910744.680    85626023.09047
  21786433.980   114488530.89309  21786430.780    89211823.07047
  24312432.160   127762672.70206  24312428.040    99555328.66446
  21849993.600   114822639.51708  21849987.760    89472139.52745
  22536819.960   118431826.89708  22536814.640    92284513.92545
  22196123.040   116641428.80108  22196123.380    90889452.61847
  24288637.480   127637632.72008  24288633.660    99457882.93244
 15 01 18 03 24  0.0000000  0  7G16G18G19G21G22G27G31
  20902078.740   109841173.48009  20902073.700    85590518.38747
  21780762.640   114458727.06709  21780759.580    89188599.32247
  24297767.340   127685606.81907  24297763.080    99495277.41246
  21860460.660   114877646.87408  21860455.100    89515002.40146
  22520462.960   118345870.92308  22520457.480    92217535.26745
  22184901.980   116582462.44208  22184902.320    90843504.83547
  24306608.540   127732071.56608  24306605.020    99531471.50043
 15 01 18 03 24 30.0000000  0  7G16G18G19G21G22G27G31
  20893490.120   109796039.72008  20893484.680    85555349.20347
  21775176.920   114429373.65309  21775174.060    89165726.54647
  24283111.340   127608587.32407  24283106.720    99435262.17846
  21870964.620   114932848.12808  21870959.420    89558016.37046
  22504146.720   118260129.84908  22504141.600    92150724.09546
  22173698.620   116523588.13808  22173698.700    90797628.75247
  24324571.360   127826467.09808  24324567.860    99605026.29842
 15 01 18 03 25  0.0000000  0  7G16G18G19G21G22G27G31
  20884985.780   109751349.35808  20884980.280    85520525.52947
  21769678.940   114400481.72609  21769676.280    89143213.36647
  24268465.740   127531623.88806  24268461.280    99375290.68646
  21881507.200   114988251.37608  21881502.300    89601187.73446
  22487873.740   118174615.94909  22487868.980    92084089.93945
  22162514.780   116464815.95008  22162514.280    90751832.25446
  24342527.280   127920826.54408  24342523.660    99678553.00041
 15 01 18 03 25 30.0000000  0  7G16G18G19G21G22G27G31
  20876564.640   109707096.61308  20876559.400    85486042.86347
  21764267.640   114372045.38109  21764265.060    89121055.18847
  24253829.220   127454709.39107  24253824.880    99315357.37546
  21892086.640   115043847.38408  21892082.180    89644509.31246
  22471643.280   118089324.71309  22471638.580    92017629.26946
  22151349.100   116406139.15209  22151347.960    90706110.09246
  24360474.520   128015139.90307  24360471.120    99752043.80242
 15 01 18 03 26  0.0000000  0  7G16G18G19G21G22G27G31
  20868226.540   109663280.97308  20868221.740    85451900.80447
  21758942.980   114344063.72309  21758940.260    89099251.31047
  24239201.440   127377841.99606  24239197.560    99255460.69146
  21902702.340   115099632.49908  21902698.200    89687978.24846
  22455455.280   118004256.75909  22455450.760    91951342.59446
  22140201.200   116347556.03209  22140199.260    90660460.90046
  24378412.120   128109402.14707  24378408.500    99825494.83343
 15 01 18 03 26 30.0000000  0  7G16G18G19G21G22G27G31
  20859972.760   109619909.56008  20859968.640    85418104.90447
  21753706.060   114316542.65009  21753703.140    89077806.32347
  24224583.260   127301026.36007  24224579.900    99195604.48745
  21913354.900   115155610.22208  21913350.820    89731597.23846
  22439311.380   117919419.54809  22439306.620    91885235.66445
  22129072.160   116289071.61009  22129069.440    90614888.62546
  24396340.280   128203615.31307  24396335.600    99898907.59843
 15 01 18 03 27  0.0000000  0  7G16G18G19G21G22G27G31
  20851804.100   109576985.97808  20851800.840    85384657.97048
  21748557.340   114289484.52509  21748554.060    89056722.08047
  24209975.080   127224263.50305  24209972.200    99135789.26145
  21924044.040   115211779.49108  21924039.920    89775365.49646
  22423212.260   117834817.17109  22423206.800    91819311.75244
  22117962.280   116230687.42009  22117959.120    90569394.43846
  24414258.740   128297777.93407  24414254.660    99972280.93443
 15 01 18 03 27 30.0000000  0  7G16G18G19G21G22G27G31
  20843720.320   109534507.29308  20843717.740    85351557.69848
  21743496.120   114262886.04709  21743492.400    89035996.00247
  24195376.540   127147549.43607  24195373.960    99076012.07745
  21934768.500   115268134.25008  21934764.380    89819278.28747
  22407157.500   117750447.38709  22407151.020    91753569.04743
  22106870.820   116172399.44409  22106867.380    90523975.22846
  24432166.160   128391882.86306  24432163.120   100045609.30943
 15 01 18 03 28  0.0000000  0  7G16G18G19G21G22G27G31
  20835722.900   109492480.68808  20835720.580    85318809.69648
  21738523.580   114236754.05409  21738519.540    89015633.41547
  24180788.620   127070889.58307  24180785.380    99016277.08744
  21945529.000   115324678.81208  21945524.840    89863338.97947
  22391148.520   117666318.57309  22391139.880    91688014.10143
  22095798.760   116114213.68409  22095795.300    90478635.67747
  24450063.140   128485932.76905  24450060.820   100118894.76144
 15 01 18 03 28 30.0000000  0  7G16G18G19G21G22G27G31
  20827811.180   109450903.25008  20827808.780    85286411.68448
  21733638.960   114211084.86909  21733634.740    88995631.45147
  24166210.340   126994279.25907  24166206.100    98956580.71644
  21956324.100   115381406.21608  21956320.040    89907542.14447
  22375184.760   117582428.45108  22375173.720    91622645.09443
  22084745.180   116056125.45509  22084741.880    90433372.12247
  24467948.060   128579920.25306  24467946.600   100192131.55744
 15 01 18 03 29  0.0000000  0  7G16G18G19G21G22G27G31
  20819986.220   109409781.61708  20819983.680    85254368.86348
  21728843.340   114185883.92909  21728838.980    88975994.35947
  24151642.320   126917722.23308  24151636.960    98896925.89644
  21967154.220   115438318.96008  21967150.440    89951889.73747
  22359267.540   117498783.77008  22359256.740    91557467.38843
  22073710.960   115998139.65109  22073707.920    90388188.38747
  24485821.320   128673846.66004  24485820.860   100265320.84445
 15 01 18 03 29 30.0000000  0  7G16G18G19G21G22G27G31
  20812248.340   109369117.21508  20812245.580    85222682.30648
  21724136.880   114161152.02109  21724132.480    88956722.75747
  24137084.520   126841218.71808  24137078.220    98837312.72844
  21978019.040   115495415.33808  21978015.660    89996380.39447
  22343397.380   117415387.21708  22343388.100    91492483.07543
  22062696.100   115940256.14809  22062693.340    90343084.35047
  24503682.640   128767709.18406  24503682.500   100338460.17543
 15 01 18 03 30  0.0000000  0  7G16G18G19G21G22G27G31
  20804596.940   109328906.73208  20804593.840    85191349.45048
  21719518.940   114136885.69709  21719514.660    88937813.93347
  24122536.220   126764765.08808  24122529.700    98777738.47144
  21988917.520   115552689.03108  21988914.500    90041009.24047
  22327574.000   117332236.74108  22327566.720    91427690.53744
  22051699.860   115882470.83209  22051697.600    90298056.83947
  24521530.660   128861500.59006  24521530.300   100411544.13944
 15 01 18 03 30 30.0000000  0  7G16G18G19G21G22G27G31
  20797033.160   109289156.63408  20797029.660    85160375.33648
  21714990.460   114113089.58009  21714986.480    88919271.50247
  24107997.800   126688363.32308  24107991.160    98718204.60945
  21999850.040   115610142.00608  21999847.300    90085777.77347
  22311799.040   117249338.81909  22311793.220    91363094.76646
  22040723.040   115824787.74509  22040721.200    90253108.98347
  24539365.660   128955221.89807  24539364.760   100484573.51743
 15 01 18 03 31  0.0000000  0  7G16G18G19G21G22G27G31
  20789557.180   109249867.86608  20789553.240    85129760.69948
  21710551.580   114089763.86209  21710547.880    88901095.63847
  24093469.180   126612013.56708  24093462.640    98658711.32845
  22010816.280   115667772.06708  22010813.620    90130684.32046
  22296072.560   117166695.02809  22296067.520    91298697.03846
  22029765.680   115767206.73109  22029764.220    90208240.67147
  24557186.640   129048869.07906  24557184.200   100557545.24042
 15 01 18 03 31 30.0000000  0  7G16G18G19G21G22G27G31
  20782169.600   109211043.65108  20782165.240    85099508.05748
  21706202.920   114066911.66509  21706199.400    88883288.72947
  24078950.680   126535717.79608  24078943.920    98599260.09044
  22021816.260   115725579.29107  22021813.540    90175728.90746
  22280395.540   117084310.07909  22280390.660    91234500.99846
  22018828.200   115709729.97809  22018827.200    90163453.59347
  24574993.420   129142442.25806  24574990.160   100630459.18544
 15 01 18 03 32  0.0000000  0  7G16G18G19G21G22G27G31
  20774870.180   109172682.91208  20774865.360    85069616.57847
  21701944.000   114044530.38209  21701940.560    88865848.78547
  24064441.860   126459473.35807  24064434.800    98539848.79545
  22032848.920   115783558.30507  22032846.200    90220907.36746
  22264767.460   117002182.84809  22264762.460    91170505.79846
  22007910.000   115652354.30509  22007909.300    90118745.30348
  24592784.840   129235934.55807  24592780.560   100703310.20041
 15 01 18 03 32 30.0000000  0  7G16G18G19G21G22G27G31
  20767659.100   109134787.06408  20767653.880    85040087.33047
  21697775.020   114022621.62409  21697771.540    88848777.02847
  24049942.600   126383279.85507  24049935.680    98480477.23445
  22043914.320   115841708.41008  22043911.520    90266219.13146
  22249189.000   116920316.51309  22249183.780    91106713.86846
  21997011.240   115595080.73509  21997010.840    90074116.54547
  24610560.400   129329344.31307  24610555.720   100776096.69343
 15 01 18 03 33  0.0000000  0  7G16G18G19G21G22G27G31
  20760533.240   109097339.92308  20760527.660    85010907.74047
  21693692.460   114001167.35109  21693688.880    88832059.41847
  24035449.320   126307118.40008  24035442.580    98421130.70345
  22055008.460   115900008.51907  22055005.380    90311647.77146
  22233657.040   116838694.74809  22233651.560    91043112.51046
  21986128.320   115537890.70409  21986128.200    90029552.89547
  24628314.700   129422683.17304  24628318.820   100848834.78743
 15 01 18 03 33 30.0000000  0  7G16G18G19G21G22G27G31
  20753507.160   109060417.47608  20753501.240    84982136.99047
  21689710.760   113980243.27609  21689707.020    88815754.95747
  24020976.320   126231063.92007  24020969.780    98361867.45946
  22066145.280   115958531.78708  22066141.880    90357250.30546
  22218186.260   116757394.39109  22218180.100    90979761.59146
  21975275.440   115480859.34709  21975275.560    89985112.88247
  24646064.760   129515955.63406  24646067.660   100921514.41544
 15 01 18 03 34  0.0000000  0  7G16G18G19G21G22G27G31
  20746563.240   109023927.33208  20746557.040    84953703.11147
  21685812.140   113959755.82909  21685808.220    88799790.71547
  24006505.700   126155021.86908  24006499.460    98302613.99945
  22077306.520   116017182.25208  22077302.660    90402951.97546
  22202759.160   116676324.22009  22202752.800    90916590.04246
  21964434.740   115423892.67908  21964435.140    89940723.30147
  24663790.060   129609098.73007  24663791.380   100994093.13943
 15 01 18 03 34 30.0000000  0  7G16G18G19G21G22G27G31
  20739709.420   108987911.58408  20739703.200    84925638.88847
  21682004.520   113939746.78509  21682000.400    88784199.26047
  23992045.340   126079033.42107  23992039.840    98243402.23146
  22088499.420   116075998.86608  22088494.960    90448783.11546
  22187384.080   116595527.54609  22187377.560    90853631.58646
  21953614.220   115367031.99109  21953614.680    89896416.30347
  24681497.720   129702150.21405  24681498.540   101066600.59144
 15 01 18 03 35  0.0000000  0  6G16G18G19G21G22G27
  20732940.740   108952343.56308  20732934.560    84897923.55847
  21678282.680   113920188.47309  21678278.380    88768959.02947
  23977589.820   126003070.03608  23977584.760    98184210.03345
  22099718.180   116134951.55208  22099713.200    90494720.27046
  22172055.980   116514978.17509  22172049.420    90790865.83746
  21942808.680   115310249.11009  21942809.080    89852169.91947
 15 01 18 03 35 30.0000000  0  6G16G18G19G21G22G27
  20726269.700   108917288.38208  20726263.580    84870607.83847
  21674658.680   113901144.34309  21674654.360    88754119.45147
  23963151.080   125927194.38108  23963146.400    98125086.16046
  22110974.340   116194101.37408  22110968.840    90540811.06446
  22156787.380   116434741.42709  22156781.040    90728343.69746
  21932030.180   115253607.16709  21932030.300    89808033.33147
 15 01 18 03 36  0.0000000  0  6G16G18G19G21G22G27
  20719690.520   108882715.11508  20719684.480    84843667.62347
  21671126.680   113882583.23709  21671122.280    88739656.26447
  23948723.080   125851374.85008  23948718.620    98066006.02346
  22122261.380   116253414.67308  22122255.560    90587029.21946
  22141572.520   116354787.76209  22141566.480    90666042.15346
  21921272.680   115197074.69809  21921272.300    89763982.05947
 15 01 18 03 36 30.0000000  0  6G16G18G19G21G22G27
  20713202.880   108848622.44208  20713196.920    84817101.90247
  21667686.320   113864503.04309  21667681.720    88725567.81247
  23934305.240   125775608.26708  23934300.800    98006967.15946
  22133578.260   116312886.57707  22133572.520    90633370.97445
  22126411.340   116275116.62408  22126405.780    90603960.76946
  21910535.560   115140649.04709  21910534.720    89720014.02547
 15 01 18 03 37  0.0000000  0  6G16G18G19G21G22G27
  20706806.800   108815010.64408  20706800.860    84790910.89447
  21664337.360   113846903.04909  21664332.620    88711853.53747
  23919897.320   125699893.61808  23919892.700    97947968.74646
  22144924.480   116372514.41907  22144919.340    90679834.23045
  22111304.100   116195729.25509  22111299.260    90542100.52246
  21899818.640   115084329.48609  21899817.320    89676128.65747
 15 01 18 03 37 30.0000000  0  6G16G18G19G21G22G27
  20700502.860   108781883.29408  20700497.020    84765097.38247
  21661080.420   113829786.43509  21661075.620    88698515.92347
  23905499.660   125624232.83408  23905494.880    97889012.29146
  22156300.420   116432298.58707  22156296.200    90726419.28446
  22096251.840   116116630.30409  22096247.560    90480464.98046
  21889122.300   115028118.50609  21889120.620    89632327.89347
 15 01 18 03 38  0.0000000  0  6G16G18G19G21G22G27
  20694291.120   108749240.52508  20694285.460    84739661.47247
  21657915.080   113813151.54609  21657910.320    88685553.67247
  23891111.820   125548623.58908  23891106.640    97830095.99846
  22167705.740   116492235.30907  22167702.100    90773123.20546
  22081254.580   116037820.20609  22081250.820    90419054.53246
  21878446.080   114972014.22809  21878444.180    89588610.28347
 15 01 18 03 38 30.0000000  0  6G16G18G19G21G22G27
  20688172.000   108717084.42208  20688166.680    84714604.76448
  21654841.500   113796999.67509  21654836.980    88672967.80647
  23876734.100   125473067.20408  23876728.700    97771220.91345
  22179140.340   116552323.60208  22179136.820    90819945.23546
  22066313.020   115959302.05409  22066309.440    90357871.57747
  21867790.260   114916018.01009  21867788.300    89544976.87247
 15 01 18 03 39  0.0000000  0  6G16G18G19G21G22G27
  20682145.540   108685415.51008  20682140.680    84689927.69647
  21651859.760   113781330.94009  21651855.540    88660758.41147
  23862366.300   125397562.80208  23862360.700    97712386.28545
  22190603.620   116612561.08308  22190599.980    90866883.52446
  22051427.400   115881077.67209  22051423.800    90296917.53647
  21857154.880   114860129.62809  21857153.000    89501427.48147
 15 01 18 03 39 30.0000000  0  6G16G18G19G21G22G27
  20676213.240   108654241.16508  20676208.800    84665635.99748
  21648971.020   113766151.53409  21648966.980    88648930.31947
  23848009.380   125322115.77708  23848003.800    97653596.40445
  22202096.100   116672951.41008  22202092.220    90913940.91946
  22036599.280   115803154.76809  22036595.420    90236198.40347
  21846541.160   114804354.90709  21846539.340    89457966.66647
 15 01 18 03 40  0.0000000  0  6G16G18G19G21G22G27
  20670374.240   108623557.45008  20670370.220    84641726.61047
  21646174.420   113751456.63109  21646170.440    88637479.76247
  23833662.220   125246720.58208  23833656.680    97594846.90245
  22213616.380   116733487.70008  22213612.100    90961112.05646
  22021828.000   115725530.55809  22021823.860    90175712.01347
  21835948.280   114748688.89709  21835946.460    89414590.56247
 15 01 18 03 40 30.0000000  0  6G16G18G19G21G22G27
  20664630.120   108593372.04008  20664626.400    84618205.51948
  21643471.460   113737253.53709  21643467.440    88626412.41947
  23819326.020   125171384.11208  23819320.720    97536143.18045
  22225165.280   116794174.59708  22225160.500    91008400.54746
  22007115.200   115648214.05209  22007110.760    90115465.39946
  21825377.500   114693138.62909  21825375.760    89371304.64347
 15 01 18 03 41  0.0000000  0  6G16G18G19G21G22G27
  20658981.160   108563685.80808  20658977.540    84595073.39348
  21640862.060   113723541.72809  21640857.860    88615727.91147
  23805000.780   125096106.01608  23804995.960    97477484.94345
  22236742.260   116855009.89608  22236737.100    91055804.67047
  21992461.260   115571207.02509  21992456.400    90055459.93646
  21814828.560   114637703.67209  21814827.100    89328108.58847
 15 01 18 03 41 30.0000000  0  6G16G18G19G21G22G27
  20653427.380   108534499.58008  20653423.740    84572330.88848
  21638346.060   113710320.52909  21638341.540    88605425.69947
  23790686.280   125020884.84208  23790682.160    97418871.06845
  22248346.660   116915990.47808  22248341.340    91103321.99746
  21977866.380   115494510.45009  21977861.140    89995696.37346
  21804301.260   114582383.31509  21804300.120    89285001.82047
 15 01 18 03 42  0.0000000  0  6G16G18G19G21G22G27
  20647967.980   108505809.47508  20647964.280    84549974.95848
  21635922.720   113697585.77509  21635917.640    88595502.51446
  23776381.540   124945715.58507  23776378.140    97360297.63146
  22259977.380   116977110.06208  22259972.080    91150947.63046
  21963330.100   115418121.77509  21963324.440    89936172.73846
  21793794.840   114527173.11409  21793793.980    89241980.88847
 15 01 18 03 42 30.0000000  0  6G16G18G19G21G22G27
  20642604.560   108477624.63908  20642600.900    84528012.74048
  21633593.540   113685345.39209  21633587.900    88585964.55546
  23762088.140   124870606.00407  23762085.320    97301770.69546
  22271635.560   117038374.65508  22271630.340    91198686.24546
  21948854.280   115342050.77709  21948848.060    89876896.63646
  21783310.920   114472081.17709  21783310.260    89199052.10847
 15 01 18 03 43  0.0000000  0  6G16G18G19G21G22G27
  20637335.940   108449938.26908  20637332.340    84506438.95148
  21631357.140   113673592.10309  21631351.180    88576806.15746
  23747804.720   124795548.16908  23747802.460    97243284.15345
  22283319.320   117099774.15608  22283314.160    91246529.99246
  21934437.820   115266292.02309  21934430.820    89817863.81745
  21772848.140   114417100.01909  21772847.620    89156209.65747
 15 01 18 03 43 30.0000000  0  6G16G18G19G21G22G27
  20632163.060   108422755.03508  20632159.560    84485257.21448
  21629214.040   113662329.52409  21629208.000    88568030.14446
  23733532.060   124720545.57307  23733530.200    97184840.62246
  22295029.140   117161310.55008  22295023.960    91294480.42946
  21920081.700   115190851.12309  21920074.560    89759078.69545
  21762407.320   114362233.50709  21762406.740    89113456.54147
 15 01 18 03 44  0.0000000  0  6G16G18G19G21G22G27
  20627086.540   108396077.89208  20627083.000    84464469.83248
  21627164.500   113651559.05609  21627158.500    88559637.58547
  23719270.180   124645598.76408  23719268.240    97126440.57945
  22306764.860   117222983.07408  22306759.600    91342536.94346
  21905786.660   115115731.49508  21905779.640    89700543.89346
  21751988.600   114307482.64109  21751987.780    89070793.53347
 15 01 18 03 44 30.0000000  0  6G16G18G19G21G22G27
  20622107.060   108369910.42208  20622103.440    84444079.59448
  21625209.100   113641284.11909  21625203.460    88551631.14946
  23705019.760   124570711.19808  23705017.680    97068086.64046
  22318526.680   117284792.78808  22318521.140    91390700.35645
  21891553.740   115040938.28808  21891547.420    89642263.47346
  21741592.580   114252851.16608  21741591.540    89028223.55847
 15 01 18 03 45  0.0000000  0  6G16G18G19G21G22G27
  20617224.060   108344249.62108  20617220.320    84424084.16947
  21623347.020   113631500.18309  21623341.980    88544007.32046
  23690779.780   124495877.82708  23690777.220    97009774.97146
  22330313.400   117346733.22408  22330307.360    91438965.63745
  21877382.500   114966469.01508  21877376.860    89584235.47646
  21731218.360   114198334.65808  21731217.240    88985743.19747
 15 01 18 03 45 30.0000000  0  6G16G18G19G21G22G27
  20612438.500   108319100.75808  20612434.580    84404487.64448
  21621579.220   113622211.78209  21621574.760    88536769.61547
  23676550.920   124421102.92608  23676548.040    96951508.85246
  22342125.580   117408807.64208  22342118.860    91487335.33045
  21863274.320   114892330.58308  21863269.240    89526465.26147
  21720866.920   114143937.88608  21720865.760    88943356.11147
 15 01 18 03 46  0.0000000  0  6G16G18G19G21G22G27
  20607750.420   108294464.27408  20607746.240    84385290.38248
  21619905.700   113613418.41009  21619901.700    88529917.64547
  23662332.940   124346385.97008  23662329.800    96893287.88245
  22353962.560   117471012.22408  22353955.260    91535806.44945
  21849229.220   114818523.59408  21849224.800    89468953.32847
  21710538.260   114089660.32709  21710537.060    88901061.92647
 15 01 18 03 46 30.0000000  0  6G16G18G19G21G22G27
  20603159.560   108270339.24708  20603155.260    84366491.66148
  21618326.180   113605118.43409  21618322.300    88523450.15147
  23648125.480   124271724.71008  23648121.880    96835110.27445
  22365823.860   117533344.55208  22365816.400    91584377.11545
  21835247.360   114745048.93408  21835243.460    89411700.35847
  21700232.180   114035500.55209  21700230.900    88858859.51847
 15 01 18 03 47  0.0000000  0  6G16G18G19G21G22G27
  20598666.660   108246729.64708  20598662.380    84348094.56848
  21616841.120   113597314.31709  21616837.120    88517369.03647
  23633929.080   124197121.83508  23633925.160    96776978.19945
  22377709.560   117595804.93108  22377702.500    91633047.54845
  21821329.620   114671911.07408  21821326.160    89354709.83647
  21689949.140   113981461.43309  21689947.800    88816751.15047
 15 01 18 03 47 30.0000000  0  6G16G18G19G21G22G27
  20594271.380   108223633.71908  20594267.380    84330097.74147
  21615450.020   113590003.61509  21615445.860    88511672.40747
  23619743.200   124122574.56408  23619738.600    96718889.42445
  22389618.820   117658388.98208  22389612.260    91681814.34845
  21807476.080   114599109.84908  21807473.000    89297981.63547
  21679688.640   113927540.76709  21679687.220    88774735.05547
 15 01 18 03 48  0.0000000  0  6G16G18G19G21G22G27
  20589974.860   108201057.10908  20589971.180    84312505.57847
  21614153.700   113583190.62709  21614149.380    88506363.59147
  23605568.720   124048087.15808  23605563.600    96660847.29445
  22401552.020   117721098.88408  22401546.120    91730679.19846
  21793687.560   114526651.05508  21793684.740    89241520.26647
  21669451.480   113873742.95909  21669449.780    88732814.69747
 15 01 18 03 48 30.0000000  0  6G16G18G19G21G22G27
  20585776.380   108178995.83208  20585772.900    84295314.96247
  21612951.200   113576870.89709  21612946.860    88501439.12947
  23591404.780   123973654.61508  23591399.320    96602847.90245
  22413507.960   117783928.45307  22413502.720    91779637.27946
  21779963.920   114454532.20408  21779961.080    89185323.75147
  21659236.860   113820063.79709  21659234.660    88690986.77847
 15 01 18 03 49  0.0000000  0  6G16G18G19G21G22G27
  20581677.740   108157458.64508  20581674.380    84278532.74648
  21611843.920   113571051.77809  21611839.660    88496904.77347
  23577252.700   123899284.17908  23577247.120    96544896.95745
  22425487.720   117846883.30007  22425483.000    91828692.98146
  21766306.820   114382762.72608  21766303.820    89129399.50748
  21649046.260   113766511.04409  21649043.500    88649257.36747
 15 01 18 03 49 30.0000000  0  6G16G18G19G21G22G27
  20577678.500   108136443.18508  20577675.180    84262157.06148
  21610831.300   113565730.12509  21610827.080    88492758.03047
  23563111.820   123824972.77208  23563106.320    96486991.93645
  22437490.300   117909958.39007  22437486.220    91877842.36946
  21752716.200   114311341.65008  21752712.720    89073746.70447
  21638879.160   113713081.81109  21638875.920    88607624.19647
 15 01 18 03 50  0.0000000  0  6G16G18G19G21G22G27
  20573779.940   108115956.04008  20573776.660    84246193.06747
  21609914.400   113560911.72009  21609910.280    88489003.43947
  23548983.240   123750726.02907  23548977.920    96429137.32946
  22449516.460   117973157.73507  22449512.820    91927088.58246
  21739193.240   114240276.55908  21739189.340    89018371.32147
  21628736.720   113659782.24309  21628733.120    88566092.08446
 15 01 18 03 50 30.0000000  0  6G16G18G19G21G22G27
  20569980.920   108095991.33008  20569977.560    84230636.14648
  21609091.940   113556589.40109  21609087.820    88485635.40647
  23534865.540   123676536.91508  23534860.620    96371327.62045
  22461564.620   118036472.51207  22461561.420    91976424.74946
  21725737.160   114169562.67408  21725732.760    88963269.58847
  21618617.580   113606605.70109  21618613.780    88524655.82646
 15 01 18 03 51  0.0000000  0  6G16G18G19G21G22G27
  20566282.220   108076553.94508  20566278.880    84215490.14147
  21608364.620   113552767.06409  21608360.500    88482656.97247
  23520759.480   123602409.32408  23520754.720    96313565.93245
  22473635.400   118099904.87908  22473632.260    92025852.54946
  21712348.840   114099206.02308  21712344.240    88908446.23847
  21608522.560   113553556.54109  21608518.720    88483318.82446
 15 01 18 03 51 30.0000000  0  6G16G18G19G21G22G27
  20562682.860   108057638.83308  20562679.560    84200751.08947
  21607731.440   113549439.37609  21607727.220    88480063.97847
  23506664.120   123528337.78608  23506659.500    96255847.86745
  22485727.340   118163447.18608  22485723.960    92075366.03546
  21699027.640   114029203.24108  21699023.100    88853898.63247
  21598450.700   113500629.70809  21598447.000    88442077.14846
 15 01 18 03 52  0.0000000  0  6G16G18G19G21G22G27
  20559184.020   108039252.03208  20559180.740    84186423.70748
  21607193.120   113546610.42509  21607188.820    88477859.60347
  23492580.300   123454326.51608  23492575.440    96198176.77445
  22497840.960   118227102.65008  22497837.240    92124967.68746
  21685774.780   113959560.44508  21685770.380    88799631.54947
  21588402.940   113447829.91209  21588399.260    88400934.45046
 15 01 18 03 52 30.0000000  0  6G16G18G19G21G22G27
  20555786.400   108021397.06308  20555783.080    84172510.74348
  21606750.180   113544282.95909  21606745.800    88476045.99347
  23478508.480   123380378.13208  23478503.580    96140554.68145
  22509976.280   118290872.20308  22509972.160    92174658.24845
  21672591.340   113890282.26908  21672586.980    88745648.56946
  21578379.920   113395160.24508  21578376.260    88359893.14046
 15 01 18 03 53  0.0000000  0  6G16G18G19G21G22G27
  20552489.720   108004072.33309  20552486.300    84159010.94548
  21606402.100   113542454.25409  21606397.560    88474621.03947
  23464448.280   123306490.39408  23464443.420    96082979.83545
  22522132.380   118354751.70708  22522127.880    92224434.48345
  21659477.480   113821368.40408  21659472.920    88691949.46146
  21568381.320   113342618.83408  21568377.880    88318951.77746
 15 01 18 03 53 30.0000000  0  6G16G18G19G21G22G27
  20549294.720   107987281.01609  20549291.140    84145926.80148
  21606149.320   113541126.62709  21606144.720    88473586.53447
  23450400.120   123232665.42808  23450395.200    96025453.90245
  22534309.280   118418741.62508  22534304.260    92274296.76945
  21646433.920   113752823.32708  21646428.960    88638537.71946
  21558407.720   113290208.33709  21558404.600    88278112.43546
 15 01 18 03 54  0.0000000  0  6G16G18G19G21G22G27
  20546201.900   107971026.09309  20546198.120    84133260.63648
  21605992.240   113540301.97009  21605987.620    88472943.94547
  23436364.480   123158905.87408  23436359.380    95967978.95145
  22546507.100   118482842.79207  22546501.920    92324245.74244
  21633461.460   113684651.47008  21633455.700    88585416.78846
  21548459.600   113237931.59608  21548457.040    88237377.33346
 15 01 18 03 54 30.0000000  0  6G16G18G19G21G22G27
  20543210.620   107955304.57409  20543206.520    84121010.10248
  21605930.140   113539976.89609  21605925.620    88472690.65047
  23422340.420   123085207.32008  23422335.260    95910551.53145
  22558724.620   118547049.27507  22558719.700    92374276.76844
  21620559.420   113616850.60308  21620553.220    88532584.94346
  21538536.280   113185785.09608  21538534.400    88196743.70946
 15 01 18 03 55  0.0000000  0  6G16G18G19G21G22G27
  20540321.540   107940120.76709  20540317.040    84109178.55148
  21605963.620   113540154.07009  21605959.280    88472828.70047
  23408328.500   123011573.18508  23408323.120    95853174.31845
  22570962.380   118611362.77707  22570957.800    92424391.16945
  21607728.920   113549425.78108  21607722.760    88480046.10946
  21528638.560   113133772.52108  21528637.120    88156214.44247
 15 01 18 03 55 30.0000000  0  6G16G18G19G21G22G27
  20537535.400   107925478.22809  20537530.400    84097768.77948
  21606093.360   113540836.37609  21606089.080    88473360.37947
  23394329.200   122938006.40308  23394323.540    95795849.56945
  22583220.900   118675784.53007  22583216.860    92474589.95644
  21594970.600   113482382.06208  21594964.920    88427804.26846
  21518767.180   113081897.47009  21518765.820    88115792.32647
 15 01 18 03 56  0.0000000  0  6G16G18G19G21G22G27
  20534850.820   107911370.00009  20534845.500    84086775.32848
  21606317.820   113542015.61309  21606313.500    88474279.26547
  23380341.060   122864499.68708  23380335.240    95738571.64345
  22595498.600   118740305.37007  22595494.860    92524865.91245
  21582283.680   113415713.94208  21582278.540    88375855.07946
  21508920.680   113030152.68609  21508919.080    88075471.69746
 15 01 18 03 56 30.0000000  0  6G16G18G19G21G22G27
  20532267.860   107897796.59009  20532262.460    84076198.64347
  21606636.700   113543690.89809  21606632.320    88475584.69047
  23366364.080   122791052.34208  23366358.340    95681339.95445
  22607795.060   118804922.92508  22607791.340    92575217.25445
  21569668.660   113349422.59708  21569663.580    88324199.49446
  21499098.900   112978537.76109  21499097.060    88035252.27946
 15 01 18 03 57  0.0000000  0  6G16G18G19G21G22G27
  20529787.360   107884762.27909  20529782.020    84066042.02647
  21607050.700   113545866.25109  21607046.300    88477279.77347
  23352399.020   122717668.13908  23352393.600    95624157.48944
  22620110.700   118869639.50208  22620106.920    92625645.74545
  21557126.820   113283513.95009  21557121.440    88272842.11146
  21489302.720   112927057.49009  21489300.720    87995137.77847
 15 01 18 03 57 30.0000000  0  6G16G18G19G21G22G27
  20527410.260   107872271.56109  20527405.040    84056308.99847
  21607560.360   113548544.83509  21607556.040    88479366.99947
  23338446.600   122644350.86208  23338441.720    95567027.18245
  22632445.660   118934456.83808  22632441.560    92676152.75645
  21544658.860   113217993.41909  21544653.360    88221787.17447
  21479532.940   112875715.76709  21479530.740    87955131.27547
 15 01 18 03 58  0.0000000  0  6G16G18G19G21G22G27
  20525135.940   107860320.75708  20525130.760    84046996.67448
  21608164.840   113551721.76409  21608160.600    88481842.53847
  23324506.180   122571095.59408  23324502.000    95509945.17445
  22644798.660   118999368.96208  22644794.240    92726733.63246
  21532264.500   113152858.42609  21532258.460    88171032.62846
  21469788.760   112824508.56009  21469786.420    87915229.55747
 15 01 18 03 58 30.0000000  0  6G16G18G19G21G22G27
  20522964.660   107848911.13408  20522959.400    84038106.04547
  21608864.300   113555397.87909  21608860.180    88484707.04847
  23310578.000   122497903.49408  23310574.280    95452912.38545
  22657169.420   119064374.86208  22657164.740    92777387.56046
  21519944.080   113088111.77209  21519937.520    88120580.69746
  21460070.540   112773437.49009  21460068.100    87875433.92347
 15 01 18 03 59  0.0000000  0  6G16G18G19G21G22G27
  20520897.140   107838046.70009  20520891.800    84029640.25447
  21609659.120   113559575.31709  21609655.120    88487962.20947
  23296662.660   122424777.80708  23296658.960    95395931.37146
  22669558.220   119129476.05508  22669553.400    92828115.76446
  21507698.240   113023758.22709  21507691.140    88070435.09746
  21450378.860   112722505.91409  21450376.200    87835746.98547
 15 01 18 03 59 30.0000000  0  6G16G18G19G21G22G27
  20518933.600   107827728.28308  20518928.240    84021599.91947
  21610549.440   113564253.99609  21610545.360    88491607.94947
  23282760.040   122351718.69908  23282756.060    95339002.20644
  22681964.720   119194671.33608  22681959.880    92878917.26746
  21495527.560   112959800.01309  21495520.140    88020597.53447
  21440713.840   112671714.72009  21440710.920    87796169.43747
 15 01 18 04 00  0.0000000  0  6G16G18G19G21G22G27
  20517074.120   107817956.42408  20517068.760    84013985.48548
  21611535.280   113569434.17109  21611531.080    88495644.45947
  23268870.100   122278726.49108  23268865.760    95282125.17945
  22694388.660   119259959.11108  22694383.940    92929790.84446
  21483432.480   112896238.91609  21483425.000    87971069.41947
  21431075.420   112621064.53609  21431072.360    87756701.77547
 15 01 18 04 00 30.0000000  0  6G16G18G19G21G22G27
  20515319.560   107808735.58108  20515314.180    84006800.39948
  21612617.320   113575119.44909  21612613.040    88500074.54447
  23254993.620   122205805.14908  23254989.260    95225303.37245
  22706830.600   119325342.01008  22706826.080    92980738.53746
  21471414.060   112833080.94909  21471406.220    87921855.42746
  21421464.480   112570559.86709  21421461.440    87717347.48447
 15 01 18 04 01  0.0000000  0  6G16G18G19G21G22G27
  20513668.200   107800057.25008  20513662.840    84000038.04948
  21613793.560   113581299.47909  21613789.080    88504890.15847
  23241128.900   122132945.34008  23241124.620    95168529.49645
  22719288.340   119390808.53008  22719284.100    93031751.38946
  21459470.780   112770318.33209  21459462.840    87872949.50446
  21411879.380   112520191.68109  21411876.420    87678099.56146
 15 01 18 04 01 30.0000000  0  6G16G18G19G21G22G27
  20512121.420   107791929.13208  20512116.200    83993704.46048
  21615065.220   113587981.00409  21615060.560    88510096.54347
  23227277.180   122060153.98208  23227273.040    95111808.96945
  22731762.880   119456364.23507  22731759.100    93082833.72846
  21447604.300   112707959.88709  21447596.240    87824358.51047
  21402321.760   112469967.63609  21402318.980    87638963.94847
 15 01 18 04 02  0.0000000  0  6G16G18G19G21G22G27
  20510679.360   107784351.69408  20510674.320    83987799.95148
  21616432.120   113595163.72309  21616427.380    88515693.46547
  23213438.520   121987431.21208  23213434.540    95055141.87345
  22744254.020   119522007.95507  22744250.780    93133984.65045
  21435814.960   112646007.53309  21435807.180    87776083.96446
  21392791.800   112419888.48809  21392789.280    87599941.23946
 15 01 18 04 02 30.0000000  0  6G16G18G19G21G22G27
  20509342.820   107777328.78808  20509338.000    83982327.57348
  21617894.860   113602850.75009  21617890.160    88521683.35647
  23199613.600   121914781.19208  23199609.880    94998531.49145
  22756762.260   119587741.34408  22756759.520    93185205.45045
  21424103.780   112584466.70809  21424095.980    87728130.08346
  21383290.240   112369958.29909  21383287.820    87561034.62346
 15 01 18 04 03  0.0000000  0  6G16G18G19G21G22G27
  20508111.260   107770856.91008  20508106.460    83977284.54548
  21619452.580   113611037.00209  21619447.960    88528062.25447
  23185801.580   121842199.34908  23185798.400    94941974.20946
  22769286.640   119653558.54808  22769283.980    93236491.56345
  21412470.260   112523334.94908  21412463.060    87680494.95746
  21373816.320   112320173.35209  21373813.840    87522241.16046
 15 01 18 04 03 30.0000000  0  6G16G18G19G21G22G27
  20506985.120   107764938.42909  20506980.220    83972672.73148
  21621105.500   113619723.86709  21621101.120    88534831.24647
  23172002.880   121769687.52408  23172000.440    94885471.53146
  22781827.100   119719459.68308  22781824.320    93287843.14445
  21400915.380   112462615.48209  21400908.600    87633181.09647
  21364370.460   112270536.03709  21364367.760    87483562.75546
 15 01 18 04 04  0.0000000  0  6G16G18G19G21G22G27
  20505964.300   107759573.09008  20505959.260    83968491.95048
  21622853.540   113628910.75209  21622849.440    88541989.86147
  23158217.460   121697245.49408  23158215.460    94829023.22046
  22794383.220   119785442.92508  22794380.460    93339258.63945
  21389439.400   112402310.09509  21389432.900    87586189.89647
  21354952.680   112221046.59309  21354949.920    87444999.55646
 15 01 18 04 04 30.0000000  0  6G16G18G19G21G22G27
  20505048.640   107754760.17708  20505043.360    83964741.61148
  21624696.220   113638595.05709  21624692.400    88549536.06747
  23144444.940   121624871.81307  23144443.220    94772628.18146
  22806954.540   119851505.48708  22806952.080    93390735.96745
  21378042.580   112342418.78409  21378036.480    87539521.34047
  21345562.860   112171704.05409  21345560.320    87406550.82047
 15 01 18 04 05  0.0000000  0  6G16G18G19G21G22G27
  20504238.600   107750502.52808  20504233.100    83961423.96348
  21626634.040   113648779.22609  21626630.440    88557471.78947
  23130685.980   121552569.47807  23130684.620    94716288.74446
  22819541.120   119917647.80208  22819538.700    93442275.43146
  21366725.440   112282945.66109  21366719.460    87493178.65747
  21336201.640   112122511.69108  21336199.780    87368219.09647
 15 01 18 04 05 30.0000000  0  6G16G18G19G21G22G27
  20503532.880   107746793.92108  20503527.380    83958534.12548
  21628665.580   113659455.75809  21628662.180    88565791.16547
  23116939.500   121480332.02307  23116938.260    94659999.85446
  22832141.460   119983862.09708  22832138.980    93493870.99146
  21355487.320   112223886.58009  21355481.420    87447158.60447
  21326867.960   112073463.48108  21326866.640    87329999.71447
 15 01 18 04 06  0.0000000  0  6G16G18G19G21G22G27
  20502932.800   107743641.27608  20502927.540    83956077.51248
  21630792.100   113670631.05409  21630788.840    88574499.18947
  23103206.800   121408166.18508  23103205.580    94603766.76146
  22844756.560   120050154.04908  22844754.020    93545527.04746
  21344329.380   112165249.48809  21344323.620    87401467.38448
  21317563.200   112024566.96009  21317562.240    87291898.54547
 15 01 18 04 06 30.0000000  0  7G04G16G18G19G21G22G27
  24576848.040   129152208.58908  24576843.360   100638075.75242
  20502438.620   107741045.43308  20502433.740    83954054.78148
  21633013.400   113682304.17709  21633010.240    88583595.13247
  23089487.860   121336072.18208  23089486.640    94547589.67046
  22857386.020   120116521.72308  22857383.420    93597242.09346
  21333251.960   112107036.04009  21333246.220    87356106.26948
  21308287.480   111975822.56809  21308286.620    87253915.92047
 15 01 18 04 07  0.0000000  0  7G04G16G18G19G21G22G27
  24558649.460   129056574.54508  24558646.220   100563555.83643
  20502047.620   107738991.74408  20502043.060    83952454.50648
  21635326.680   113694460.10109  21635323.500    88593067.28047
  23075779.880   121264035.40708  23075778.440    94491457.15946
  22870026.740   120182948.70908  22870024.060    93649003.37046
  21322252.620   112049233.13509  21322246.940    87311065.06248
  21299038.100   111927216.20909  21299037.220    87216040.82547
 15 01 18 04 07 30.0000000  0  7G04G16G18G19G21G22G27
  24540483.620   128961112.69308  24540480.520   100489170.04343
  20501767.500   107737520.64108  20501763.140    83951308.19148
  21637739.300   113707137.79809  21637735.920    88602946.00147
  23062090.620   121192096.06108  23062088.720    94435400.54345
  22882686.000   120249473.50307  22882683.340    93700840.82346
  21311339.180   111991882.40309  21311333.760    87266376.20048
  21289822.760   111878788.53709  21289821.760    87178304.96147
 15 01 18 04 08  0.0000000  0  7G04G16G18G19G21G22G27
  24522346.280   128865800.61208  24522343.840   100414901.02843
  20501593.860   107736609.45208  20501589.740    83950598.16948
  21640246.820   113720313.92209  21640243.080    88613213.12347
  23048415.660   121120231.10908  23048413.160    94379401.89046
  22895359.200   120316071.90807  22895356.640    93752735.64346
  21300507.640   111934962.43309  21300502.380    87222022.98748
  21280637.180   111830517.29809  21280636.160    87140691.00847
 15 01 18 04 08 30.0000000  0  7G04G16G18G19G21G22G27
  24504235.960   128770631.18608  24504233.960   100340743.15143
  20501525.260   107736250.60708  20501521.500    83950318.53748
  21642847.560   113733979.74409  21642843.420    88623861.82847
  23034753.440   121048432.99408  23034750.360    94323455.31946
  22908044.500   120382734.57107  22908042.100    93804680.52246
  21289756.860   111878467.25509  21289751.900    87178000.79348
  21271480.080   111782395.27509  21271479.160    87103193.32447
 15 01 18 04 09  0.0000000  0  7G04G16G18G19G21G22G27
  24486154.780   128675616.19307  24486153.600   100266705.64343
  20501563.840   107736454.98808  20501560.380    83950477.79948
  21645543.400   113748145.60109  21645538.940    88634900.16647
  23021105.940   120976713.14308  23021102.200    94267569.76245
  22920744.000   120449470.98308  22920741.600    93856682.89346
  21279089.340   111822409.50009  21279084.600    87134319.44448
  21262353.700   111734434.32409  21262352.900    87065821.15848
 15 01 18 04 09 30.0000000  0  7G04G16G18G19G21G22G27
  24468102.120   128580752.82906  24468102.260   100192786.22744
  20501709.200   107737220.17408  20501706.020    83951074.04448
  21648333.660   113762807.91809  21648329.040    88646325.35447
  23007472.520   120905068.73208  23007468.280    94211742.94845
  22933456.900   120516276.73308  22933454.140    93908739.28845
  21268504.660   111766787.73509  21268500.020    87090977.83948
  21253257.580   111686632.11209  21253256.720    87028572.68548
 15 01 18 04 10  0.0000000  0  7G04G16G18G19G21G22G27
  24450078.560   128486043.01407  24450079.720   100118986.52044
  20501961.700   107738547.69808  20501958.740    83952108.46248
  21651218.320   113777966.56409  21651213.540    88658137.27847
  22993853.520   120833500.89308  22993848.740    94155975.78844
  22946183.020   120583151.33708  22946179.680    93960849.36545
  21258003.340   111711604.35308  21257998.920    87047977.81348
  21244191.980   111638990.27009  21244190.880    86991449.17048
 15 01 18 04 10 30.0000000  0  7G04G16G18G19G21G22G27
  24432084.240   128391485.53006  24432085.940   100045305.43544
  20502321.100   107740436.13208  20502318.160    83953579.95948
  21654197.020   113793619.46209  21654192.180    88670334.34647
  22980248.780   120762008.34808  22980243.560    94100267.32645
  22958921.620   120650091.93108  22958917.700    94013010.85545
  21247585.200   111656859.81608  21247581.400    87005319.79448
  21235156.720   111591507.96409  21235155.320    86954449.96848
 15 01 18 04 11  0.0000000  0  7G04G16G18G19G21G22G27
  24414119.020   128297078.82006  24414121.040    99971741.92944
  20502787.140   107742883.36308  20502783.860    83955486.87948
  21657269.080   113809763.59109  21657264.340    88682914.18847
  22966658.040   120690589.00308  22966652.340    94044615.87445
  22971672.020   120717094.50808  22971667.300    94065220.68844
  21237250.520   111602553.13608  21237246.860    86963002.90548
  21226151.380   111544183.67309  21226149.760    86917573.90248
 15 01 18 04 11 30.0000000  0  7G04G16G18G19G21G22G27
  24396182.960   128202823.05107  24396184.380    99898295.97244
  20503359.560   107745888.70408  20503355.760    83957828.70248
  21660434.320   113826397.79309  21660429.680    88695875.90947
  22953081.280   120619243.04708  22953075.400    93989021.62345
  22984433.820   120784157.53708  22984428.280    94117477.63244
  21226999.600   111548685.78008  21226996.000    86921028.36348
  21217176.080   111497017.96209  21217174.260    86880821.40448
 15 01 18 04 12  0.0000000  0  7G04G16G18G19G21G22G27
  24378276.660   128108722.02407  24378277.400    99824970.54543
  20504038.900   107749456.07508  20504034.600    83960608.47148
  21663693.360   113843524.71109  21663688.720    88709221.56547
  22939519.240   120547973.79808  22939513.280    93933487.12945
  22997207.440   120851282.83508  22997201.560    94169783.06344
  21216833.240   111495262.31709  21216829.640    86879399.71747
  21208231.600   111450014.48609  21208229.540    86844195.31348
 15 01 18 04 12 30.0000000  0  7G04G16G18G19G21G22G27
  24360400.240   128014778.17807  24360400.660    99751767.61844
  20504825.380   107753587.51808  20504820.760    83963827.76548
  21667046.340   113861144.98909  21667041.640    88722951.66047
  22925972.260   120476783.19208  22925966.460    93878013.94845
  23009992.940   120918471.21208  23009987.080    94222137.62445
  21206752.320   111442286.25509  21206748.200    86838119.66647
  21199318.540   111403175.99509  21199316.320    86807697.78948
 15 01 18 04 13  0.0000000  0  7G04G16G18G19G21G22G27
  24342553.860   127920993.26307  24342554.340    99678688.55744
  20505719.160   107758283.80408  20505714.460    83967487.21548
  21670493.320   113879259.07509  21670488.440    88737066.53646
  22912440.660   120405672.81108  22912434.960    93822603.28046
  23022790.220   120985722.06308  23022784.600    94274540.87945
  21196757.160   111389760.17109  21196752.180    86797190.27047
  21190437.240   111356504.49109  21190434.980    86771330.39548
 15 01 18 04 13 30.0000000  0  7G04G16G18G19G21G22G27
  24324737.400   127827366.23207  24324737.760    99605732.52644
  20506720.160   107763544.09208  20506715.400    83971586.13748
  21674033.920   113897864.73309  21674028.840    88751564.47247
  22898924.040   120334641.36108  22898918.480    93767254.14946
  23035598.580   121053032.46707  23035593.460    94326990.53245
  21186847.900   111337684.33509  21186841.780    86756611.69547
  21181587.500   111309999.16909  21181585.380    86735092.50948
 15 01 18 04 14  0.0000000  0  7G04G16G18G19G21G22G27
  24306951.500   127733900.55007  24306951.760    99532902.24744
  20507828.940   107769371.19008  20507824.280    83976126.72748
  21677668.320   113916963.37409  21677663.280    88766446.54047
  22885423.060   120263692.07908  22885417.500    93711969.00646
  23048418.320   121120403.83707  23048414.060    94379487.67546
  21177025.140   111286062.82609  21177017.580    86716387.11647
  21172770.000   111263663.61609  21172768.100    86698986.90248
 15 01 18 04 14 30.0000000  0  7G04G16G18G19G21G22G27
  24289195.980   127640594.52607  24289196.020    99460196.30344
  20509045.020   107775762.43008  20509040.540    83981106.91648
  21681395.940   113936552.28609  21681391.060    88781710.64647
  22871937.280   120192823.06708  22871931.780    93656746.44346
  23061248.900   121187832.68707  23061245.620    94432029.59145
  21167288.500   111234894.76909  21167279.900    86676515.90947
  21163984.520   111217496.39809  21163982.860    86663012.47148
 15 01 18 04 15  0.0000000  0  7G04G16G18G19G21G22G27
  24271470.940   127547447.97107  24271470.760    99387614.62245
  20510368.320   107782717.29908  20510364.080    83986526.27148
  21685216.460   113956629.90809  21685211.900    88797355.54047
  22858466.620   120122033.72708  22858461.160    93601585.92446
  23074090.280   121255316.89607  23074087.640    94484614.65646
  21157638.060   111184181.00209  21157628.740    86636998.66947
  21155231.020   111171497.55909  21155229.640    86627169.21848
 15 01 18 04 15 30.0000000  0  7G04G16G18G19G21G22G27
  24253776.140   127454460.29207  24253775.420    99315156.79444
  20511798.860   107790235.15808  20511794.680    83992384.34148
  21689129.540   113977194.02609  21689125.420    88813379.53847
  22845010.920   120051323.38408  22845005.500    93546486.97446
  23086942.100   121322854.26307  23086939.660    94537241.14545
  21148074.020   111133921.78809  21148064.760    86597835.64547
  21146509.340   111125666.73708  21146508.400    86591456.91348
 15 01 18 04 16  0.0000000  0  7G04G16G18G19G21G22G27
  24236112.020   127361634.49707  24236111.040    99242825.07743
  20513336.940   107798318.04908  20513332.820    83998682.70048
  21693135.620   113998246.12409  21693131.680    88829783.77247
  22831570.700   119980694.42708  22831565.200    93491451.44846
  23099804.400   121390445.37208  23099801.940    94589909.51345
  21138597.240   111084121.11509  21138588.420    86559029.92847
  21137820.180   111080007.08408  21137819.660    86555877.98848
 15 01 18 04 16 30.0000000  0  7G04G16G18G19G21G22G27
  24218478.680   127268971.41107  24218477.500    99170620.13744
  20514982.500   107806966.03208  20514978.520    84005421.38848
  21697234.500   114019785.62909  21697230.640    88846567.80447
  22818146.140   119910147.91008  22818140.460    93436480.14846
  23112676.980   121458089.66508  23112674.260    94642619.33145
  21129208.120   111034780.79309  21129199.920    86520582.91847
  21129163.980   111034520.01509  21129163.640    86520433.53248
 15 01 18 04 17  0.0000000  0  7G04G16G18G19G21G22G27
  24200876.940   127176473.94707  24200875.620    99098544.25344
  20516736.040   107816181.98008  20516732.240    84012602.64248
  21701426.360   114041813.96509  21701422.520    88863732.74147
  22804737.780   119839686.48108  22804731.900    93381575.17145
  23125560.000   121525788.36908  23125556.800    94695371.57445
  21119907.240   110985904.67009  21119899.760    86482497.63948
  21120541.420   110989208.67409  21120541.000    86485126.01247
 15 01 18 04 17 30.0000000  0  7G04G16G18G19G21G22G27
  24183306.640   127084141.35307  24183305.120    99026596.83243
  20518597.240   107825963.84708  20518593.760    84020224.87048
  21705710.620   114064328.37409  21705706.760    88881276.44347
  22791345.340   119769308.99708  22791339.140    93326735.57745
  23138452.680   121593538.25708  23138449.060    94748163.69345
  21110694.560   110937492.28809  21110687.900    86444773.72248
  21111952.380   110944072.21009  21111951.640    86449954.75047
 15 01 18 04 18  0.0000000  0  7G04G16G18G19G21G22G27
  24165768.420   126991977.59006  24165766.560    98954780.90845
  20520567.020   107836315.43708  20520563.640    84028291.02948
  21710087.820   114087331.69509  21710083.940    88899201.10747
  22777969.560   119699019.39008  22777963.140    93271964.46745
  23151355.420   121661341.83008  23151351.580    94800997.63245
  21101571.080   110889549.00409  21101565.080    86407415.32948
  21103397.600   110899115.28409  21103396.500    86414923.38547
 15 01 18 04 18 30.0000000  0  7G04G16G18G19G21G22G27
  24148261.840   126899979.97008  24148259.600    98883094.53144
  20522644.780   107847233.25408  20522641.200    84036798.40948
  21714557.300   114110819.58009  21714553.280    88917503.35347
  22764609.920   119628814.76408  22764603.480    93217259.59145
  23164267.380   121729194.54407  23164263.360    94853869.87445
  21092536.500   110842072.69409  21092531.120    86370420.82448
  21094876.540   110854335.41409  21094875.140    86380029.99047
 15 01 18 04 19  0.0000000  0  7G04G16G18G19G21G22G27
  24130786.900   126808149.28907  24130784.760    98811538.17344
  20524830.400   107858717.31408  20524826.520    84045747.04448
  21719118.940   114134791.37609  21719114.740    88936182.68647
  22751266.660   119558696.12408  22751260.200    93162621.72245
  23177188.440   121797095.47707  23177184.280    94906779.70045
  21083591.140   110795064.91208  21083586.160    86333791.40048
  21086389.400   110809733.87009  21086387.740    86345275.55748
 15 01 18 04 19 30.0000000  0  7G04G16G18G19G21G22G27
  24113343.860   126716487.22707  24113342.100    98740113.26944
  20527124.020   107870769.23308  20527119.800    84055138.13548
  21723772.820   114159247.27309  21723768.440    88955239.22647
  22737939.980   119488664.85508  22737933.420    93108051.91446
  23190118.640   121865044.45207  23190114.260    94959726.95345
  21074735.360   110748528.19108  21074730.600    86297529.03848
  21077936.560   110765312.59609  21077934.700    86310661.57748
 15 01 18 04 20  0.0000000  0  7G04G16G18G19G21G22G27
  24095933.580   126624997.96808  24095932.460    98668823.04644
  20529526.100   107883391.90708  20529521.660    84064973.98148
  21728519.360   114184189.56609  21728514.780    88974674.77847
  22724630.600   119418724.78608  22724623.800    93053553.19645
  23203058.460   121933044.46107  23203054.020    95012713.96545
  21065970.140   110702468.06508  21065965.740    86261638.05448
  21069518.900   110721076.10409  21069516.840    86276191.57148
 15 01 18 04 20 30.0000000  0  7G04G16G18G19G21G22G27
  24078554.680   126533673.22708  24078554.180    98597660.93744
  20532034.920   107896576.59408  20532030.480    84075247.75348
  21733356.580   114209608.42709  21733351.880    88994481.68547
  22711337.020   119348867.81308  22711330.040    92999119.22845
  23216005.920   122001084.95507  23216001.520    95065732.50744
  21057293.820   110656876.42608  21057289.980    86226112.13448
  21061134.860   110677016.55409  21061132.540    86241859.44847
 15 01 18 04 21  0.0000000  0  7G04G16G18G19G21G22G27
  24061207.940   126442516.43108  24061208.060    98526629.71446
  20534651.100   107910325.88508  20534646.800    84085961.47248
  21738284.780   114235505.79909  21738280.040    89014661.44546
  22698060.020   119279097.08008  22698052.780    92944752.43445
  23228961.420   122069167.41107  23228957.160    95118783.77345
  21048707.540   110611757.91608  21048704.160    86190954.88448
  21052785.140   110633137.72309  21052782.500    86207668.13947
 15 01 18 04 21 30.0000000  0  7G04G16G18G19G21G22G27
  24043894.020   126351530.90208  24043894.600    98455731.98746
  20537375.240   107924642.16508  20537371.080    84097117.00048
  21743304.320   114261883.41609  21743299.560    89035215.43046
  22684800.160   119209415.64608  22684792.500    92890455.24946
  23241925.340   122137293.70907  23241921.240    95171869.15445
  21040212.380   110567116.41808  21040209.180    86156169.31648
  21044470.400   110589443.27209  21044467.460    86173620.51747
 15 01 18 04 22  0.0000000  0  7G04G16G18G19G21G22G27
  24026613.080   126260718.02208  24026613.860    98384968.74346
  20540207.500   107939526.34108  20540203.500    84108715.06348
  21748415.100   114288741.10009  21748410.380    89056143.50046
  22671557.700   119139825.15109  22671549.520    92836228.90545
  23254897.640   122205463.50307  23254893.700    95224988.47445
  21031808.620   110522953.87008  21031805.300    86121756.96748
  21036190.980   110545934.99709  21036187.800    86139717.95747
 15 01 18 04 22 30.0000000  0  7G04G16G18G19G21G22G27
  24009364.440   126170074.31908  24009365.000    98314337.36046
  20543147.040   107954974.05108  20543143.280    84120752.23448
  21753616.180   114316073.69109  21753611.600    89077441.62747
  22658331.920   119070322.12309  22658323.120    92782070.71445
  23267877.280   122273671.59107  23267873.300    95278137.60246
  21023495.760   110479267.71508  21023491.940    86087715.81148
  21027946.380   110502610.03609  21027943.000    86105958.23447
 15 01 18 04 23  0.0000000  0  7G04G16G18G19G21G22G27
  23992149.320   126079607.05008  23992149.640    98243843.42746
  20546195.180   107970991.70408  20546191.500    84133233.51248
  21758908.640   114343886.68909  21758904.160    89099114.09146
  22645124.060   119000913.70608  22645114.580    92727986.22745
  23280865.280   122341923.45307  23280861.320    95331320.84345
  21015275.180   110436066.04709  21015270.740    86054052.19548
  21019738.080   110459475.99809  21019734.560    86072347.28347
 15 01 18 04 23 30.0000000  0  7G04G16G18G19G21G22G27
  23974966.920   125989312.37708  23974967.000    98173484.03246
  20549351.080   107987574.99809  20549347.300    84146155.55348
  21764291.440   114372174.36809  21764287.120    89121156.44346
  22631933.360   118931596.08608  22631923.380    92673972.51445
  23293860.680   122410213.77408  23293856.720    95384534.06745
  21007146.200   110393345.55209  21007140.940    86020763.50547
  21011565.380   110416529.46209  21011561.760    86038882.44647
 15 01 18 04 24  0.0000000  0  7G04G16G18G19G21G22G27
  23957817.520   125899191.88208  23957817.340    98103260.33746
  20552614.600   108004723.88409  20552610.680    84159518.31548
  21769764.660   114400936.80109  21769760.440    89143568.72847
  22618760.000   118862370.57108  22618750.000    92620030.56645
  23306863.400   122478542.44807  23306859.300    95437777.16444
  20999109.060   110351108.54609  20999103.100    85987851.56047
  21003428.680   110373772.38409  21003425.200    86005565.23847
 15 01 18 04 24 30.0000000  0  7G04G16G18G19G21G22G27
  23940701.500   125809247.35908  23940701.000    98033173.77645
  20555986.160   108022440.44809  20555982.040    84173323.43048
  21775328.320   114430174.16609  21775324.200    89166351.09247
  22605604.360   118793239.22908  22605594.540    92566162.00245
  23319873.480   122546909.70808  23319869.040    95491050.37245
  20991164.160   110309357.59409  20991157.700    85955318.36347
  20995328.460   110331207.16109  20995325.340    85972397.52247
 15 01 18 04 25  0.0000000  0  7G04G16G18G19G21G22G27
  23923619.580   125719482.01308  23923618.640    97963226.80044
  20559466.120   108040726.40309  20559461.700    84187572.21848
  21780982.720   114459888.16209  21780978.680    89189504.85847
  22592467.100   118724205.19208  22592457.700    92512369.26545
  23332891.120   122615316.97507  23332886.340    95544354.69944
  20983312.420   110268096.66309  20983305.520    85923166.99347
  20987265.420   110288837.38209  20987262.800    85939382.12047
 15 01 18 04 25 30.0000000  0  7G04G16G18G19G21G22G27
  23906570.540   125629889.05508  23906569.120    97893414.13845
  20563052.980   108059573.75809  20563048.300    84202258.46548
  21786726.200   114490070.04909  21786722.300    89213023.21147
  22579347.100   118655261.79908  22579338.140    92458647.15244
  23345914.800   122683756.16307  23345909.680    95597683.94344
  20975552.860   110227319.83409  20975545.560    85891392.84947
  20979238.440   110246656.93308  20979236.320    85906514.24247
 15 01 18 04 26  0.0000000  0  7G04G16G18G19G21G22G27
  23889554.960   125540471.84408  23889552.720    97823738.42243
  20566747.060   108078985.32109  20566742.340    84217384.34148
  21792558.900   114520720.97809  21792555.240    89236907.05847
  22566245.040   118586412.27108  22566236.440    92404998.16845
  23358944.820   122752228.63707  23358939.520    95651039.09444
  20967886.160   110187030.39409  20967878.720    85859998.48247
  20971248.280   110204669.29709  20971246.660    85873796.60747
 15 01 18 04 26 30.0000000  0  7G04G16G18G19G21G22G27
  23872573.340   125451232.69208  23872570.200    97754201.39643
  20570548.660   108098962.37709  20570543.980    84232950.87948
  21798481.100   114551842.08409  21798477.540    89261157.29147
  22553161.420   118517658.95808  22553153.320    92351424.17245
  23371981.300   122820735.28707  23371975.840    95704420.88544
  20960312.880   110147231.39109  20960305.160    85828986.28047
  20963295.520   110162877.53909  20963294.300    85841231.61648
 15 01 18 04 27  0.0000000  0  7G04G16G18G19G21G22G27
  23855625.980   125362173.37808  23855622.580    97684804.53243
  20574457.860   108119505.67509  20574453.460    84248958.63148
  21804492.720   114583433.02109  21804489.040    89285773.59346
  22540096.580   118449003.48808  22540089.120    92297926.39945
  23385024.220   122889275.98908  23385018.820    95757829.20445
  20952833.480   110107925.46809  20952825.460    85798358.28047
  20955380.560   110121283.73709  20955379.500    85808820.86048
 15 01 18 04 27 30.0000000  0  7G04G16G18G19G21G22G27
  23838712.840   125273293.83809  23838709.340    97615547.76643
  20578474.600   108140614.61409  20578470.600    84265407.15048
  21810593.540   114615492.75309  21810589.500    89310755.22046
  22527050.540   118380446.23508  22527043.960    92244505.17345
  23398073.300   122957849.61407  23398068.160    95811263.16944
  20945448.140   110069113.68909  20945439.980    85768115.34347
  20947503.520   110079888.86309  20947502.400    85776565.13747
 15 01 18 04 28  0.0000000  0  7G04G16G18G19G21G22G27
  23821833.960   125184594.89608  23821831.180    97546431.73044
  20582598.980   108162288.96009  20582595.280    84282296.23748
  21816783.240   114648019.74809  21816778.760    89336100.93446
  22514023.480   118311988.15508  22514017.820    92191161.21046
  23411128.440   123026455.12708  23411123.440    95864721.97945
  20938157.040   110030797.06009  20938148.780    85738258.22647
  20939664.520   110038693.98109  20939663.280    85744465.22748
 15 01 18 04 28 30.0000000  0  7G04G16G18G19G21G22G27
  23804989.420   125096076.90008  23804987.540    97477456.68744
  20586830.740   108184527.23209  20586827.160    84299624.75348
  21823061.480   114681012.20909  21823056.460    89361809.35546
  22501015.420   118243629.40508  22501010.420    92137894.66946
  23424189.440   123095091.12207  23424184.540    95918204.55045
  20930960.180   109992976.16009  20930951.880    85708787.40548
  20931863.580   109997699.73008  20931862.320    85712521.66148
 15 01 18 04 29  0.0000000  0  7G04G16G18G19G21G22G27
  23788179.660   125007741.94008  23788178.660    97408624.30345
  20591170.140   108207331.23509  20591166.600    84317394.10448
  21829428.460   114714471.00409  21829422.920    89387881.14546
  22488026.860   118175372.50908  22488022.160    92084707.49346
  23437256.420   123163758.68608  23437251.780    95971711.72145
  20923858.080   109955653.91309  20923849.880    85679705.14547
  20924101.260   109956909.15208  20924100.140    85680736.79748
 15 01 18 04 29 30.0000000  0  7G04G16G18G19G21G22G27
  23771404.960   124919591.01708  23771404.620    97339935.31745
  20595617.180   108230700.89809  20595613.620    84335604.22348
  21835884.080   114748395.25309  21835878.120    89414315.63546
  22475057.940   118107218.46708  22475053.400    92031600.46447
  23450329.240   123232457.06608  23450324.860    96025242.89946
  20916851.100   109918832.04209  20916843.000    85651012.78847
  20916378.000   109916323.76908  20916377.060    85649111.83647
 15 01 18 04 30  0.0000000  0  7G04G16G18G19G21G22G27
  23754664.320   124831618.64108  23754664.360    97271385.49245
  20600170.580   108254629.45509  20600166.980    84354249.83948
  21842426.920   114782777.52409  21842420.760    89441107.01146
  22462107.500   118039161.61909  22462102.980    91978569.17246
  23463406.660   123301179.36908  23463402.460    96078792.70545
  20909938.200   109882505.25909  20909930.340    85622706.21848
  20908692.900   109875938.39809  20908692.020    85617642.72848
 15 01 18 04 30 30.0000000  0  7G04G16G18G19G21G22G27
  23737958.540   124743828.93508  23737958.680    97202977.96245
  20604830.980   108279120.40609  20604827.380    84373333.69148
  21849057.420   114817620.32709  21849051.220    89468257.25746
  22449176.480   117971206.90009  22449171.860    91925617.45647
  23476489.280   123369928.54708  23476485.060    96132363.48645
  20903120.520   109846678.53709  20903113.000    85594789.31048
  20901046.880   109835758.15809  20901045.940    85586333.47447
 15 01 18 04 31  0.0000000  0  7G04G16G18G19G21G22G27
  23721288.360   124656226.10408  23721288.440    97134716.08145
  20609598.860   108304176.05309  20609595.260    84392857.57548
  21855775.900   114852925.47109  21855769.820    89495767.77346
  22436265.580   117903358.14908  22436260.660    91872748.32446
  23489577.460   123438706.73708  23489573.280    96185956.86945
  20896398.860   109811356.23009  20896391.580    85567265.45548
  20893440.680   109795787.59908  20893439.760    85555187.59648
 15 01 18 04 31 30.0000000  0  7G04G16G18G19G21G22G27
  23704652.840   124568805.52308  23704652.680    97066596.18645
  20614473.380   108329791.50809  20614469.720    84412817.65848
  21862581.200   114888687.01709  21862575.420    89523633.90746
  22423373.960   117835611.16708  22423368.680    91819958.45746
  23502669.880   123507508.11607  23502665.900    96239568.29645
  20889772.480   109776534.65709  20889765.400    85540131.77048
  20885873.420   109756022.87708  20885872.760    85524202.10148
 15 01 18 04 32  0.0000000  0  7G04G16G18G19G21G22G27
  23688053.280   124481573.81208  23688052.800    96998623.45045
  20619455.420   108355971.98409  20619451.820    84433218.02548
  21869474.220   114924909.68009  21869468.860    89551859.36546
  22410502.800   117767972.65708  22410497.180    91767253.12946
  23515767.620   123576337.90307  23515763.800    96293201.87845
  20883242.560   109742220.72609  20883235.900    85513393.65648
  20878346.740   109716471.20508  20878346.320    85493382.61448
 15 01 18 04 32 30.0000000  0  7G04G16G18G19G21G22G27
  23671489.280   124394529.05008  23671488.500    96930796.44644
  20624544.460   108382714.30509  20624540.840    84454056.19748
  21876454.220   114961589.74909  21876449.360    89580441.24046
  22397651.720   117700440.92708  22397646.060    91714631.03446
  23528870.160   123645192.79107  23528866.820    96346855.00145
  20876808.800   109708412.93409  20876802.640    85487049.95148
  20870860.520   109677131.21809  20870860.180    85462728.08948
 15 01 18 04 33  0.0000000  0  7G04G16G18G19G21G22G27
  23654960.740   124307670.97108  23654959.580    96863114.86644
  20629740.140   108410017.15509  20629736.560    84475331.13548
  21883520.740   114998724.96409  21883516.340    89609377.77246
  22384820.640   117633015.78208  22384815.160    91662091.96646
  23541976.960   123714070.69007  23541973.780    96400526.05045
  20870471.320   109675111.41609  20870465.660    85461100.73148
  20863414.800   109638003.24109  20863414.360    85432238.75848
 15 01 18 04 33 30.0000000  0  7G04G16G18G19G21G22G27
  23638466.980   124220995.44008  23638465.520    96795575.53145
  20635041.340   108437875.24609  20635037.920    84497038.72848
  21890672.640   115036309.22209  21890668.620    89638664.20546
  22372008.860   117565693.64908  22372003.720    91609633.18146
  23555087.260   123782966.52007  23555084.480    96454211.07045
  20864229.560   109642312.81109  20864224.340    85435543.39748
  20856008.860   109599084.09109  20856008.200    85401912.15648
 15 01 18 04 34  0.0000000  0  7G04G16G18G19G21G22G27
  23622009.880   124134512.48108  23622008.280    96728186.29445
  20640449.720   108466297.16009  20640446.540    84519185.66248
  21897911.540   115074350.89909  21897907.840    89668307.07646
  22359218.720   117498484.57808  22359213.840    91557262.48745
  23568202.420   123851888.62307  23568199.940    96507916.56145
  20858085.460   109610027.21409  20858080.580    85410385.80748
  20848644.620   109560384.19909  20848643.740    85371756.39648
 15 01 18 04 34 30.0000000  0  7G04G16G18G19G21G22G27
  23605587.960   124048215.11107  23605586.620    96660941.63144
  20645963.760   108495274.68208  20645960.820    84541765.54148
  21905235.640   115112841.04109  21905232.300    89698299.40146
  22346449.080   117431381.61308  22346444.280    91504974.46145
  23581321.100   123920828.59507  23581318.480    96561636.01444
  20852037.940   109578247.99609  20852033.180    85385622.79648
  20841320.980   109521897.21309  20841319.880    85341766.54348
 15 01 18 04 35  0.0000000  0  7G04G16G18G19G21G22G27
  23589203.040   123962113.55606  23589202.420    96593849.60944
  20651585.280   108524817.30608  20651582.640    84564785.75348
  21912646.580   115151787.83509  21912643.600    89728647.55246
  22333702.060   117364395.80208  22333696.880    91452777.73345
  23594445.060   123989795.63007  23594441.900    96615376.56744
  20846089.100   109546986.05809  20846084.120    85361262.85348
  20834040.120   109483634.26209  20834038.720    85311951.25648
 15 01 18 04 35 30.0000000  0  7G04G16G18G19G21G22G27
  23572853.480   123876198.21407  23572853.940    96526902.67143
  20657312.380   108554914.08708  20657309.840    84588237.77848
  21920142.260   115191179.68109  21920139.340    89759342.49746
  22320975.720   117297517.63008  22320969.880    91400664.87045
  23607572.180   124058779.11107  23607568.640    96669129.88844
  20840237.080   109516232.26609  20840231.860    85337298.86748
  20826800.320   109445586.43609  20826798.440    85282303.60048
 15 01 18 04 36  0.0000000  0  7G04G16G18G19G21G22G27
  23556540.180   123790473.25208  23556541.460    96460104.04041
  20663145.540   108585567.48709  20663142.880    84612123.54248
  21927723.200   115231018.77009  21927720.080    89790385.95145
  22308270.840   117230751.60308  22308264.500    91348639.38445
  23620703.000   124127781.26907  23620698.780    96722897.81544
  20834482.540   109485990.96709  20834477.140    85313734.24148
  20819602.360   109407758.62809  20819600.000    85252827.39448
 15 01 18 04 36 30.0000000  0  7G04G16G18G19G21G22G27
  23540262.360   123704934.06807  23540265.180    96393450.28441
  20669083.680   108616772.06108  20669080.800    84636438.78848
  21935388.260   115271298.62709  21935384.720    89821772.85945
  22295586.560   117164093.32608  22295580.000    91296697.86346
  23633836.280   124196796.35907  23633832.040    96776675.77744
  20828824.640   109456257.82409  20828819.140    85290565.57448
  20812445.320   109370146.89709  20812442.800    85223519.55648
 15 01 18 04 37  0.0000000  0  6G16G18G19G21G22G27
  20675146.660   108648633.02308  20675143.720    84661265.50648
  21943157.380   115312124.36209  21943153.160    89853585.12445
  22282943.140   117097649.55608  22282936.480    91244923.49246
  23646992.060   124265929.80107  23646987.860    96830545.99744
  20823283.700   109427139.77709  20823278.200    85267876.19648
  20805349.580   109332858.56609  20805347.220    85194463.70748
 15 01 18 04 37 30.0000000  0  6G16G18G19G21G22G27
  20681263.760   108680778.80608  20681260.880    84686314.16148
  21950959.700   115353123.55509  21950954.780    89885532.56545
  22270270.100   117031050.59908  22270263.560    91193028.21246
  23660099.620   124334809.92107  23660095.520    96884218.77144
  20817789.440   109398267.27209  20817783.900    85245378.15648
  20798244.900   109295524.28709  20798242.900    85165372.06648
 15 01 18 04 38  0.0000000  0  3G04G16G27
  23491680.900   123449634.99308  23491693.220    96194570.53641
  20687563.040   108713882.07908  20687560.120    84712108.90448
  20791259.800   109258819.07009  20791258.120    85136770.59648
 15 01 18 04 38 30.0000000  0  7G04G16G18G19G21G22G27
  23475531.000   123364766.69108  23475539.080    96128439.46742
  20693904.220   108747204.70609  20693901.080    84738074.57648
  21966906.940   115436920.31909  21966900.480    89950828.75545
  22245080.140   116898674.60608  22245074.840    91089878.11046
  23686414.260   124473092.12207  23686410.280    96991971.09545
  20807186.040   109342545.27509  20807179.920    85201958.43548
  20784254.320   109222006.49109  20784252.700    85108085.48748
 15 01 18 04 39  0.0000000  0  7G04G16G18G19G21G22G27
  23459429.420   123280152.08308  23459433.040    96062506.09143
  20700362.140   108781140.18509  20700358.680    84764517.80948
  21974985.140   115479371.18109  21974978.860    89983907.35745
  22232498.020   116832555.49208  22232493.020    91038356.74346
  23699555.180   124542147.98407  23699551.080    97045780.83645
  20802011.620   109315353.63309  20802005.480    85180770.16248
  20777303.660   109185481.85009  20777302.040    85079624.73748
 15 01 18 04 39 30.0000000  0  7G04G16G18G19G21G22G27
  23443368.320   123195749.79208  23443369.360    95996738.09643
  20706928.340   108815644.92409  20706924.620    84791404.62348
  21983150.040   115522277.70209  21983144.160    90017341.02246
  22219941.860   116766572.72008  22219937.180    90986941.59647
  23712702.160   124611235.35907  23712698.200    97099615.14745
  20796939.340   109288698.50609  20796933.160    85159999.94848
  20770400.040   109149204.35109  20770398.440    85051356.57848
 15 01 18 04 40  0.0000000  0  7G04G16G18G19G21G22G27
  23427346.920   123111556.28008  23427346.760    95931132.81244
  20713601.900   108850714.11109  20713598.000    84818731.26048
  21991400.500   115565634.34109  21991395.180    90051125.41246
  22207411.140   116700723.44208  22207406.760    90935630.49547
  23725854.260   124680350.16107  23725850.400    97153470.78644
  20791968.600   109262576.84609  20791962.300    85139645.40648
  20763542.960   109113171.33009  20763541.400    85023278.89948
 15 01 18 04 40 30.0000000  0  7G04G16G18G19G21G22G27
  23411363.140   123027561.09407  23411362.780    95865682.05644
  20720380.620   108886336.18909  20720376.520    84846488.73648
  21999734.200   115609429.07109  21999729.440    90085251.18646
  22194903.880   116634997.43408  22194899.740    90884415.44047
  23739009.460   124749480.88907  23739005.640    97207338.89745
  20787097.320   109236978.27609  20787091.000    85119698.47848
  20756730.600   109077373.16109  20756729.100    84995384.24948
 15 01 18 04 41  0.0000000  0  7G04G16G18G19G21G22G27
  23395416.800   122943763.64407  23395416.560    95800385.38145
  20727264.000   108922508.99209  20727259.760    84874675.33348
  22008150.600   115653658.65709  22008146.240    90119715.80546
  22182420.020   116569394.41408  22182415.960    90833296.23747
  23752167.240   124818624.98007  23752163.260    97261217.37945
  20782325.420   109211902.29209  20782319.140    85100158.76548
  20749963.020   109041809.89509  20749961.480    84967672.62747
 15 01 18 04 41 30.0000000  0  7G04G16G18G19G21G22G27
  23379508.040   122860164.78507  23379508.280    95735243.44944
  20734251.880   108959231.28809  20734247.600    84903290.10347
  22016649.600   115698322.13109  22016645.580    90154518.50046
  22169959.740   116503915.44508  22169955.660    90782273.67247
  23765327.500   124887781.90307  23765323.500    97315105.83744
  20777653.060   109187349.82909  20777646.940    85081026.98548
  20743240.580   109006482.99809  20743238.860    84940145.17947
 15 01 18 04 42  0.0000000  0  7G04G16G18G19G21G22G27
  23363636.840   122776764.50806  23363637.820    95670256.26145
  20741344.160   108996502.62709  20741339.960    84932332.70147
  22025230.860   115743417.59309  22025227.040    90189657.81246
  22157523.200   116438561.49108  22157519.120    90731348.53747
  23778490.340   124956951.64607  23778486.080    97369004.35144
  20773080.440   109163321.44709  20773074.500    85062303.57548
  20736563.480   108971393.81009  20736561.500    84912802.95547
 15 01 18 04 42 30.0000000  0  7G04G16G18G19G21G22G27
  23347803.220   122693561.13506  23347805.040    95605422.49144
  20748540.280   109034319.39909  20748536.080    84961800.31847
  22033893.720   115788941.24009  22033889.920    90225130.77446
  22145110.140   116373331.05108  22145105.980    90680519.66247
  23791654.780   125026130.29407  23791650.360    97422909.76644
  20768607.300   109139815.53909  20768601.460    85043987.29848
  20729931.420   108936541.23509  20729929.280    84885645.11647
 15 01 18 04 43  0.0000000  0  7G04G16G18G19G21G22G27
  23332007.240   122610554.07406  23332009.620    95540741.74244
  20755839.940   109072679.26309  20755835.660    84991691.12347
  22042637.520   115834889.92509  22042633.680    90260934.93146
  22132720.660   116308224.25708  22132716.440    90629787.11547
  23804820.520   125095316.14706  23804816.040    97476820.79844
  20764233.500   109116831.57709  20764227.660    85026077.72848
  20723344.420   108901925.38309  20723342.200    84858671.72148
 15 01 18 04 43 30.0000000  0  7G04G16G18G19G21G22G27
  23316248.860   122527742.83607  23316251.520    95476213.60744
  20763242.680   109111580.12109  20763238.140    85022003.47747
  22051461.960   115881262.26509  22051458.160    90297069.21046
  22120354.860   116243241.05308  22120350.480    90579150.88147
  23817987.320   125164508.17706  23817982.920    97530736.67144
  20759958.960   109094369.31509  20759953.080    85008574.67848
  20716802.640   108867546.96009  20716800.280    84831883.33548
 15 01 18 04 44  0.0000000  0  7G04G16G18G19G21G22G27
  23300528.920   122445132.72507  23300531.820    95411842.09244
  20770749.360   109151026.48209  20770744.400    85052740.90047
  22060367.340   115928060.58709  22060363.660    90333535.41346
  22108013.740   116178386.87908  22108009.280    90528615.17547
  23831155.920   125233710.41206  23831151.780    97584660.46044
  20755784.720   109072433.74809  20755778.660    84991482.03348
  20710307.180   108833411.77809  20710304.660    84805284.49348
 15 01 18 04 44 30.0000000  0  7G04G16G18G19G21G22G27
  23284847.080   122362722.30507  23284849.680    95347626.20344
  20778359.300   109191015.38409  20778353.900    85083901.08547
  22069353.120   115975281.89208  22069349.700    90370331.22046
  22095697.120   116113661.33209  22095692.520    90478179.70146
  23844325.740   125302920.19106  23844322.300    97638590.13844
  20751710.660   109051024.40009  20751704.340    84974799.43448
  20703857.940   108799519.78509  20703855.420    84778875.14948
 15 01 18 04 45  0.0000000  0  7G04G16G18G19G21G22G27
  23269203.120   122280511.47407  23269205.360    95283565.83344
  20786071.920   109231544.25909  20786066.160    85115482.02747
  22078418.900   116022923.81708  22078415.900    90407454.78446
  22083404.900   116049064.17709  22083400.060    90427844.27146
  23857496.640   125372136.27806  23857493.720    97692524.71244
  20747736.660   109030140.26409  20747729.940    84958526.08548
  20697454.860   108765871.03009  20697452.620    84752655.34348
 15 01 18 04 45 30.0000000  0  7G04G16G18G19G21G22G27
  23253597.100   122198500.49208  23253598.580    95219661.18645
  20793887.020   109272612.35909  20793880.940    85147483.13547
  22087564.560   116070984.88709  22087561.880    90444904.95646
  22071137.260   115984596.86809  22071132.200    90377610.00746
  23870668.580   125441357.91506  23870666.360    97746463.64244
  20743862.760   109009782.26909  20743855.760    84942662.71148
  20691098.280   108732467.18209  20691096.380    84726626.35548
 15 01 18 04 46  0.0000000  0  7G04G16G18G19G21G22G27
  23238028.920   122116688.37608  23238029.480    95155911.52744
  20801804.040   109314216.76109  20801797.720    85179902.14847
  22096789.360   116119461.43109  22096786.900    90482678.88246
  22058894.040   115920258.60409  22058888.940    90327476.29946
  23883841.280   125510582.70006  23883839.820    97800405.00245
  20740088.700   108989949.32909  20740081.700    84927208.47848
  20684788.200   108699307.90309  20684786.540    84700787.94848
 15 01 18 04 46 30.0000000  0  7G04G16G18G19G21G22G27
  23222498.300   122035073.61808  23222497.420    95092315.58944
  20809822.420   109356354.59909  20809816.120    85212736.81147
  22106092.680   116168350.16609  22106090.320    90520774.00046
  22046675.080   115856048.27209  22046670.040    90277442.27946
  23897014.400   125579808.68806  23897013.460    97854347.30845
  20736414.240   108970639.99609  20736407.400    84912162.24648
  20678524.560   108666392.67609  20678523.020    84675139.72348
 15 01 18 04 47  0.0000000  0  7G04G16G18G19G21G22G27
  23207005.500   121953657.08808  23207002.900    95028874.13344
  20817942.160   109399025.23209  20817936.100    85245986.65547
  22115474.300   116217650.01809  22115471.840    90559189.48246
  22034480.760   115791967.64409  22034475.820    90227509.32746
  23910187.800   125649035.30106  23910187.060    97908290.10345
  20732839.680   108951855.10409  20732832.960    84897524.66848
  20672307.680   108633723.49409  20672306.300    84649683.21648
 15 01 18 04 47 30.0000000  0  7G04G16G18G19G21G22G27
  23191551.320   121872443.36808  23191547.300    94965590.68644
  20826163.620   109442231.00908  20826158.000    85279653.49446
  22124934.620   116267363.35809  22124931.900    90597927.15446
  22022312.100   115728021.86809  22022307.160    90177681.44246
  23923362.060   125718265.90007  23923361.500    97962236.01445
  20729365.860   108933599.36909  20729359.220    84883299.41248
  20666138.560   108601305.54309  20666137.440    84624422.48948
 15 01 18 04 48  0.0000000  0  7G04G16G18G19G21G22G27
  23176134.900   121791428.16608  23176129.840    94902461.93644
  20834485.840   109485966.63308  20834480.860    85313733.19347
  22134472.420   116317483.93209  22134469.380    90636982.15846
  22010168.520   115664207.51808  22010163.340    90127955.97047
  23936536.400   125787496.16107  23936535.600    98016181.65345
  20725991.920   108915868.59309  20725985.360    84869483.23148
  20660016.660   108569135.70309  20660015.880    84599355.09448
 15 01 18 04 48 30.0000000  0  7G04G16G18G19G21G22G27
  23160757.780   121710620.05308  23160752.400    94839494.56644
  20842910.180   109530238.92008  20842905.880    85348231.06247
  22144088.780   116368018.01109  22144085.480    90676359.36546
  21998051.800   115600533.67009  21998046.420    90078339.98046
  23949711.980   125856732.88706  23949711.000    98070132.32645
  20722719.360   108898671.32609  20722712.960    84856082.77448
  20653943.840   108537223.46809  20653943.400    84574488.41948
 15 01 18 04 49  0.0000000  0  7G04G16G18G19G21G22G27
  23145419.600   121630017.85408  23145414.920    94776687.68044
  20851436.100   109575044.70308  20851432.260    85383144.64947
  22153783.040   116418962.41608  22153779.720    90716056.30045
  21985961.800   115536999.73409  21985956.240    90028833.01146
  23962888.280   125925973.44707  23962886.920    98124085.98744
  20719547.880   108882005.94509  20719541.620    84843096.77348
  20647920.100   108505568.47409  20647919.860    84549822.19048
 15 01 18 04 49 30.0000000  0  7G04G16G18G19G21G22G27
  23130120.820   121549624.22007  23130117.480    94714043.31445
  20860063.860   109620385.14308  20860060.320    85418474.85847
  22163555.380   116470317.64208  22163552.100    90756073.36345
  21973899.100   115473609.07709  21973893.480    89979437.70047
  23976065.660   125995219.85406  23976063.960    98178044.21244
  20716478.080   108865875.35909  20716472.000    84830527.49748
  20641946.100   108474174.27209  20641945.900    84525359.18448
 15 01 18 04 50  0.0000000  0  7G04G16G18G19G21G22G27
  23114861.220   121469436.96607  23114859.060    94651559.76445
  20868792.720   109666256.33008  20868789.360    85454218.61947
  22173405.040   116522079.31808  22173401.920    90796407.12245
  21961863.340   115410360.07909  21961857.740    89930152.77347
  23989243.460   126064469.52106  23989241.680    98232004.93845
  20713509.740   108850277.62009  20713503.780    84818373.41348
  20636021.620   108443039.83209  20636021.360    84501098.58148
 15 01 18 04 50 30.0000000  0  7G04G16G18G19G21G22G27
  23099640.180   121389452.58007  23099638.920    94589234.29645
  20877621.700   109712652.81709  20877618.400    85490371.71447
  22183331.040   116574241.95108  22183327.800    90837053.34245
  21949853.820   115347249.56008  21949848.280    89880975.75747
  24002420.940   126133717.71406  24002418.940    98285964.53844
  20710642.120   108835208.59909  20710636.200    84806631.33248
  20630146.120   108412162.59109  20630145.700    84477038.40448
 15 01 18 04 51  0.0000000  0  7G04G16G18G19G21G22G27
  23084457.780   121309670.41407  23084456.880    94527066.39844
  20886550.320   109759572.06009  20886546.840    85526932.14647
  22193332.840   116626802.59008  22193329.500    90878009.67445
  21937870.500   115284277.41108  21937865.060    89831906.56347
  24015597.940   126202962.67306  24015595.680    98339921.62044
  20707875.060   108820667.51609  20707869.140    84795300.62348
  20624319.480   108381542.59309  20624318.960    84453178.67348
 15 01 18 04 51 30.0000000  0  7G04G16G18G19G21G22G27
  23069314.240   121230091.74608  23069313.220    94465057.07944
  20895578.540   109807013.97309  20895574.760    85563899.85347
  22203410.300   116679760.60108  22203406.740    90919275.64245
  21925913.860   115221446.11308  21925908.580    89782947.12247
  24028774.560   126272205.03006  24028771.960    98393876.68744
  20705208.800   108806655.70509  20705202.840    84784382.33748
  20618542.120   108351182.37409  20618541.520    84429521.37448
 15 01 18 04 52  0.0000000  0  7G04G16G18G19G21G22G27
  23054209.400   121150715.40508  23054207.900    94403205.38544
  20904705.660   109854975.08709  20904701.520    85601272.14147
  22213562.700   116733112.66408  22213559.120    90960848.68945
  21913983.780   115158754.78508  21913978.660    89734096.75147
  24041950.200   126341442.02506  24041947.480    98447827.60944
  20702643.040   108793172.18009  20702637.040    84773875.70448
  20612814.080   108321081.69909  20612813.440    84406066.31548
 15 01 18 04 52 30.0000000  0  7G04G16G18G19G21G22G27
  23039144.980   121071550.77808  23039143.220    94341518.65544
  20913933.160   109903463.67209  20913928.740    85639055.43647
  22223791.340   116786865.81708  22223787.720    91002734.24444
  21902082.180   115096213.42608  21902077.280    89685363.24746
  24055126.340   126410682.79506  24055123.600    98501781.41344
  20700179.280   108780225.45909  20700173.280    84763787.35248
  20607137.480   108291250.84909  20607136.720    84382821.49648
 15 01 18 04 53  0.0000000  0  7G04G16G18G19G21G22G27
  23024119.360   120992589.25408  23024117.480    94279990.18445
  20923258.860   109952468.78309  20923254.320    85677241.22847
  22234094.320   116841009.71208  22234090.840    91044924.27745
  21890207.900   115033815.10108  21890203.100    89636741.17946
  24068301.280   126479917.69806  24068298.460    98555730.63544
  20697815.940   108767807.22709  20697810.040    84754110.82648
  20601510.860   108261682.36209  20601509.960    84359781.12148
 15 01 18 04 53 30.0000000  0  7G04G16G18G19G21G22G27
  23009132.980   120913833.15708  23009131.000    94218621.80545
  20932682.840   110001991.06809  20932678.420    85715830.01248
  22244471.780   116895544.10808  22244468.660    91087418.59345
  21878361.440   114971562.18208  21878356.600    89588232.43447
  24081475.440   126549148.49706  24081472.620    98609676.72044
  20695553.560   108755919.68309  20695547.780    84744847.81948
  20595934.720   108232379.44909  20595933.780    84336947.69248
 15 01 18 04 54  0.0000000  0  7G04G16G18G19G21G22G27
  22994185.680   120835281.73508  22994183.580    94157412.89545
  20942204.560   110052027.64309  20942200.440    85754819.54247
  22254923.280   116950466.11208  22254920.220    91130214.96145
  21866542.820   114909454.94608  21866537.840    89539837.18946
  24094648.360   126618372.62706  24094645.200    98663617.58644
  20693392.060   108744561.62009  20693386.260    84735997.39148
  20590409.040   108203342.37409  20590408.200    84314321.39048
 15 01 18 04 54 30.0000000  0  7G04G16G18G19G21G22G27
  22979278.100   120756938.94108  22979275.800    94096366.57245
  20951824.500   110102580.71309  20951820.740    85794211.53947
  22265449.060   117005777.45208  22265446.060    91173314.71246
  21854752.840   114847497.83108  21854747.620    89491558.94446
  24107820.860   126687593.84907  24107817.680    98717556.17444
  20691332.200   108733736.86709  20691326.280    84727562.52048
  20584934.860   108174576.18409  20584934.140    84291906.17948
 15 01 18 04 55  0.0000000  0  7G04G16G18G19G21G22G27
  22964410.680   120678807.53108  22964408.220    94035484.98245
  20961543.040   110153651.63109  20961539.440    85834007.05147
  22276049.180   117061478.95708  22276046.120    91216718.48946
  21842992.140   114785694.59708  21842986.660    89443400.59046
  24120993.080   126756813.95406  24120989.760    98771493.91444
  20689374.380   108723447.90709  20689368.220    84719545.15748
  20579512.960   108146084.67209  20579512.400    84269705.00548
 15 01 18 04 55 30.0000000  0  7G04G16G18G19G21G22G27
  22949583.020   120600886.04608  22949580.400    93974766.95345
  20971359.460   110205236.65109  20971355.680    85874203.17547
  22286722.840   117117566.83909  22286719.660    91260423.32946
  21831260.680   114724044.42809  21831254.840    89395361.52246
  24134164.580   126826030.93506  24134161.220    98825429.16043
  20687518.240   108713692.99809  20687511.820    84711943.92948
  20574143.220   108117867.39609  20574142.880    84247717.52248
 15 01 18 04 56  0.0000000  0  8G04G11G16G18G19G21G22G27
  22934795.100   120523174.77608  22934792.600    93914212.74546
  24645977.060   129515490.75207  24645978.740   100921141.52146
  20981273.380   110257334.05409  20981269.220    85914798.54747
  22297469.680   117174039.26809  22297466.260    91304427.82047
  21819558.640   114662548.26909  21819552.360    89347442.44946
  24147335.220   126895243.98506  24147331.540    98879361.39743
  20685763.800   108704472.29409  20685757.160    84704758.96548
  20568825.900   108089925.71909  20568825.840    84225944.78048
 15 01 18 04 56 30.0000000  0  8G04G11G16G18G19G21G22G27
  22920048.500   120445682.06608  22920046.280    93853828.84745
  24629171.480   129427175.45107  24629171.520   100852324.40245
  20991285.860   110309950.02009  20991281.400    85955797.99747
  22308290.800   117230902.51509  22308287.080    91348736.84947
  21807887.820   114601215.70409  21807880.900    89299650.84945
  24160506.460   126964460.51906  24160503.420    98933296.33443
  20684112.540   108695793.89809  20684105.800    84697996.58448
  20563562.800   108062269.02109  20563563.020    84204394.11748
 15 01 18 04 57  0.0000000  0  8G04G11G16G18G19G21G22G27
  22905340.620   120368394.42007  22905338.780    93793604.74045
  24612376.700   129338919.30107  24612376.420   100783553.44146
  21001394.120   110363070.01309  21001389.600    85997190.18347
  22319183.240   117288141.16209  22319179.340    91393338.39546
  21796245.680   114540033.80909  21796238.140    89251976.64145
  24173675.680   127033666.59006  24173672.840    98987223.11643
  20682561.820   108687644.08909  20682555.160    84691646.08648
  20558351.680   108034884.90009  20558352.040    84183055.84048
 15 01 18 04 57 30.0000000  0  8G04G11G16G18G19G21G22G27
  22890672.000   120291313.72308  22890670.620    93733541.90244
  24595593.400   129250724.08007  24595593.500   100714829.92546
  21011598.060   110416693.41409  21011593.700    86038974.63747
  22330146.860   117345754.46009  22330142.820    91438231.86947
  21784632.540   114479005.20909  21784624.740    89204421.89145
  24186843.240   127102863.18406  24186840.400    99041142.50142
  20681111.840   108680024.12209  20681105.380    84685708.45648
  20553193.120   108007776.19009  20553193.460    84161932.17248
 15 01 18 04 58  0.0000000  0  8G04G11G16G18G19G21G22G27
  22876044.020   120214445.08207  22876041.780    93673644.27644
  24578822.860   129162595.03607  24578823.060   100646158.01246
  21021898.260   110470822.99608  21021894.260    86081153.52247
  22341182.220   117403745.55008  22341178.100    91483419.71746
  21773049.560   114418136.21408  21773042.100    89156991.51045
  24200009.780   127172054.64706  24200007.600    99095057.85143
  20679763.580   108672939.09109  20679757.300    84680187.65948
  20548088.320   107980949.22909  20548088.440    84141028.04748
 15 01 18 04 58 30.0000000  0  8G04G11G16G18G19G21G22G27
  22861455.420   120137781.81308  22861451.840    93613906.69744
  24562063.680   129074525.49907  24562063.600   100577532.42645
  21032293.120   110525451.06308  21032289.780    86123720.83947
  22352287.620   117462105.36508  22352283.580    91528894.88846
  21761495.480   114357420.32808  21761488.660    89109680.44045
  24213174.040   127241233.13406  24213172.120    99148963.13743
  20678515.680   108666381.51409  20678509.420    84675077.86448
  20543036.120   107954398.19109  20543035.900    84120338.91848
 15 01 18 04 59  0.0000000  0  8G04G11G16G18G19G21G22G27
  22846907.180   120061330.04907  22846902.300    93554333.91444
  24545317.080   128986521.87207  24545316.900   100508958.16946
  21042783.320   110580581.19108  21042780.780    86166679.34546
  22363463.800   117520838.17908  22363460.080    91574660.71146
  21749971.900   114296865.44308  21749965.940    89062494.82645
  24226337.080   127310404.74606  24226335.000    99202863.08244
  20677369.380   108660357.72209  20677363.040    84670384.00548
  20538037.840   107928130.54409  20538037.240    84099870.62048
 15 01 18 04 59 30.0000000  0  9G04G11G16G18G19G21G22G27G32
  22832398.520   119985085.76608  22832391.960    93494922.76742
  24528582.280   128898579.52907  24528581.940   100440431.70945
  21053367.940   110636207.15208  21053366.080    86210024.22046
  22374709.440   117579937.46207  22374706.420    91620712.07946
  21738478.200   114236467.72008  21738473.000    89015431.69445
  24239498.000   127379564.39705  24239495.960    99256753.62744
  20676323.720   108654862.89709  20676317.280    84666102.33948
  20533092.840   107902143.10609  20533091.920    84079620.67448
  24496512.360   128730044.08006  24496511.280   100309115.23745
 15 01 18 05 00  0.0000000  0  9G04G11G16G18G19G21G22G27G32
  22817930.180   119909053.23008  22817922.240    93435676.59043
  24511860.040   128810703.01307  24511859.420   100371956.57145
  21064047.560   110692331.10708  21064046.040    86253757.16146
  22386024.860   117639405.14307  22386022.680    91667050.50646
  21727015.380   114176232.33608  21727010.660    88968495.05145
  24252657.060   127448715.05105  24252654.900    99310637.24544
  20675379.340   108649900.87709  20675372.940    84662235.84248
  20528202.160   107876441.31409  20528200.940    84059593.30548
  24473883.920   128611130.88606  24473883.020   100216455.66943
 15 01 18 05 00 30.0000000  0  9G04G11G16G18G19G21G22G27G32
  22803502.640   119833234.97409  22803495.280    93376597.38243
  24495150.940   128722894.90407  24495149.880   100303534.66045
  21074822.500   110748953.83108  21074821.000    86297878.76446
  22397410.260   117699241.80407  22397409.140    91713676.42845
  21715584.160   114116162.98208  21715579.900    88921687.76245
  24265814.900   127517859.03406  24265812.420    99364515.58443
  20674536.660   108645473.81709  20674530.460    84658786.20348
  20523366.440   107851028.66109  20523365.060    84039791.24548
  24451263.800   128492260.27306  24451263.320   100123829.25644
 15 01 18 05 01  0.0000000  0  9G04G11G16G18G19G21G22G27G32
  22789116.220   119757632.30809  22789111.120    93317686.17544
  24478455.140   128635156.59008  24478453.740   100235167.17144
  21085692.480   110806074.72608  21085690.660    86342388.56146
  22408866.040   117759446.63807  22408865.540    91760589.25545
  21704185.060   114056262.06808  21704181.320    88875011.74446
  24278971.760   127586997.37606  24278968.720    99418389.65543
  20673796.000   108641582.79909  20673789.920    84655754.24848
  20518586.200   107825907.85209  20518584.800    84020216.57648
  24428652.340   128373436.34107  24428652.540   100031239.23044
 15 01 18 05 01 30.0000000  0  9G04G11G16G18G19G21G22G27G32
  22774769.500   119682237.89109  22774766.620    93258937.27444
  24461771.120   128547480.69007  24461769.480   100166848.29245
  21096655.480   110863684.12708  21096653.280    86387279.00146
  22420390.560   117820009.96607  22420389.620    91807781.45245
  21692817.000   113996522.77408  21692813.580    88828461.64946
  24292125.840   127656121.74505  24292121.860    99472252.76543
  20673155.960   108638220.10209  20673149.860    84653133.96448
  20513860.220   107801072.54409  20513858.860    84000864.37648
  24406048.740   128254653.80706  24406049.240    99938681.42642
 15 01 18 05 02  0.0000000  0  9G04G11G16G18G19G21G22G27G32
  22760463.240   119607055.98009  22760461.800    93200353.98145
  24445099.900   128459871.60807  24445097.760   100098581.45245
  21107711.760   110921783.87308  21107709.260    86432551.54046
  22431984.280   117880933.83608  22431982.380    91855254.59644
  21681480.880   113936950.31808  21681477.560    88782041.57646
  24305278.020   127725235.97106  24305273.840    99526107.97143
  20672617.260   108635389.31709  20672611.120    84650928.17248
  20509189.520   107776527.85809  20509188.220    83981738.65848
  24383454.320   128135919.12406  24383455.400    99846160.90443
 15 01 18 05 02 30.0000000  0  9G04G11G16G18G19G21G22G27G32
  22746197.680   119532088.26109  22746196.920    93141937.61445
  24428441.620   128372330.73108  24428439.120   100030367.85444
  21118861.420   110980373.90809  21118858.540    86478206.11346
  22443646.900   117942217.81008  22443643.400    91903008.37544
  21670177.120   113877547.74408  21670173.800    88735753.84346
  24318428.360   127794340.27406  24318424.160    99579955.42244
  20672180.120   108633091.41309  20672173.780    84649137.60048
  20504574.680   107752276.76809  20504573.420    83962841.69548
  24360869.840   128017236.40506  24360871.400    99753680.85343
 15 01 18 05 03  0.0000000  0  9G04G11G16G18G19G21G22G27G32
  22731972.720   119457334.48808  22731972.080    93083687.94745
  24411796.280   128284858.19107  24411793.240    99962207.39645
  21130104.080   111039452.33809  21130100.880    86524241.26646
  22455377.660   118003859.02608  22455372.580    91951040.53044
  21658905.780   113818315.47308  21658902.400    88689598.83346
  24331576.560   127863434.03706  24331571.920    99633794.68043
  20671844.220   108631325.79209  20671837.780    84647761.80847
  20500015.920   107728320.21209  20500014.600    83944174.25348
  24338295.740   127898608.04906  24338297.180    99661243.17543
 15 01 18 05 03 30.0000000  0  9G04G11G16G18G19G21G22G27G32
  22717787.920   119382792.88808  22717787.280    93025603.61245
  24395163.520   128197452.14208  24395160.080    99894098.84444
  21141438.760   111099014.91309  21141435.400    86570653.67646
  22467175.700   118065854.03608  22467169.660    91999348.34844
  21647666.700   113759252.78408  21647663.160    88643575.96446
  24344722.100   127932515.26406  24344717.660    99687624.22841
  20671609.100   108630090.35209  20671602.560    84646799.14747
  20495513.080   107704657.51209  20495511.620    83925735.78648
  24315732.220   127780034.43806  24315732.020    99568848.20343
 15 01 18 05 04  0.0000000  0  9G04G11G16G18G19G21G22G27G32
  22703643.400   119308465.41608  22703642.900    92967686.16144
  24378543.760   128110114.70107  24378539.900    99826043.68645
  21152865.340   111159061.51009  21152862.160    86617443.22447
  22479040.820   118128202.49608  22479034.520    92047931.58045
  21636460.500   113700362.75909  21636456.720    88597687.61346
  24357865.280   128001585.14606  24357860.180    99741444.89743
  20671474.960   108629386.50609  20671468.520    84646250.69447
  20491066.700   107681291.85109  20491065.060    83907528.78348
  24293179.980   127661519.95406  24293178.280    99476499.37142
 15 01 18 05 04 30.0000000  0  9G04G11G16G18G19G21G22G27G32
  22689539.360   119234352.85208  22689539.220    92909936.17345
  24361937.260   128022846.67608  24361933.160    99758042.69144
  21164383.660   111219590.76309  21164380.800    86664608.86647
  22490972.580   118190902.70708  22490966.640    92096788.90245
  21625287.400   113641646.28309  21625283.340    88551934.51146
  24371006.420   128070643.93506  24371000.880    99795256.94243
  20671441.860   108629214.50308  20671435.660    84646116.67647
  20486677.140   107658224.92509  20486675.360    83889554.56348
  24270639.400   127543067.48706  24270638.020    99384198.67942
 15 01 18 05 05  0.0000000  0  9G04G11G16G18G19G21G22G27G32
  22675476.340   119160456.57508  22675476.760    92852354.73445
  24345344.180   127935649.41008  24345339.620    99690096.75845
  21175993.620   111280601.46009  21175991.060    86712149.66647
  22502970.900   118253953.96808  22502965.440    92145919.77345
  21614147.920   113583106.44909  21614143.580    88506319.06446
  24384145.560   128139692.07106  24384139.860    99849060.67041
  20671510.020   108629575.10908  20671504.200    84646397.68447
  20482345.000   107635459.36509  20482343.120    83871815.18048
  24248111.360   127424681.16206  24248110.820    99291949.58943
 15 01 18 05 05 30.0000000  0  8G04G11G16G18G19G21G22G27
  22661455.000   119086777.05208  22661455.400    92794942.17444
  24328764.480   127848523.36807  24328760.100    99622206.36445
  21187695.060   111342092.39309  21187692.700    86760064.66748
  22515035.360   118317354.30208  22515030.580    92195322.61746
  21603042.400   113524745.22309  21603037.900    88460842.78447
  24397282.940   128208729.77906  24397277.860    99902856.22343
  20671679.520   108630467.96608  20671674.080    84647093.41247
  20478070.520   107612996.79009  20478068.600    83854311.87148
 15 01 18 05 06  0.0000000  0  8G04G11G16G18G19G21G22G27
  22647474.900   119013311.54608  22647474.840    92737696.35844
  24312197.780   127761465.82808  24312193.380    99554369.39045
  21199486.960   111404058.10309  21199484.580    86808349.63148
  22527165.120   118381098.80508  22527160.920    92244993.64146
  21591970.340   113466560.37509  21591965.820    88415503.94747
  24410417.580   128277753.31706  24410412.820    99956640.79244
  20671949.980   108631889.95708  20671944.760    84648201.44848
  20473853.340   107590835.35709  20473851.400    83837043.21948
 15 01 18 05 06 30.0000000  0  9G04G11G16G18G19G21G22G27G32
  22633535.700   118940059.26609  22633535.300    92680616.72045
  24295644.000   127674476.50907  24295640.000    99486585.55445
  21211368.900   111466496.24309  21211366.240    86857002.73248
  22539359.880   118445184.89008  22539356.220    92294930.86146
  21580931.840   113408552.27709  21580927.240    88370302.85246
  24423549.400   128346761.70406  24423545.000   100010413.55742
  20672321.160   108633839.68609  20672315.880    84649720.72148
  20469693.600   107568975.78909  20469691.580    83820009.80248
  24180600.260   127069909.39005  24180603.740    99015495.47443
 15 01 18 05 07  0.0000000  0  9G04G11G16G18G19G21G22G27G32
  22619637.720   118867022.40209  22619636.900    92623704.92744
  24279103.500   127587557.25806  24279100.120    99418856.23146
  21223340.700   111529406.47709  21223337.640    86906023.69547
  22551619.460   118509612.16307  22551616.400    92345133.90446
  21569927.460   113350723.94108  21569922.700    88325241.81546
  24436678.760   128415756.33906  24436675.420   100064175.65443
  20672793.220   108636318.48909  20672787.580    84651652.26147
  20465591.820   107547421.18109  20465589.740    83803214.01048
  24158126.860   126951805.08206  24158128.700    98923479.11142
 15 01 18 05 07 30.0000000  0  9G04G11G16G18G19G21G22G27G32
  22605781.120   118794202.45109  22605779.720    92566962.11444
  24262576.600   127500710.04307  24262573.880    99351183.19346
  21235402.080   111592788.00409  21235398.720    86955411.86748
  22563943.940   118574380.11807  22563941.400    92395602.40646
  21558957.720   113293078.09108  21558952.700    88280322.98146
  24449805.680   128484738.23906  24449803.760   100117927.73044
  20673366.080   108639327.46909  20673360.200    84653996.92048
  20461548.540   107526174.28909  20461546.460    83786657.99148
  24135668.480   126833779.44206                                
 15 01 18 05 08  0.0000000  0  9G04G11G16G18G19G21G22G27G32
  22591965.680   118721599.29809  22591963.200    92510388.24243
  24246063.480   127413934.29908  24246061.520    99283565.75746
  21247552.480   111656638.72608  21247549.120    87005165.64647
  22576332.620   118639486.20307  22576330.540    92446334.37946
  21548022.800   113235615.48408  21548017.460    88235546.92846
  24462930.160   128553706.79006  24462929.040   100171669.42344
  20674039.460   108642865.72709  20674033.640    84656754.01647
  20457563.960   107505236.02609  20457561.980    83770342.46948
  24113225.100   126715834.57507  24113221.380    98739617.12142
 15 01 18 05 08 30.0000000  0  9G04G11G16G18G19G21G22G27G32
  22578190.000   118649205.79809  22578185.420    92453977.71442
  24229562.960   127327223.46008  24229561.580    99215998.89645
  21259790.040   111720949.05908  21259786.980    87055277.56347
  22588783.880   118704921.05907  22588782.420    92497322.53145
  21537121.540   113178330.20608  21537115.960    88190909.08446
  24476050.740   128622654.32706  24476049.700   100225394.70545
  20674811.940   108646925.47609  20674806.240    84659917.47347
  20453637.040   107484600.56909  20453635.040    83754262.90448
  24090795.980   126597966.09507  24090793.960    98647771.60941
 15 01 18 05 09  0.0000000  0  9G04G11G16G18G19G21G22G27G32
  22564457.060   118577037.98109  22564450.520    92397743.04543
  24213078.040   127240593.63108  24213076.980    99148495.17145
  21272117.380   111785732.74508  21272114.820    87105758.32347
  22601300.640   118770698.32507  22601299.280    92548577.53944
  21526257.320   113121239.48408  21526251.700    88146422.84546
  24489170.360   128691596.56406  24489169.160   100279115.90044
  20675686.640   108651522.26009  20675680.920    84663499.40147
  20449771.080   107464285.01409  20449768.960    83738432.61448
  24068384.680   126480192.08707                                
