     2.11           OBSERVATION DATA    G                   RINEX VERSION / TYPE
SPIDER V4,0,0,3554                      2015 03 21 00:50    PGM / RUN BY / DATE 
CNGR                                                        MARKER NAME         
CNGR                                                        MARKER NUMBER       
                                                            OBSERVER / AGENCY   
496521              LEICA GRX1200+GNSS  8.10/4.007          REC # / TYPE / VERS 
10321004            LEIAR25         NONE                    ANT # / TYPE        
  5218738.7445   688113.1521  3590185.5476                  APPROX POSITION XYZ 
        0.0720        0.0000        0.0000                  ANTENNA: DELTA H/E/N
     1     1                                                WAVELENGTH FACT L1/2
     4    C1    L1    P2    L2                              # / TYPES OF OBSERV 
    30.000                                                  INTERVAL            
  2015    02    23    00    00    0.0000000     GPS         TIME OF FIRST OBS   
  2015    02    23    23    59   30.0000000     GPS         TIME OF LAST OBS    
    16                                                      LEAP SECONDS        
    30                                                      # OF SATELLITES     
   G 1   815   814   814   813                              PRN / # OF OBS      
   G 2   942   941   941   941                              PRN / # OF OBS      
   G 3   861   861   861   861                              PRN / # OF OBS      
   G 4   844   844   844   844                              PRN / # OF OBS      
   G 5   619   619   618   618                              PRN / # OF OBS      
   G 6   794   794   793   793                              PRN / # OF OBS      
   G 7   677   677   677   677                              PRN / # OF OBS      
   G 9   817   817   817   817                              PRN / # OF OBS      
   G10   736   735   735   735                              PRN / # OF OBS      
   G11   777   776   776   776                              PRN / # OF OBS      
   G12   815   815   815   815                              PRN / # OF OBS      
   G13   772   772   772   772                              PRN / # OF OBS      
   G14   943   943   943   943                              PRN / # OF OBS      
   G15   690   690   690   690                              PRN / # OF OBS      
   G16   667   667   667   667                              PRN / # OF OBS      
   G17   935   935   934   934                              PRN / # OF OBS      
   G18   898   898   898   898                              PRN / # OF OBS      
   G19   753   753   753   753                              PRN / # OF OBS      
   G20   762   762   762   762                              PRN / # OF OBS      
   G21   745   745   745   745                              PRN / # OF OBS      
   G22   670   670   669   669                              PRN / # OF OBS      
   G23   761   761   761   761                              PRN / # OF OBS      
   G24   828   828   828   828                              PRN / # OF OBS      
   G25   859   859   859   859                              PRN / # OF OBS      
   G27   810   810   810   810                              PRN / # OF OBS      
   G28   833   833   832   832                              PRN / # OF OBS      
   G29   761   761   761   761                              PRN / # OF OBS      
   G30   724   724   724   724                              PRN / # OF OBS      
   G31   862   862   862   862                              PRN / # OF OBS      
   G32   777   777   777   777                              PRN / # OF OBS      
BIT 2 OF LLI FLAGS DATA COLLECTED UNDER A/S CONDITION       COMMENT             
SNR is mapped to RINEX snr flag value [2-9]                 COMMENT             
Lx:     = 25dBHz -> 1; 26-27dBHz -> 2; 28-31dBHz -> 3       COMMENT             
       32-35dBHz -> 4; 36-38dBHz -> 5; 39-41dBHz -> 6       COMMENT             
       42-44dBHz -> 7; 45-48dBHz -> 8; >=49dBHz -> 9        COMMENT             
                                                            END OF HEADER       
 15 02 23 00 00  0.0000000  0  8G16G18G21G22G25G27G29G31
  22468180.520   118071096.22509  22468177.020    92003446.47147
  22847744.140   120065790.74908  22847742.060    93557790.86846
  21012861.340   110423612.87208  21012857.040    86044477.36248
  24481203.700   128649599.50808  24481203.640   100246438.09045
  24018570.500   126218629.53108  24018571.400    98352271.69746
  23651970.220   124291949.38908  23651970.240    96850886.23047
  23202015.500   121927816.21608  23202012.940    95008850.25747
  22327205.660   117330271.38409  22327202.480    91426176.32748
 15 02 23 00 00 30.0000000  0  8G16G18G21G22G25G27G29G31
  22452455.260   117988458.98709  22452451.660    91939053.82647
  22834454.980   119995956.05909  22834452.820    93503374.25646
  21017447.860   110447715.86208  21017443.680    86063258.92148
  24463344.260   128555750.03808  24463344.520   100173309.17545
  24036798.740   126314419.73108  24036799.620    98426913.35845
  23638886.860   124223195.92608  23638886.940    96797312.12747
  23215076.680   121996452.51009  23215073.980    95062333.10847
  22342158.480   117408849.16209  22342155.360    91487405.74648
 15 02 23 00 01  0.0000000  0  8G16G18G21G22G25G27G29G31
  22436762.640   117905993.46809  22436758.960    91874794.99547
  22821206.720   119926335.76309  22821204.660    93449124.71746
  21022105.100   110472190.68508  21022101.100    86082330.22448
  24445470.240   128461823.54108  24445470.540   100100120.17245
  24055063.120   126410399.51408  24055064.080    98501702.74746
  23625818.120   124154519.34408  23625818.220    96743797.93247
  23228144.700   122065125.48409  23228142.340    95115844.46847
  22357167.180   117487720.56509  22357164.100    91548863.95848
 15 02 23 00 01 30.0000000  0  8G16G18G21G22G25G27G29G31
  22421103.460   117823703.84309  22421099.680    91810673.22747
  22808000.220   119856934.20409  22807997.780    93395045.61146
  21026833.200   110497037.85408  21026829.320    86101691.66248
  24427582.360   128367824.27508  24427582.780   100026874.52345
  24073363.760   126506569.58308  24073364.720    98576640.41545
  23612764.360   124085921.63508  23612764.440    96690345.19647
  23241219.860   122133836.87808  23241217.580    95169385.82247
  22372231.560   117566884.73409  22372228.560    91610550.30148
 15 02 23 00 02  0.0000000  0  8G16G18G21G22G25G27G29G31
  22405477.760   117741590.33009  22405473.960    91746688.68847
  22794835.640   119787752.70209  22794832.840    93341137.96846
  21031631.360   110522253.04308  21031627.600    86121339.86448
  24409680.840   128273752.68708  24409681.080    99953572.49545
  24091699.980   126602926.51508  24091701.000    98651723.68245
  23599725.140   124017400.56808  23599725.220    96636952.17447
  23254302.120   122202584.67408  23254300.020    95222955.50047
  22387350.720   117646336.64309  22387347.820    91672460.84748
 15 02 23 00 02 30.0000000  0  8G16G18G21G22G25G27G29G31
  22389886.220   117659656.41609  22389882.360    91682844.09047
  22781713.680   119718795.63009  22781710.940    93287405.23046
  21036499.840   110547837.52208  21036496.160    86141275.81948
  24391766.260   128179612.84208  24391766.320    99880217.25045
  24110071.760   126699470.52108  24110073.000    98726952.70446
  23586700.800   123948957.53308  23586700.880    96583619.95947
  23267391.680   122271370.35008  23267388.980    95276554.74647
  22402524.380   117726074.97409  22402521.560    91734594.59348
 15 02 23 00 03  0.0000000  0  8G16G18G21G22G25G27G29G31
  22374329.440   117577905.29809  22374325.560    91619141.94047
  22768635.040   119650066.13309  22768632.260    93233849.79046
  21041438.500   110573790.36108  21041434.860    86161498.81748
  24373839.340   128085408.26208  24373839.360    99806811.58345
  24128479.080   126796201.47508  24128480.240    98802327.41145
  23573691.600   123880593.79408  23573691.660    96530349.53747
  23280488.540   122340194.74009  23280486.040    95330184.07647
  22417752.280   117806098.22409  22417749.480    91796950.35548
 15 02 23 00 03 30.0000000  0  8G16G18G21G22G25G27G29G31
  22358807.100   117496334.99709  22358803.380    91555580.68847
  22755599.220   119581562.48109  22755596.460    93180470.37646
  21046446.280   110600105.94208  21046442.600    86182004.46248
  24355899.740   127991136.91108  24355899.500    99733353.83945
  24146920.940   126893113.52208  24146922.000    98877843.25846
  23560696.620   123812304.76008  23560696.680    96477137.31647
  23293592.020   122409053.60908  23293589.240    95383840.33547
  22433033.020   117886399.16509  22433030.260    91859522.49148
 15 02 23 00 04  0.0000000  0  8G16G18G21G22G25G27G29G31
  22343319.860   117414948.95709  22343316.100    91492163.01547
  22742607.060   119513288.69809  22742604.300    93127270.06046
  21051523.100   110626784.07208  21051519.300    86202792.62248
  24337948.280   127896802.66308  24337947.700    99659847.06745
  24165397.240   126990206.62508  24165398.280    98953500.14545
  23547716.080   123744091.64108  23547716.220    96423984.25447
  23306702.320   122477948.42409  23306699.620    95437524.56447
  22448366.360   117966976.30809  22448363.600    91922309.85048
 15 02 23 00 04 30.0000000  0  8G16G18G21G22G25G27G29G31
  22327869.080   117333754.56809  22327865.360    91428894.67847
  22729660.080   119445252.48909  22729657.220    93074254.85146
  21056669.700   110653828.70809  21056665.720    86223866.35848
  24319986.300   127802413.32408  24319985.400    99586297.35445
  24183908.780   127087484.78008  24183909.780    99029301.24845
  23534750.980   123675959.70208  23534751.180    96370894.44647
  23319820.260   122546884.08508  23319817.700    95491240.63847
  22463752.720   118047831.89909  22463749.880    91985314.19148
 15 02 23 00 05  0.0000000  0  8G16G18G21G22G25G27G29G31
  22312454.360   117252749.37609  22312450.600    91365773.76447
  22716757.780   119377452.05808  22716755.040    93021423.38547
  21061884.760   110681233.28208  21061880.640    86245220.57548
  24302013.460   127707966.72908  24302012.380    99512703.04545
  24202454.340   127184941.82708  24202455.080    99105241.75545
  23521800.400   123607904.12808  23521800.620    96317864.15747
  23332945.200   122615855.94709  23332942.660    95544984.95347
  22479190.620   118128958.35609  22479187.700    92048529.57548
 15 02 23 00 05 30.0000000  0  8G16G18G21G22G25G27G29G31
  22297076.000   117171935.54409  22297072.340    91302801.97147
  22703900.840   119309889.58609  22703898.300    92968777.33646
  21067168.040   110708996.67209  21067163.780    86266854.38648
  24284030.360   127613465.50808  24284028.920    99439066.12745
  24221033.760   127282576.52408  24221034.320    99181320.69246
  23508864.380   123539924.95508  23508864.560    96264893.40247
  23346076.900   122684863.95108  23346074.420    95598757.38947
  22494679.540   118210353.03909  22494676.580    92111953.98047
 15 02 23 00 06  0.0000000  0  8G16G18G21G22G25G27G29G31
  22281734.740   117091316.56009  22281731.040    91239981.98947
  22691090.040   119242569.36809  22691087.540    92916320.07246
  21072519.440   110737118.04309  21072515.080    86288767.13048
  24266037.460   127518913.23108  24266035.860    99365389.42345
  24239646.840   127380388.72508  24239647.620    99257537.90245
  23495943.160   123472023.35208  23495943.180    96211983.07647
  23359215.740   122753909.01309  23359213.620    95652558.70547
  22510219.160   118292014.12509  22510216.080    92175585.97348
 15 02 23 00 06 30.0000000  0  8G16G18G21G22G25G27G29G31
  22266430.940   117010894.53809  22266427.220    91177315.49747
  22678325.980   119175493.70409  22678323.480    92864053.35246
  21077938.600   110765596.05008  21077934.240    86310957.78748
  24248035.160   127424312.04308  24248033.380    99291674.57245
  24258293.380   127478376.69408  24258294.200    99333892.11445
  23483036.640   123404198.92408  23483036.460    96159132.90347
  23372361.780   122822991.05009  23372359.460    95706388.85647
  22525808.860   118373938.43609  22525805.680    92239423.06147
 15 02 23 00 07  0.0000000  0  8G16G18G21G22G25G27G29G31
  22251164.680   116930670.01009  22251160.940    91114802.89747
  22665608.800   119108663.81309  22665606.180    92811978.14046
  21083425.040   110794427.89108  21083420.720    86333424.16148
  24230023.880   127329663.41808  24230022.040    99217922.75345
  24276972.900   127576537.93508  24276973.980    99410381.31145
  23470144.600   123336450.47308  23470144.320    96106341.93147
  23385514.620   122892108.89708  23385512.380    95760246.87747
  22541447.940   118456122.22909  22541444.700    92303462.36148
 15 02 23 00 07 30.0000000  0  8G16G18G21G22G25G27G29G31
  22235936.620   116850646.24909  22235932.940    91052446.73747
  22652939.080   119042082.97309  22652936.160    92760096.99346
  21088978.680   110823613.34408  21088974.540    86356166.08248
  24212004.200   127234970.70308  24212002.260    99144136.57445
  24295685.360   127674871.78008  24295686.440    99487005.05545
  23457267.100   123268778.72808  23457266.840    96053610.73447
  23398674.520   122961263.42509  23398672.120    95814133.51647
  22557135.980   118538563.27809  22557132.740    92367702.10747
 15 02 23 00 08  0.0000000  0  8G16G18G21G22G25G27G29G31
  22220747.340   116770826.42209  22220743.720    90990249.48447
  22640317.260   118975754.15409  22640314.160    92708412.23446
  21094599.360   110853151.16808  21094595.400    86379182.57148
  24193976.680   127140236.90708  24193974.520    99070318.38445
  24314430.460   127773377.54808  24314431.820    99563762.68245
  23444404.240   123201184.31308  23444404.000    96000939.77147
  23411841.420   123030455.18408  23411838.960    95868049.14246
  22572872.540   118621259.28309  22572869.320    92432140.51347
 15 02 23 00 08 30.0000000  0  8G16G18G21G22G25G27G29G31
  22205597.180   116691212.00409  22205593.540    90928212.28547
  22627743.920   118909680.19509  22627740.620    92656926.06546
  21100286.640   110883038.70108  21100282.780    86402471.55648
  24175941.860   127045464.25508  24175939.420    98996469.88145
  24333207.960   127872053.29408  24333209.400    99640652.80246
  23431556.000   123133666.67608  23431555.800    95948328.65947
  23425015.300   123099683.27609  23425012.780    95921993.11047
  22588656.960   118704206.65509  22588653.760    92496774.81847
 15 02 23 00 09  0.0000000  0  8G16G18G21G22G25G27G29G31
  22190486.920   116611807.28309  22190483.220    90866338.49347
  22615219.820   118843865.18409  22615216.340    92605641.68047
  21106040.800   110913277.24708  21106036.960    86426034.06548
  24157900.500   126950657.28808  24157897.900    98922594.63646
  24352017.780   127970899.58808  24352019.400    99717675.82946
  23418722.800   123066227.74708  23418722.540    95895778.87547
  23438196.180   123168949.93809  23438193.480    95975967.09547
  22604489.100   118787404.81009  22604485.900    92561604.52348
 15 02 23 00 09 30.0000000  0  8G16G18G21G22G25G27G29G31
  22175416.760   116532612.92909  22175413.000    90804628.61347
  22602745.180   118778310.38309  22602741.780    92554560.05347
  21111861.180   110943863.60309  21111857.360    86449867.58748
  24139852.840   126855816.90708  24139850.080    98848693.32446
  24370859.520   128069913.41708  24370861.260    99794829.36346
  23405904.300   122998865.91808  23405903.900    95843289.16047
  23451383.840   123238253.36708  23451381.800    96029969.70447
  22620368.120   118870849.25609  22620364.940    92626626.13047
 15 02 23 00 10  0.0000000  0  8G16G18G21G22G25G27G29G31
  22160386.720   116453629.43809  22160382.900    90743083.04847
  22590320.060   118713015.96309  22590316.740    92503681.30547
  21117747.120   110974794.48208  21117743.340    86473969.57348
  24121798.740   126760943.67308  24121795.960    98774766.42545
  24389732.520   128169091.63508  24389734.220    99872111.01645
  23393100.080   122931579.33508  23393099.600    95790858.08747
  23464578.640   123307592.18108  23464576.040    96083999.99946
  22636293.080   118954535.25709  22636289.960    92691835.97847
 15 02 23 00 10 30.0000000  0  8G16G18G21G22G25G27G29G31
  22145397.040   116374858.03309  22145393.140    90681702.73947
  22577944.860   118647984.02409  22577941.700    92453007.10847
  21123698.140   111006067.26408  21123694.420    86498337.98248
  24103738.900   126666039.59808  24103735.900    98700815.45946
  24408636.400   128268431.76208  24408637.880    99949518.85045
  23380309.920   122864367.03208  23380309.500    95738484.90347
  23477779.860   123376965.23909  23477777.800    96138056.85847
  22652263.280   119038458.96409  22652260.200    92757231.05947
 15 02 23 00 11  0.0000000  0  8G16G18G21G22G25G27G29G31
  22130449.700   116296309.22909  22130445.740    90620495.87647
  22565621.480   118583225.17909  22565618.440    92402545.70547
  21129715.500   111037688.44909  21129711.800    86522977.86148
  24085675.180   126571115.38108  24085672.080    98626848.80346
  24427572.460   128367940.67208  24427574.000   100027058.15645
  23367535.420   122797237.19608  23367535.120    95686175.96647
  23490988.820   123446380.48908  23490986.940    96192146.62346
  22668279.700   119122625.59309  22668276.700    92822815.41048
 15 02 23 00 11 30.0000000  0  8G16G18G21G22G25G27G29G31
  22115542.940   116217974.05209  22115538.980    90559455.48347
  22553348.360   118518730.50109  22553345.540    92352290.14947
  21135796.820   111069645.56009  21135793.060    86547879.51848
  24067606.040   126476162.17408  24067602.900    98552859.54746
  24446538.000   128467605.54908  24446539.420   100104718.97845
  23354774.460   122730178.43708  23354774.320    95633922.43547
  23504204.120   123515827.27608  23504202.220    96246261.02647
  22684339.600   119207020.82409  22684336.700    92888577.89947
 15 02 23 00 12  0.0000000  0  8G16G18G21G22G25G27G29G31
  22100678.560   116139861.64909  22100674.740    90498588.68847
  22541127.400   118454509.71709  22541124.660    92302248.01447
  21141942.980   111101943.28409  21141939.140    86573046.57148
  24049533.100   126381189.27908  24049529.940    98478854.93946
  24465534.240   128567431.77908  24465535.620   100182505.58445
  23342028.380   122663197.59008  23342028.380    95581729.59847
  23517426.680   123585312.28908  23517424.720    96300405.16646
  22700443.820   119291648.93809  22700440.940    92954521.86348
 15 02 23 00 12 30.0000000  0  8G16G18G21G22G25G27G29G31
  22085857.140   116061975.07409  22085853.440    90437897.85647
  22528959.280   118390566.10309  22528956.600    92252421.84647
  21148153.880   111134581.45009  21148150.000    86598478.92148
  24031456.940   126286200.48208  24031453.980    98404837.95346
  24484561.060   128667419.11808  24484562.860   100260417.67945
  23329297.300   122596295.81208  23329297.380    95529598.39147
  23530656.580   123654836.19308  23530654.940    96354579.59047
  22716592.000   119376508.07309  22716589.120    93020645.84047
 15 02 23 00 13  0.0000000  0  8G16G18G21G22G25G27G29G31
  22071078.520   115984313.31909  22071075.020    90377382.21547
  22516843.700   118326898.51609  22516841.080    92202810.78247
  21154428.460   111167554.34908  21154424.580    86624172.08548
  24013377.700   126191194.98808  24013374.760    98330807.93145
  24503617.600   128767562.32708  24503619.560   100338451.26245
  23316580.540   122529469.35208  23316580.760    95477525.84447
  23543893.080   123724395.72908  23543891.860    96408781.79247
  22732782.820   119461591.47409  22732779.960    93086944.56047
 15 02 23 00 13 30.0000000  0  8G16G18G21G22G25G27G29G31
  22056343.140   115906878.29109  22056339.720    90317043.24248
  22504781.180   118263509.41709  22504778.500    92153416.68546
  21160766.560   111200861.00008  21160762.620    86650125.31548
  23995295.620   126096174.76608  23995292.600    98256766.43345
  24522703.420   128867859.79508  24522705.660   100416604.99046
  23303878.120   122462717.97108  23303878.380    95425511.81547
  23557136.480   123793990.38108  23557135.380    96463011.36747
  22749015.720   119546895.81609  22749012.860    93153415.43948
 15 02 23 00 14  0.0000000  0  8G16G18G21G22G25G27G29G31
  22041651.700   115829673.81309  22041648.260    90256883.90748
  22492772.280   118200402.35009  22492769.580    92104242.38847
  21167168.020   111234500.51809  21167163.960    86676337.92348
  23977211.560   126001143.81108  23977208.400    98182716.52646
  24541818.620   128968311.07708  24541820.840   100494878.63945
  23291190.180   122396042.71108  23291190.440    95373557.11047
  23570386.700   123863621.36708  23570386.000    96517269.24747
  22765290.420   119632419.65809  22765287.560    93220057.36547
 15 02 23 00 14 30.0000000  0  8G16G18G21G22G25G27G29G31
  22027004.340   115752700.90009  22027000.820    90196905.02148
  22480817.440   118137579.31609  22480814.660    92055289.38547
  21173632.360   111268470.52309  21173628.180    86702808.06948
  23959125.940   125906104.05608  23959122.760    98108659.81245
  24560962.720   129068914.23607  24560964.860   100573270.61445
  23278516.600   122329443.09008  23278516.800    95321661.34347
  23583643.800   123933288.13108  23583643.480    96571555.04447
  22781606.200   119718159.43709  22781603.340    93286867.56047
 15 02 23 00 15  0.0000000  0  8G16G18G21G22G25G27G29G31
  22012401.880   115675963.86609  22012398.260    90137109.92648
  22468917.320   118075044.51709  22468914.580    92006561.01346
  21180159.720   111302771.81309  21180155.420    86729536.34748
  23941039.440   125811059.53508  23941036.040    98034599.34545
  24580135.920   129169669.52207  24580138.100   100651781.10245
  23265857.780   122262920.88108  23265857.920    95269825.88447
  23596908.100   124002992.81108  23596907.940    96625870.34447
  22797962.880   119804113.97209  22797959.940    93353845.08647
 15 02 23 00 15 30.0000000  0  8G16G18G21G22G25G27G29G31
  21997843.560   115599459.10709  21997839.880    90077495.83548
  22457071.360   118012794.20509  22457068.780    91958054.29947
  21186748.520   111337396.39108  21186744.160    86756516.53548
  23922951.540   125716007.42808  23922948.080    97960532.96746
  24599336.740   129270569.36908  24599338.800   100730404.21245
  23253212.580   122196469.95408  23253212.680    95218045.99647
  23610178.620   124072729.24208  23610178.440    96680210.38747
  22814358.680   119890274.24309  22814355.700    93420982.93347
 15 02 23 00 16  0.0000000  0  8G16G18G21G22G25G27G29G31
  21983331.000   115523195.08409  21983327.320    90018069.32348
  22445281.220   117950837.03009  22445278.880    91909776.00947
  21193399.680   111372348.93009  21193395.380    86783752.28848
  23904863.900   125620956.37508  23904860.420    97886467.36946
  24618566.140   129371618.52508  24618567.620   100809143.74045
  23240582.180   122130096.63808  23240582.280    95166326.55847
  23623456.500   124142503.54308  23623456.140    96734579.98447
  22830794.220   119976643.64909  22830791.280    93488283.73247
 15 02 23 00 16 30.0000000  0  8G16G18G21G22G25G27G29G31
  21968863.800   115447169.46109  21968860.100    89958828.58048
  22433546.580   117889171.28809  22433544.340    91861724.81547
  21200112.040   111407623.20308  21200107.820    86811238.73448
  23886775.980   125525904.15808  23886772.540    97812400.88846
  24637822.780   129472810.93108  24637823.560   100887994.83945
  23227965.660   122063796.20708  23227965.700    95114663.92147
  23636740.860   124212311.17908  23636740.100    96788975.50647
  22847268.140   120063214.61209  22847265.180    93555741.60147
 15 02 23 00 17  0.0000000  0  8G16G18G21G22G25G27G29G31
  21954444.060   115371393.38209  21954440.380    89899782.28447
  22421869.580   117827808.01009  22421867.380    91813909.29247
  21206887.020   111443226.29109  21206882.840    86838981.39748
  23868690.080   125430862.68708  23868686.540    97738342.77246
  24657107.940   129574153.93008  24657108.380   100966963.31745
  23215364.780   121997577.62608  23215364.680    95063065.07047
  23650032.980   124282161.21008  23650031.640    96843404.11847
  22863781.520   120149993.01809  22863778.560    93623361.11148
 15 02 23 00 17 30.0000000  0  8G16G18G21G22G25G27G29G31
  21940070.600   115295860.42109  21940066.940    89840925.43248
  22410248.940   117766740.78009  22410246.680    91766324.45247
  21213722.660   111479147.66409  21213718.440    86866972.06748
  23850605.040   125335825.52808  23850601.480    97664287.99246
  24676419.660   129675637.21408  24676419.960   101046041.01744
  23202777.820   121931431.99808  23202777.540    95011523.05547
  23663331.640   124352044.97609  23663330.180    96897858.96647
  22880332.160   120236966.98909  22880329.160    93691132.98847
 15 02 23 00 18  0.0000000  0  8G16G18G21G22G25G27G29G31
  21925744.220   115220575.09409  21925740.580    89782261.54448
  22398685.460   117705973.99109  22398683.160    91718973.73347
  21220618.940   111515387.45109  21220614.680    86895210.86548
  23832521.740   125240797.30308  23832518.140    97590240.17846
  24695758.200   129777261.09008  24695758.140   101125228.38945
  23190205.100   121865361.32508  23190204.600    94960039.44247
  23676636.760   124421964.35808  23676635.040    96952341.57546
  22896919.860   120324135.86209  22896916.860    93759056.75247
 15 02 23 00 18 30.0000000  0  8G16G18G21G22G25G27G29G31
  21911466.240   115145544.07309  21911462.640    89723795.81648
  22387180.500   117645515.02009  22387178.120    91671862.86847
  21227576.480   111551949.39709  21227572.240    86923700.69348
  23814441.580   125145785.33408  23814437.800    97516205.00946
  24715124.100   129879028.89507  24715123.940   101204527.86345
  23177647.460   121799370.35808  23177646.860    94908617.94647
  23689949.560   124491924.09908  23689947.640    97006855.65447
  22913544.960   120411501.21309  22913541.980    93827133.62347
 15 02 23 00 19  0.0000000  0  8G16G18G21G22G25G27G29G31
  21897236.020   115070764.17209  21897232.500    89665525.77048
  22375733.420   117585360.52409  22375731.160    91624989.26947
  21234594.000   111588826.56109  21234589.760    86952436.16048
  23796363.960   125050786.82908  23796360.000    97442180.31446
  24734516.080   129980933.46108  24734515.920   101283933.85645
  23165103.860   121733453.49008  23165103.300    94857254.19247
  23703268.880   124561918.63608  23703267.260    97061396.80746
  22930205.860   120499054.76509  22930202.880    93895357.16047
 15 02 23 00 19 30.0000000  0  8G16G18G21G22G25G27G29G31
  21883054.400   114996239.34009  21883050.940    89607454.47648
  22364345.140   117525514.56509  22364342.680    91578356.07247
  21241671.340   111626018.18109  21241667.180    86981416.63348
  23778289.680   124955805.91508  23778285.720    97368169.33146
  24753934.100   130082974.75907  24753933.900   101363446.47945
  23152574.620   121667612.29108  23152574.120    94805949.37847
  23716595.340   124631949.61408  23716593.620    97115966.40046
  22946902.220   120586794.74809  22946899.300    93963725.93047
 15 02 23 00 20  0.0000000  0  8G16G18G21G22G25G27G29G31
  21868922.320   114921974.96609  21868918.940    89549586.14148
  22353016.540   117465982.31709  22353013.960    91531967.33547
  21248808.740   111663525.34209  21248804.640    87010642.99748
  23760219.780   124860847.98908  23760215.620    97294176.21946
  24773378.240   130185154.33907  24773378.320   101443066.77745
  23140060.360   121601849.81608  23140059.980    94754705.92747
  23729929.080   124702020.01708  23729927.120    97170566.70046
  22963634.100   120674721.51009  22963631.220    94032240.26747
 15 02 23 00 20 30.0000000  0  8G16G18G21G22G25G27G29G31
  21854839.580   114847969.56509  21854836.200    89491919.59748
  22341747.460   117406762.64709  22341744.740    91485822.15847
  21256005.320   111701343.43109  21256001.260    87040111.63548
  23742154.000   124765912.14408  23742149.920    97220200.27446
  24792847.660   130287466.97908  24792848.420   101522790.73845
  23127560.420   121536162.41408  23127560.080    94703520.96347
  23743269.940   124772126.53908  23743268.160    97225195.17346
  22980400.200   120762828.25709  22980397.400    94100894.85547
 15 02 23 00 21  0.0000000  0  8G16G18G21G22G25G27G29G31
  21840806.540   114774225.71309  21840803.240    89434456.85948
  22330538.340   117347858.09009  22330535.480    91439922.52447
  21263260.700   111739470.62609  21263256.680    87069821.13448
  23724093.000   124671001.09608  23724088.840    97146243.50046
  24812342.140   130389911.16808  24812343.220   101602617.26045
  23115074.820   121470550.15108  23115074.440    94652394.55747
  23756617.520   124842269.16308  23756616.120    97279851.70446
  22997200.040   120851112.30309  22997197.360    94169687.58447
 15 02 23 00 21 30.0000000  0  7G16G18G21G22G27G29G31
  21826824.680   114700750.80509  21826821.380    89377203.69048
  22319390.720   117289276.45809  22319387.580    91394274.51347
  21270575.540   111777910.48309  21270571.580    87099774.26948
  23706038.220   124576123.23608  23706034.240    97072312.67546
  23102604.500   121405018.41808  23102604.140    94601330.89747
  23769973.140   124912453.27508  23769971.340    97334540.64946
  23014034.120   120939575.91209  23014031.540    94238620.23147
 15 02 23 00 22  0.0000000  0  7G16G18G21G22G27G29G31
  21812893.100   114627540.15809  21812889.780    89320156.43548
  22308303.580   117231012.57409  22308300.240    91348874.10247
  21277948.160   111816654.13609  21277944.260    87129964.13148
  23687988.720   124481273.52708  23687984.900    96998403.76446
  23090148.080   121339560.01508  23090147.840    94550324.37747
  23783335.240   124982671.54508  23783333.400    97389256.18046
  23030900.460   121028208.90109  23030897.940    94307684.85147
 15 02 23 00 22 30.0000000  0  7G16G18G21G22G27G29G31
  21799012.520   114554597.34409  21799009.200    89263317.89048
  22297277.500   117173069.75409  22297273.960    91303723.87347
  21285378.420   111855700.66209  21285374.500    87160389.99248
  23669945.380   124386456.22308  23669941.920    96924520.19146
  23077705.840   121274176.06508  23077705.680    94499375.87547
  23796704.040   125052925.46008  23796702.480    97443999.43546
  23047798.680   121117009.13209  23047796.200    94376879.80947
 15 02 23 00 23  0.0000000  0  7G16G18G21G22G27G29G31
  21785183.400   114481924.80909  21785180.000    89206689.94648
  22286313.020   117115450.61809  22286309.340    91258825.85947
  21292866.180   111895049.27809  21292862.200    87191051.24648
  23651908.780   124291674.15108  23651905.580    96850664.00746
  23065277.860   121208866.88408  23065277.760    94448485.63347
  23810079.880   125123215.39808  23810078.080    97498770.83046
  23064728.320   121205974.39909  23064725.780    94446203.36347
 15 02 23 00 23 30.0000000  0  7G16G18G21G22G27G29G31
  21771406.320   114409525.63409  21771402.820    89150275.00248
  22275410.760   117058158.96509  22275407.200    91214183.03847
  21300411.300   111934699.18209  21300407.220    87221947.27248
  23633879.560   124196930.79908  23633876.500    96776838.06546
  23052864.320   121143633.44008  23052864.240    94397654.40547
  23823462.700   125193542.51108  23823460.560    97553571.16946
  23081689.040   121295102.74609  23081686.420    94515653.98247
 15 02 23 00 24  0.0000000  0  7G16G18G21G22G27G29G31
  21757682.040   114337404.17409  21757678.560    89094076.48248
  22264571.520   117001198.63709  22264568.060    91169798.38747
  21308013.900   111974651.20209  21308009.760    87253078.71748
  23615858.600   124102230.78708  23615855.600    96703045.90046
  23040465.600   121078477.59608  23040465.500    94346883.64547
  23836852.900   125263908.47908  23836850.980    97608401.78946
  23098680.520   121384393.00309  23098677.840    94585230.76347
 15 02 23 00 24 30.0000000  0  7G16G18G21G22G27G29G31
  21744010.800   114265561.30409  21744007.260    89038095.02748
  22253795.420   116944570.32309  22253791.980    91125672.44847
  21315673.220   112014901.20309  21315669.020    87284442.35248
  23597846.140   124007574.92308  23597843.060    96629288.06146
  23028081.360   121013397.83608  23028081.280    94296172.17147
  23850250.100   125334311.80008  23850248.500    97663261.47546
  23115701.800   121473840.02409  23115699.080    94654929.71547
 15 02 23 00 25  0.0000000  0  7G16G18G21G22G27G29G31
  21730392.220   114193995.18409  21730388.680    88982329.22948
  22243082.200   116888271.96909  22243078.680    91081803.62147
  21323388.040   112055442.92409  21323383.860    87316033.30448
  23579841.960   123912961.74908  23579838.760    96555563.42846
  23015710.840   120948390.06808  23015710.680    94245516.78147
  23863653.860   125404748.40108  23863652.120    97718147.14846
  23132751.660   121563437.26909  23132748.940    94724745.69847
 15 02 23 00 25 30.0000000  0  7G16G18G21G22G27G29G31
  21716828.320   114122716.30609  21716824.760    88926787.25048
  22232433.900   116832314.54609  22232430.280    91038200.44747
  21331159.580   112096282.74508  21331155.440    87347856.53548
  23561847.980   123818401.73708  23561844.420    96481880.00246
  23003355.580   120883462.57208  23003355.280    94194923.95147
  23877065.440   125475226.67708  23877063.460    97773065.25746
  23149831.040   121653189.83609  23149828.320    94794682.72247
 15 02 23 00 26  0.0000000  0  7G16G18G21G22G27G29G31
  21703318.760   114051723.32209  21703315.220    88871468.04448
  22221850.200   116776696.33609  22221846.420    90994861.58447
  21338987.000   112137416.33209  21338982.900    87379908.67548
  23543864.180   123723894.62708  23543860.480    96408237.72645
  22991014.900   120818611.77708  22991014.480    94144390.89047
  23890484.260   125545743.04608  23890482.600    97828013.05346
  23166938.680   121743091.14609  23166936.020    94864735.64847
 15 02 23 00 26 30.0000000  0  7G16G18G21G22G27G29G31
  21689863.760   113981017.32509  21689860.280    88816372.48048
  22211331.260   116721418.68909  22211327.460    90951788.11547
  21346869.800   112178840.78909  21346865.740    87412187.47648
  23525890.800   123629442.13308  23525887.120    96334638.24346
  22978688.640   120753836.55508  22978688.160    94093916.70747
  23903909.900   125616296.37508  23903908.460    97882989.61546
  23184073.780   121833137.09309  23184071.200    94934901.28447
 15 02 23 00 27  0.0000000  0  7G16G18G21G22G27G29G31
  21676463.900   113910601.09209  21676460.480    88761502.69748
  22200877.460   116666483.50709  22200873.740    90908981.49747
  21354807.580   112220554.14109  21354803.560    87444691.38148
  23507928.300   123535046.64808  23507924.640    96261083.03546
  22966376.760   120689137.16208  22966376.280    94043501.61747
  23917342.800   125686887.27208  23917341.560    97937995.52346
  23201235.900   121923325.05209  23201233.420    95005177.57747
 15 02 23 00 27 30.0000000  0  7G16G18G21G22G27G29G31
  21663119.840   113840477.88609  21663116.480    88706861.24848
  22190489.520   116611894.95309  22190485.980    90866444.97547
  21362800.240   112262555.99809  21362796.260    87477420.10448
  23489977.380   123440712.58708  23489973.660    96187575.84546
  22954079.500   120624514.70108  22954079.060    93993146.47347
  23930783.120   125757516.58308  23930782.240    97993031.30046
  23218424.680   122013652.96408  23218422.320    95075562.91947
 15 02 23 00 28  0.0000000  0  7G16G18G21G22G27G29G31
  21649831.340   113770646.30509  21649828.000    88652447.03548
  22180167.100   116557650.92909  22180163.780    90824176.92547
  21370846.720   112304840.56209  21370842.800    87510369.11148
  23472037.780   123346438.42008  23472034.000    96114115.53746
  22941796.120   120559965.47908  22941795.680    93942848.40247
  23944230.240   125828180.81908  23944229.240    98048094.35246
  23235638.780   122104114.00109  23235636.480    95146051.97847
 15 02 23 00 28 30.0000000  0  7G16G18G21G22G27G29G31
  21636600.080   113701115.32809  21636596.720    88598267.05548
  22169911.800   116503759.83609  22169908.640    90782183.87647
  21378947.900   112347412.63909  21378943.980    87543542.16548
  23454111.360   123252233.92109  23454107.460    96040709.49847
  22929527.960   120495496.11808  22929527.500    93892612.55347
  23957685.100   125898886.17808  23957684.020    98103189.41246
  23252878.940   122194711.89209  23252876.700    95216647.70347
 15 02 23 00 29  0.0000000  0  7G16G18G21G22G27G29G31
  21623425.400   113631881.68309  21623422.040    88544318.77748
  22159723.120   116450218.93109  22159720.160    90740463.71747
  21387102.620   112390265.95009  21387098.720    87576934.34948
  23436197.480   123158096.09609  23436193.600    95967355.47846
  22917273.980   120431101.43408  22917273.480    93842434.90747
  23971146.900   125969628.02008  23971145.820    98158312.86846
  23270143.640   122285438.43208  23270141.400    95287343.67347
 15 02 23 00 29 30.0000000  0  7G16G18G21G22G27G29G31
  21610308.540   113562951.93709  21610305.180    88490607.30148
  22149602.300   116397034.24109  22149599.500    90699021.11347
  21395311.160   112433402.09009  21395307.300    87610546.93648
  23418297.480   123064031.35009  23418293.600    95894058.50846
  22905034.840   120366785.16008  22905034.440    93792318.35747
  23984616.420   126040410.23408  23984615.100    98213467.84546
  23287433.000   122376294.36109  23287430.760    95358140.45447
 15 02 23 00 30  0.0000000  0  7G16G18G21G22G27G29G31
  21597248.540   113494321.14509  21597245.160    88437128.77448
  22139548.500   116344201.37309  22139545.720    90657852.67847
  21403571.880   112476812.29909  21403567.960    87644373.07548
  23400410.420   122970035.34809  23400406.480    95820815.04446
  22892809.380   120302540.63308  22892809.120    93742257.71747
  23998092.520   126111225.95508  23998090.940    98268648.90146
  23304745.120   122467269.77208  23304742.820    95429030.33747
 15 02 23 00 30 30.0000000  0  7G16G18G21G22G27G29G31
  21584247.320   113425999.32009  21584243.940    88383890.99448
  22129563.480   116291729.70209  22129560.760    90616965.66947
  21411885.760   112520502.20709  21411881.880    87678417.15648
  23382538.560   122876118.98008  23382534.640    95747633.86345
  22880599.060   120238375.29108  22880598.920    93692258.77047
  24011576.400   126182082.89308  24011574.720    98323862.04846
  23322080.860   122558369.16709  23322078.520    95500016.81547
 15 02 23 00 31  0.0000000  0  7G16G18G21G22G27G29G31
  21571305.560   113357989.96009  21571302.160    88330896.69848
  22119647.780   116239622.37309  22119645.140    90576362.58547
  21420252.840   112564471.76409  21420249.060    87712679.14748
  23364682.480   122782285.61108  23364678.500    95674517.36145
  22868404.120   120174290.53308  22868403.960    93642322.62647
  24025068.120   126252981.90508  24025065.940    98379108.04246
  23339439.940   122649591.10709  23339437.500    95571098.79147
 15 02 23 00 31 30.0000000  0  7G16G18G21G22G27G29G31
  21558422.120   113290286.94909  21558418.740    88278141.10748
  22109800.340   116187873.33709  22109797.580    90536038.66747
  21428671.180   112608710.77809  21428667.500    87747151.10248
  23346841.020   122688529.42009  23346836.880    95601460.97347
  22856223.000   120110278.00808  22856222.740    93592442.75447
  24038566.240   126323915.11508  24038564.280    98434380.65346
  23356820.160   122740924.34608  23356817.620    95642267.48947
 15 02 23 00 32  0.0000000  0  7G16G18G21G22G27G29G31
  21545599.220   113222902.01909  21545595.800    88225633.37748
  22100023.120   116136493.51309  22100020.280    90496002.46147
  21437142.140   112653226.49609  21437138.540    87781838.68548
  23329016.380   122594861.57108  23329012.080    95528472.98647
  22844057.420   120046347.09608  22844057.060    93542626.49048
  24052072.520   126394891.82108  24052070.960    98489687.14046
  23374222.580   122832374.37808  23374219.980    95713527.20847
 15 02 23 00 32 30.0000000  0  7G16G18G21G22G27G29G31
  21532835.720   113155829.26009  21532832.280    88173368.90048
  22090315.180   116085477.73109  22090312.180    90456249.92247
  21445663.920   112698009.23308  21445660.420    87816734.33248
  23311207.760   122501277.56808  23311203.440    95455550.31146
  22831905.880   119982489.76608  22831905.460    93492867.56248
  24065585.660   126465904.12908  24065584.200    98545021.40046
  23391645.200   122923930.67308  23391642.600    95784869.71347
 15 02 23 00 33  0.0000000  0  7G16G18G21G22G27G29G31
  21520132.900   113089075.48809  21520129.460    88121352.98448
  22080677.640   116034832.20109  22080674.540    90416785.89547
  21454237.060   112743061.63208  21454233.600    87851840.09448
  23293416.600   122407784.93308  23293412.300    95382698.91146
  22819769.160   119918710.58808  22819768.760    93443169.52648
  24079106.520   126536956.30508  24079105.080    98600386.71346
  23409088.340   123015594.82408  23409085.700    95856296.24947
 15 02 23 00 33 30.0000000  0  7G16G18G21G22G27G29G31
  21507491.240   113022642.84109  21507487.760    88069587.28148
  22071110.860   115984558.49309  22071107.660    90377611.59347
  21462861.280   112788382.28009  21462857.800    87887154.87648
  23275643.240   122314385.48509  23275639.000    95309920.08547
  22807647.280   119855009.42609  22807646.820    93393532.27447
  24092634.940   126608048.32408  24092633.380    98655783.03346
  23426551.400   123107363.46408  23426548.760    95927804.21847
 15 02 23 00 34  0.0000000  0  7G16G18G21G22G27G29G31
  21494910.960   112956532.48709  21494907.400    88018072.72748
  22061615.100   115934657.86109  22061611.840    90338728.01547
  21471535.960   112833967.78908  21471532.400    87922676.05048
  23257888.140   122221082.13808  23257883.900    95237216.50647
  22795540.020   119791385.29608  22795539.460    93343955.05647
  24106170.860   126679179.64908  24106169.060    98711210.04146
  23444033.600   123199232.64008  23444030.920    95999390.51847
 15 02 23 00 34 30.0000000  0  7G16G18G21G22G27G29G31
  21482392.720   112890748.27709  21482389.060    87966812.30848
  22052191.040   115885133.66109  22052187.740    90300137.74547
  21480260.980   112879817.73208  21480257.300    87958403.27648
  23240151.920   122127878.28008  23240147.680    95164590.76046
  22783447.600   119727839.55408  22783446.900    93294438.91847
  24119714.380   126750351.22708  24119712.280    98766668.39746
  23461534.620   123291200.68708  23461531.900    96071053.86247
 15 02 23 00 35  0.0000000  0  7G16G18G21G22G27G29G31
  21469936.440   112825289.80009  21469932.700    87915805.70048
  22042838.500   115835985.14509  22042835.100    90261840.21747
  21489035.500   112925927.63309  21489031.640    87994333.06548
  23222434.480   122034773.76808  23222430.160    95092042.36947
  22771369.680   119664369.88008  22771368.900    93244982.04147
  24133265.280   126821560.82508  24133263.020    98822156.37546
  23479053.420   123383262.16408  23479050.680    96142790.00647
 15 02 23 00 35 30.0000000  0  7G16G18G21G22G27G29G31
  21457543.300   112760163.49109  21457539.560    87865057.93348
  22033558.640   115787218.65009  22033555.200    90223840.36547
  21497859.980   112972300.07409  21497855.960    88030467.42048
  23204737.020   121941774.99109  23204732.780    95019576.27047
  22759307.040   119600980.33608  22759306.240    93195587.61847
  24146824.080   126892812.72208  24146821.700    98877677.31146
  23496590.160   123475417.92608  23496587.380    96214599.62147
 15 02 23 00 36  0.0000000  0  7G16G18G21G22G27G29G31
  21445213.160   112695368.44409  21445209.420    87814568.28848
  22024351.140   115738832.70609  22024347.740    90186137.05047
  21506733.500   113018930.50508  21506729.400    88066802.82948
  23187059.600   121848881.57408  23187055.460    94947192.08947
  22747259.020   119537668.02108  22747258.300    93146253.36747
  24160390.260   126964103.63108  24160387.760    98933228.66346
  23514143.660   123567662.04708  23514140.840    96286478.09346
 15 02 23 00 36 30.0000000  0  7G16G18G21G22G27G29G31
  21432946.780   112630908.72809  21432943.080    87764339.94548
  22015216.840   115690831.42009  22015213.480    90148733.46347
  21515656.000   113065818.54309  21515651.860    88103338.96148
  23169403.080   121756097.83408  23169398.940    94874893.17147
  22735225.960   119474434.77108  22735225.300    93096980.72347
  24173964.240   127035435.91108  24173962.000    98988812.22046
  23531713.740   123659993.37208  23531711.000    96358424.50247
 15 02 23 00 37  0.0000000  0  7G16G18G21G22G27G29G31
  21420744.320   112566784.67009  21420740.680    87714373.15148
  22006155.680   115643214.79509  22006152.460    90111629.61447
  21524626.700   113112960.06609  21524622.660    88140072.60448
  23151767.680   121663424.78509  23151763.580    94802680.49747
  22723207.580   119411278.58508  22723207.040    93047768.13547
  24187545.700   127106807.03308  24187543.720    99044426.06846
  23549299.460   123752406.87308  23549296.780    96430434.94946
 15 02 23 00 37 30.0000000  0  7G16G18G21G22G27G29G31
  21408606.180   112502998.30309  21408602.560    87664669.48448
  21997167.960   115595984.38809  21997164.780    90074826.72447
  21533645.400   113160354.01409  21533641.540    88177002.95848
  23134154.000   121570865.09709  23134149.920    94730556.13547
  22711204.020   119348199.47808  22711203.480    92998615.59247
  24201134.640   127178217.17408  24201132.720    99100070.33546
  23566900.200   123844899.27308  23566897.540    96502506.87146
 15 02 23 00 38  0.0000000  0  7G16G18G21G22G27G29G31
  21396533.060   112439553.66909  21396529.520    87615232.11548
  21988254.380   115549143.86409  21988251.300    90038327.62647
  21542712.000   113207999.82609  21542708.320    88214129.56748
  23116562.840   121478423.27109  23116558.640    94658523.61147
  22699215.580   119285199.30408  22699214.960    92949524.56847
  24214731.420   127249668.44408  24214729.740    99155746.60646
  23584515.820   123937469.60508  23584513.040    96574639.51847
 15 02 23 00 38 30.0000000  0  7G16G18G21G22G27G29G31
  21384524.880   112376450.09209  21384521.340    87566060.49848
  21979414.860   115502692.39309  21979411.860    90002131.68747
  21551825.700   113255893.00009  21551822.100    88251448.91948
  23098994.100   121386098.99009  23098989.820    94586582.69547
  22687241.640   119222275.29608  22687240.900    92900492.89948
  24228335.620   127321157.69608  24228333.980    99211452.50746
  23602145.120   124030111.91008  23602142.400    96646828.23346
 15 02 23 00 39  0.0000000  0  7G16G18G21G22G27G29G31
  21372583.100   112313695.69009  21372579.600    87517160.97148
  21970650.820   115456637.46409  21970647.800    89966244.74647
  21560987.280   113304037.51208  21560983.740    88288964.12348
  23081449.420   121293900.78509  23081445.020    94514739.99547
  22675283.260   119159433.30708  22675282.420    92851525.12747
  24241948.200   127392690.81108  24241946.180    99267192.60246
  23619788.660   124122828.94208  23619786.060    96719075.18646
 15 02 23 00 39 30.0000000  0  7G16G18G21G22G27G29G31
  21360707.860   112251291.04309  21360704.400    87468533.97348
  21961962.280   115410979.00409  21961959.180    89930666.74448
  21570196.020   113352429.86709  21570192.520    88326672.45648
  23063928.760   121201829.23009  23063924.340    94442996.01247
  22663340.120   119096671.82208  22663339.300    92802620.09648
  24255568.700   127464266.47208  24255566.480    99322965.79646
  23637445.500   124215616.16508  23637443.020    96791376.84547
 15 02 23 00 40  0.0000000  0  7G16G18G21G22G27G29G31
  21348899.300   112189236.77009  21348895.860    87420179.99448
  21953349.400   115365717.71509  21953346.140    89895398.22347
  21579451.320   113401066.63909  21579447.760    88364571.23548
  23046432.460   121109885.96309  23046427.960    94371351.97547
  22651411.980   119033989.27508  22651411.280    92753776.56147
  24269196.880   127535882.96008  24269194.720    99378770.83346
  23655114.800   124308468.89008  23655112.420    96863729.51947
 15 02 23 00 40 30.0000000  0  7G16G18G21G22G27G29G31
  21337158.020   112127535.88009  21337154.560    87372101.38348
  21944812.520   115320855.91109  21944809.180    89860440.98348
  21588752.960   113449946.63009  21588749.280    88402659.53648
  23028961.180   121018074.32908  23028956.680    94299810.53847
  22639499.040   118971386.55008  22639498.400    92704995.23147
  24282832.920   127607541.19908  24282830.980    99434608.39946
  23672796.100   124401384.83008  23672793.800    96936131.46246
 15 02 23 00 41  0.0000000  0  7G16G18G21G22G27G29G31
  21325484.660   112066191.89909  21325481.120    87324300.87248
  21936352.260   115276396.83909  21936348.900    89825797.56547
  21598100.820   113499069.49309  21598097.040    88440937.08748
  23011515.580   120926398.00909  23011511.200    94228374.54647
  22627601.600   118908864.96308  22627600.860    92656277.12847
  24296476.940   127679242.49008  24296475.200    99490479.53746
  23690489.100   124494362.17008  23690486.920    97008581.23346
 15 02 23 00 41 30.0000000  0  7G16G18G21G22G27G29G31
  21313879.100   112005204.44809  21313875.560    87276778.19348
  21927968.480   115232339.78609  21927965.100    89791467.42147
  21607494.060   113548431.01309  21607490.200    88479400.61648
  22994095.840   120834857.14709  22994091.520    94157044.11247
  22615719.180   118846422.24508  22615718.420    92607620.48847
  24310128.780   127750984.46808  24310127.180    99546382.33246
  23708192.840   124587395.65708  23708190.660    97081074.79047
 15 02 23 00 42  0.0000000  0  7G16G18G21G22G27G29G31
  21302341.880   111944576.25809  21302338.420    87229535.45348
  21919661.760   115188687.31009  21919658.260    89757452.51247
  21616932.420   113598029.80409  21616928.520    88518049.02448
  22976702.660   120743455.25109  22976698.200    94085821.91747
  22603851.880   118784059.15008  22603851.160    92559025.88447
  24323788.440   127822767.84008  24323786.860    99602317.39746
  23725906.860   124680483.13008  23725904.640    97153610.38546
 15 02 23 00 42 30.0000000  0  7G16G18G21G22G27G29G31
  21290873.580   111884310.47909  21290870.180    87182575.10648
  21911432.480   115145441.70209  21911428.820    89723754.63848
  21626415.740   113647864.78709  21626411.800    88556881.47048
  22959336.520   120652195.53509  22959332.000    94014710.52147
  22591999.820   118721776.45908  22591999.160    92510493.93848
  24337456.180   127894593.28408  24337454.560    99658285.26945
  23743630.720   124773622.10908  23743628.380    97226186.08646
 15 02 23 00 43  0.0000000  0  7G16G18G21G22G27G29G31
  21279474.460   111824408.24009  21279471.140    87135898.04548
  21903280.660   115102603.32309  21903276.940    89690374.09648
  21635943.440   113697933.06209  21635939.480    88595895.71748
  22941997.700   120561079.60509  22941993.100    93943711.16747
  22580162.860   118659573.26108  22580162.260    92462023.94248
  24351131.960   127966459.99308  24351130.080    99714285.27145
  23761363.680   124866808.52608  23761361.160    97298798.77646
 15 02 23 00 43 30.0000000  0  7G16G18G21G22G27G29G31
  21268144.720   111764870.19609  21268141.400    87089504.77248
  21895206.300   115060172.48009  21895202.540    89657311.12547
  21645514.920   113748231.20309  21645510.900    88635089.08448
  22924686.420   120470108.48509  22924681.740    93872824.62547
  22568340.740   118597447.87709  22568340.220    92413614.56848
  24364815.400   128038366.04308  24364813.020    99770315.98946
  23779104.640   124960037.27708  23779102.020    97371444.45446
 15 02 23 00 44  0.0000000  0  7G16G18G21G22G27G29G31
  21256885.520   111705702.54909  21256882.100    87043400.12248
  21887210.640   115018155.60209  21887206.920    89624570.70947
  21655130.700   113798762.00309  21655126.620    88674463.73148
  22907404.020   120379289.27009  22907399.320    93802056.46347
  22556534.380   118535405.02809  22556533.940    92365269.51648
  24378507.260   128110316.26008  24378504.740    99826381.03146
  23796854.020   125053310.43908  23796851.380    97444124.70446
 15 02 23 00 44 30.0000000  0  7G16G18G21G22G27G29G31
  21245696.780   111646904.96609  21245693.240    86997583.80548
  21879293.400   114976551.30809  21879289.900    89592151.79747
  21664789.780   113849520.77709  21664785.760    88714016.01848
  22890150.420   120288621.69709  22890145.800    93731406.47447
  22544743.220   118473442.07208  22544742.820    92316986.70948
  24392206.980   128182307.88108  24392204.480    99882478.37645
  23814610.740   125146622.32708  23814608.180    97516835.14046
 15 02 23 00 45  0.0000000  0  7G16G18G21G22G27G29G31
  21234580.000   111588485.86109  21234576.440    86952062.43348
  21871456.220   114935367.66309  21871452.960    89560060.66447
  21674493.020   113900511.69509  21674489.080    88753749.20148
  22872927.440   120198114.89909  22872922.980    93660881.75947
  22532968.460   118411565.33608  22532968.120    92268771.09348
  24405915.620   128254347.31808  24405913.220    99938613.01045
  23832375.380   125239975.93808  23832373.000    97589578.09946
 15 02 23 00 45 30.0000000  0  7G16G18G21G22G27G29G31
  21223534.060   111530438.94409  21223530.440    86906831.07348
  21863697.840   114894597.82109  21863694.700    89528291.97047
  21684238.580   113951725.04509  21684234.680    88793655.70348
  22855733.860   120107762.86909  22855729.400    93590477.63247
  22521208.500   118349766.55208  22521208.220    92220616.21748
  24419631.680   128326425.85708  24419629.400    99994778.10646
  23850145.760   125333359.79508  23850143.460    97662344.60947
 15 02 23 00 46  0.0000000  0  7G16G18G21G22G27G29G31
  21212560.300   111472771.56709  21212556.720    86861895.45948
  21856019.560   114854248.72309  21856016.480    89496851.13748
  21694026.940   114003163.57109  21694023.080    88833737.67548
  22838571.400   120017573.81709  22838566.920    93520200.49547
  22509464.420   118288051.07108  22509464.140    92172526.25748
  24433356.240   128398549.13808  24433354.200   100050978.01346
  23867922.400   125426776.34808  23867920.240    97735136.59346
 15 02 23 00 46 30.0000000  0  7G16G18G21G22G27G29G31
  21201658.860   111415483.81109  21201655.240    86817255.65148
  21848421.240   114814319.41309  21848418.100    89465737.39947
  21703857.520   114054823.85109  21703853.680    88873992.43548
  22821439.940   119927547.74409  22821435.480    93450050.35247
  22497735.800   118226416.74109  22497735.380    92124499.52948
  24447088.960   128470714.88208  24447087.060   100107211.02446
  23885704.320   125520220.36908  23885702.360    97807949.99546
 15 02 23 00 47  0.0000000  0  7G16G18G21G22G27G29G31
  21190830.340   111358579.12309  21190826.640    86772914.33448
  21840903.380   114774812.89709  21840900.280    89434953.11048
  21713730.140   114106705.06409  21713726.300    88914419.36048
  22804340.260   119837688.37509  22804335.740    93380030.12147
  22486022.900   118164864.98109  22486022.400    92076537.12648
  24460830.020   128542924.25108  24460828.160   100163478.05445
  23903491.160   125613690.22708  23903489.300    97880783.50346
 15 02 23 00 47 30.0000000  0  7G16G18G21G22G27G29G31
  21180075.180   111302059.90109  21180071.420    86728873.38148
  21833466.420   114735731.35909  21833463.300    89404499.97347
  21723644.540   114158805.66409  21723640.660    88955017.21848
  22787272.900   119747999.11809  22787268.320    93310142.43247
  22474325.800   118103396.35308  22474325.200    92028639.50848
  24474579.520   128615177.96508  24474577.440   100219779.65945
  23921282.380   125707183.14108  23921280.600    97953634.97746
 15 02 23 00 48  0.0000000  0  7G16G18G21G22G27G29G31
  21169393.400   111245926.63409  21169389.620    86685133.18248
  21826110.320   114697074.66109  21826107.100    89374377.88948
  21733600.000   114211122.12709  21733596.140    88995783.30448
  22770238.100   119658480.77409  22770233.500    93240387.92347
  22462644.160   118042009.33809  22462643.620    91980805.48548
  24488337.140   128687474.15708  24488334.760   100276114.37745
  23939077.100   125800694.48208  23939075.280    98026500.80646
 15 02 23 00 48 30.0000000  0  7G16G18G21G22G27G29G31
  21158785.840   111190183.42709  21158782.020    86641696.91748
  21818835.780   114658846.60309  21818832.460    89344589.79648
  21743596.800   114263655.49009  21743592.880    89036718.38348
  22753236.780   119569138.58409  22753232.220    93170770.67947
  22450978.580   117980706.44409  22450978.060    91933037.01848
  24502103.360   128759815.33308  24502100.780   100332484.09246
  23956875.280   125894223.66908  23956873.540    98099380.53446
 15 02 23 00 49  0.0000000  0  7G16G18G21G22G27G29G31
  21148252.600   111134830.83809  21148248.760    86598565.03348
  21811642.720   114621046.81809  21811639.380    89315135.42647
  21753634.120   114316401.70509  21753630.140    89077819.33248
  22736269.020   119479972.77909  22736264.560    93101290.87047
  22439328.740   117919486.09509  22439328.240    91885332.86548
  24515877.800   128832199.72008  24515875.280   100388887.50746
  23974675.920   125987765.80908  23974674.360    98172270.34646
 15 02 23 00 49 30.0000000  0  7G16G18G21G22G27G29G31
  21137794.080   111079871.01809  21137790.240    86555739.20648
  21804531.420   114583676.80009  21804528.100    89286015.94247
  21763711.560   114369358.87309  21763707.600    89119084.66048
  22719335.480   119390986.50509  22719331.060    93031950.96547
  22427694.720   117858348.35009  22427694.140    91837693.08048
  24529660.400   128904627.37608  24529657.920   100445324.62646
  23992478.580   126081318.40508  23992476.980    98245168.32146
 15 02 23 00 50  0.0000000  0  7G16G18G21G22G27G29G31
  21127411.480   111025310.12909  21127407.680    86513224.22948
  21797502.860   114546741.67509  21797499.640    89257235.34248
  21773829.600   114422529.47109  21773825.700    89160516.29148
  22702437.380   119302186.30809  22702433.000    92962756.05447
  22416077.180   117797297.31609  22416076.540    91790120.86248
  24543452.000   128977102.36308  24543449.500   100501798.61646
  24010283.340   126174882.30908  24010281.780    98318075.06946
 15 02 23 00 50 30.0000000  0  7G16G18G21G22G27G29G31
  21117104.540   110971146.68109  21117100.760    86471018.94948
  21790556.780   114510240.08609  21790553.640    89228792.56548
  21783987.000   114475907.16809  21783983.180    89202109.30048
  22685574.460   119213570.90509  22685570.060    92893705.13847
  22404475.480   117736329.81309  22404474.800    91742613.74648
  24557251.800   129049620.98508  24557249.260   100558306.64345
  24028088.980   126268450.66208  24028087.420    98390985.29946
 15 02 23 00 51  0.0000000  0  6G16G18G21G22G27G31
  21106880.720   110917420.29909  21106877.040    86429154.24048
  21783700.580   114474210.84009  21783697.500    89200717.82648
  21794190.840   114529528.96709  21794187.100    89243892.52148
  22668754.420   119125180.87009  22668749.900    92824829.81047
  22392896.760   117675483.50209  22392896.100    91695201.04848
  24045902.080   126362058.32508  24045900.400    98463926.15346
 15 02 23 00 51 30.0000000  0  6G16G18G21G22G27G31
  21096727.060   110864062.54209  21096723.460    86387576.76948
  21776921.080   114438584.84009  21776918.080    89172957.32747
  21804427.440   114583322.63209  21804423.680    89285809.66548
  22651964.360   119036948.49309  22651959.780    92756077.36047
  22381327.640   117614688.02908  22381327.060    91647827.97648
  24063708.720   126455632.17408  24063707.160    98536840.62646
 15 02 23 00 52  0.0000000  0  6G16G18G21G22G27G31
  21086649.900   110811106.85909  21086646.380    86346312.61048
  21770224.560   114403394.68909  21770221.500    89145536.44148
  21814702.100   114637316.53109  21814698.400    89327882.83548
  22635210.620   118948906.97209  22635206.000    92687473.61647
  22369774.140   117553974.71709  22369773.640    91600518.92348
  24081514.300   126549200.37508  24081512.720    98609750.72246
 15 02 23 00 52 30.0000000  0  6G16G18G21G22G27G31
  21076649.900   110758556.53809  21076646.420    86305364.30748
  21763611.480   114368643.09809  21763608.440    89118457.28948
  21825014.840   114691510.54309  21825011.120    89370111.92748
  22618494.000   118861060.51209  22618489.320    92619021.86247
  22358236.680   117493345.33709  22358236.240    91553275.26248
  24099318.440   126642761.01608  24099316.940    98682654.91346
 15 02 23 00 53  0.0000000  0  6G16G18G21G22G27G31
  21066728.160   110706417.39009  21066724.640    86264736.41148
  21757082.980   114334335.52009  21757079.940    89091724.13848
  21835366.180   114745907.46409  21835362.480    89412499.14548
  22601815.700   118773415.75109  22601811.080    92550727.28347
  22346716.060   117432803.88909  22346715.620    91506100.13548
  24117121.340   126736315.16408  24117119.940    98755554.02646
 15 02 23 00 53 30.0000000  0  7G16G18G19G21G22G27G31
  21056878.660   110654658.07109  21056875.160    86224404.47448
  21750632.920   114300439.66109  21750629.800    89065311.78448
  24501733.940   128757483.66304  24501732.340   100330480.33744
  21845749.420   114800471.72509  21845745.680    89455016.73648
  22585169.840   118685941.63409  22585165.320    92482565.67347
  22335205.920   117372317.36109  22335205.340    91458967.78448
  24134916.160   126829826.91008  24134914.820    98828420.09046
 15 02 23 00 54  0.0000000  0  7G16G18G19G21G22G27G31
  21047115.440   110603352.16609  21047111.980    86184425.84548
  21744275.100   114267028.46809  21744271.860    89039277.10348
  24486997.460   128680044.60905  24486994.840   100270138.21144
  21856177.680   114855272.46209  21856173.960    89497718.61148
  22568570.520   118598712.18809  22568566.000    92414594.70947
  22323719.780   117311957.03609  22323719.120    91411933.77248
  24152715.900   126923364.25008  24152714.520    98901306.11846
 15 02 23 00 54 30.0000000  0  7G16G18G19G21G22G27G31
  21037429.060   110552450.30809  21037425.600    86144762.06648
  21737999.840   114234051.52909  21737996.580    89013580.80548
  24472266.980   128602636.12905  24472263.520   100209819.92044
  21866640.880   114910256.60709  21866637.120    89540563.40648
  22552008.420   118511678.44109  22552004.100    92346776.24147
  22312247.820   117251671.60809  22312247.180    91364958.13648
  24170510.120   127016872.78408  24170508.760    98974169.66546
 15 02 23 00 55  0.0000000  0  7G16G18G19G21G22G27G31
  21027822.840   110501969.45709  21027819.380    86105426.34648
  21731810.360   114201525.34209  21731807.080    88988235.73748
  24457545.300   128525273.16205  24457541.900   100149537.15944
  21877141.480   114965437.32009  21877137.640    89583561.36248
  22535486.980   118424858.22409  22535482.620    92279124.14947
  22300793.020   117191476.44309  22300792.400    91318052.82948
  24188301.160   127110364.70308  24188299.900    99047020.26546
 15 02 23 00 55 30.0000000  0  7G16G18G19G21G22G27G31
  21018296.520   110451908.30309  21018293.040    86066417.65448
  21725706.320   114169447.96709  21725703.020    88963240.38848
  24442831.840   128447952.90605  24442828.400   100089287.65444
  21887678.700   115020810.10209  21887674.700    89626708.97648
  22519006.100   118338250.98509  22519001.700    92211638.02847
  22289354.880   117131368.70609  22289354.280    91271215.64648
  24206088.000   127203834.09308  24206086.860    99119853.30446
 15 02 23 00 56  0.0000000  0  7G16G18G19G21G22G27G31
  21008850.600   110402269.19009  21008847.080    86027737.82448
  21719688.020   114137821.04309  21719684.760    88938596.04648
  24428126.540   128370675.56605  24428123.300   100029071.60244
  21898252.060   115076372.85309  21898247.920    89670004.62648
  22502566.320   118251859.34809  22502561.780    92144319.88947
  22277933.480   117071348.86009  22277932.840    91224446.94748
  24223870.060   127297278.48208  24223869.020    99192666.84646
 15 02 23 00 56 30.0000000  0  7G16G18G19G21G22G27G31
  20999486.180   110353058.44009  20999482.620    85989391.78548
  21713756.420   114106649.88909  21713753.120    88914306.84748
  24413430.100   128293444.92105  24413426.800    99968891.90943
  21908862.020   115132128.08009  21908857.760    89713450.26248
  22486168.980   118165690.25809  22486164.240    92077175.17747
  22266529.640   117011421.34209  22266529.000    91177750.19448
  24241647.560   127390698.82908  24241646.600    99265461.65546
 15 02 23 00 57  0.0000000  0  7G16G18G19G21G22G27G31
  20990201.920   110304269.08009  20990198.360    85951374.10848
  21707910.120   114075927.40609  21707906.900    88890367.26048
  24398740.940   128216252.49406  24398737.480    99908742.00144
  21919506.740   115188066.35909  21919502.440    89757038.52948
  22469812.880   118079737.71109  22469807.960    92010199.18647
  22255141.820   116951577.90409  22255141.180    91131118.96148
  24259418.400   127484083.93108  24259417.500    99338228.98046
 15 02 23 00 57 30.0000000  0  7G16G18G19G21G22G27G31
  20980999.720   110255911.17609  20980996.200    85913692.62548
  21702150.840   114045662.42709  21702147.620    88866784.17248
  24384060.380   128139105.82205  24384057.020    99848627.79944
  21930187.160   115244192.39009  21930182.880    89800773.09648
  22453499.940   117994011.94909  22453494.820    91943399.90848
  22243771.480   116891826.32809  22243770.860    91084559.30148
  24277183.440   127577438.42208  24277182.560    99410972.44346
 15 02 23 00 58  0.0000000  0  7G16G18G19G21G22G27G31
  20971879.420   110207984.10209  20971876.000    85876346.86948
  21696478.340   114015853.59609  21696475.080    88843556.52648
  24369388.100   128062002.27606  24369384.540    99788547.14544
  21940902.580   115300502.50109  21940898.340    89844651.11248
  22437230.100   117908512.92409  22437224.820    91876777.34047
  22232418.260   116832164.52509  22232417.580    91038069.60348
  24294941.600   127670757.01108  24294940.640    99483687.92546
 15 02 23 00 58 30.0000000  0  7G16G18G19G21G22G27G31
  20962840.960   110160487.25809  20962837.620    85839336.34348
  21690892.280   113986499.23809  21690889.120    88820683.01048
  24354723.640   127984939.18606  24354719.680    99728498.05144
  21951652.120   115356991.48409  21951647.780    89888668.48648
  22421003.320   117823240.52209  22420998.020    91810331.32147
  22221081.620   116772589.92209  22221080.860    90991647.84348
  24312691.880   127764034.15808  24312690.700    99556371.11446
 15 02 23 00 59  0.0000000  0  7G16G18G19G21G22G27G31
  20953885.320   110113425.40609  20953882.000    85802664.77748
  21685393.500   113957603.50409  21685390.400    88798166.87048
  24340067.440   127907919.31806  24340063.280    99668482.56345
  21962436.060   115413661.24509  21962431.620    89932826.74248
  22404820.680   117738200.40409  22404815.380    91744066.32847
  22209762.100   116713105.64309  22209761.320    90945296.47048
  24330434.240   127857269.76208  24330433.320    99629021.86946
 15 02 23 00 59 30.0000000  0  7G16G18G19G21G22G27G31
  20945013.420   110066803.30709  20945010.100    85766335.86248
  21679982.840   113929170.66609  21679979.720    88776011.40848
  24325419.780   127830945.70006  24325415.540    99608503.14345
  21973254.620   115470512.99909  21973250.100    89977126.80348
  22388683.200   117653397.84409  22388677.920    91677986.44547
  22198460.360   116653715.02909  22198459.560    90899018.07448
  24348168.820   127950464.29008  24348167.860    99701640.63646
 15 02 23 01 00  0.0000000  0  7G16G18G19G21G22G27G31
  20936225.040   110020619.99609  20936221.660    85730348.86648
  21674659.960   113901198.82709  21674656.800    88754215.19548
  24310780.260   127754015.28306  24310775.740    99548557.44844
  21984106.740   115527541.40309  21984102.180    90021564.52748
  22372590.840   117568832.55509  22372585.680    91612091.44147
  22187175.880   116594415.50409  22187175.220    90852810.67248
  24365894.420   128043611.40208  24365893.440    99774222.45145
 15 02 23 01 00 30.0000000  0  7G16G18G19G21G22G27G31
  20927520.340   109974876.25709  20927516.880    85694704.39248
  21669424.780   113873687.66609  21669421.540    88732777.94448
  24296148.820   127677126.79206  24296144.260    99488644.35244
  21994991.940   115584743.93309  21994987.460    90066137.93348
  22356543.880   117484505.80509  22356538.820    91546382.30948
  22175908.600   116535206.11809  22175908.100    90806673.50948
  24383610.380   128136707.64208  24383609.560    99846764.60546
 15 02 23 01 01  0.0000000  0  7G16G18G19G21G22G27G31
  20918900.100   109929576.63209  20918896.640    85659405.97748
  21664278.080   113846641.09409  21664274.720    88711702.69948
  24281525.880   127600282.92806  24281521.380    99428766.08444
  22005910.360   115642121.50309  22005906.040    90110847.71248
  22340543.280   117400422.76709  22340538.420    91480863.08848
  22164659.100   116476089.60409  22164658.620    90760608.70148
  24401316.420   128229752.11808  24401315.660    99919266.40546
 15 02 23 01 01 30.0000000  0  7G16G18G19G21G22G27G31
  20910364.560   109884722.22709  20910361.160    85624454.50148
  21659219.960   113820059.93209  21659216.560    88690990.12048
  24266911.260   127523483.04407  24266907.020    99368922.07244
  22016861.660   115699671.77209  22016857.480    90155692.08748
  22324589.520   117316585.54809  22324584.820    91415535.41348
  22153427.360   116417066.00809  22153426.820    90714616.30748
  24419012.080   128322742.06208  24419011.540    99991725.70946
 15 02 23 01 02  0.0000000  0  7G16G18G19G21G22G27G31
  20901913.820   109840313.76909  20901910.580    85589850.50848
  21654250.240   113793943.60109  21654246.860    88670639.74548
  24252304.680   127446725.72606  24252300.440    99309111.17145
  22027845.340   115757392.06408  22027841.320    90200668.93448
  22308682.720   117232995.23009  22308678.100    91350400.13147
  22142213.120   116358134.19009  22142212.520    90668695.41648
  24436696.640   128415673.14208  24436696.100   100064139.14445
 15 02 23 01 02 30.0000000  0  7G16G18G19G21G22G27G31
  20893548.900   109796356.30709  20893545.800    85555597.94448
  21649369.720   113768296.25309  21649366.380    88650654.80648
  24237706.860   127370014.30507  24237702.860    99249336.09744
  22038861.560   115815283.44009  22038857.720    90245779.08948
  22292823.960   117149657.26509  22292819.360    91285461.49448
  22131016.980   116299297.61209  22131016.240    90622848.73448
  24454370.020   128508545.68008  24454369.600   100136506.94245
 15 02 23 01 03  0.0000000  0  7G16G18G19G21G22G27G31
  20885269.540   109752848.15009  20885266.500    85521695.48248
  21644577.840   113743115.09809  21644574.560    88631033.13948
  24223117.060   127293344.73507  24223113.120    99189593.63044
  22049909.340   115873340.15509  22049905.620    90291018.09048
  22277013.160   117066571.13409  22277008.560    91220719.07748
  22119838.260   116240552.81409  22119837.340    90577073.57748
  24472031.020   128601353.25908  24472030.780   100208824.10245
 15 02 23 01 03 30.0000000  0  7G16G18G19G21G22G27G31
  20877076.860   109709795.07409  20877073.760    85488147.62648
  21639875.640   113718405.42709  21639872.460    88611778.85948
  24208536.000   127216721.25507  24208532.200    99129887.03744
  22060989.120   115931564.87609  22060985.520    90336388.00648
  22261251.520   116983742.98909  22261246.780    91156177.68548
  22108677.840   116181904.34509  22108676.760    90531373.47748
  24489679.940   128694097.02808  24489679.760   100281091.57145
 15 02 23 01 04  0.0000000  0  7G16G18G19G21G22G27G31
  20868970.980   109667198.05809  20868967.740    85454955.15348
  21635263.180   113694167.38009  21635260.040    88592892.08748
  24193963.500   127140142.71607  24193959.900    99070215.51545
  22072100.320   115989954.46009  22072096.740    90381886.39248
  22245539.340   116901174.64409  22245534.420    91091838.73448
  22097535.620   116123351.52109  22097534.400    90485747.90648
  24507315.980   128786773.17308  24507315.880   100353306.30545
 15 02 23 01 04 30.0000000  0  7G16G18G19G21G22G27G31
  20860952.020   109625057.86609  20860948.680    85422118.62748
  21630740.520   113670400.95109  21630737.360    88574372.78648
  24179399.400   127063608.41307  24179395.680    99010578.42144
  22083242.580   116048506.84609  22083238.960    90427511.61348
  22229876.900   116818867.72709  22229871.820    91027703.48948
  22086411.480   116064893.87309  22086410.280    90440196.49048
  24524938.520   128879378.23908  24524938.300   100425465.68045
 15 02 23 01 05  0.0000000  0  7G16G18G19G21G22G27G31
  20853020.440   109583376.94009  20853017.040    85389639.99148
  21626307.780   113647107.31309  21626304.780    88556221.90748
  24164843.680   126987118.35307  24164839.820    98950975.79345
  22094415.540   116107220.35409  22094411.800    90473262.40048
  22214264.660   116736824.70809  22214259.480    90963773.88448
  22075305.500   116006532.05309  22075304.400    90394719.77448
  24542546.900   128971909.66008  24542546.920   100497567.61345
 15 02 23 01 05 30.0000000  0  7G16G18G19G21G22G27G31
  20845176.200   109542154.98609  20845172.700    85357518.98648
  21621964.880   113624285.55309  21621961.960    88538438.73448
  24150296.120   126910671.31107  24150292.340    98891406.71045
  22105618.460   116166091.45209  22105614.580    90519135.97348
  22198702.740   116655046.14309  22198697.420    90900050.35148
  22064217.420   115948264.43809  22064216.500    90349316.46048
  24560140.420   129064362.59708  24560140.340   100569608.45645
 15 02 23 01 06  0.0000000  0  7G16G18G19G21G22G27G31
  20837420.180   109501396.67809  20837416.680    85325759.27648
  21617712.420   113601939.26109  21617709.600    88521026.05348
  24135757.320   126834269.57707  24135753.500    98831872.92445
  22116851.500   116225121.42308  22116847.580    90565133.35148
  22183192.220   116573537.70209  22183186.880    90836537.30148
  22053147.900   115890094.33508  22053147.120    90303989.12848
  24577718.960   129156737.33208  24577719.260   100641588.29545
 15 02 23 01 06 30.0000000  0  7G16G18G19G21G22G27G31
  20829752.860   109461104.38209  20829749.380    85294362.67648
  21613550.740   113580070.05309  21613548.020    88503985.11648
  24121227.260   126757913.38607  24121223.400    98772374.61645
  22128114.380   116284308.91108  22128110.580    90611253.46648
  22167733.720   116492302.74209  22167728.440    90773237.34848
  22042097.160   115832022.67809  22042096.420    90258738.48848
  24595282.200   129249031.93708  24595282.860   100713505.70145
 15 02 23 01 07  0.0000000  0  7G16G18G19G21G22G27G31
  20822173.900   109421276.72309  20822170.460    85263328.14348
  21609479.400   113558675.41109  21609476.820    88487313.97848
  24106705.320   126681600.03707  24106701.240    98712909.67145
  22139406.260   116343649.16609  22139402.640    90657492.62947
  22152326.980   116411339.80809  22152321.820    90710149.36848
  22031064.680   115774046.65709  22031063.980    90213562.38048
  24612829.060   129341240.07908  24612829.940   100785355.72045
 15 02 23 01 07 30.0000000  0  7G16G18G19G21G22G27G31
  20814684.500   109381919.72709  20814681.080    85232660.35548
  21605499.520   113537760.67409  21605496.900    88471016.79348
  24092192.260   126605333.81207  24092188.160    98653481.48144
  22150727.780   116403144.94008  22150724.320    90703852.98148
  22136973.340   116330656.20109  22136968.260    90647279.05148
  22020051.280   115716170.84609  22020050.620    90168464.36248
  24630359.940   129433363.30808  24630360.900   100857139.61046
 15 02 23 01 08  0.0000000  0  7G16G18G19G21G22G27G31
  20807284.000   109343029.97609  20807280.560    85202356.65748
  21601610.200   113517321.54709  21601607.420    88455090.20748
  24077687.240   126529109.94807  24077683.280    98594086.29145
  22162077.700   116462789.30409  22162074.300    90750329.09248
  22121672.320   116250249.18209  22121667.360    90584624.25848
  22009056.060   115658390.53109  22009055.500    90123440.74748
  24647873.200   129525393.95608  24647874.420   100928851.30546
 15 02 23 01 08 30.0000000  0  7G16G18G19G21G22G27G31
  20799973.600   109304613.61209  20799970.100    85172421.83648
  21597812.400   113497363.32009  21597809.500    88439538.34948
  24063191.120   126452932.34707  24063187.340    98534727.15445
  22173456.480   116522584.83909  22173453.020    90796923.01448
  22106425.300   116170125.75609  22106420.360    90522190.44248
  21998080.020   115600710.77009  21998079.500    90078495.49048
  24665369.240   129617333.82008  24665370.620   101000492.22846
 15 02 23 01 09  0.0000000  0  7G16G18G19G21G22G27G31
  20792753.600   109266672.22709  20792749.960    85142857.10648
  21594106.060   113477886.06409  21594103.120    88424361.27348
  24048703.840   126376800.76207  24048700.180    98475403.86746
  22184863.720   116582529.55409  22184860.100    90843633.16948
  22091232.600   116090287.39209  22091227.560    90459978.74848
  21987123.040   115543131.44609  21987122.600    90033628.48248
  24682847.420   129709179.48308  24682848.720   101072059.75346
 15 02 23 01 09 30.0000000  0  6G16G18G19G21G22G27
  20785622.320   109229196.94209  20785618.560    85113655.59448
  21590489.360   113458880.13809  21590486.460    88409551.47348
  24034223.320   126300704.31208  24034219.560    98416107.96746
  22196296.980   116642610.80609  22196293.200    90890449.72748
  22076092.740   116010726.42509  22076087.500    90397983.21548
  21976183.180   115485642.15909  21976182.760    89988831.65648
 15 02 23 01 10  0.0000000  0  6G16G18G19G21G22G27
  20778584.180   109192211.07009  20778580.280    85084835.42648
  21586966.720   113440368.41109  21586963.800    88395126.75948
  24019753.680   126224665.28608  24019749.960    98356856.80246
  22207760.200   116702849.40309  22207756.220    90937388.88148
  22061010.380   115931467.38209  22061004.920    90336222.93148
  21965264.680   115428265.51709  21965264.360    89944122.59248
 15 02 23 01 10 30.0000000  0  6G16G18G19G21G22G27
  20771636.820   109155702.31509  20771632.880    85056387.05048
  21583535.600   113422337.33809  21583532.640    88381076.59548
  24005292.220   126148669.65908  24005288.380    98297639.47045
  22219250.200   116763229.23009  22219246.140    90984438.09547
  22045983.200   115852498.36909  22045977.560    90274688.66248
  21954365.020   115370987.87409  21954364.800    89899490.68548
 15 02 23 01 11  0.0000000  0  6G16G18G19G21G22G27
  20764781.540   109119677.48709  20764777.640    85028315.75848
  21580197.020   113404792.31509  21580193.940    88367405.15448
  23990839.940   126072722.62008  23990836.100    98238460.00045
  22230767.740   116823754.06209  22230763.700    91031600.30648
  22031012.640   115773827.17209  22031006.880    90213386.44348
  21943485.300   115313814.77009  21943485.120    89854940.23548
 15 02 23 01 11 30.0000000  0  6G16G18G19G21G22G27
  20758018.580   109084137.73409  20758014.740    85000622.43948
  21576951.040   113387734.03109  21576947.820    88354112.99948
  23976396.660   125996823.27308  23976392.940    98179317.70246
  22242312.340   116884421.50709  22242308.360    91078873.64048
  22016098.940   115695455.30209  22016093.260    90152317.47848
  21932625.440   115256745.79209  21932625.240    89810470.91148
 15 02 23 01 12  0.0000000  0  6G16G18G19G21G22G27
  20751347.640   109049081.78709  20751343.940    84973306.12248
  21573797.240   113371160.29809  21573793.920    88341198.40648
  23961962.020   125920969.11608  23961958.200    98120210.59046
  22253883.180   116945227.12309  22253879.280    91126254.63347
  22001242.080   115617382.35709  22001236.520    90091481.43948
  21921785.020   115199778.76909  21921784.700    89766081.04248
 15 02 23 01 12 30.0000000  0  6G16G18G19G21G22G27
  20744769.100   109014511.59109  20744765.540    84946368.30148
  21570735.760   113355072.07509  21570732.340    88328662.13348
  23947536.080   125845160.46608  23947532.260    98061138.93545
  22265480.040   117006169.72509  22265476.180    91173742.35847
  21986442.640   115539611.12109  21986437.180    90030880.48948
  21910964.140   115142914.56609  21910963.720    89721771.27748
 15 02 23 01 13  0.0000000  0  6G16G18G19G21G22G27
  20738283.200   108980428.30609  20738279.800    84919809.90148
  21567766.660   113339469.62509  21567763.240    88316504.39448
  23933118.820   125769396.89908  23933114.880    98002102.42446
  22277102.600   117067246.90509  22277098.640    91221334.95647
  21971701.100   115462144.00809  21971695.760    89970516.53548
  21900162.840   115086153.30409  21900162.280    89677541.73148
 15 02 23 01 13 30.0000000  0  6G16G18G19G21G22G27
  20731890.720   108946836.13009  20731887.440    84893634.18048
  21564890.420   113324355.58409  21564887.040    88304727.22348
  23918710.580   125693680.88908  23918706.680    97943102.97346
  22288751.060   117128459.93609  22288746.980    91269033.41847
  21957018.340   115384985.61009  21957013.040    89910393.11648
  21889381.640   115029497.61609  21889381.020    89633394.45648
 15 02 23 01 14  0.0000000  0  6G16G18G19G21G22G27
  20725592.280   108913738.00709  20725589.100    84867843.43448
  21562107.540   113309732.20709  21562104.240    88293332.40148
  23904311.600   125618014.08008  23904307.700    97884141.87446
  22300425.340   117189808.32709  22300421.060    91316837.35047
  21942395.000   115308139.45309  21942389.720    89850513.02048
  21878620.940   114972949.50409  21878620.300    89589330.99648
 15 02 23 01 14 30.0000000  0  6G16G18G19G21G22G27
  20719387.800   108881133.54109  20719384.660    84842437.35748
  21559417.860   113295598.21609  21559414.560    88282318.91448
  23889921.640   125542394.56108  23889917.660    97825217.61746
  22312124.660   117251288.27909  22312120.140    91364743.80347
  21927831.140   115231606.12509  21927825.920    89790876.68248
  21867880.460   114916507.49809  21867879.820    89545350.22248
 15 02 23 01 15  0.0000000  0  6G16G18G19G21G22G27
  20713277.240   108849022.39509  20713274.100    84817415.68348
  21556821.140   113281952.23509  21556817.740    88271685.69348
  23875540.360   125466820.49308  23875536.360    97766328.76146
  22323848.360   117312896.55509  22323843.800    91412750.24547
  21913326.920   115155386.35509  21913321.780    89731484.67548
  21857159.940   114860170.30509  21857159.260    89501451.11948
 15 02 23 01 15 30.0000000  0  6G16G18G19G21G22G27
  20707261.900   108817411.18109  20707258.720    84792783.56849
  21554318.360   113268799.55909  21554314.820    88261436.85748
  23861168.760   125391297.19908  23861164.660    97707479.47046
  22335597.040   117374636.43709  22335592.500    91460859.24247
  21898883.860   115079487.73809  21898878.700    89672342.91148
  21846460.440   114803943.65609  21846459.700    89457638.15848
 15 02 23 01 16  0.0000000  0  6G16G18G19G21G22G27
  20701341.640   108786299.34009  20701338.360    84768540.56749
  21551909.120   113256138.64409  21551905.420    88251571.21948
  23846806.280   125315822.18108  23846802.260    97648667.79846
  22347370.060   117436504.32709  22347365.600    91509067.97747
  21884501.820   115003909.80809  21884496.620    89613451.03548
  21835781.500   114747825.42109  21835780.700    89413909.66548
 15 02 23 01 16 30.0000000  0  6G16G18G19G21G22G27
  20695517.280   108755691.15709  20695513.840    84744690.03949
  21549594.100   113243973.25009  21549590.420    88242091.69848
  23832453.540   125240398.55108  23832449.400    97589896.16946
  22359167.780   117498501.98009  22359163.440    91557377.82447
  21870181.880   114928658.18109  21870176.640    89554813.42248
  21825123.840   114691819.32409  21825123.040    89370268.55948
 15 02 23 01 17  0.0000000  0  6G16G18G19G21G22G27
  20689787.700   108725581.01009  20689784.060    84721227.58449
  21547371.980   113232296.40309  21547368.440    88232992.87548
  23818109.240   125165019.11408  23818105.140    97531158.97646
  22370988.340   117560619.67009  22370984.140    91605781.23247
  21855923.020   114853727.83109  21855917.820    89496426.16348
  21814486.160   114635918.47609  21814485.400    89326709.46948
 15 02 23 01 17 30.0000000  0  6G16G18G19G21G22G27
  20684154.300   108695976.38909  20684150.480    84698159.04349
  21545244.000   113221114.49209  21545240.700    88224279.69948
  23803774.560   125089690.05408  23803770.500    97472461.01946
  22382832.620   117622862.23908  22382828.580    91654281.92847
  21841726.920   114779127.14009  21841721.700    89438295.76048
  21803869.780   114580129.52709  21803869.100    89283237.57348
 15 02 23 01 18  0.0000000  0  6G16G18G19G21G22G27
  20678616.940   108666876.86109  20678613.000    84675484.08248
  21543209.960   113210425.91009  21543206.840    88215950.93448
  23789449.180   125014409.52908  23789445.140    97413800.89146
  22394700.040   117685226.41408  22394696.180    91702877.39047
  21827593.700   114704856.89009  21827588.540    89380422.86048
  21793274.480   114524451.20209  21793273.820    89239851.87148
 15 02 23 01 18 30.0000000  0  6G16G18G19G21G22G27
  20673175.480   108638281.74909  20673171.500    84653202.17849
  21541269.600   113200229.22109  21541266.520    88208005.48048
  23775132.740   124939175.72708  23775128.620    97355177.19246
  22406589.980   117747708.40209  22406586.260    91751564.64947
  21813523.420   114630917.14409  21813518.260    89322807.47848
  21782699.960   114468881.81409  21782699.280    89196551.06248
 15 02 23 01 19  0.0000000  0  6G16G18G19G21G22G27
  20667830.780   108610195.77309  20667826.900    84631317.00848
  21539423.580   113190528.06309  21539420.520    88200446.14648
  23760825.780   124863991.73808  23760821.520    97296592.29646
  22418502.640   117810309.37209  22418498.960    91800344.62047
  21799516.960   114557312.84409  21799511.880    89265453.49148
  21772147.000   114413425.22009  21772146.240    89153338.13548
 15 02 23 01 19 30.0000000  0  6G16G18G19G21G22G27
  20662582.820   108582618.30909  20662579.060    84609828.07749
  21537671.540   113181320.71709  21537668.480    88193271.60048
  23746527.940   124788855.83908  23746523.740    97238044.87346
  22430437.420   117873026.51009  22430433.720    91849215.12347
  21785574.600   114484045.16609  21785569.520    89208361.80848
  21761615.260   114358080.02709  21761614.400    89110212.01748
 15 02 23 01 20  0.0000000  0  6G16G18G19G21G22G27
  20657433.120   108555557.20109  20657429.480    84588741.50249
  21536014.660   113172613.68109  21536011.560    88186486.90448
  23732240.360   124713774.48108  23732236.320    97179539.94146
  22442395.100   117935863.87309  22442391.380    91898179.28347
  21771697.960   114411122.49509  21771692.820    89151538.96048
  21751106.000   114302853.10909  21751105.060    89067178.05348
 15 02 23 01 20 30.0000000  0  6G16G18G19G21G22G27
  20652380.760   108529007.28309  20652377.220    84568053.25049
  21534451.820   113164400.86409  21534448.640    88180087.32148
  23717961.980   124638741.27108  23717957.920    97121072.52446
  22454374.300   117998814.29209  22454370.480    91947231.56047
  21757886.140   114338540.45709  21757880.960    89094981.54648
  21740618.040   114247738.44209  21740617.100    89024231.56948
 15 02 23 01 21  0.0000000  0  6G16G18G19G21G22G27
  20647426.240   108502971.32509  20647422.740    84547765.49349
  21532983.500   113156684.50709  21532980.200    88174074.57948
  23703693.140   124563758.01608  23703689.000    97062644.03646
  22466374.920   118061877.62409  22466371.100    91996371.80847
  21744139.940   114266303.22609  21744134.660    89038692.80148
  21730151.860   114192738.50809  21730150.920    88981374.48848
 15 02 23 01 21 30.0000000  0  6G16G18G19G21G22G27
  20642570.140   108477452.46609  20642566.660    84527880.66549
  21531609.920   113149466.18209  21531606.540    88168449.92548
  23689434.080   124488826.35008  23689429.780    97004255.74946
  22478396.900   118125053.57909  22478393.080    92045599.81747
  21730459.960   114194414.24909  21730454.700    88982675.43748
  21719707.880   114137855.26709  21719706.920    88938608.33448
 15 02 23 01 22  0.0000000  0  6G16G18G19G21G22G27
  20637812.960   108452453.19809  20637809.500    84508400.71449
  21530331.380   113142747.48009  21530327.940    88163214.57148
  23675185.040   124413947.46308  23675180.600    96945908.58447
  22490440.220   118188341.61609  22490436.280    92094915.17647
  21716846.880   114122877.10709  21716841.620    88926932.22448
  21709286.420   114083090.43209  21709285.420    88895934.45248
 15 02 23 01 22 30.0000000  0  6G16G18G19G21G22G27
  20633154.300   108427971.62409  20633150.780    84489324.16549
  21529147.300   113136525.30809  21529143.900    88158366.14348
  23660945.480   124339118.56408  23660941.060    96887600.37446
  22502503.960   118251737.41809  22502499.980    92144314.48447
  21703300.500   114051690.85209  21703295.300    88871462.43748
  21698887.060   114028441.47609  21698886.020    88853350.85248
 15 02 23 01 23  0.0000000  0  6G16G18G19G21G22G27
  20628595.020   108404012.30709  20628591.460    84470654.56549
  21528058.300   113130803.03209  21528054.920    88153907.23148
  23646716.080   124264342.85408  23646711.800    96829333.60947
  22514588.400   118315242.55308  22514584.520    92193799.00547
  21689821.960   113980861.04009  21689816.780    88816270.38448
  21688510.500   113973912.20709  21688509.460    88810860.51048
 15 02 23 01 23 30.0000000  0  6G16G18G19G21G22G27
  20624134.720   108380573.42509  20624131.140    84452390.50349
  21527063.920   113125577.78909  21527060.520    88149835.62848
  23632496.320   124189617.61008  23632492.160    96771106.18247
  22526692.700   118378852.48508  22526689.100    92243365.17847
  21676411.020   113910386.68709  21676405.880    88761355.33048
  21678156.280   113919500.28709  21678155.260    88768461.62848
 15 02 23 01 24  0.0000000  0  6G16G18G19G21G22G27
  20619773.860   108357657.17709  20619770.320    84434533.68249
  21526164.440   113120851.06609  21526161.020    88146152.47948
  23618286.360   124114943.74808  23618282.240    96712918.79247
  22538816.820   118442566.57108  22538813.500    92293012.52048
  21663068.400   113840271.17609  21663063.300    88706719.88248
  21667824.640   113865207.20209  21667823.660    88726155.32448
 15 02 23 01 24 30.0000000  0  6G16G18G19G21G22G27
  20615512.940   108335266.06709  20615509.420    84417086.06949
  21525360.020   113116623.91109  21525356.640    88142858.59848
  23604086.480   124040322.71708  23604082.380    96654772.57947
  22550960.840   118506384.70708  22550957.660    92342740.92747
  21649794.720   113770517.48009  21649789.520    88652366.37748
  21657515.880   113811034.75809  21657515.000    88683943.05048
 15 02 23 01 25  0.0000000  0  6G16G18G19G21G22G27
  20611352.340   108313402.18209  20611348.920    84400049.26949
  21524650.900   113112897.62809  21524647.500    88139955.01948
  23589896.820   123965755.49608  23589892.620    96596668.27547
  22563124.720   118570306.37308  22563121.560    92392550.01947
  21636590.640   113701129.52209  21636585.420    88598297.84848
  21647230.360   113756984.66009  21647229.620    88641826.09748
 15 02 23 01 25 30.0000000  0  6G16G18G19G21G22G27
  20607291.600   108292062.89909  20607288.240    84383421.25249
  21524036.360   113109668.11709  21524032.900    88137438.52148
  23575716.700   123891238.43608  23575712.380    96538603.06647
  22575307.320   118634325.98908  22575304.140    92442435.43747
  21623455.680   113632104.93009  21623450.460    88544512.46848
  21636967.500   113703053.45609  21636966.860    88599801.79048
 15 02 23 01 26  0.0000000  0  6G16G18G19G21G22G27
  20603331.660   108271253.30009  20603328.360    84367205.97449
  21523517.120   113106939.40309  21523513.560    88135312.25548
  23561546.860   123816775.69708  23561542.440    96480580.16747
  22587509.080   118698445.89309  22587505.780    92492398.99047
  21610391.060   113563449.88609  21610385.800    88491015.04848
  21626728.200   113649245.84409  21626727.600    88557873.78748
 15 02 23 01 26 30.0000000  0  6G16G18G19G21G22G27
  20599472.840   108250975.18509  20599469.620    84351404.84649
  21523093.340   113104712.51109  21523089.700    88133577.02448
  23547387.520   123742367.83708  23547383.120    96422600.04747
  22599729.760   118762665.25408  22599726.300    92542440.03847
  21597397.280   113495167.13009  21597392.000    88437807.72248
  21616512.680   113595562.93209  21616512.080    88516042.94948
 15 02 23 01 27  0.0000000  0  6G16G18G19G21G22G27
  20595714.900   108231227.21909  20595711.720    84336016.82249
  21522764.620   113102985.16209  21522760.960    88132231.04948
  23533238.300   123668012.98208  23533233.880    96364661.21947
  22611968.700   118826980.38809  22611965.080    92592555.72447
  21584474.340   113427256.64009  21584469.060    88384890.46748
  21606320.600   113542003.34609  21606320.000    88474308.22248
 15 02 23 01 27 30.0000000  0  6G16G18G19G21G22G27
  20592058.700   108212013.81109  20592055.480    84321045.33349
  21522531.400   113101760.00309  21522527.840    88131276.39048
  23519099.640   123593714.08508  23519095.140    96306766.01847
  22624226.140   118891392.73409  22624222.380    92642747.16747
  21571623.160   113359723.24109  21571617.900    88332267.05848
  21596152.620   113488570.46009  21596152.080    88432672.21848
 15 02 23 01 28  0.0000000  0  6G16G18G19G21G22G27
  20588503.980   108193333.51809  20588500.640    84306489.25948
  21522393.320   113101034.92709  21522389.900    88130711.41348
  23504971.280   123519469.12008  23504966.880    96248912.82847
  22636501.360   118955898.77309  22636497.460    92693011.59947
  21558843.740   113292567.02009  21558838.420    88279937.54748
  21586008.480   113435262.64709  21586007.940    88391133.67548
 15 02 23 01 28 30.0000000  0  6G16G18G19G21G22G27
  20585051.380   108175189.67509  20585047.880    84292351.19548
  21522350.860   113100811.93509  21522347.520    88130537.65948
  23490853.700   123445280.33208  23490849.400    96191103.40547
  22648794.400   119020498.38509  22648790.400    92743348.94547
  21546136.960   113225792.28009  21546131.600    88227905.29748
  21575888.740   113382082.75809  21575888.180    88349694.80848
 15 02 23 01 29  0.0000000  0  6G16G18G19G21G22G27
  20581700.500   108157580.49609  20581696.880    84278629.75748
  21522403.620   113101088.73309  21522400.220    88130753.35748
  23476746.280   123371145.58108  23476741.900    96133336.09747
  22661104.620   119085188.49209  22661100.500    92793756.81047
  21533502.660   113159398.68309  21533497.280    88176170.03048
  21565793.080   113329029.14709  21565792.420    88308354.33448
 15 02 23 01 29 30.0000000  0  6G16G18G19G21G22G27
  20578452.040   108140509.40009  20578448.340    84265327.59449
  21522551.860   113101866.96709  21522548.340    88131359.78348
  23462649.580   123297066.84908  23462645.060    96075612.42847
  22673432.120   119149969.49509  22673427.880    92844235.51447
  21520941.540   113093390.05909  21520936.280    88124734.75148
  21555721.920   113276104.27609  21555721.140    88267114.18148
 15 02 23 01 30  0.0000000  0  6G16G18G19G21G22G27
  20575305.960   108123976.56709  20575302.300    84252444.87348
  21522795.340   113103145.83209  21522791.700    88132356.31448
  23448563.400   123223043.63708  23448558.820    96017932.02947
  22685776.480   119214839.35309  22685772.180    92894783.44947
  21508453.860   113027767.55409  21508448.780    88073600.36048
  21545675.240   113223308.12509  21545674.380    88225974.33148
 15 02 23 01 30 30.0000000  0  6G16G18G19G21G22G27
  20572262.860   108107984.78209  20572259.240    84239983.72849
  21523134.340   113104926.91909  21523130.680    88133744.18648
  23434488.240   123149078.29208  23434483.620    95960296.71947
  22698137.660   119279798.11508  22698133.440    92945400.67047
  21496040.420   112962534.99109  21496035.500    88022769.80448
  21535653.460   113170643.21609  21535652.580    88184936.75248
 15 02 23 01 31  0.0000000  0  6G16G18G19G21G22G27
  20569322.780   108092534.56809  20569319.200    84227944.60049
  21523568.780   113107209.70609  21523565.120    88135522.98548
  23420423.980   123075170.12008  23420419.400    95902705.95447
  22710514.980   119344841.99408  22710510.820    92996084.22047
  21483701.600   112897694.11409  21483696.700    87972244.46448
  21525656.660   113118109.73509  21525655.820    88144001.58048
 15 02 23 01 31 30.0000000  0  6G16G18G19G21G22G27
  20566486.400   108077629.38209  20566482.880    84216330.16349
  21524099.200   113109997.04009  21524095.580    88137694.94048
  23406371.060   123001322.09008  23406366.560    95845162.06347
  22722909.380   119409975.70409  22722905.480    93046837.74047
  21471438.240   112833249.74409  21471433.340    87922028.08148
  21515685.540   113065711.09909  21515684.720    88103171.47249
 15 02 23 01 32  0.0000000  0  6G16G18G19G21G22G27
  20563752.480   108063262.60409  20563749.000    84205135.27349
  21524724.180   113113281.17709  21524720.520    88140254.01848
  23392328.300   122927527.14008  23392323.740    95787659.53546
  22735318.900   119475188.65008  22735315.180    93097653.01747
  21459249.320   112769196.46109  21459244.380    87872116.44548
  21505738.820   113013440.71109  21505738.040    88062441.31448
 15 02 23 01 32 30.0000000  0  6G16G18G19G21G22G27
  20561122.740   108049443.60309  20561119.360    84194367.22049
  21525445.060   113117069.45109  21525441.420    88143205.93048
  23378297.020   122853793.19108  23378292.680    95730204.53647
  22747744.760   119540487.50308  22747741.160    93148535.21947
  21447136.680   112705543.85809  21447131.620    87822517.02648
  21495818.060   112961306.90509  21495817.340    88021817.58148
 15 02 23 01 33  0.0000000  0  6G16G18G19G21G22G27
  20558596.080   108036166.33009  20558592.780    84184021.29749
  21526260.580   113121355.45009  21526257.020    88146545.68148
  23364276.240   122780113.94408  23364272.080    95672792.15747
  22760185.480   119605863.95908  22760181.980    93199477.91247
  21435099.480   112642287.62209  21435094.260    87773226.47348
  21485922.120   112909303.89609  21485921.480    87981295.77948
 15 02 23 01 33 30.0000000  0  6G16G18G19G21G22G27
  20556173.860   108023438.08809  20556170.660    84174103.17849
  21527171.880   113126144.97609  21527168.420    88150277.78648
  23350267.120   122706496.09708  23350263.020    95615427.61947
  22772642.060   119671323.37708  22772638.600    93250485.22847
  21423139.240   112579435.77909  21423133.880    87724251.02448
  21476052.500   112857438.89009  21476051.800    87940881.49048
 15 02 23 01 34  0.0000000  0  6G16G18G19G21G22G27
  20553855.560   108011255.65209  20553852.400    84164610.36749
  21528178.240   113131434.01209  21528174.860    88154399.12448
  23336269.100   122632935.86108  23336264.940    95558107.97547
  22785113.400   119736860.26408  22785109.880    93301552.92647
  21411255.600   112516986.45409  21411250.100    87675589.21848
  21466208.560   112805708.64109  21466207.800    87900572.21249
 15 02 23 01 34 30.0000000  0  6G16G18G19G21G22G27
  20551641.580   107999621.06609  20551638.400    84155544.45448
  21529279.880   113137223.53709  21529276.500    88158910.45948
  23322282.480   122559434.90908  23322278.140    95500834.51047
  22797599.460   119802474.41608  22797595.880    93352680.84347
  21399449.200   112454942.94609  21399443.580    87627243.64448
  21456390.680   112754115.11009  21456389.820    87860369.47348
 15 02 23 01 35  0.0000000  0  6G16G18G19G21G22G27
  20549532.660   107988538.31209  20549529.400    84146908.54049
  21530477.220   113143515.81909  21530473.880    88163813.54048
  23308307.640   122485996.05708  23308303.140    95443609.45947
  22810100.320   119868166.70309  22810096.740    93403869.63647
  21387720.880   112393309.98009  21387715.220    87579217.97848
  21446599.520   112702661.94109  21446598.620    87820276.10048
 15 02 23 01 35 30.0000000  0  6G16G18G19G21G22G27
  20547528.500   107978005.58909  20547525.100    84138701.20949
  21531769.960   113150309.10809  21531766.620    88169107.01748
  23294344.320   122412617.77608  23294339.680    95386431.58447
  22822615.640   119933935.24508  22822612.000    93455117.84547
  21376070.660   112332087.60309  21376065.020    87531512.23448
  21436834.840   112651348.01309  21436833.900    87780291.22949
 15 02 23 01 36  0.0000000  0  6G16G18G19G21G22G27
  20545629.400   107968025.12609  20545625.900    84130924.23349
  21533158.120   113157603.89609  21533154.800    88174791.28148
  23280392.640   122339301.25308  23280388.060    95329301.85447
  22835145.220   119999778.56408  22835141.520    93506424.33547
  21364499.100   112271278.69409  21364493.480    87484128.69348
  21427096.940   112600174.92409  21427095.980    87740416.10349
 15 02 23 01 36 30.0000000  0  6G16G18G19G21G22G27
  20543835.180   107958595.83709  20543831.560    84123576.71749
  21534641.200   113165397.54009  21534637.920    88180864.25648
  23266452.420   122266044.83708  23266447.780    95272218.94147
  22847688.400   120065693.74908  22847684.740    93557786.79247
  21353006.100   112210882.89509  21353000.620    87437067.04048
  21417385.580   112549141.36709  21417384.620    87700649.69749
 15 02 23 01 37  0.0000000  0  6G16G18G19G21G22G27
  20542146.580   107949721.88209  20542142.900    84116661.95349
  21536219.860   113173693.42209  21536216.540    88187328.58748
  23252524.400   122192852.36108  23252519.740    95215185.85747
  22860245.580   120131682.65009  22860241.960    93609206.69747
  21341592.700   112150905.64109  21341587.400    87390331.53748
  21407701.620   112498251.84009  21407700.680    87660995.52849
 15 02 23 01 37 30.0000000  0  6G16G18G19G21G22G27
  20540563.120   107941400.38909  20540559.380    84110177.66449
  21537893.380   113182487.66609  21537889.960    88194181.25148
  23238607.880   122119720.48708  23238603.180    95158200.00247
  22872815.940   120197740.61908  22872812.320    93660680.43747
  21330258.620   112091345.43409  21330253.520    87343921.00148
  21398044.560   112447503.61809  21398043.640    87621451.46449
 15 02 23 01 38  0.0000000  0  6G16G18G19G21G22G27
  20539085.200   107933633.55209  20539081.400    84104125.57749
  21539661.980   113191781.46709  21539658.480    88201423.17948
  23224703.340   122046651.73008  23224698.640    95101263.32347
  22885399.640   120263868.29608  22885395.980    93712208.50347
  21319004.640   112032206.14209  21318999.700    87297838.45748
  21388414.960   112396899.57609  21388413.960    87582019.75149
 15 02 23 01 38 30.0000000  0  6G16G18G19G21G22G27
  20537713.600   107926425.33209  20537709.720    84098508.78349
  21541526.060   113201577.10009  21541522.480    88209056.14048
  23210811.200   121973648.82508  23210806.600    95044377.97547
  22897996.840   120330066.74808  22897993.120    93763791.70647
  21307831.680   111973492.14909  21307826.800    87252087.29748
  21378813.400   112346442.95109  21378812.340    87542702.90649
 15 02 23 01 39  0.0000000  0  6G16G18G19G21G22G27
  20536447.620   107919772.19209  20536443.680    84093324.51149
  21543484.900   113211870.66609  21543481.200    88217077.10748
  23196930.860   121900707.98708  23196926.460    94987540.98247
  22910606.600   120396330.84809  22910602.780    93815426.05947
  21296739.280   111915201.09609  21296734.360    87206665.71448
  21369239.280   112296130.67909  21369238.200    87503498.53749
 15 02 23 01 39 30.0000000  0  6G16G18G19G21G22G27
  20535287.260   107913674.26509  20535283.280    84088572.87649
  21545538.240   113222660.99909  21545534.500    88225485.16248
  23183062.400   121827829.68308  23183058.200    94930752.72547
  22923228.540   120462658.92309  22923224.560    93867110.25347
  21285727.760   111857334.80809  21285722.780    87161575.10248
  21359692.640   112245963.18909  21359691.640    87464406.99649
 15 02 23 01 40  0.0000000  0  6G16G18G19G21G22G27
  20534233.520   107908136.69509  20534229.540    84084257.88249
  21547686.840   113233951.98109  21547683.100    88234283.33948
  23169206.740   121755018.01908  23169202.560    94874016.38047
  22935863.160   120529053.85208  22935859.240    93918846.56647
  21274798.120   111799898.87009  21274793.040    87116819.84448
  21350174.480   112195945.57509  21350173.600    87425432.24048
 15 02 23 01 40 30.0000000  0  6G16G18G19G21G22G27
  20533285.580   107903155.34409  20533281.640    84080376.31049
  21549929.760   113245738.60309  21549926.040    88243467.73148
  23155363.060   121682269.12408  23155358.800    94817328.95347
  22948509.400   120595510.14809  22948505.440    93970630.68447
  21263949.960   111742891.38609  21263944.900    87072398.44448
  21340684.220   112146074.53409  21340683.480    87386571.69349
 15 02 23 01 41  0.0000000  0  6G16G18G19G21G22G27
  20532444.320   107898734.71109  20532440.440    84076931.66549
  21552267.560   113258023.81409  21552263.800    88253040.63248
  23141532.020   121609586.78108  23141527.760    94760693.40247
  22961167.780   120662030.44409  22961163.960    94022464.67747
  21253184.240   111686317.20909  21253179.200    87028314.68048
  21331222.660   112096354.07409  21331222.040    87347828.50349
 15 02 23 01 41 30.0000000  0  6G16G18G19G21G22G27
  20531709.300   107894872.70709  20531705.520    84073922.30549
  21554699.740   113270805.01409  21554695.980    88263000.01648
  23127713.320   121536969.21108  23127709.060    94704108.31047
  22973837.480   120728610.77108  22973833.640    94074345.45447
  21242500.960   111630175.94709  21242495.840    86984568.25648
  21321789.580   112046782.98509  21321789.000    87309201.68149
 15 02 23 01 42  0.0000000  0  6G16G18G19G21G22G27
  20531081.000   107891571.45709  20531077.320    84071349.90049
  21557226.400   113284083.02509  21557222.640    88273346.52748
  23113907.360   121464418.10008  23113903.120    94647575.00547
  22986518.640   120795251.23409  22986515.040    94126273.07347
  21231900.680   111574470.72109  21231895.420    86941161.60548
  21312385.440   111997363.55209  21312384.740    87270693.03849
 15 02 23 01 42 30.0000000  0  6G16G18G19G21G22G27
  20530559.960   107888833.64109  20530556.340    84069216.52949
  21559847.860   113297859.57609  21559844.220    88284081.51248
  23100114.560   121391936.23108  23100110.300    94591095.65547
  22999211.480   120861953.41308  22999207.980    94178248.78646
  21221384.160   111519205.75109  21221378.780    86898098.00148
  21303010.840   111948099.24209  21303009.980    87232305.26048
 15 02 23 01 43  0.0000000  0  6G16G18G19G21G22G27
  20530145.900   107886657.86509  20530142.320    84067521.11349
  21562563.640   113312131.72709  21562560.120    88295202.66448
  23086334.600   121319521.62408  23086330.180    94534668.70547
  23011915.360   120928713.17608  23011911.940    94230269.36847
  21210951.180   111464379.89509  21210945.740    86855376.57148
  21293665.440   111898988.20809  21293664.400    87194036.91649
 15 02 23 01 43 30.0000000  0  7G04G16G18G19G21G22G27
  24570142.000   129116959.35606  24570139.920   100610623.28444
  20529838.800   107885044.16909  20529835.260    84066263.68249
  21565373.560   113326898.71309  21565370.200    88306709.41548
  23072567.520   121247174.61809  23072562.920    94478294.42947
  23024630.000   120995529.29908  23024626.560    94282333.88047
  21200602.180   111409995.59109  21200596.720    86812999.19748
  21284349.400   111850031.55709  21284348.260    87155888.87349
 15 02 23 01 44  0.0000000  0  7G04G16G18G19G21G22G27
  24552262.540   129023002.79806  24552261.180   100537410.47843
  20529646.580   107884034.15909  20529643.120    84065476.66349
  21568285.460   113342201.21409  21568282.180    88318633.45148
  23058821.200   121174936.76209  23058816.420    94422005.22147
  23037362.980   121062441.67908  23037359.600    94334473.38647
  21190345.200   111356094.99709  21190339.800    86770998.75948
  21275070.680   111801271.12009  21275069.520    87117893.73048
 15 02 23 01 44 30.0000000  0  7G04G16G18G19G21G22G27
  24534401.340   128929141.99806  24534400.500   100464272.26844
  20529551.740   107883536.02409  20529548.360    84065088.49949
  21571281.580   113357946.02809  21571278.300    88330902.15048
  23045078.100   121102716.02909  23045073.060    94365729.33847
  23050096.580   121129357.12008  23050093.180    94386615.27846
  21180163.100   111302587.87709  21180157.760    86729304.91348
  21265811.880   111752615.71109  21265810.800    87079980.42948
 15 02 23 01 45  0.0000000  0  7G04G16G18G19G21G22G27
  24516570.600   128835441.13906  24516570.120   100391258.73643
  20529566.380   107883613.27809  20529563.060    84065148.69649
  21574373.900   113374196.01609  21574370.620    88343564.48148
  23031350.400   121030576.33709  23031345.280    94309516.60747
  23062842.500   121196337.34708  23062838.980    94438807.66547
  21170068.220   111249538.90609  21170062.920    86687968.06948
  21256585.100   111704129.38009  21256584.200    87042198.87849
 15 02 23 01 45 30.0000000  0  7G04G16G18G19G21G22G27
  24498768.320   128741889.56906  24498767.860   100318361.47843
  20529688.480   107884254.99409  20529685.160    84065648.73449
  21577560.080   113390939.02709  21577556.740    88356610.98948
  23017635.940   120958506.66008  23017630.820    94253358.43147
  23075598.420   121263369.84108  23075594.820    94491040.77347
  21160058.740   111196938.58109  21160053.400    86646980.81148
  21247388.460   111655801.79609  21247387.780    87004541.03349
 15 02 23 01 46  0.0000000  0  7G04G16G18G19G21G22G27
  24480995.040   128648490.42806  24480994.640   100245582.99941
  20529918.680   107885464.57209  20529915.300    84066591.25249
  21580840.480   113408177.17509  21580837.100    88370043.32248
  23003935.380   120886510.22808  23003930.280    94197257.32247
  23088364.640   121330456.31208  23088360.760    94543315.95647
  21150135.420   111144791.21909  21150130.020    86606346.51848
  21238222.760   111607636.55809  21238222.240    86967009.68949
 15 02 23 01 46 30.0000000  0  7G04G16G18G19G21G22G27
  24463250.820   128555243.94607  24463250.460   100172923.44344
  20530256.840   107887241.58109  20530253.400    84067975.93249
  21584214.840   113425909.23109  21584211.440    88383860.51448
  22990248.620   120814586.73808  22990243.720    94141213.07347
  23101140.800   121397595.14008  23101136.720    94595631.91746
  21140298.440   111093097.69509  21140292.980    86566065.85648
  21229088.120   111559634.07709  21229087.600    86929605.16849
 15 02 23 01 47  0.0000000  0  7G04G16G18G19G21G22G27
  24445535.420   128462148.74907  24445535.100   100100381.82843
  20530702.580   107889583.95809  20530699.080    84069801.15949
  21587682.520   113444132.15109  21587679.240    88398060.19348
  22976575.440   120742734.76408  22976570.860    94085224.54847
  23113926.140   121464782.59208  23113921.920    94647985.75746
  21130547.700   111041857.59209  21130542.240    86526138.51748
  21219984.300   111511793.16409  21219983.680    86892326.53548
 15 02 23 01 47 30.0000000  0  7G04G16G18G19G21G22G27
  24427849.240   128369207.33207  24427849.120   100027960.03143
  20531256.380   107892494.18809  20531252.840    84072068.86549
  21591243.820   113462847.35609  21591240.600    88412643.46548
  22962916.260   120670956.25308  22962911.760    94029293.25347
  23126721.000   121532019.90308  23126716.640    94700378.45546
  21120883.900   110991074.58709  21120878.480    86486567.36148
  21210911.780   111464116.78409  21210911.120    86855176.11148
 15 02 23 01 48  0.0000000  0  7G04G16G18G19G21G22G27
  24410191.620   128276416.08607  24410191.260    99955655.23944
  20531917.560   107895968.59709  20531913.960    84074776.19049
  21594897.800   113482049.75709  21594894.720    88427606.38348
  22949270.620   120599248.49608  22949266.300    93973417.09747
  23139524.380   121599301.88309  23139520.000    94752805.96046
  21111306.660   110940746.11909  21111301.240    86447350.37748
  21201869.980   111416601.80409  21201869.320    86818151.45748
 15 02 23 01 48 30.0000000  0  7G04G16G18G19G21G22G27
  24392563.820   128183781.67407  24392563.360    99883472.63443
  20532687.220   107900012.95409  20532683.580    84077927.62949
  21598645.500   113501744.35309  21598642.440    88442952.82648
  22935639.520   120527616.64508  22935635.160    93917600.07647
  23152337.000   121666632.39508  23152332.680    94805271.30046
  21101817.320   110890879.34309  21101811.920    86408493.15948
  21192860.100   111369254.73809  21192859.520    86781257.64249
 15 02 23 01 49  0.0000000  0  7G04G16G18G19G21G22G27
  24374965.600   128091302.54307  24374965.040    99811411.04144
  20533565.000   107904625.38509  20533561.340    84081521.72549
  21602486.320   113521928.34009  21602483.340    88458680.60848
  22922022.640   120456059.26809  22922018.180    93861841.08447
  23165158.260   121734008.07508  23165153.940    94857771.81146
  21092415.700   110841473.49909  21092410.320    86369995.10548
  21183882.040   111322074.67809  21183881.500    86744493.96949
 15 02 23 01 49 30.0000000  0  7G04G16G18G19G21G22G27
  24357396.840   127998978.34407  24357396.120    99739470.18244
  20534550.680   107909804.92409  20534546.980    84085557.72149
  21606420.000   113542599.84709  21606416.980    88474788.27248
  22908419.920   120384576.09309  22908415.340    93806139.91047
  23177987.820   121801427.94408  23177983.620    94910306.76447
  21083101.920   110792529.35709  21083096.560    86331856.82748
  21174935.820   111275061.64909  21174935.280    86707860.44149
 15 02 23 01 50  0.0000000  0  7G04G16G18G19G21G22G27
  24339857.180   127906807.23707  24339856.440    99667648.58744
  20535643.980   107915549.95009  20535640.220    84090034.36449
  21610445.900   113563755.61609  21610442.760    88491273.29548
  22894831.060   120313165.51609  22894826.320    93750495.32147
  23190824.960   121868887.74108  23190820.940    94962872.82146
  21073875.860   110744046.31109  21073870.540    86294077.84648
  21166021.160   111228214.21609  21166020.540    86671355.95949
 15 02 23 01 50 30.0000000  0  7G04G16G18G19G21G22G27
  24322348.420   127814798.33708  24322347.580    99595953.42244
  20536846.380   107921868.59909  20536842.640    84094957.97949
  21614565.440   113585403.21209  21614562.100    88508141.54148
  22881257.640   120241836.00309  22881252.680    93694913.88847
  23203671.200   121936395.19008  23203667.220    95015476.01046
  21064739.360   110696033.61909  21064734.040    86256665.37148
  21157139.840   111181541.57109  21157139.000    86634987.66649
 15 02 23 01 51  0.0000000  0  7G04G16G18G19G21G22G27
  24304869.440   127722946.05008  24304868.540    99524380.28444
  20538156.740   107928754.77409  20538153.040    84100323.82848
  21618777.160   113607535.42209  21618773.700    88525387.43948
  22867698.560   120170582.02109  22867693.560    93639391.32547
  23216525.060   122003942.89808  23216521.140    95068110.56346
  21055691.600   110648486.99009  21055686.240    86219616.05848
  21148290.800   111135038.76109  21148289.760    86598751.71249
 15 02 23 01 51 30.0000000  0  7G04G16G18G19G21G22G27
  24287420.740   127631252.82508  24287420.000    99452931.06744
  20539575.420   107936210.08509  20539571.780    84106133.15349
  21623081.260   113630153.33409  21623077.780    88543011.78048
  22854154.240   120099405.71009  22854149.200    93583929.28047
  23229386.680   122071531.33308  23229382.800    95120776.86646
  21046733.220   110601409.66309  21046727.700    86182932.43348
  21139474.480   111088708.48009  21139473.300    86562650.19649
 15 02 23 01 52  0.0000000  0  7G04G16G18G19G21G22G27
  24270002.660   127539720.59408  24270001.860    99381607.31844
  20541102.800   107944236.78409  20541099.200    84112387.71149
  21627477.760   113653257.24409  21627474.260    88561014.82748
  22840625.080   120028309.22409  22840620.020    93528529.42847
  23242256.040   122139160.81208  23242252.420    95173475.13746
  21037864.620   110554804.22809  21037858.960    86146616.51348
  21130691.400   111042553.19309  21130690.120    86526685.04049
 15 02 23 01 52 30.0000000  0  7G04G16G18G19G21G22G27
  24252615.060   127448348.52808  24252614.360    99310408.37544
  20542738.560   107952832.90009  20542734.960    84119085.97349
  21631966.320   113676844.90709  21631962.840    88579394.82448
  22827110.800   119957291.50508  22827105.920    93473190.97747
  23255132.800   122206828.84308  23255129.140    95226203.47246
  21029085.740   110508670.69209  21029080.060    86110668.31448
  21121941.500   110996572.47309  21121940.180    86490855.91049
 15 02 23 01 53  0.0000000  0  7G04G16G18G19G21G22G27
  24235258.120   127357137.39508  24235257.420    99239334.81644
  20544482.800   107961999.09509  20544479.180    84126228.46349
  21636546.780   113700915.62909  21636543.340    88598151.25348
  22813611.660   119886353.33008  22813606.820    93417914.48947
  23268016.800   122274534.93508  23268013.400    95278961.44447
  21020396.860   110463010.80309  21020391.280    86075089.20048
  21113225.060   110950767.66409  21113223.760    86455163.85249
 15 02 23 01 53 30.0000000  0  7G04G16G18G19G21G22G27
  24217932.060   127266088.45608  24217931.120    99168387.63244
  20546335.640   107971735.78809  20546332.000    84133815.49249
  21641219.080   113725469.06709  21641215.720    88617283.79848
  22800127.780   119815495.74808  22800123.160    93362700.81148
  23280907.940   122342278.16209  23280904.400    95331748.37246
  21011798.460   110417826.71009  21011793.000    86039880.82048
  21104542.360   110905140.21109  21104541.180    86419609.99549
 15 02 23 01 54  0.0000000  0  7G04G16G18G19G21G22G27
  24200636.980   127175202.28908  24200635.980    99097567.31444
  20548297.000   107982042.61509  20548293.340    84141846.78449
  21645983.040   113750504.03009  21645979.700    88636791.58848
  22786659.420   119744719.58208  22786654.980    93307550.58548
  23293805.980   122410057.64608  23293802.460    95384563.52246
  21003290.860   110373119.57209  21003285.540    86005044.10948
  21095893.720   110859691.34609  21095892.660    86384195.30149
 15 02 23 01 54 30.0000000  0  7G04G16G18G19G21G22G27
  24183372.680   127084478.03508  24183371.600    99026873.11644
  20550366.660   107992918.61309  20550363.000    84150321.58349
  21650838.220   113776018.03409  21650834.840    88656672.62848
  22773206.320   119674023.66108  22773201.920    93252462.86747
  23306710.460   122477870.50308  23306706.860    95437404.71246
  20994873.940   110328889.10709  20994868.780    85970578.81448
  21087278.960   110814420.50509  21087278.000    86348919.32649
 15 02 23 01 55  0.0000000  0  7G04G16G18G19G21G22G27
  24166139.880   126993919.34108  24166138.920    98956307.94745
  20552545.160   108004366.47109  20552541.520    84159241.98649
  21655785.020   113802013.38809  21655781.580    88676928.75348
  22759769.280   119603411.78908  22759764.920    93197440.64548
  23319621.820   122545719.23308  23319617.860    95490273.84246
  20986548.640   110285139.92009  20986543.580    85936488.56148
  21078698.900   110769331.95409  21078697.980    86313785.40049
 15 02 23 01 55 30.0000000  0  7G04G16G18G19G21G22G27
  24148938.040   126903523.28008  24148937.160    98885869.50745
  20554831.920   108016383.06109  20554828.240    84168605.55649
  21660822.580   113828485.59309  21660819.140    88697556.44648
  22746347.740   119532880.99409  22746343.320    93142481.59847
  23332539.120   122613599.28508  23332535.240    95543167.34546
  20978314.460   110241869.61909  20978309.480    85902771.45848
  21070153.100   110724423.32009  21070152.100    86278791.66149
 15 02 23 01 56  0.0000000  0  7G04G16G18G19G21G22G27
  24131767.800   126813293.09408  24131766.940    98815560.31644
  20557227.360   108028970.82009  20557223.660    84178414.19649
  21665951.160   113855436.09209  21665947.700    88718556.84048
  22732942.320   119462434.50609  22732937.740    93087588.24547
  23345462.640   122681512.37308  23345458.580    95596086.64246
  20970172.360   110199082.73209  20970167.380    85869431.03448
  21061642.180   110679698.29109  21061641.120    86243940.98749
 15 02 23 01 56 30.0000000  0  7G04G16G18G19G21G22G27
  24114629.120   126723229.03008  24114628.220    98745380.56545
  20559731.320   108042128.99509  20559727.660    84188667.31549
  21671170.480   113882863.42309  21671166.920    88739928.79448
  22719552.940   119392072.45509  22719548.280    93032760.69247
  23358391.980   122749456.79508  23358388.040    95649030.32946
  20962122.380   110156779.31009  20962117.320    85836467.34148
  21053166.260   110635157.39909  21053165.200    86209233.80249
 15 02 23 01 57  0.0000000  0  7G04G16G18G19G21G22G27
  24097522.260   126633332.23108  24097521.220    98675331.14845
  20562343.840   108055857.83109  20562340.200    84199365.10749
  21676480.400   113910767.12809  21676476.740    88761671.94748
  22706179.860   119321796.18009  22706175.000    92977999.97247
  23371327.220   122817432.70208  23371323.300    95701998.55646
  20954165.020   110114962.15209  20954159.800    85803882.55748
  21044725.700   110590802.47909  21044724.740    86174671.53249
 15 02 23 01 57 30.0000000  0  7G04G16G18G19G21G22G27
  24080447.040   126543601.40208  24080445.960    98605411.06944
  20565064.600   108070155.73909  20565061.000    84210506.32449
  21681880.440   113939144.54809  21681876.740    88783784.23048
  22692822.800   119251604.66908  22692817.960    92923305.31947
  23384267.780   122885436.60508  23384264.140    95754988.59446
  20946300.040   110073630.21009  20946294.580    85771675.86448
  21036320.460   110546632.95509  21036319.640    86140253.72749
 15 02 23 01 58  0.0000000  0  7G04G16G18G19G21G22G27
  24063404.220   126454040.87608  24063403.080    98535623.68744
  20567894.360   108085026.47809  20567890.760    84222093.89849
  21687371.040   113967998.13209  21687367.320    88806267.55348
  22679482.640   119181502.10909  22679477.800    92868679.97047
  23397214.360   122953471.68108  23397210.940    95808002.93346
  20938528.240   110032788.39009  20938522.560    85739851.06948
  21027951.420   110502653.51109  21027950.720    86105984.03449
 15 02 23 01 58 30.0000000  0  7G04G16G18G19G21G22G27
  24046393.220   126364647.62308  24046392.100    98465966.64745
  20570832.220   108100465.47309  20570828.660    84234124.27849
  21692951.260   113997323.03509  21692947.620    88829118.12448
  22666158.880   119111485.30909  22666153.920    92814121.43347
  23410166.040   123021533.12208  23410162.460    95861037.81146
  20930849.200   109992434.31809  20930843.360    85708406.35048
  21019618.140   110458861.73409  21019617.480    86071860.56949
 15 02 23 01 59  0.0000000  0  7G04G16G18G19G21G22G27
  24029414.520   126275424.07808  24029413.480    98396441.84845
  20573878.660   108116475.14109  20573875.180    84246599.33549
  21698621.260   114027119.95009  21698617.780    88852336.50648
  22652852.100   119041557.30409  22652847.100    92759632.09548
  23423123.100   123089622.13008  23423119.500    95914094.15546
  20923263.460   109952571.13309  20923257.640    85677344.14048
  21011321.200   110415260.65509  21011320.480    86037885.71149
 15 02 23 01 59 30.0000000  0  7G04G16G18G19G21G22G27
  24012468.600   126186373.03808  24012467.600    98327051.48345
  20577034.100   108133057.43909  20577030.680    84259520.60549
  21704381.300   114057390.00109  21704378.020    88875923.56248
  22639562.680   118971720.42109  22639557.520    92705213.75448
  23436085.580   123157739.62308  23436081.800    95967172.72946
  20915771.640   109913202.03109  20915766.000    85646666.93848
  21003061.180   110371853.45809  21003060.320    86004061.92949
 15 02 23 02 00  0.0000000  0  7G04G16G18G19G21G22G27
  23995554.760   126097490.66308  23995553.740    98257792.53345
  20580297.720   108150207.81209  20580294.300    84272884.51449
  21710230.440   114088128.09009  21710227.300    88899875.32548
  22626289.880   118901971.23909  22626284.780    92650863.75548
  23449052.480   123225880.72008  23449048.800    96020269.64146
  20908373.300   109874324.32509  20908367.920    85616372.62348
  20994837.480   110328637.16309  20994836.500    85970386.89649
 15 02 23 02 00 30.0000000  0  7G04G16G18G19G21G22G27
  23978673.720   126008780.51508  23978672.760    98188667.80945
  20583669.820   108167928.17309  20583666.380    84286692.57949
  21716168.980   114119335.67509  21716165.960    88924192.92448
  22613034.400   118832313.52609  22613029.440    92596585.04248
  23462024.240   123294047.31908  23462020.360    96073386.47746
  20901069.280   109835941.96609  20901064.080    85586464.30448
  20986650.860   110285615.87409  20986649.800    85936863.81449
 15 02 23 02 01  0.0000000  0  7G04G16G18G19G21G22G27
  23961825.760   125920244.23408  23961824.840    98119678.54745
  20587150.680   108186219.98209  20587147.240    84300945.93449
  21722196.940   114151012.89809  21722193.960    88948876.47448
  22599796.600   118762748.94309  22599791.820    92542378.89648
  23475000.760   123362239.55508  23474996.920    96126523.26446
  20893859.920   109798057.05209  20893854.860    85556943.61048
  20978501.760   110242791.81209  20978500.600    85903494.41149
 15 02 23 02 01 30.0000000  0  7G04G16G18G19G21G22G27
  23945009.900   125831876.67708  23945008.980    98050820.75745
  20590739.220   108205077.41909  20590735.720    84315640.03549
  21728312.920   114183152.53709  21728309.900    88973920.35748
  22586575.620   118693272.48409  22586570.860    92488241.41648
  23487980.880   123430450.97708  23487977.100    96179674.99946
  20886744.480   109760665.16209  20886739.440    85527807.08749
  20970389.260   110200160.41609  20970388.080    85870275.14749
 15 02 23 02 02  0.0000000  0  7G04G16G18G19G21G22G27
  23928227.460   125743684.35408  23928226.500    97982099.53645
  20594436.420   108224505.79509  20594432.840    84330779.02549
  21734517.820   114215759.51709  21734514.780    88999328.39548
  22573372.680   118623890.80509  22573367.880    92434177.78748
  23500965.720   123498686.68508  23500961.820    96232845.66446
  20879724.240   109723773.27609  20879719.160    85499060.17348
  20962314.760   110157728.98409  20962313.620    85837211.69849
 15 02 23 02 02 30.0000000  0  7G04G16G18G19G21G22G27
  23911478.100   125655666.06508  23911477.200    97913513.91245
  20598241.860   108244502.83409  20598238.160    84346361.12149
  21740811.200   114248831.26309  21740808.040    89025098.58348
  22560187.620   118554603.17309  22560182.840    92380187.44447
  23513954.700   123566943.98308  23513950.700    96286033.17546
  20872799.080   109687380.75509  20872793.860    85470702.37948
  20954278.180   110115496.94909  20954277.160    85804303.62949
 15 02 23 02 03  0.0000000  0  7G04G16G18G19G21G22G27
  23894761.840   125567821.71008  23894760.960    97845063.81445
  20602155.340   108265067.59809  20602151.480    84362385.61349
  21747192.560   114282365.41509  21747189.380    89051229.10148
  22547020.360   118485409.29609  22547015.520    92326270.16047
  23526947.320   123635221.22408  23526943.400    96339236.18546
  20865969.040   109651487.88009  20865963.600    85442733.90948
  20946279.660   110073464.72409  20946278.740    85771551.25049
 15 02 23 02 03 30.0000000  0  7G04G16G18G19G21G22G27
  23878078.700   125480151.30208  23878077.740    97776749.26145
  20606176.660   108286199.51209  20606172.740    84378852.03749
  21753661.600   114316360.17409  21753658.380    89077718.52648
  22533871.080   118416309.63709  22533866.280    92272426.28047
  23539943.660   123703517.27308  23539939.560    96392453.89046
  20859234.160   109616095.29209  20859228.560    85415155.28448
  20938319.380   110031633.16509  20938318.500    85738955.23849
 15 02 23 02 04  0.0000000  0  7G04G16G18G19G21G22G27
  23861429.180   125392657.51508  23861428.100    97708572.34845
  20610306.100   108307899.83909  20610302.180    84395761.37749
  21760218.500   114350816.62209  21760215.260    89104567.71448
  22520740.360   118347307.02209  22520735.520    92218658.01748
  23552943.820   123771833.33608  23552939.700    96445687.15346
  20852595.080   109581206.22609  20852589.320    85387969.01148
  20930397.960   109990005.50909  20930397.000    85706518.10649
 15 02 23 02 04 30.0000000  0  7G04G16G18G19G21G22G27
  23844812.980   125305338.83408  23844811.880    97640531.86245
  20614543.160   108330166.13109  20614539.300    84413111.72049
  21766862.620   114385731.38209  21766859.340    89131774.01048
  22507627.920   118278400.15709  22507623.060    92164964.36448
  23565947.060   123840166.33808  23565943.120    96498933.62846
  20846051.580   109546819.75509  20846045.700    85361174.36848
  20922515.160   109948580.94509  20922514.140    85674239.23149
 15 02 23 02 05  0.0000000  0  7G04G16G18G19G21G22G27
  23828230.400   125218196.91908  23828229.240    97572629.12546
  20618888.080   108352999.51309  20618884.360    84430903.95949
  21773594.000   114421104.44509  21773590.640    89159337.44048
  22494534.060   118209591.14509  22494529.200    92111346.95848
  23578953.580   123908516.79008  23578949.900    96552193.69146
  20839604.080   109512938.11809  20839598.180    85334773.09548
  20914671.460   109907361.95209  20914670.420    85642120.52949
 15 02 23 02 05 30.0000000  0  7G04G16G18G19G21G22G27
  23811681.920   125131234.05208  23811680.700    97504865.90745
  20623341.060   108376400.89809  20623337.500    84449138.79849
  21780412.640   114456936.22209  21780409.260    89187258.30548
  22481459.180   118140882.30509  22481454.380    92057807.61948
  23591963.680   123976885.67408  23591960.040    96605468.12846
  20833253.080   109479563.75109  20833247.180    85308767.10048
  20906867.380   109866351.50109  20906866.340    85610164.33749
 15 02 23 02 06  0.0000000  0  7G04G16G18G19G21G22G27
  23795167.080   125044448.16608  23795165.860    97437240.58246
  20627901.580   108400367.01009  20627898.120    84467813.67548
  21787317.760   114493222.36809  21787314.280    89215533.21848
  22468402.940   118072271.64809  22468398.200    92004344.79648
  23604976.580   124045269.66908  23604973.060    96658754.35846
  20826998.220   109446694.76309  20826992.380    85283154.90648
  20899102.600   109825547.95309  20899101.640    85578369.36849
 15 02 23 02 06 30.0000000  0  7G04G16G18G19G21G22G27
  23778686.180   124957840.99608  23778685.000    97369754.51845
  20632569.760   108424898.69309  20632566.340    84486929.26749
  21794309.420   114529963.28809  21794305.800    89244162.50048
  22455365.820   118003761.54509  22455361.140    91950960.31248
  23617992.500   124113668.94208  23617989.000    96712052.48146
  20820840.040   109414333.87309  20820834.260    85257938.63248
  20891377.680   109784954.16509  20891376.900    85546737.84749
 15 02 23 02 07  0.0000000  0  7G04G16G18G19G21G22G27
  23762239.400   124871412.81208  23762238.200    97302407.92546
  20637345.460   108449995.24209  20637342.060    84506485.00649
  21801387.320   114567157.41209  21801383.540    89273144.94348
  22442347.880   117935352.40809  22442343.400    91897654.51448
  23631011.200   124182082.50708  23631007.900    96765361.72546
  20814778.580   109382481.41409  20814772.920    85233118.54449
  20883692.880   109744570.94609  20883692.260    85515270.41349
 15 02 23 02 07 30.0000000  0  7G04G16G18G19G21G22G27
  23745827.040   124785165.64108  23745825.880    97235202.38646
  20642228.880   108475657.56609  20642225.380    84526481.62049
  21808551.400   114604804.66709  21808547.600    89302480.46448
  22429349.700   117867046.79509  22429345.260    91844429.38548
  23644032.900   124250511.25308  23644029.640    96818682.82646
  20808814.440   109351140.27709  20808808.860    85208696.89648
  20876048.760   109704401.11309  20876048.140    85483969.25249
 15 02 23 02 08  0.0000000  0  7G04G16G18G19G21G22G27
  23729449.140   124699099.41608  23729448.040    97168137.83046
  20647219.760   108501884.46809  20647216.160    84546918.15349
  21815801.280   114642902.96209  21815797.440    89332167.44348
  22416371.160   117798844.49309  22416366.800    91791284.75948
  23657057.160   124318953.66608  23657053.720    96872014.54146
  20802947.600   109320310.36109  20802942.100    85184673.58649
  20868445.480   109664445.32909  20868444.780    85452834.86749
 15 02 23 02 08 30.0000000  0  7G04G16G18G19G21G22G27
  23713105.680   124613214.22708  23713104.660    97101214.35546
  20652317.920   108528675.13609  20652314.200    84567794.00048
  21823136.720   114681450.85209  21823132.920    89362204.77448
  22403412.480   117730746.23109  22403408.040    91738221.19448
  23670084.080   124387409.26308  23670080.640    96925356.57346
  20797178.240   109289992.43709  20797172.780    85161049.25348
  20860883.220   109624704.61409  20860882.400    85421868.08449
 15 02 23 02 09  0.0000000  0  7G04G16G18G19G21G22G27
  23696797.020   124527511.82708  23696795.960    97034433.29946
  20657523.420   108556029.92109  20657519.600    84589109.41048
  21830557.660   114720448.24709  21830553.880    89392592.36748
  22390474.040   117662754.19609  22390469.560    91685240.40648
  23683113.360   124455877.85008  23683109.620    96978708.71746
  20791506.740   109260188.33809  20791501.220    85137825.28648
  20853362.400   109585181.41609  20853361.440    85391070.78749
 15 02 23 02 09 30.0000000  0  7G04G16G18G19G21G22G27
  23680522.440   124441988.46808  23680521.300    96967791.76046
  20662835.260   108583943.48109  20662831.380    84610860.23349
  21838063.020   114759889.41409  21838059.320    89423325.74048
  22377555.260   117594864.91309  22377550.520    91632339.66648
  23696144.260   124524354.28908  23696140.340    97032066.96746
  20785932.380   109230894.80209  20785926.840    85114999.16448
  20845882.360   109545872.78909  20845881.320    85360440.69049
 15 02 23 02 10  0.0000000  0  7G04G16G18G19G21G22G27
  23664282.880   124356649.11508  23664281.700    96901293.59346
  20668254.280   108612420.30009  20668250.340    84633049.94648
  21845653.320   114799777.28009  21845649.720    89454407.19148
  22364657.100   117527083.77909  22364652.220    91579523.20248
  23709177.340   124592842.96108  23709173.400    97085434.72546
  20780456.120   109202116.93509  20780450.640    85092574.86048
  20838444.200   109506784.54309  20838443.120    85329982.31449
 15 02 23 02 10 30.0000000  0  7G04G16G18G19G21G22G27
  23648077.660   124271490.18508  23648076.500    96834936.01046
  20673779.580   108641455.81109  20673775.680    84655675.01548
  21853327.620   114840106.31409  21853324.060    89485832.40747
  22351778.900   117459407.69009  22351773.880    91526788.60248
  23722211.740   124661338.95408  23722207.800    97138808.21946
  20775077.360   109173851.63409  20775071.980    85070549.96548
  20831047.380   109467913.97009  20831046.360    85299693.56549
 15 02 23 02 11  0.0000000  0  7G04G16G18G19G21G22G27
  23631907.660   124186516.10208  23631906.440    96768722.47746
  20679411.660   108671052.74409  20679407.880    84678737.55849
  21861086.400   114880879.28309  21861082.960    89517603.55948
  22338921.460   117391841.19709  22338916.440    91474139.40148
  23735248.080   124729845.43608  23735244.040    97192189.89346
  20769797.020   109146103.43409  20769791.720    85048927.99848
  20823692.900   109429266.19809  20823691.900    85269578.42449
 15 02 23 02 11 30.0000000  0  7G04G16G18G19G21G22G27
  23615772.680   124101726.01208  23615771.420    96702652.29846
  20685150.140   108701208.85709  20685146.480    84702235.80348
  21868929.040   114922093.29909  21868925.660    89549718.36548
  22326084.700   117324383.88909  22326079.800    91421575.28148
  23748285.920   124798360.07608  23748281.780    97245577.91446
  20764615.020   109118872.17309  20764609.740    85027708.83748
  20816380.780   109390841.16609  20816379.780    85239636.83249
 15 02 23 02 12  0.0000000  0  7G04G16G18G19G21G22G27
  23599672.880   124017120.95508  23599671.560    96636726.31946
  20690995.080   108731924.17409  20690991.520    84726169.81449
  21876855.380   114963747.19809  21876852.160    89582175.97147
  22313269.040   117257037.41909  22313264.200    91369097.53148
  23761325.320   124866882.93708  23761321.200    97298972.34646
  20759531.560   109092158.81509  20759526.300    85006893.24748
  20809111.360   109352640.82309  20809110.380    85209870.34049
 15 02 23 02 12 30.0000000  0  7G04G16G18G19G21G22G27
  23583610.300   123932711.63608  23583608.900    96570952.86646
  20696948.100   108763207.52109  20696944.640    84750546.43449
  21884867.100   115005850.08309  21884864.040    89614983.40648
  22300476.500   117189812.68809  22300471.680    91316714.63848
  23774367.960   124935423.20908  23774363.900    97352380.35545
  20754548.720   109065974.18009  20754543.480    84986489.63748
  20801886.880   109314676.61309  20801885.940    85180287.83249
 15 02 23 02 13  0.0000000  0  7G04G16G18G19G21G22G27
  23567580.820   123848476.24708  23567579.360    96505314.92946
  20703005.040   108795036.90809  20703001.660    84775348.55049
  21892959.780   115048378.27009  21892956.820    89648122.26148
  22287703.180   117122688.87009  22287698.400    91264410.38648
  23787409.580   125003958.32808  23787405.940    97405784.31846
  20749662.420   109040296.70209  20749657.220    84966481.21548
  20794703.460   109276927.86709  20794702.620    85150873.22949
 15 02 23 02 13 30.0000000  0  7G04G16G18G19G21G22G27
  23551586.940   123764428.18408  23551585.560    96439822.96546
  20709168.120   108827424.12509  20709164.780    84800585.32649
  21901135.520   115091342.56509  21901132.560    89681600.93148
  22274951.660   117055679.26409  22274946.760    91212195.11148
  23800452.660   125072500.52508  23800449.220    97459193.80846
  20744875.280   109015140.30909  20744870.180    84946878.84148
  20787563.740   109239408.70909  20787563.040    85121637.52749
 15 02 23 02 14  0.0000000  0  7G04G16G18G19G21G22G27
  23535628.780   123680567.79008  23535627.460    96374477.23246
  20715437.080   108860367.89509  20715433.780    84826255.79049
  21909394.120   115134742.00109  21909391.100    89715418.67548
  22262222.120   116988784.98009  22262217.080    91160069.71148
  23813496.880   125141049.07608  23813492.720    97512608.27745
  20740187.400   108990505.70409  20740182.420    84927683.05348
  20780468.040   109202120.45109  20780467.360    85092581.74249
 15 02 23 02 14 30.0000000  0  7G04G16G18G19G21G22G27
  23519706.000   123596893.27408  23519704.620    96309276.35146
  20721811.360   108893864.97309  20721808.040    84852357.40349
  21917734.900   115178572.79309  21917731.760    89749572.54347
  22249514.340   116922004.82209  22249509.140    91108033.21948
  23826541.840   125209601.12108  23826538.280    97566025.42746
  20735598.500   108966391.12109  20735593.640    84908892.47748
  20773416.140   109165062.18009  20773415.420    85063705.16949
 15 02 23 02 15  0.0000000  0  7G04G16G18G19G21G22G27
  23503818.780   123513405.53708  23503817.320    96244221.00146
  20728290.880   108927915.02809  20728287.540    84878889.90949
  21926157.520   115222833.36409  21926154.240    89784061.29348
  22236828.500   116855339.94409  22236823.140    91056086.57348
  23839587.360   125278156.23008  23839583.460    97619444.99745
  20731108.800   108942797.40409  20731103.940    84890507.76749
  20766408.320   109128235.48809  20766407.480    85035009.04949
 15 02 23 02 15 30.0000000  0  7G04G16G18G19G21G22G27
  23487967.440   123430106.26508  23487966.000    96179312.49946
  20734875.800   108962519.11409  20734872.480    84905854.11949
  21934661.980   115267523.81409  21934658.560    89818885.02148
  22224165.000   116788792.69709  22224159.660    91004231.58348
  23852633.680   125346715.03408  23852629.540    97672867.43145
  20726718.700   108919726.66909  20726713.740    84872530.58149
  20759445.060   109091643.23109  20759444.080    85006495.59449
 15 02 23 02 16  0.0000000  0  7G04G16G18G19G21G22G27
  23472151.900   123346995.18008  23472150.440    96114550.63446
  20741565.620   108997674.61309  20741562.360    84933248.00048
  21943247.700   115312641.56009  21943244.180    89854041.70047
  22211523.820   116722363.18709  22211518.560    90952468.33348
  23865680.480   125415276.25708  23865677.180    97726291.70146
  20722428.100   108897178.56209  20722422.980    84854960.63048
  20752526.500   109055285.88209  20752525.460    84978165.19249
 15 02 23 02 16 30.0000000  0  7G04G16G18G19G21G22G27
  23456372.440   123264073.48708  23456371.040    96049936.36946
  20748360.360   109033381.61409  20748357.160    84961071.62649
  21951914.660   115358186.11709  21951911.000    89889530.96548
  22198905.320   116656053.05009  22198900.180    90900798.11048
  23878727.760   125483840.33708  23878723.840    97779718.28746
  20718237.180   108875154.16509  20718231.900    84837798.77249
  20745653.060   109019165.58209  20745652.000    84950019.50249
 15 02 23 02 17  0.0000000  0  7G04G16G18G19G21G22G27
  23440629.060   123181341.51708  23440627.620    95985469.91946
  20755259.800   109069638.89409  20755256.660    84989324.04848
  21960662.440   115404155.66409  21960658.620    89925351.40147
  22186309.820   116589863.82909  22186304.840    90849222.12348
  23891775.500   125552406.44708  23891771.500    97833146.42345
  20714146.040   108853654.40109  20714140.680    84821045.71748
  20738825.020   108983283.73709  20738823.980    84922059.62549
 15 02 23 02 17 30.0000000  0  7G04G16G18G19G21G22G27
  23424921.700   123098798.92808  23424920.260    95921151.05146
  20762263.600   109106444.49309  20762260.500    85018003.71248
  21969490.600   115450547.80809  21969486.740    89961501.11448
  22173737.280   116523794.96609  22173732.440    90797739.89848
  23904823.440   125620973.06508  23904819.760    97886574.93046
  20710154.640   108832679.01409  20710149.240    84804701.26849
  20732042.420   108947640.81309  20732041.440    84894285.92249
 15 02 23 02 18  0.0000000  0  7G04G16G18G19G21G22G27
  23409250.480   123016446.25308  23409249.000    95856980.15346
  20769371.760   109143798.12309  20769368.660    85047110.42748
  21978398.940   115497361.05109  21978395.100    89997978.97047
  22161187.960   116457847.65009  22161183.100    90746352.39348
  23917871.360   125689539.65108  23917866.740    97940003.49045
  20706263.040   108812228.23909  20706257.620    84788765.61248
  20725305.580   108912238.12209  20725304.480    84866699.41049
 15 02 23 02 18 30.0000000  0  7G04G16G18G19G21G22G27
  23393615.820   122934285.71508  23393614.340    95792958.98246
  20776584.340   109181700.15609  20776581.160    85076644.47048
  21987387.420   115544595.82009  21987383.660    90034785.27248
  22148662.400   116392025.02509  22148657.560    90695062.05148
  23930919.620   125758108.11608  23930915.920    97993433.37046
  20702471.700   108792304.41309  20702466.240    84773240.55949
  20718615.140   108877079.16809  20718613.900    84839302.82249
 15 02 23 02 19  0.0000000  0  7G04G16G18G19G21G22G27
  23378017.580   122852316.50208  23378016.120    95729086.89746
  20783900.860   109220148.10209  20783897.540    85106603.89948
  21996455.640   115592249.25609  21996451.880    90071917.83347
  22136160.520   116326326.94209  22136155.620    90643868.74848
  23943967.680   125826676.53808  23943963.960    98046863.31446
  20698780.520   108772907.07609  20698775.000    84758125.75748
  20711971.100   108842164.15009  20711969.760    84812096.31749
 15 02 23 02 19 30.0000000  0  7G04G16G18G19G21G22G27
  23362455.900   122770539.51608  23362454.520    95665364.59546
  20791321.260   109259141.88709  20791317.780    85136988.65248
  22005603.260   115640320.06909  22005599.440    90109375.60548
  22123682.560   116260754.73909  22123677.640    90592773.54048
  23957015.680   125895243.61108  23957011.160    98100292.24845
  20695189.640   108754037.10309  20695184.100    84743421.89049
  20705373.760   108807494.67909  20705372.340    84785081.14249
 15 02 23 02 20  0.0000000  0  7G04G16G18G19G21G22G27
  23346930.920   122688955.46108  23346929.580    95601792.63446
  20798845.260   109298680.27009  20798841.700    85167797.77948
  22014830.040   115688806.85409  22014826.200    90147157.52048
  22111228.840   116195310.06109  22111223.880    90541777.69648
  23970063.460   125963810.76408  23970059.840    98153721.11146
  20691699.260   108735695.34009  20691693.700    84729129.61749
  20698823.480   108773072.68909  20698822.100    84758258.81249
 15 02 23 02 20 30.0000000  0  7G04G16G18G19G21G22G27
  23331441.840   122607559.96508  23331440.480    95538367.59346
  20806471.800   109338757.50109  20806468.140    85199026.77448
  22024134.700   115737702.93109  22024130.840    90185258.36948
  22098798.540   116129988.63809  22098793.560    90490877.90248
  23983110.120   126032371.35708  23983105.500    98207144.99345
  20688308.440   108717876.74709  20688302.840    84715244.99948
  20692319.480   108738894.50609  20692318.280    84731626.45849
 15 02 23 02 21  0.0000000  0  7G04G16G18G19G21G22G27
  23315990.060   122526360.64108  23315988.720    95475095.41946
  20814202.000   109379379.61309  20814198.300    85230680.36648
  22033518.280   115787014.01109  22033514.500    90223682.57147
  22086393.260   116064799.25109  22086388.460    90440080.99348
  23996156.600   126100932.46208  23996152.900    98260569.14745
  20685018.720   108700589.48309  20685013.080    84701774.40348
  20685863.520   108704969.01609  20685862.500    84705191.01749
 15 02 23 02 21 30.0000000  0  7G04G16G18G19G21G22G27
  23300574.660   122445352.61708  23300573.400    95411972.31246
  20822034.680   109420540.45909  20822030.980    85262753.74648
  22042979.520   115836733.43909  22042975.760    90262424.98647
  22074012.300   115999737.70509  22074007.680    90389383.69748
  24009202.480   126169489.35008  24009198.680    98313990.16246
  20681829.140   108683828.50809  20681823.540    84688713.90749
  20679454.880   108671292.42909  20679454.080    84678949.53349
 15 02 23 02 22  0.0000000  0  7G04G16G18G19G21G22G27
  23285196.520   122364540.27408  23285195.340    95349001.69045
  20829970.140   109462241.75109  20829966.500    85295248.25348
  22052518.820   115886863.42609  22052515.220    90301487.31047
  22061656.640   115934808.73009  22061652.220    90338789.71848
  24022247.920   126238043.82308  24022243.860    98367409.23445
  20678740.520   108667597.87909  20678734.920    84676066.66248
  20673094.680   108637869.91409  20673093.980    84652906.01949
 15 02 23 02 22 30.0000000  0  7G04G16G18G19G21G22G27
  23269855.320   122283922.03408  23269854.120    95286182.30746
  20838008.000   109504481.25009  20838004.440    85328162.12848
  22062135.580   115937400.02009  22062132.060    90340866.48647
  22049326.040   115870011.26909  22049321.640    90288298.19948
  24035292.480   126306593.99308  24035288.620    98420824.88945
  20675752.500   108651896.00909  20675746.940    84663831.44548
  20666782.820   108604700.89509  20666782.140    84627060.03049
 15 02 23 02 23  0.0000000  0  7G04G16G18G19G21G22G27
  23254551.180   122203498.40308  23254549.940    95223514.56946
  20846148.020   109547257.58309  20846144.500    85361494.33048
  22071829.420   115988341.80009  22071826.060    90380561.38047
  22037020.760   115805346.47509  22037016.360    90237910.05948
  24048336.120   126375139.18007  24048332.720    98474236.70545
  20672865.200   108636723.56009  20672859.780    84652008.77449
  20660519.580   108571786.92109  20660518.820    84601412.78249
 15 02 23 02 23 30.0000000  0  7G04G16G18G19G21G22G27
  23239284.040   122123269.15708  23239282.720    95160998.29646
  20854389.820   109590568.77909  20854386.380    85395243.31148
  22081600.000   116039686.49009  22081596.660    90420570.23947
  22024740.920   115740815.34909  22024736.420    90187626.07948
  24061378.800   126443678.72908  24061375.640    98527644.12745
  20670078.640   108622080.33809  20670073.320    84640598.48548
  20654305.100   108539128.88309  20654304.220    84575964.97049
 15 02 23 02 24  0.0000000  0  7G04G16G18G19G21G22G27
  23224053.740   122043233.31908  23224052.360    95098632.72845
  20862733.000   109634412.51709  20862729.560    85429407.25148
  22091446.720   116091431.30309  22091443.360    90460890.86447
  22012486.480   115676417.79609  22012481.860    90137446.18348
  24074420.380   126512211.55208  24074416.300    98581046.37845
  20667392.640   108607965.18909  20667387.300    84629599.67049
  20648139.360   108506726.98109  20648138.340    84550716.74149
 15 02 23 02 24 30.0000000  0  7G04G16G18G19G21G22G27
  23208860.900   121963394.18008  23208859.520    95036420.43346
  20871177.740   109678790.03609  20871174.320    85463987.12348
  22101369.760   116143577.09109  22101366.340    90501523.96447
  22000258.260   115612157.85809  22000253.520    90087373.51148
  24087460.860   126580739.62907  24087457.440    98634444.79745
  20664807.720   108594381.08009  20664802.320    84619014.65649
  20642023.180   108474585.45009  20642021.980    84525671.38849
 15 02 23 02 25  0.0000000  0  7G04G16G18G19G21G22G27
  23193705.440   121883751.42208  23193704.100    94974361.16346
  20879723.720   109723699.40109  20879720.260    85498981.41948
  22111368.640   116196121.62009  22111365.220    90542467.74547
  21988056.200   115548035.32709  21988051.320    90037407.90248
  24100500.280   126649261.11408  24100496.800    98687838.18346
  20662323.760   108581327.58009  20662318.320    84608843.10049
  20635956.640   108442705.00509  20635955.320    84500829.48549
 15 02 23 02 25 30.0000000  0  7G04G16G18G19G21G22G27
  23178587.620   121804306.58608  23178586.240    94912456.13145
  20888370.900   109769140.45709  20888367.380    85534390.03148
  22121443.160   116249063.92709  22121439.960    90583721.49347
  21975880.760   115484052.56909  21975875.740    89987551.22848
  24113538.580   126717776.54708  24113533.820    98741226.85345
  20659941.000   108568805.86609  20659935.520    84599085.92849
  20629940.200   108411088.07809  20629938.820    84476192.92949
 15 02 23 02 26  0.0000000  0  7G04G16G18G19G21G22G27
  23163506.860   121725056.49008  23163505.360    94850702.81946
  20897118.380   109815108.66409  20897114.820    85570209.41148
  22131592.520   116302399.18409  22131589.380    90625281.43747
  21963731.580   115420207.95809  21963726.500    89937802.19548
  24126574.740   126786283.04708  24126571.440    98794608.38346
  20657658.900   108556813.23609  20657653.400    84589741.03449
  20623973.560   108379733.07909  20623972.140    84451760.46049
 15 02 23 02 26 30.0000000  0  7G04G16G18G19G21G22G27
  23148463.640   121646003.84308  23148462.160    94789103.38346
  20905966.220   109861604.24909  20905962.620    85606439.72848
  22141816.700   116356127.61809  22141813.540    90667147.74747
  21951609.300   115356504.86509  21951604.200    89888163.43648
  24139609.860   126854782.08208  24139606.120    98847984.33546
  20655477.800   108545351.71509  20655472.380    84580809.97749
  20618057.380   108348643.38309  20618055.960    84427534.73149
 15 02 23 02 27  0.0000000  0  7G04G16G18G19G21G22G27
  23133458.360   121567150.64308  23133456.860    94727659.34846
  20914914.620   109908628.42909  20914911.020    85643081.92848
  22152115.780   116410249.36009  22152112.620    90709320.53148
  21939514.380   115292945.46109  21939509.320    89838636.63548
  24152643.340   126923274.90908  24152639.320    98901355.29144
  20653398.100   108534423.04609  20653392.720    84572294.13949
  20612192.300   108317822.29209  20612190.900    84403518.29949
 15 02 23 02 27 30.0000000  0  7G04G16G18G19G21G22G27
  23118489.640   121488489.55708  23118488.180    94666365.02146
  20923961.740   109956171.61809  20923958.200    85680128.56348
  22162487.960   116464755.04709  22162484.760    90751792.49147
  21927445.640   115229523.56209  21927440.620    89789216.98748
  24165674.600   126991753.14508  24165670.740    98954715.02046
  20651418.320   108524019.55009  20651413.000    84564187.52349
  20606377.100   108287263.51209  20606375.760    84379706.25649
 15 02 23 02 28  0.0000000  0  7G04G16G18G19G21G22G27
  23103559.820   121410032.88408  23103558.460    94605229.96246
  20933109.600   110004244.30409  20933106.140    85717587.79248
  22172935.040   116519654.28509  22172931.700    90794571.12647
  21915405.540   115166252.07609  21915400.460    89739914.53848
  24178704.800   127060228.68507  24178701.300    99008072.49445
  20649540.860   108514153.54409  20649535.560    84556499.74049
  20600614.320   108256980.23009  20600613.060    84356108.90149
 15 02 23 02 28 30.0000000  0  8G04G16G18G19G21G22G27G32
  23088667.100   121331771.00108  23088665.660    94544246.69946
  20942356.080   110052835.03709  20942352.680    85755450.69148
  22183454.860   116574935.65809  22183451.420    90837647.52547
  21903392.400   115103122.32909  21903387.200    89690722.52948
  24191732.740   127128690.74008  24191728.560    99061419.58345
  20647763.700   108504814.79909  20647758.460    84549222.79649
  20594902.360   108226964.07909  20594901.220    84332719.70049
  24492651.240   128709753.24808  24492652.860   100293314.05745
 15 02 23 02 29  0.0000000  0  8G04G16G18G19G21G22G27G32
  23073811.540   121253704.54108  23073810.020    94483415.70346
  20951700.900   110101942.36609  20951697.500    85793716.13048
  22194047.060   116630597.92609  22194043.540    90881020.71547
  21891406.420   115040135.86309  21891401.240    89641642.17248
  24204758.000   127197139.54308  24204754.300    99114756.28845
  20646087.020   108496003.76609  20646081.780    84542357.05649
  20589241.600   108197216.83709  20589240.540    84309540.02449
  24470022.300   128590837.08207  24470024.020   100200652.25945
 15 02 23 02 29 30.0000000  0  8G04G16G18G19G21G22G27G32
  23058994.880   121175842.57708  23058993.280    94422744.07246
  20961145.420   110151573.80009  20961142.040    85832389.97148
  22204712.960   116686647.83209  22204709.380    90924695.96447
  21879449.520   114977302.70709  21879444.440    89592681.28548
  24217782.500   127265583.61308  24217779.300    99168089.28045
  20644512.560   108487729.51009  20644507.200    84535909.58649
  20583633.920   108167748.66609  20583632.960    84286577.81549
  24447401.760   128471965.63908  24447403.080   100108025.26545
 15 02 23 02 30  0.0000000  0  8G04G16G18G19G21G22G27G32
  23044215.780   121098178.16908  23044214.260    94362226.37446
  20970688.000   110201720.31809  20970684.620    85871465.17548
  22215450.840   116743076.27209  22215447.280    90968666.17747
  21867520.620   114914616.82109  21867515.680    89543835.15748
  24230804.760   127334014.69507  24230800.420    99221412.31045
  20643038.920   108479984.74909  20643033.360    84529874.71749
  20578078.260   108138553.93309  20578077.400    84263828.67849
  24424788.900   128353134.52008  24424790.460   100015429.74845
 15 02 23 02 30 30.0000000  0  8G04G16G18G19G21G22G27G32
  23029475.600   121020718.33408  23029474.200    94301868.08846
  20980329.620   110252387.18109  20980326.200    85910945.82748
  22226261.580   116799887.83709  22226258.040    91012934.92147
  21855621.340   114852085.96309  21855616.440    89495109.82248
  24243825.520   127402439.10608  24243821.820    99274729.95346
  20641667.220   108472775.87309  20641661.480    84524257.41149
  20572576.160   108109640.45509  20572575.340    84241298.69549
  24402185.400   128234352.53308  24402187.000    99922872.38645
 15 02 23 02 31  0.0000000  0  8G04G16G18G19G21G22G27G32
  23014772.860   120943455.13508  23014771.500    94241663.02846
  20990068.460   110303564.91809  20990065.020    85950824.58148
  22237143.340   116857072.49009  22237139.860    91057494.39547
  21843750.300   114789702.92509  21843745.400    89446499.66648
  24256843.700   127470848.65608  24256840.060    99328036.09245
  20640395.820   108466094.32909  20640390.000    84519051.02249
  20567126.340   108081001.55709  20567125.480    84218982.67149
  24379590.200   128115614.29808  24379591.820    99830349.11945
 15 02 23 02 31 30.0000000  0  8G04G16G18G19G21G22G27G32
  23000108.380   120866392.84308  23000106.920    94181614.50746
  20999904.960   110355255.82709  20999901.500    85991103.20848
  22248096.600   116914632.97109  22248093.180    91102346.70647
  21831908.460   114727473.36009  21831903.560    89398009.10648
  24269859.420   127539247.28608  24269855.400    99381333.69745
  20639225.620   108459944.65509  20639219.740    84514259.06649
  20561729.880   108052642.92409  20561728.960    84196885.02649
  24357004.700   127996927.07008  24357006.400    99737865.70445
 15 02 23 02 32  0.0000000  0  8G04G16G18G19G21G22G27G32
  22985482.000   120789530.70808  22985480.500    94121721.96346
  21009838.480   110407456.80609  21009835.040    86031779.27748
  22259120.740   116972565.54909  22259117.280    91147488.98047
  21820095.800   114665397.10209  21820090.940    89349638.00548
  24282873.000   127607633.36208  24282869.200    99434621.52346
  20638156.380   108454325.81709  20638150.560    84509880.75049
  20556386.740   108024564.62009  20556385.840    84175005.83149
  24334429.120   127878292.04008  24334430.700    99645423.02645
 15 02 23 02 32 30.0000000  0  8G04G16G18G19G21G22G27G32
  22970894.080   120712870.76508  22970892.540    94061986.96646
  21019869.040   110460168.01809  21019865.680    86072852.94248
  22270215.840   117030870.65409  22270212.280    91192921.54647
  21808312.880   114603477.31609  21808308.060    89301388.82948
  24295884.160   127676007.65807  24295880.820    99487900.14345
  20637188.360   108449238.95309  20637182.600    84505916.97049
  20551097.540   107996769.92809  20551096.700    84153347.63449
  24311864.200   127759713.46308  24311865.740    99553024.34845
 15 02 23 02 33  0.0000000  0  8G04G16G18G19G21G22G27G32
  22956344.520   120636412.25609  22956342.900    94002408.93546
  21029996.280   110513387.22509  21029992.980    86114322.45448
  22281381.220   117089544.87209  22281377.620    91238641.71447
  21796559.700   114541713.90709  21796554.820    89253261.50548
  24308893.000   127744369.02508  24308889.080    99541168.79145
  20636321.320   108444682.84509  20636315.640    84502366.76749
  20545862.400   107969259.18209  20545861.580    84131910.69249
  24289310.280   127641192.97508  24289311.780    99460671.02145
 15 02 23 02 33 30.0000000  0  8G04G16G18G19G21G22G27G32
  22941833.280   120560155.06808  22941831.580    93942987.75346
  21040219.760   110567112.12009  21040216.520    86156185.99848
  22292616.400   117148586.23109  22292612.860    91284647.96547
  21784836.400   114480107.88109  21784831.500    89205256.82648
  24321899.240   127812716.94607  24321895.700    99594426.91246
  20635555.260   108440657.37709  20635549.640    84499230.04749
  20540681.580   107942033.51809  20540680.740    84110695.88849
  24266767.760   127522732.67208  24266769.180    99368364.52445
 15 02 23 02 34  0.0000000  0  9G04G11G16G18G19G21G22G27G32
  22927360.520   120484100.26608  22927358.860    93883724.29046
  24620776.540                                                  
  21050539.300   110621341.63209  21050536.080    86198442.74948
  22303921.260   117207993.57109  22303917.600    91330939.39947
  21773143.420   114418661.48209  21773138.480    89157376.51748
  24334902.720   127881051.91908  24334899.480    99647674.87345
  20634890.220   108437163.02809  20634884.680    84496507.17849
  20535555.460   107915095.31809  20535554.580    84089705.08049
  24244237.480   127404336.34508  24244238.880    99276107.89745
 15 02 23 02 34 30.0000000  0  9G04G11G16G18G19G21G22G27G32
  22912925.120   120408242.00908  22912923.480    93824613.98846
  24604101.400   129295430.20405  24604097.100   100749689.25543
  21060953.360   110676067.90209  21060950.180    86241086.59448
  22315294.200   117267758.83709  22315290.560    91377509.73747
  21761479.880   114357369.68009  21761474.980    89109616.68448
  24347902.620   127949367.21708  24347898.740    99700907.63645
  20634324.960   108434193.22909  20634319.540    84494193.05949
  20530483.120   107888439.72909  20530482.180    84068934.48549
  24221718.660   127286000.47108  24221720.080    99183898.52544
 15 02 23 02 35  0.0000000  0  9G04G11G16G18G19G21G22G27G32
  22898528.840   120332589.19408  22898527.160    93765663.76346
  24587438.760   129207868.32205  24587433.580   100681459.29044
  21071463.260   110731297.73909  21071460.100    86284122.82048
  22326736.620   117327888.99709  22326732.940    91424364.40747
  21749847.700   114296242.47409  21749842.800    89061985.09948
  24360900.340   128017671.64507  24360896.840    99754131.80346
  20633861.160   108431756.51609  20633855.820    84492294.32649
  20525466.540   107862076.87909  20525465.540    84048392.00749
  24199213.460   127167736.11108  24199214.780    99091744.86744
 15 02 23 02 35 30.0000000  0  9G04G11G16G18G19G21G22G27G32
  22884171.520   120257141.09109  22884169.820    93706873.05746
  24570787.520   129120366.10405  24570783.560   100613275.76944
  21082068.600   110787029.06709  21082065.440    86327549.81848
  22338247.900   117388380.88009  22338244.080    91471500.94947
  21738246.960   114235280.20309  21738242.060    89014482.04148
  24373895.920   128085963.11708  24373892.540    99807345.95745
  20633498.600   108429851.64209  20633493.320    84490810.01649
  20520505.700   107836007.23409  20520504.660    84028077.99649
  24176722.200   127049545.18708  24176723.320    98999648.49545
 15 02 23 02 36  0.0000000  0  9G04G11G16G18G19G21G22G27G32
  22869853.720   120181900.60508  22869852.080    93648244.12346
  24554148.140   129032926.71205  24554144.420   100545141.15842
  21092769.520   110843262.55009  21092766.320    86371368.10048
  22349828.100   117449235.18409  22349824.200    91518919.87347
  21726678.380   114174486.57109  21726673.400    88967110.37948
  24386889.520   128154244.87508  24386886.120    99860552.47744
  20633237.780   108428481.07909  20633232.500    84489742.04349
  20515601.420   107810234.82209  20515600.360    84007995.59449
  24154245.880   126931432.78408  24154246.760    98907613.28045
 15 02 23 02 36 30.0000000  0  9G04G11G16G18G19G21G22G27G32
  22855574.080   120106860.67408  22855572.480    93589771.47446
  24537519.260   128945543.00605  24537517.000   100477049.97244
  21103564.260   110899988.89409  21103560.980    86415570.44148
  22361475.480   117510442.53409  22361471.640    91566613.91247
  21715140.720   114113855.38309  21715135.760    88919865.31448
  24399879.780   128222508.35308  24399876.560    99913744.82045
  20633077.220   108427637.07109  20633071.900    84489084.38849
  20510752.560   107784753.75909  20510751.520    83988140.22549
  24131783.600   126813394.10108  24131784.280    98815635.45844
 15 02 23 02 37  0.0000000  0  9G04G11G16G18G19G21G22G27G32
  22841333.660   120032026.88608  22841332.080    93531459.45346
  24520902.400   128858221.14305  24520901.340   100409007.07343
  21114453.380   110957211.18809  21114450.020    86460159.22348
  22373190.740   117572006.59909  22373186.760    91614585.91047
  21703635.220   114053393.26209  21703630.200    88872751.97948
  24412867.480   128290758.91008  24412864.060    99966927.04745
  20633017.880   108427324.76609  20633012.460    84488841.03649
  20505960.400   107759570.76509  20505959.320    83968517.10649
  24109336.800   126695437.01608  24109337.460    98723721.20545
 15 02 23 02 37 30.0000000  0  9G04G11G16G18G19G21G22G27G32
  22827131.300   119957393.15608  22827129.760    93473303.31946
  24504296.280   128770954.78906  24504294.760   100341007.35143
  21125435.380   111014921.72509  21125431.960    86505128.46448
  22384972.340   117633919.15709  22384968.200    91662829.46047
  21692160.980   113993095.56909  21692155.940    88825766.76848
  24425851.560   128358990.63407  24425848.320   100020094.57945
  20633058.480   108427537.57209  20633052.940    84489006.86149
  20501224.100   107734681.28809  20501223.020    83949122.70749
  24086904.940   126577558.30908  24086905.580    98631867.97245
 15 02 23 02 38  0.0000000  0  9G04G11G16G18G19G21G22G27G32
  22812968.000   119882964.60708  22812966.380    93415307.06946
  24487701.560   128683748.65805  24487699.120   100273054.60243
  21136510.760   111073123.33409  21136507.360    86550480.36148
  22396820.660   117696182.37509  22396816.500    91711346.24947
  21680719.120   113932968.10809  21680714.080    88778914.21148
  24438832.600   128427207.20107  24438829.260   100073250.34445
  20633199.900   108428279.89509  20633194.140    84489585.30549
  20496544.740   107710091.16409  20496543.680    83929961.56549
  24064489.340   126459765.12108  24064490.000    98540081.35345
 15 02 23 02 38 30.0000000  0  9G04G11G16G18G19G21G22G27G32
  22798843.440   119808739.69608  22798841.840    93357469.51346
  24471118.000   128596601.94005  24471115.500   100205148.09143
  21147678.880   111131812.56609  21147675.540    86596212.22248
  22408735.160   117758793.37709  22408731.120    91760134.04747
  21669309.600   113873010.77509  21669304.580    88732194.22448
  24451810.600   128495406.68108  24451807.540   100126392.77346
  20633441.680   108429549.57509  20633435.720    84490574.66849
  20491922.280   107685800.36909  20491921.260    83911033.68149
  24042090.260   126342058.62708  24042090.820    98448362.26745
 15 02 23 02 39  0.0000000  0  9G04G11G16G18G19G21G22G27G32
  22784757.440   119734717.40308  22784755.880    93299789.81646
  24454545.480   128509513.47406  24454543.440   100137287.04143
  21158939.220   111190986.41009  21158935.940    86642321.69448
  22420715.200   117821748.83809  22420711.120    91809190.24747
  21657932.300   113813223.11709  21657927.440    88685606.44948
  24464785.220   128563588.27507  24464781.560   100179521.26145
  20633783.540   108431345.21309  20633777.420    84491973.87049
  20487356.820   107661809.17709  20487355.900    83892339.24249
  24019707.920   126224440.18908  24019708.540    98356711.79445
 15 02 23 02 39 30.0000000  0  9G04G11G16G18G19G21G22G27G32
  22770710.940   119660902.46508  22770709.360    93242271.70246
  24437985.240   128422488.43906  24437983.680   100069475.34244
  21170292.240   111250646.84909  21170288.940    86688810.34348
  22432761.200   117885050.77009  22432757.260    91858516.42947
  21646588.520   113753611.44809  21646583.760    88639155.81248
  24477757.180   128631755.31608  24477753.300   100232638.45245
  20634226.060   108433670.54809  20634219.920    84493785.82649
  20482849.480   107638123.29309  20482848.620    83873882.71349
  23997343.720   126106916.91708  23997344.300    98265135.46945
 15 02 23 02 40  0.0000000  0  9G04G11G16G18G19G21G22G27G32
  22756702.900   119587289.88108  22756701.320    93184911.25947
  24421436.040   128335521.32306  24421434.040   100001708.79644
  21181736.620   111310787.38709  21181733.320    86735673.08748
  22444871.780   117948692.20309  22444868.060    91908107.14447
  21635277.440   113694171.58909  21635272.720    88592839.04548
  24490725.420   128699902.55808  24490721.360   100285740.11145
  20634768.240   108436520.12209  20634762.160    84496006.27149
  20478399.540   107614738.94209  20478398.760    83855661.13449
  23974997.180   125989486.23208  23974997.760    98173631.28245
 15 02 23 02 40 30.0000000  0  9G04G11G16G18G19G21G22G27G32
  22742734.460   119513885.42808  22742732.820    93127713.00047
  24404898.820   128248617.96606  24404896.440    99933991.97543
  21193273.120   111371411.85409  21193269.780    86782912.91948
  22457047.660   118012676.93609  22457043.960    91957965.38447
  21624000.440   113634910.84109  21623995.680    88546661.83448
  24503690.780   128768035.51907  24503685.760   100338830.79245
  20635411.140   108439899.26209  20635405.180    84498639.36949
  20474008.400   107591663.43209  20474007.600    83837680.21249
  23952669.900   125872156.65008  23952670.480    98082205.84745
 15 02 23 02 41  0.0000000  0  9G04G11G16G18G19G21G22G27G32
  22728804.980   119440685.46108  22728803.260    93070674.08446
  24388373.140   128161775.38606  24388370.580    99866322.43643
  21204900.440   111432513.77809  21204897.120    86830524.80748
  22469287.680   118076999.08009  22469284.240    92008086.52147
  21612756.920   113575826.26709  21612752.160    88500621.92348
  24516652.480   128836150.10108  24516648.360   100391906.95545
  20636153.920   108443803.29609  20636148.060    84501681.48449
  20469675.540   107568894.09409  20469674.700    83819937.87049
  23930361.680   125754926.73608  23930362.120    97990858.08945
 15 02 23 02 41 30.0000000  0  9G04G11G16G18G19G21G22G27G32
  22714915.140   119367693.78908  22714913.380    93013797.47246
  24371859.600   128074996.84906  24371857.340    99798702.80342
  21216618.980   111494095.14809  21216615.700    86878510.26648
  22481592.200   118141659.89509  22481588.900    92058471.57847
  21601547.980   113516922.95809  21601543.200    88454723.24348
  24529611.440   128904249.58607  24529606.740   100444971.57044
  20636997.260   108448235.63509  20636991.500    84505135.25949
  20465401.940   107546435.93809  20465401.040    83802438.00649
  23908073.640   125637802.82008  23908074.040    97899592.90345
 15 02 23 02 42  0.0000000  0  9G04G11G16G18G19G21G22G27G32
  22701064.160   119294906.21908  22701062.400    92957079.90347
  24355357.600   127988278.50606  24355355.340    99731130.09744
  21228427.440   111556149.19509  21228424.180    86926864.05648
  22493959.960   118206653.11009  22493956.680    92109115.63547
  21590372.940   113458197.70309  21590368.200    88408963.30448
  24542566.280   128972329.39508  24542562.300   100498020.69245
  20637940.120   108453190.92309  20637934.440    84508996.52249
  20461186.960   107524286.01109  20461186.060    83785178.31549
  23885805.480   125520783.11008  23885805.740    97808408.92845
 15 02 23 02 42 30.0000000  0  9G04G11G16G18G19G21G22G27G32
  22687251.880   119222321.94308  22687250.040    92900520.74747
  24338867.000   127901619.71806  24338864.480    99663603.83443
  21240325.380   111618673.39409  21240322.120    86975584.20148
  22506390.540   118271975.93309  22506387.260    92160016.54847
  21579231.940   113399650.95909  21579227.140    88363342.46448
  24555517.240   129040388.16107  24555513.800   100551053.53645
  20638982.220   108458667.83209  20638976.680    84513264.25349
  20457030.740   107502444.80109  20457029.880    83768159.19049
  23863557.460   125403869.42008  23863557.540    97717307.54645
 15 02 23 02 43  0.0000000  0  9G04G11G16G18G19G21G22G27G32
  22673479.640   119149948.27009  22673477.720    92844125.68847
  24322389.240   127815028.24706  24322386.260    99596129.97144
  21252313.760   111681672.70609  21252310.480    87024674.57448
  22518884.820   118337633.64709  22518881.580    92211178.38347
  21568126.500   113341291.26709  21568121.660    88317867.38248
  24568465.320   129108432.91408  24568462.520   100604075.36245
  20640124.900   108464673.26309  20640119.480    84517943.81249
  20452934.920   107480920.93309  20452934.080    83751387.34449
  23841331.480   125287071.60008  23841331.360    97626296.44845
 15 02 23 02 43 30.0000000  0  9G04G11G16G18G19G21G22G27G32
  22659746.400   119077779.59909  22659744.440    92787890.38046
  24305923.180   127728498.23206  24305920.460    99528704.00543
  21264390.980   111745138.88109  21264387.720    87074128.71848
  22531441.240   118403617.95609  22531437.900    92262594.74047
  21557055.780   113283114.22509  21557050.960    88272534.63448
  24581409.920   129176457.58508  24581406.940   100657081.67145
  20641366.900   108471200.42409  20641361.580    84523029.92049
  20448898.620   107459709.87009  20448897.760    83734859.23849
  23819126.880   125170386.34908  23819126.680    97535373.07145
 15 02 23 02 44  0.0000000  0  9G04G11G16G18G19G21G22G27G32
  22646052.420   119005817.25909  22646050.480    92731815.84646
  24289469.040   127642031.27906  24289466.600    99461327.17544
  21276556.980   111809071.61909  21276553.760    87123946.42648
  22544059.700   118469928.36109  22544056.300    92314265.16347
  21546020.180   113225122.08209  21546015.480    88227345.96348
  24594350.600   129244463.22806  24594348.360   100710072.95845
  20642708.380   108478249.90909  20642703.100    84528523.02749
  20444922.360   107438814.26509  20444921.420    83718576.94849
  23796944.460   125053817.52908  23796944.200    97444540.42846
 15 02 23 02 44 30.0000000  0  9G04G11G16G18G19G21G22G27G32
  22632398.100   118934063.27309  22632396.160    92675903.66647
  24273027.240   127555629.31806  24273025.120    99394000.99544
  21288811.700   111873470.46509  21288808.440    87174127.33748
  22556740.120   118536564.30009  22556736.560    92366189.29547
  21535020.400   113167318.40209  21535015.820    88182304.14348
  24607288.160   129312451.03508  24607285.200   100763050.54544
  20644149.560   108485823.01709  20644144.260    84534424.15549
  20441006.720   107418237.40609  20441005.700    83702543.02849
  23774785.060   124937369.80508  23774784.760    97353802.11245
 15 02 23 02 45  0.0000000  0  9G04G11G16G18G19G21G22G27G32
  22618782.860   118862514.73309  22618780.940    92620151.57747
  24256597.340   127469289.95007  24256595.160    99326723.54844
  21301154.040   111938329.76009  21301150.740    87224667.03348
  22569481.500   118603520.78209  22569477.880    92418363.16647
  21524056.220   113109701.42909  21524051.720    88137407.81648
  24620221.980   129380418.09807  24620218.800   100816011.89146
  20645689.760   108493916.24009  20645684.380    84540730.56249
  20437151.360   107397977.72809  20437150.380    83686756.25649
  23752648.580   124821042.75008  23752648.320    97263157.84045
 15 02 23 02 45 30.0000000  0  9G04G11G16G18G19G21G22G27G32
  22605207.300   118791174.72309  22605205.360    92564561.97947
  24240180.020   127383016.17507  24240177.740    99259497.26143
  21313584.220   112003650.57109  21313580.880    87275566.35848
  22582283.880   118670798.48209  22582280.340    92470787.35547
  21513128.400   113052275.19209  21513123.840    88092660.10348
  24633152.300   129448367.08108  24633149.600   100868959.07544
  20647329.360   108502531.65509  20647323.880    84547443.88249
  20433357.080   107378039.24309  20433356.240    83671219.78449
  23730536.100   124704841.74608  23730535.800    97172611.78545
 15 02 23 02 46  0.0000000  0  9G04G11G16G18G19G21G22G27G32
  22591670.960   118720041.06009  22591669.020    92509133.17847
  24223774.840   127296805.77507  24223772.260    99192320.38444
  21326101.480   112069428.91909  21326098.100    87326822.21048
  22595146.480   118738392.84209  22595142.980    92523458.28347
  21502236.720   112995038.58609  21502232.040    88048060.15748
  24646078.960   129516295.24508  24646075.700   100921890.14145
  20649067.640   108511665.92809  20649062.080    84554561.49849
  20429623.720   107358420.97409  20429623.060    83655932.82749
  23708447.640   124588767.03508  23708447.260    97082164.13245
 15 02 23 02 46 30.0000000  0  9G04G11G16G18G19G21G22G27G32
  22578174.240   118649115.75609  22578172.400    92453866.71147
  24207382.140   127210661.19007  24207379.240    99125194.72944
  21338705.720   112135664.43009  21338702.320    87378434.28748
  22608069.480   118806304.41109  22608065.980    92576376.39147
  21491381.940   112937995.53609  21491377.060    88003611.01948
  24659002.140   129584204.88607  24658998.160   100974806.74044
  20650904.900   108521320.60309  20650899.340    84562084.61949
  20425952.120   107339126.76709  20425951.540    83640898.37649
  23686384.180   124472823.79508  23686383.840    96991818.91245
 15 02 23 02 47  0.0000000  0 10G04G11G14G16G18G19G21G22G27G32
  22564717.400   118578400.11008  22564715.680    92398763.63947
  24191002.160   127124583.90107  24190999.060    99058121.52743
  24672992.820   129657455.24407  24672990.240   101031772.65045
  21351396.640   112202355.58809  21351393.220    87430401.42048
  22621052.680   118874531.80609  22621049.300    92629540.56647
  21480564.300   112881148.12309  21480559.300    87959314.33548
  24671921.660   129652096.40808  24671917.580   101027709.20045
  20652841.080   108531495.64209  20652835.560    84570013.22149
  20422342.640   107320158.67509  20422342.040    83626118.04249
  23664346.360   124357015.16208  23664345.940    96901578.58545
 15 02 23 02 47 30.0000000  0 10G04G11G14G16G18G19G21G22G27G32
  22551299.160   118507887.29509  22551297.520    92343818.62247
  24174633.760   127038567.50207  24174630.720    98991095.77444
  24658804.140   129582894.37807  24658801.820   100973673.40944
  21364172.500   112269493.19609  21364169.040    87482716.42048
  22634094.400   118943065.96809  22634091.020    92682943.84647
  21469782.840   112824490.82909  21469777.780    87915165.81148
  24684836.200   129719962.70308  24684831.960   101080591.98445
  20654874.980   108542184.22909  20654869.460    84578342.00049
  20418794.200   107301511.26509  20418793.520    83611587.60249
  23642333.420   124241337.20208  23642332.940    96811440.06245
 15 02 23 02 48  0.0000000  0 10G04G11G14G16G18G19G21G22G27G32
  22537920.880   118437584.14909  22537919.240    92289036.96547
  24158278.100   126952618.48807  24158275.400    98924122.54144
  24644616.900   129508337.89708  24644613.980   100915577.46344
  21377034.220   112337082.34009  21377030.800    87535383.27648
  22647195.400   119011911.47109  22647191.820    92736589.68447
  21459039.060   112768031.63709  21459033.940    87871171.63448
  24697747.220   129787810.12408  24697742.740   101133460.12545
  20657007.640   108553391.84009  20657002.140    84587075.20249
  20415308.320   107283192.53509  20415307.560    83597313.25849
  23620347.120   124125799.14808  23620346.520    96721410.55145
 15 02 23 02 48 30.0000000  0 10G04G11G14G16G18G19G21G22G27G32
  22524582.360   118367489.85309  22524580.700    92234418.05447
  24141935.160   126866736.45507  24141932.700    98857201.48045
  24630430.800   129433787.47608  24630427.620   100857486.27044
  21389981.240   112405119.64209  21389977.860    87588399.34948
  22660355.120   119081065.46209  22660351.540    92790475.89947
  21448333.080   112711771.32009  21448327.960    87827332.43348
  24710654.280   129855637.88107  24710650.540   101186312.85745
  20659238.720   108565116.58909  20659233.220    84596211.37449
  20411885.100   107265203.09009  20411884.280    83583295.51349
  23598387.780   124010402.78408  23598387.240    96631491.47245
 15 02 23 02 49  0.0000000  0 10G04G11G14G16G18G19G21G22G27G32
  22511283.700   118297604.88609  22511282.040    92179962.26447
  24125605.140   126780921.87307  24125602.600    98790333.01844
  24616246.460   129359246.43208  24616243.020   100799402.38744
  21403013.080   112473602.74109  21403009.760    87641762.79948
  22673573.220   119150526.24809  22673569.480    92844601.19646
  21437665.180   112655711.34209  21437660.080    87783649.34048
  24723557.700   129923445.97708  24723554.120   101239150.38944
  20661568.080   108577357.62409  20661562.540    84605749.85349
  20408524.840   107247544.43209  20408523.940    83569535.52249
  23576455.980   123895151.06208  23576455.280    96541685.08145
 15 02 23 02 49 30.0000000  0 10G04G11G14G16G18G19G21G22G27G32
  22498025.040   118227929.85809  22498023.360    92125670.05347
  24109288.220   126695175.65107  24109285.580    98723517.80045
  24602064.200   129284717.71908  24602060.680   100741328.13944
  21416129.580   112542530.58509  21416126.320    87695472.79948
  22686849.320   119220292.06209  22686845.640    92898964.16047
  21427035.720   112599853.63909  21427030.760    87740123.86348
  24736457.460   129991234.78108  24736454.040   101291972.78745
  20663995.800   108590115.44209  20663990.280    84615691.01049
  20405227.880   107230218.47209  20405226.940    83556034.77449
  23554552.300   123780046.99908  23554551.460    96451993.74645
 15 02 23 02 50  0.0000000  0 10G04G11G14G16G18G19G21G22G27G32
  22484806.180   118158464.06209  22484804.500    92071540.88647
  24092984.300   126609497.65007  24092981.640    98656755.73844
  24587884.460   129210203.73108  24587880.980   100683265.31644
  21429330.100   112611899.67509  21429326.840    87749526.61348
  22700182.860   119290360.08809  22700179.220    92953562.61447
  21416444.920   112544198.94609  21416440.020    87696756.56848
  24749353.420   130059003.45007  24749350.280   101344779.47745
  20666521.500   108603388.00109  20666516.000    84626033.26549
  20401994.300   107213226.00509  20401993.360    83542793.88649
  23532677.160   123665092.84308  23532676.300    96362419.20845
 15 02 23 02 50 30.0000000  0 10G04G11G14G16G18G19G21G22G27G32
  22471627.180   118089207.77809  22471625.480    92017574.95947
  24076693.340   126523887.94907  24076690.780    98590046.89244
  24573707.760   129135707.18908  24573704.620   100625216.11445
  21442614.180   112681707.90509  21442610.940    87803922.62648
  22713573.420   119360728.13109  22713569.820    93008394.84847
  21405893.060   112488748.81509  21405888.240    87653548.68048
  24762245.700   130126751.76907  24762242.600   101397570.37545
  20669144.940   108617174.28909  20669139.460    84636775.83249
  20398824.400   107196568.37309  20398823.480    83529813.91549
  23510831.020   123550291.07308  23510830.160    96272963.43745
 15 02 23 02 51  0.0000000  0 10G04G11G14G16G18G19G21G22G27G32
  22458488.340   118020162.84009  22458486.680    91963773.73247
  24060415.700   126438348.81508  24060413.020    98523393.04845
  24559534.960   129061232.72207  24559532.320   100567184.13245
  21455981.780   112751954.75509  21455978.520    87858660.41648
  22727021.060   119431395.98009  22727017.340    93063460.71047
  21395380.800   112433506.48409  21395376.000    87610502.71048
  24775134.500   130194481.48807  24775131.160   101450346.81644
  20671866.400   108631475.43209  20671860.920    84647919.58649
  20395718.800   107180248.57609  20395717.880    83517097.19149
  23489014.720   123435646.20208  23489013.920    96183629.89346
 15 02 23 02 51 30.0000000  0 10G04G11G14G16G18G19G21G22G27G32
  22445389.420   117951327.48509  22445387.720    91910135.80647
  24044151.180   126352878.62908  24044148.540    98456792.92845
  24545366.320   128986781.42107  24545364.500   100509170.19345
  21469432.060   112822636.18009  21469428.780    87913736.83948
  22740524.980   119502359.90009  22740521.260    93118757.26947
  21384908.000   112378471.31809  21384903.140    87567618.16648
  24788019.280   130262190.52408  24788016.060   101503107.02645
  20674685.320   108646288.82309  20674679.820    84659462.49249
  20392677.460   107164266.26909  20392676.500    83504643.44449
  23467228.420   123321159.04308  23467227.620    96094419.25246
 15 02 23 02 52  0.0000000  0 10G04G11G14G16G18G19G21G22G27G32
  22432330.660   117882703.11709  22432328.920    91856662.29547
  24027900.080   126267478.85308  24027897.460    98390247.65845
  24531202.900   128912357.20207  24531201.720   100451177.32045
  21482964.840   112893751.26109  21482961.540    87969151.17448
  22754085.020   119573618.84909  22754081.160    93174283.73346
  21374475.080   112323645.93709  21374470.200    87524897.09548
  24800900.200   130329880.00507  24800897.100   101555852.05445
  20677601.740   108661614.53709  20677596.200    84671404.61149
  20389700.880   107148624.09309  20389699.860    83492454.73849
  23445472.900   123206833.60508  23445472.040    96005334.62045
 15 02 23 02 52 30.0000000  0 10G04G11G14G16G18G19G21G22G27G32
  22419310.760   117814282.94909  22419308.920    91803347.88947
  24011661.200   126182143.02108  24011658.640    98323752.24944
  24517044.560   128837955.89708  24517043.620   100393202.33945
  21496578.320   112965290.33709  21496575.000    88024895.90048
  22767699.460   119645163.67909  22767695.700    93230032.92646
  21364080.940   112269024.85909  21364076.120    87482335.21848
  24813776.000   130397542.73307  24813772.560   101608576.25544
  20680614.180   108677444.72709  20680608.620    84683739.82449
  20386787.920   107133316.29609  20386786.860    83480526.58049
  23423747.320   123092665.30008  23423746.300    95916372.41345
 15 02 23 02 53  0.0000000  0 10G04G11G14G16G18G19G21G22G27G32
  22406330.900   117746073.48509  22406329.040    91750197.66747
  23995435.760   126096877.60008  23995433.220    98257311.67445
  24502892.780   128763586.97908  24502891.700   100335252.57444
  21510273.200   113037257.26509  21510269.900    88080974.02048
  22781369.160   119716998.46909  22781365.360    93286008.11046
  21353727.140   112214616.04309  21353722.380    87439938.74048
  24826647.840   130465184.94207  24826644.580   101661284.47445
  20683723.600   108693784.79509  20683718.080    84696472.34449
  20383940.080   107118350.58309  20383938.980    83468864.98849
  23402053.360   122978663.30708  23402052.440    95827539.82246
 15 02 23 02 53 30.0000000  0 10G04G11G14G16G18G19G21G22G27G32
  22393390.580   117678071.87809  22393388.740    91697209.41847
  23979223.260   126011680.26208  23979220.700    98190924.18145
  24488747.360   128689250.07508  24488745.820   100277327.77745
  21524048.500   113109646.82609  21524045.240    88137381.45448
  22795093.200   119789118.55209  22795089.200    93342205.58346
  21343413.540   112160418.19509  21343408.840    87397706.65948
  24839515.220   130532803.99808  24839511.700   101713974.63143
  20686929.240   108710630.69909  20686923.840    84709599.03349
  20381157.060   107103725.60909  20381156.000    83457468.91049
  23380391.060   122864827.63008  23380389.980    95738836.78645
 15 02 23 02 54  0.0000000  0 10G04G11G14G16G18G19G21G22G27G32
  22380490.280   117610280.52009  22380488.380    91644385.01046
  23963024.280   125926554.06808  23963021.740    98124592.11044
  24474609.260   128614951.02908  24474607.360   100219432.44044
  21537904.300   113182459.52309  21537901.120    88194118.61848
  22808871.540   119861524.04409  22808867.420    93398625.44147
  21333141.000   112106435.32609  21333136.220    87355642.08148
  24852378.540   130600402.17307  24852375.080   101766648.52645
  20690231.540   108727984.82309  20690226.260    84723121.72949
  20378439.640   107089445.29709  20378438.580    83446341.38449
  23358761.320   122751163.34408  23358760.260    95650267.32346
 15 02 23 02 54 30.0000000  0 10G04G11G14G16G18G19G21G22G27G32
  22367630.080   117542700.14109  22367628.160    91591724.99347
  23946838.860   125841499.32208  23946836.280    98058315.70845
  24460478.840   128540692.80008  24460476.660   100161568.90445
  21551840.240   113255693.51609  21551837.100    88251184.04548
  22822703.920   119934213.57309  22822699.740    93455266.62946
  21322909.700   112052669.08709  21322904.820    87313746.31148
  24865237.960   130667979.65108  24865234.540   101819306.24444
  20693630.300   108745845.75409  20693625.080    84737039.34149
  20375788.080   107075511.16809  20375786.980    83435483.62249
  23337164.740   122637673.43308  23337163.780    95561833.72045
 15 02 23 02 55  0.0000000  0 10G04G11G14G16G18G19G21G22G27G32
  22354810.040   117475330.95709  22354808.160    91539229.54347
  23930667.140   125756516.88008  23930664.500    97992095.64845
  24446356.640   128466478.43008  24446353.860   100103739.54345
  21565855.860   113329346.52509  21565852.820    88308575.98548
  22836589.960   120007184.92709  22836585.720    93512127.44046
  21312719.900   111999121.12509  21312715.000    87272020.63448
  24878093.680   130735536.48807  24878090.220   101871948.00644
  20697125.340   108764212.38909  20697120.140    84751351.00949
  20373202.700   107061924.81509  20373201.560    83424896.85349
  23315601.860   122524360.68508  23315601.020    95473538.17246
 15 02 23 02 55 30.0000000  0 10G04G11G14G16G18G19G21G22G27G32
  22342030.180   117408172.65709  22342028.380    91486898.43447
  23914509.200   125671606.89808  23914506.420    97925932.05544
  24432243.060   128392310.47108  24432239.720   100045946.39144
  21579950.680   113403415.81309  21579947.780    88366292.30248
  22850529.180   120080435.72109  22850524.920    93569205.99346
  21302571.740   111945792.41009  21302566.900    87230465.79948
  24890945.520   130803072.36908  24890942.040   101924573.30745
  20700716.620   108783084.22209  20700711.320    84766056.33249
  20370683.680   107048687.28909  20370682.540    83414581.90249
  23294073.200   122411227.68308  23294072.400    95385382.67845
 15 02 23 02 56  0.0000000  0 10G04G11G14G16G18G19G21G22G27G32
  22329290.100   117341223.28209  22329288.380    91434730.11047
  23898364.720   125586767.15608  23898361.820    97859823.17845
  24418138.240   128318189.48008  24418134.760    99988189.81444
  21594123.780   113477896.39809  21594120.960    88424329.09848
  22864520.680   120153961.98309  22864516.560    93626499.17446
  21292465.240   111892682.53609  21292460.460    87189081.48648
  24903792.760   130870585.19507  24903788.780   101977180.68944
  20704403.380   108802457.61709  20704397.960    84781152.48649
  20368230.860   107035797.79609  20368229.800    83404538.13749
  23272578.820   122298274.79708  23272578.160    95297367.53946
 15 02 23 02 56 30.0000000  0 10G04G11G14G16G18G19G21G22G27G32
  22316590.020   117274483.79009  22316588.260    91382725.33347
  23882233.960   125501999.21708  23882231.100    97793770.24945
  24404042.980   128244119.39308  24404039.520    99930472.88844
  21608374.900   113552786.83109  21608372.120    88482685.27148
  22878564.300   120227762.17209  22878560.340    93684005.81746
  21282400.840   111839793.82809  21282396.100    87147869.50648
  24916635.860   130938075.32607  24916631.780   102029770.44945
  20708185.480   108822332.14809  20708179.960    84796639.13249
  20365844.660   107023258.39909  20365843.660    83394767.17249
  23251119.440   122185505.48308  23251118.700    95209495.43446
 15 02 23 02 57  0.0000000  0 10G04G11G14G16G18G19G21G22G27G32
  22303930.840   117207959.15609  22303928.980    91330887.98547
  23866117.780   125417307.98008  23866115.040    97727777.12245
  24389958.740   128170108.02208  24389955.640    99872801.72945
  21622704.540   113628089.56309  21622701.740    88541362.70748
  22892660.540   120301838.95409  22892656.700    93741727.98546
  21272379.720   111787132.57109  21272375.060    87106834.76848
  24929475.420   131005548.04007  24929471.360   102082346.51444
  20712063.660   108842711.81209  20712058.100    84812519.39349
  20363526.280   107011075.32909  20363525.340    83385273.87549
  23229696.460   122072927.36508  23229695.700    95121772.33046
 15 02 23 02 57 30.0000000  0 10G04G11G14G16G18G19G21G22G27G32
  22291311.360   117141643.44109  22291309.380    91279213.42447
  23850015.120   125332688.00708  23850012.440    97661839.47445
  24375885.160   128096152.36308  24375882.420    99815173.96944
  21637111.080   113703796.01309  21637108.180    88600354.73448
  22906807.920   120376184.36909  22906804.240    93799659.46946
  21262401.020   111734694.32409  21262396.500    87065973.80748
  24942310.460   131072996.82808  24942306.260   102134903.98644
  20716036.520   108863589.41309  20716030.940    84828787.65049
  20361274.920   106999244.00809  20361273.880    83376054.65049
  23208309.240   121960537.09408  23208308.440    95034195.56946
 15 02 23 02 58  0.0000000  0 10G04G11G14G16G18G19G21G22G27G32
  22278732.140   117075539.41209  22278730.220    91227703.82447
  23833926.480   125248142.20608  23833923.860    97595959.66245
  24361823.320   128022257.67808  24361820.980    99757593.73044
  21651594.720   113779907.29309  21651591.660    88659662.22248
  22921006.540   120450798.72309  22921003.060    93857800.53046
  21252465.620   111682483.54009  21252461.180    87025290.08748
  24955141.600   131140424.74207  24955137.520   102187445.25745
  20720104.440   108884966.62409  20720098.840    84845445.21749
  20359091.240   106987768.43809  20359090.120    83367112.64449
  23186958.880   121848340.06608  23186957.880    94946769.39746
 15 02 23 02 58 30.0000000  0 10G04G11G14G16G18G19G21G22G27G32
  22266193.060   117009646.55908  22266191.280    91176358.76247
  23817852.020   125163670.83208  23817849.400    97530137.84145
  24347773.560   127948426.43508  24347771.580    99700062.93045
  21666154.720   113856419.81109  21666151.500    88719282.36648
  22935255.900   120525679.59209  22935252.360    93916149.26346
  21242573.640   111630500.93409  21242569.200    86984784.16948
  24967968.380   131207831.11107  24967964.660   102239969.59244
  20724267.140   108906841.94709  20724261.480    84862490.91949
  20356975.380   106976649.35309  20356974.220    83358448.42349
  23165645.720   121736338.38608  23165644.540    94859495.44746
 15 02 23 02 59  0.0000000  0 10G04G11G14G16G18G19G21G22G27G32
  22253693.900   116943963.70509  22253692.320    91125177.34047
  23801791.560   125079272.68908  23801788.860    97464373.07345
  24333736.120   127874660.04608  24333734.420    99642582.67645
  21680790.320   113933329.68509  21680786.940    88779212.12248
  22949555.340   120600823.58809  22949552.000    93974703.01246
  21232725.140   111578746.59609  21232720.680    86944456.11949
  24980790.880   131275214.07607  24980786.780   102292475.90544
  20728524.080   108929212.53609  20728518.400    84879922.54649
  20354927.280   106965886.68509  20354926.160    83350061.92049
  23144369.980   121624533.26008  23144368.640    94772374.64846
 15 02 23 02 59 30.0000000  0 10G04G11G14G16G18G19G21G22G27G32
  22241234.920   116878491.73609  22241233.440    91074160.23547
  23785745.340   124994949.17908  23785742.500    97398666.46045
  24319711.880   127800962.74308  24319710.240    99585156.21845
  21695501.100   114010635.02209  21695497.640    88839450.03548
  22963904.620   120676229.38209  22963901.160    94033460.77346
  21222920.580   111527222.88309  21222916.060    86904307.78449
  24993609.020   131342575.06307  24993605.100   102344964.86745
  20732875.160   108952078.22509  20732869.580    84897739.97349
  20352947.380   106955482.67709  20352946.360    83341954.89749
  23123132.340   121512928.44108  23123130.840    94685409.91546
 15 02 23 03 00  0.0000000  0 10G04G11G14G16G18G19G21G22G27G32
  22228816.460   116813232.43809  22228814.980    91023308.87547
  23769713.640   124910701.84808  23769710.760    97333019.22645
  24305701.680   127727338.93908  24305700.140    99527787.06445
  21710286.980   114088335.45409  21710283.480    88899995.81748
  22978303.660   120751896.40109  22978300.320    94092422.07147
  21213160.600   111475933.24609  21213156.020    86864341.84149
  25006423.460   131409915.38107  25006419.480   102397437.85244
  20737320.500   108975439.40109  20737315.040    84915943.48949
  20351036.260   106945440.20409  20351035.340    83334129.59549
  23101933.580   121401528.05008  23101931.980    94598604.49146
 15 02 23 03 00 30.0000000  0  9G04G11G14G16G18G19G22G27G32
  22216437.340   116748179.85709  22216435.860    90972618.57147
  23753695.420   124826525.24708  23753692.520    97267427.09045
  24291704.800   127653785.12707  24291703.220    99470472.46044
  21725146.320   114166421.98609  21725142.800    88960842.44948
  22992750.800   120827816.48709  22992747.360    94151580.58546
  21203444.340   111424872.89409  21203439.520    86824554.55648
  20741858.820   108999288.78909  20741853.420    84934527.43349
  20349193.080   106935754.44109  20349192.180    83326582.23749
  23080773.020   121290328.61208  23080771.360    94511955.64046
 15 02 23 03 01  0.0000000  0  9G04G11G14G16G18G19G22G27G32
  22204099.280   116683342.87209  22204097.760    90922096.26847
  23737692.520   124742429.15408  23737689.540    97201897.68345
  24277723.760   127580313.58308  24277722.020    99413221.93745
  21740080.320   114244900.95109  21740076.840    89021994.86948
  23007247.400   120903996.52909  23007244.220    94210941.64546
  21193773.680   111374052.54409  21193768.680    86784954.28748
  20746491.680   109023634.37509  20746486.220    84953498.02249
  20347419.860   106926435.93109  20347418.920    83319321.05649
  23059652.960   121179342.12909  23059651.300    94425472.74046
 15 02 23 03 01 30.0000000  0  9G04G11G14G16G18G19G22G27G32
  22191801.160   116618715.59209  22191799.580    90871737.37947
  23721703.760   124658407.54508  23721700.780    97136426.31646
  24263757.860   127506920.86708  24263755.880    99356032.82045
  21755087.360   114323763.69409  21755083.920    89083446.34948
  23021791.820   120980427.91709  23021788.500    94270498.56246
  21184147.740   111323467.67509  21184142.580    86745537.52048
  20751217.580   109048468.54309  20751212.020    84972849.31949
  20345715.580   106917479.66909  20345714.580    83312342.14449
  23038572.660   121068564.83308  23038571.080    94339152.83446
 15 02 23 03 02  0.0000000  0  9G04G11G14G16G18G19G22G27G32
  22179543.340   116554300.15809  22179541.660    90821543.54647
  23705729.580   124574462.89708  23705726.640    97071014.92046
  24249807.880   127433612.00008  24249805.560    99298909.06945
  21770167.620   114403010.91109  21770164.180    89145197.41948
  23036384.200   121057111.25208  23036380.980    94330251.81446
  21174567.260   111273121.71609  21174561.880    86706306.89548
  20756036.660   109073792.41409  20756030.940    84992582.20249
  20344080.840   106908889.03109  20344079.860    83305648.13349
  23017533.100   120958001.62708  23017531.520    94252999.73846
 15 02 23 03 02 30.0000000  0  9G04G11G14G16G18G19G22G27G32
  22167326.140   116490098.18909  22167324.420    90771516.06747
  23689770.340   124490597.22608  23689767.540    97005665.06546
  24235874.640   127360391.71207  24235872.220    99241854.33645
  21785320.640   114482640.40309  21785317.160    89207246.35648
  23051024.460   121134045.98508  23051021.020    94390200.96646
  21165032.800   111223017.94009  21165027.280    86667265.00648
  20760948.880   109099606.14109  20760943.080    85012696.79949
  20342516.200   106900666.82609  20342515.240    83299241.22449
  22996535.060   120847656.66609  22996533.480    94167016.71746
 15 02 23 03 03  0.0000000  0  9G04G11G14G16G18G19G22G27G32
  22155149.140   116426107.65909  22155147.380    90721653.34047
  23673825.780   124406808.70408  23673823.200    96940375.32546
  24221958.400   127287261.10708  24221955.780    99184869.46545
  21800545.680   114562648.34709  21800542.200    89269590.18948
  23065711.680   121211227.74809  23065708.360    94450342.57246
  21155544.200   111173155.55409  21155538.740    86628411.18948
  20765953.620   109125906.48509  20765947.880    85033190.58749
  20341021.540   106892812.39809  20341020.660    83293120.87849
  22975578.700   120737530.63708  22975577.140    94081204.29746
 15 02 23 03 03 30.0000000  0  9G04G11G14G16G18G19G22G27G32
  22143012.000   116362326.70509  22143010.260    90671953.92047
  23657895.740   124323095.94008  23657893.200    96875144.60946
  24208059.260   127214220.38608  24208056.460    99127954.63245
  21815841.740   114643029.63809  21815838.300    89332224.95548
  23080445.160   121288652.17208  23080441.620    94510673.29646
  21146101.540   111123534.41909  21146096.200    86589745.37749
  20771050.220   109152689.58309  20771044.560    85054060.52949
  20339596.720   106885324.86309  20339595.900    83287286.44049
  22954664.100   120627624.04808  22954662.600    93995562.85246
 15 02 23 03 04  0.0000000  0 10G01G04G11G14G16G18G19G22G27G32
  24587829.640   129209917.62305                                
  22130915.480   116298759.24409  22130913.780    90622420.86347
  23641981.020   124239463.33508  23641978.360    96809976.37046
  24194178.540   127141276.69708  24194175.500    99071115.41045
  21831209.020   114723785.41509  21831205.660    89395151.52548
  23095225.140   121366321.36208  23095221.660    94571194.73746
  21136705.860   111074159.95309  21136700.640    86551271.77249
  20776239.320   109179958.69209  20776233.780    85075309.19649
  20338242.720   106878209.45909  20338241.960    83281741.96449
  22933792.560   120517943.54608  22933791.000    93910097.58346
 15 02 23 03 04 30.0000000  0 10G01G04G11G14G16G18G19G22G27G32
  24573088.880   129132452.24705  24573091.080   100622700.73243
  22118860.020   116235407.33809  22118858.300    90573055.77047
  23626082.100   124155913.45508  23626079.220    96744872.58446
  24180317.000   127068435.00308  24180314.120    99014355.72045
  21846647.600   114804915.81109  21846644.300    89458369.99548
  23110051.620   121444235.23209  23110047.900    94631906.84146
  21127357.820   111025035.77109  21127352.720    86512993.19249
  20781521.060   109207714.36309  20781515.540    85096936.98849
  20336960.140   106871469.56009  20336959.460    83276490.09849
  22912964.940   120408493.87709  22912963.340    93824812.18246
 15 02 23 03 05  0.0000000  0 10G01G04G11G14G16G18G19G22G27G32
  24558368.980   129055098.60005  24558370.580   100562425.19843
  22106844.800   116172266.80209  22106842.980    90523855.37647
  23610198.120   124072441.96208  23610195.000    96679829.87446
  24166474.680   126995694.04608  24166471.900    98957674.45845
  21862156.040   114886413.45009  21862152.860    89521874.64048
  23124923.360   121522386.80609  23124919.800    94692804.16146
  21118056.800   110976158.90509  21118051.840    86474907.33249
  20786894.180   109235950.55609  20786888.740    85118939.22349
  20335748.400   106865101.85009  20335747.720    83271528.24349
  22892180.900   120299273.12308  22892179.240    93739705.15246
 15 02 23 03 05 30.0000000  0 10G01G04G11G14G16G18G19G22G27G32
  24543669.820   128977853.51805  24543671.400   100502234.26144
  22094869.160   116109334.43309  22094867.280    90474817.18247
  23594328.500   123989046.06008  23594325.200    96614846.07146
  24152651.420   126923053.26708  24152648.920    98901071.28745
  21877733.240   114968272.32009  21877730.140    89585660.75448
  23139839.300   121600771.07508  23139835.620    94753882.83546
  21108802.540   110927527.70509  21108797.680    86437012.90449
  20792357.980   109264663.31109  20792352.580    85141312.79349
  20334607.160   106859104.35709  20334606.380    83266854.87649
  22871440.300   120190280.67908  22871438.600    93654776.01646
 15 02 23 03 06  0.0000000  0 10G01G04G11G14G16G18G19G22G27G32
  24528992.820   128900724.99705  24528994.500   100442134.15244
  22082934.560   116046617.92109  22082932.720    90425947.19747
  23578474.900   123905734.45408  23578471.460    96549927.95346
  24138849.180   126850523.70108  24138847.000    98844554.76345
  21893380.300   115050498.20409  21893377.240    89649732.87148
  23154800.560   121679393.71508  23154797.240    94815147.20247
  21099596.880   110879151.80109  21099592.040    86399317.40049
  20797913.600   109293858.69009  20797908.280    85164062.44249
  20333538.160   106853486.33809  20333537.260    83262477.19749
  22850745.180   120081527.23608  22850743.480    93570033.12946
 15 02 23 03 06 30.0000000  0 10G01G04G11G14G16G18G19G22G27G32
  24514337.420   128823710.18205  24514339.160   100382122.61844
  22071040.540   115984114.63709  22071038.740    90377243.35947
  23562636.800   123822504.64208  23562633.340    96485073.56346
  24125068.060   126778105.41308  24125066.300    98788124.98145
  21909096.060   115133084.99909  21909093.020    89714086.18948
  23169806.320   121758249.67408  23169802.840    94876593.43246
  21090439.560   110831029.67809  21090434.660    86361819.64249
  20803560.220   109323532.46209  20803554.960    85187184.86549
  20332541.000   106848246.09009  20332540.060    83258393.88349
  22830095.480   119973012.56408  22830093.760    93485476.29746
 15 02 23 03 07  0.0000000  0 10G01G04G11G14G16G18G19G22G27G32
  24499702.840   128746805.05305  24499704.380   100322196.55143
  22059186.360   115921820.75009  22059184.620    90328702.69147
  23546813.460   123739352.69508  23546810.160    96420279.86046
  24111308.140   126705797.44708  24111306.480    98731781.13245
  21924879.260   115216026.05409  21924876.220    89778715.57148
  23184855.200   121837333.07608  23184852.140    94938216.81346
  21081330.240   110783159.25309  21081325.160    86324518.00849
  20809296.940   109353679.29209  20809291.660    85210675.90649
  20331615.180   106843380.83309  20331614.240    83254602.76849
  22809490.920   119864735.14108  22809489.160    93401104.33046
 15 02 23 03 07 30.0000000  0 10G01G04G11G14G16G18G19G22G27G32
  24485089.560   128670011.41705  24485090.980   100262357.37144
  22047372.380   115859738.01609  22047370.600    90280326.56747
  23531005.480   123656281.31209  23531002.260    96355548.93346
  24097570.220   126633604.42408  24097568.280    98675526.86544
  21940729.800   115299321.01409  21940726.780    89843620.71448
  23199947.420   121916643.67908  23199944.200    95000017.30146
  21072269.480   110735543.71809  21072264.180    86287414.99449
  20815123.800   109384299.50409  20815118.520    85234535.80748
  20330761.240   106838893.57409  20330760.340    83251106.21149
  22788932.380   119756699.48709  22788930.680    93316920.75846
 15 02 23 03 08  0.0000000  0 10G01G04G11G14G16G18G19G22G27G32
  24470497.660   128593330.35405  24470498.940   100202605.94544
  22035598.820   115797867.45909  22035596.960    90232115.75447
  23515212.980   123573291.48509  23515209.800    96290881.55146
  24083854.960   126561530.07508  24083853.000    98619365.05345
  21956647.360   115382967.94409  21956644.260    89908800.12248
  23215082.700   121996180.15708  23215079.580    95061993.78046
  21063257.660   110688185.48309  21063252.200    86250512.46949
  20821040.760   109415392.85209  20821035.420    85258764.39648
  20329979.640   106834786.47309  20329978.800    83247905.85949
  22768420.520   119648909.16609  22768418.860    93232928.34046
 15 02 23 03 08 30.0000000  0 10G01G04G11G14G16G18G19G22G27G32
  24455925.920                    24455925.820                  
  22023864.960   115736205.36909  22023862.960    90184067.38147
  23499435.480   123490380.27608  23499432.300    96226275.43546
  24070162.340   126489573.88908  24070160.400    98563295.35345
  21972630.700   115466960.43009  21972627.500    89974248.80848
  23230259.720   122075936.63708  23230256.540    95124141.66846
  21054294.400   110641082.60909  21054288.860    86213808.92649
  20827046.720   109446953.87809  20827041.280    85283357.40949
  20329269.920   106831056.97909  20329269.080    83244999.75449
  22747955.140   119541363.05508  22747953.560    93149126.22246
 15 02 23 03 09  0.0000000  0 10G01G04G11G14G16G18G19G22G27G32
  24441378.160   128440313.58805  24441380.040   100083369.02244
  22012173.620   115674766.80509  22012171.520    90136193.19347
  23483675.880   123407563.00908  23483672.680    96161742.51346
  24056495.680   126417753.69508  24056493.740    98507331.57045
  21988682.020   115551310.32009  21988678.740    90039975.97148
  23245481.180   122155925.88408  23245478.260    95186470.93846
  21045382.800   110594251.71109  21045377.300    86177317.31849
  20833144.320   109478996.34409  20833138.700    85308325.55849
  20328635.080   106827721.29009  20328634.300    83242400.51649
  22727539.580   119434078.73109  22727538.020    93065528.09946
 15 02 23 03 09 30.0000000  0 10G01G04G11G14G16G18G19G22G27G32
  24426850.920   128363972.17106  24426852.900   100023882.24044
  22000521.640   115613535.05309  22000519.400    90088480.15047
  23467931.040   123324823.19008  23467927.780    96097269.94846
  24042852.120   126346055.60908  24042850.200    98451462.96645
  22004797.880   115635999.32609  22004794.480    90105967.39148
  23260743.360   122236129.24708  23260740.380    95248967.06746
  21036519.920   110547677.39609  21036514.560    86141025.64649
  20839329.900   109511501.68909  20839324.240    85333654.40949
  20328072.160   106824763.84009  20328071.480    83240096.00149
  22707171.180   119327042.09309  22707169.580    92982122.97546
 15 02 23 03 10  0.0000000  0 10G01G04G11G14G16G18G19G22G27G32
  24412345.060   128287742.49005  24412347.080    99964482.51644
  21988909.820   115552514.66109  21988907.560    90040931.79747
  23452201.960   123242166.32708  23452198.700    96032862.02746
  24029233.180   126274487.53908  24029231.280    98395695.67245
  22020978.500   115721028.80909  22020975.060    90172224.11548
  23276046.880   122316549.26208  23276043.760    95311632.01246
  21027707.060   110501366.10609  21027701.840    86104938.93049
  20845604.220   109544473.44709  20845598.540    85359346.69249
  20327582.320   106822190.48609  20327581.760    83238090.79549
  22686851.300   119220260.43708  22686849.720    92898916.53746
 15 02 23 03 10 30.0000000  0 10G01G04G11G14G16G18G19G22G27G32
  24397860.800   128211626.32106  24397862.620    99905171.28044
  21977338.560   115491707.50609  21977336.380    89993549.62247
  23436488.980   123159594.38808  23436485.740    95968520.28446
  24015639.680   126203053.67708  24015638.080    98340032.95746
  22037223.620   115806397.48309  22037220.180    90238745.14548
  23291391.480   122397185.32709  23291388.300    95374465.28946
  21018944.820   110455321.17009  21018939.780    86069059.76749
  20851967.240   109577911.63409  20851961.620    85385402.43148
  20327166.240   106820004.11609  20327165.700    83236387.13149
  22666580.720   119113738.07509  22666579.160    92815912.14246
 15 02 23 03 11  0.0000000  0 10G01G04G11G14G16G18G19G22G27G32
  24383398.020   128135623.06606  24383399.580    99845947.97145
  21965807.780   115431113.02109  21965805.680    89946333.15747
  23420792.100   123077107.29508  23420788.820    95904244.65746
  24002072.240   126131756.89708  24002071.000    98284477.08845
  22053532.740   115892102.43409  22053529.240    90305528.19948
  23306776.760   122478034.83308  23306773.340    95437464.90046
  21010233.480   110409543.67309  21010228.580    86033388.99349
  20858418.540   109611814.14909  20858413.040    85411819.97349
  20326824.000   106818205.29109  20326823.400    83234985.43549
  22646359.860   119007476.97508  22646358.280    92733111.33447
 15 02 23 03 11 30.0000000  0 10G01G04G11G14G16G18G19G22G27G32
  24368956.440   128059732.00306  24368957.900    99786812.10944
  21954317.360   115370730.61909  21954315.340    89899281.95547
  23405111.280   122994704.91508  23405108.100    95840035.01746
  23988531.440   126060599.16108  23988530.120    98229029.53245
  22069905.180   115978140.23709  22069901.680    90372570.62948
  23322202.300   122559095.31308  23322198.600    95500628.90546
  21001573.200   110364034.41709  21001568.440    85997927.23249
  20864957.840   109646178.99909  20864952.500    85438597.77648
  20326555.620   106816794.44509  20326554.940    83233886.06349
  22626189.040   118901479.05009  22626187.540    92650515.60246
 15 02 23 03 12  0.0000000  0 10G01G04G11G14G16G18G19G22G27G32
  24354536.340   127983954.07106  24354537.960    99727764.38845
  21942867.500   115310561.22509  21942865.500    89852396.74247
  23389446.860   122912388.52308  23389443.760    95775892.40046
  23975017.960   125989584.43208  23975016.220    98173693.39845
  22086340.660   116064509.10209  22086337.120    90439871.02547
  23337667.520   122640365.44808  23337663.900    95563956.25446
  20992964.520   110318795.95309  20992959.840    85962676.48749
  20871585.000   109681005.32009  20871579.720    85465735.17949
  20326361.460   106815773.74109  20326360.720    83233090.70549
  22606069.020   118795747.85709  22606067.480    92568127.70247
 15 02 23 03 12 30.0000000  0 10G01G04G11G14G16G18G19G22G27G32
  24340137.720   127908289.34606  24340139.460    99668804.87644
  21931458.240   115250604.93309  21931456.220    89805677.57847
  23373798.900   122830158.43508  23373795.820    95711817.03346
  23961532.220   125918715.84408  23961530.320    98118471.16145
  22102838.640   116151206.26209  22102835.120    90507427.24347
  23353172.200   122721842.82108  23353168.400    95627445.12446
  20984407.760   110273829.99609  20984403.060    85927638.08848
  20878299.780   109716291.81909  20878294.500    85493231.15648
  20326241.680   106815144.19109  20326240.940    83232600.14849
  22586000.260   118690285.99509  22585998.740    92485949.67546
 15 02 23 03 13  0.0000000  0 10G01G04G11G14G16G18G19G22G27G32
  24325760.620   127832737.53306  24325762.340    99609933.39945
  21920089.500   115190861.65409  21920087.480    89759124.39647
  23358167.480   122748015.12108  23358164.400    95647809.25446
  23948074.820   125847996.01208  23948072.800    98063364.83745
  22119398.380   116238228.27509  22119394.940    90575236.59248
  23368715.980   122803525.43408  23368712.180    95691093.91646
  20975903.100   110229137.65909  20975898.340    85892812.88248
  20885101.780   109752036.48309  20885096.420    85521084.14448
  20326196.460   106814906.84209  20326195.800    83232415.19749
  22565983.180   118585095.80308  22565981.660    92403983.34146
 15 02 23 03 13 30.0000000  0 10G01G04G11G14G16G18G19G22G27G32
  24311405.120   127757299.09206  24311406.920    99551150.23344
  21908761.240   115131331.73209  21908759.320    89712737.46447
  23342552.840   122665959.81708  23342549.860    95583870.07746
  23934646.300   125777428.11708  23934644.140    98008376.88945
  22136019.600   116325573.54409  22136016.260    90643297.82248
  23384298.260   122885411.63008  23384294.500    95754901.30446
  20967450.940   110184721.35309  20967446.220    85858202.77949
  20891990.740   109788238.27509  20891985.380    85549293.33248
  20326226.220   106815063.16009  20326225.560    83232536.99949
  22546018.380   118480180.31309  22546016.860    92322231.03347
 15 02 23 03 14  0.0000000  0 10G01G04G11G14G16G18G19G22G27G32
  24297071.380   127681974.98006  24297073.020    99492456.15044
  21897473.760   115072016.22409  21897471.960    89666517.62048
  23326955.240   122583993.84208  23326952.300    95520000.52346
  23921247.320   125707016.41408  23921245.220    97953510.64045
  22152701.940   116413240.23409  22152698.740    90711609.50848
  23399919.040   122967500.17708  23399915.620    95818866.39146
  20959051.760   110140583.47409  20959047.040    85823809.62149
  20898966.560   109824896.39109  20898961.180    85577858.09849
  20326331.360   106815615.28909  20326330.600    83232967.21949
  22526106.540   118375543.02409  22526105.020    92240695.52747
 15 02 23 03 14 30.0000000  0 10G01G04G11G14G16G18G19G22G27G32
  24282759.040   127606763.32206  24282760.740    99433849.68644
  21886226.720   115012913.09709  21886225.000    89620463.26448
  23311374.360   122502115.52608  23311371.480    95456199.25846
  23907878.180   125636761.86608  23907876.300    97898766.86345
  22169444.580   116501223.70309  22169441.500    90780168.04148
  23415577.620   123049787.02008  23415574.140    95882985.99246
  20950705.440   110096723.57909  20950700.800    85789633.08849
  20906028.600   109862007.62309  20906023.280    85606775.93848
  20326511.740   106816562.46409  20326510.840    83233705.27049
  22506247.780   118271184.69309  22506246.220    92159377.37847
 15 02 23 03 15  0.0000000  0 10G01G04G11G14G16G18G19G22G27G32
  24268467.800   127531662.32306  24268469.380    99375329.45645
  21875019.820   114954020.61909  21875018.120    89574573.05448
  23295809.940   122420323.70208  23295807.080    95392465.41146
  23894539.140   125566665.53708  23894537.480    97844146.37545
  22186246.600   116589519.30109  22186243.620    90848969.78348
  23431273.420   123132268.53208  23431269.760    95947257.33246
  20942412.060   110053141.89709  20942407.520    85755673.34549
  20913176.220   109899568.42709  20913170.940    85636044.11049
  20326767.140   106817903.96209  20326766.100    83234750.58649
  22486442.240   118167105.97309  22486440.660    92078277.12147
 15 02 23 03 15 30.0000000  0 10G01G04G11G14G16G18G19G22G27G32
  24254198.420   127456676.49806  24254200.020    99316898.96744
  21863853.960   114895343.67609  21863852.220    89528850.78448
  23280262.880   122338623.35908  23280260.000    95328802.82346
  23881231.580   125496735.03208  23881230.200    97789655.11246
  22203108.300   116678128.27409  22203105.360    90918015.71747
  23447006.580   123214946.82209  23447002.960    96011681.94146
  20934172.760   110009844.26409  20934168.280    85721934.93049
  20920409.940   109937581.86709  20920404.660    85665664.97448
  20327098.620   106819645.37809  20327097.500    83236107.52849
  22466691.320   118063314.02709  22466689.740    91997400.31147
 15 02 23 03 16  0.0000000  0 10G01G04G11G14G16G18G19G22G27G32
  24239949.940   127381800.26507  24239951.380    99258553.87344
  21852728.060   114836876.56909  21852726.240    89483292.01948
  23264732.320   122257009.82008  23264729.360    95265207.87746
  23867955.220   125426967.99608  23867954.060    97735291.19445
  22220028.180   116767042.74109  22220025.220    90987299.70547
  23462775.840   123297814.52308  23462772.340    96076254.15046
  20925986.860   109966826.90609  20925982.360    85688414.91549
  20927728.360   109976040.52909  20927723.120    85695632.75848
  20327505.300   106821782.30109  20327504.180    83237772.65949
  22446994.380   117959805.88009  22446992.780    91916744.64547
 15 02 23 03 16 30.0000000  0 10G01G04G11G14G16G18G19G22G27G32
  24225723.280   127307038.52806  24225724.880    99200298.02945
  21841643.080   114778624.24109  21841641.120    89437900.61148
  23249219.280   122175488.46308  23249216.360    95201684.77846
  23854711.500   125357371.91508  23854710.240    97681060.50145
  22237006.740   116856265.25309  22237003.720    91056823.71848
  23478581.740   123380874.52809  23478578.180    96140976.21846
  20917855.560   109924096.37909  20917851.020    85655118.40549
  20935132.180   110014947.98909  20935126.920    85725950.25848
  20327988.360   106824320.69109  20327987.220    83239750.62549
  22427352.860   117856589.04609  22427351.240    91836315.97547
 15 02 23 03 17  0.0000000  0 10G01G04G11G14G16G18G19G22G27G32
  24211518.220   127232390.85607  24211519.840    99142131.04445
  21830598.860   114720586.17109  21830596.760    89392676.15548
  23233723.740   122094059.06608  23233720.820    95138233.31645
  23841500.920   125287949.56708  23841499.520    97626965.18045
  22254043.260   116945792.44909  22254040.200    91126585.15648
  23494423.680   123464124.26108  23494420.240    96205846.10946
  20909779.160   109881654.10309  20909774.520    85622046.50249
  20942620.960   110054301.97709  20942615.720    85756615.69748
  20328547.920   106827261.12309  20328546.760    83242041.86849
  22407767.140   117753665.42909  22407765.500    91756115.78447
 15 02 23 03 17 30.0000000  0 10G01G04G11G14G16G18G19G22G27G32
  24197334.200   127157853.51007  24197335.800    99084050.03145
  21819594.720   114662758.89609  21819592.540    89347615.97248
  23218245.080   122012718.60008  23218242.220    95074851.16246
  23828323.160   125218699.93708  23828321.560    97573004.45546
  22271136.460   117035617.43009  22271133.360    91196578.62747
  23510300.680   123547557.86008  23510296.940    96270859.31846
  20901757.200   109839497.82309  20901752.400    85589197.45649
  20950193.680   110094096.96309  20950188.460    85787624.77348
  20329183.520   106830601.01309  20329182.320    83244644.37249
  22388236.980   117651034.01609  22388235.380    91676143.29947
 15 02 23 03 18  0.0000000  0 10G01G04G11G14G16G18G19G22G27G32
  24183171.780   127083429.24107  24183173.300    99026057.12745
  21808631.100   114605144.91509  21808628.980    89302721.98648
  23202784.000   121931470.32308  23202781.160    95011540.84946
  23815179.300   125149628.79408  23815177.600    97519182.81645
  22288286.260   117125740.00909  22288283.140    91266803.99847
  23526212.720   123631175.96909  23526209.080    96336016.24045
  20893790.480   109797631.86709  20893785.560    85556574.63549
  20957850.600   110134334.34109  20957845.360    85818978.57848
  20329895.820   106834344.13509  20329894.620    83247561.08249
  22368763.440   117548700.09609  22368761.840    91596402.62347
 15 02 23 03 18 30.0000000  0 10G01G04G11G14G16G18G19G22G27G32
  24169030.840   127009118.05507  24169032.220    98968152.33345
  21797708.120   114547744.53609  21797706.060    89257994.42848
  23187340.620   121850315.01808  23187337.820    94948302.97046
  23802070.060   125080739.32508  23802068.260    97465502.73945
  22305492.260   117216158.06809  22305489.180    91337259.61247
  23542159.520   123714976.52708  23542155.700    96401315.38545
  20885879.220   109756057.66509  20885874.260    85524179.16249
  20965591.360   110175012.12009  20965586.120    85850675.55348
  20330685.040   106838491.55609  20330683.840    83250792.83549
  22349346.980   117446666.20209  22349345.360    91516895.71947
 15 02 23 03 19  0.0000000  0 10G01G04G11G14G16G18G19G22G27G32
  24154911.260   126934919.47907  24154912.600    98910335.30045
  21786825.740   114490557.35909  21786823.700    89213433.00348
  23171914.940   121769252.54908  23171911.980    94885137.43846
  23788995.940   125012034.28208  23788994.020    97411966.35846
  22322753.700   117306867.82809  22322750.740    91407942.52247
  23558140.560   123798957.07508  23558136.900    96466754.75945
  20878023.720   109714776.71609  20878018.780    85492012.19049
  20973415.540   110216128.31909  20973410.280    85882714.14848
  20331551.320   106843043.92309  20331550.120    83254340.12949
  22329988.040   117344934.43809  22329986.440    91437624.24347
 15 02 23 03 19 30.0000000  0 10G01G04G11G14G16G18G19G22G27G32
  24140812.680   126860831.09307  24140814.080    98852604.11945
  21775983.460   114433580.96909  21775981.460    89169035.84148
  23156506.600   121688281.08408  23156503.600    94822042.82245
  23775957.000   124943513.80908  23775954.880    97358573.81145
  22340069.720   117397864.49509  22340066.840    91478849.00447
  23574155.020   123883113.37308  23574151.280    96532331.08245
  20870223.820   109673788.28509  20870218.900    85460073.15749
  20981322.360   110257678.88609  20981317.100    85915091.21348
  20332494.360   106847999.82809  20332493.220    83258201.87649
  22310686.600   117243504.79709  22310685.000    91358588.19247
 15 02 23 03 20  0.0000000  0 10G01G04G11G14G16G18G19G22G27G32
  24126735.660   126786856.00407  24126737.000    98794961.22745
  21765181.840   114376818.30909  21765179.860    89124805.20747
  23141116.260   121607404.33608  23141113.280    94759021.99445
  23762954.440   124875184.01208  23762951.900    97305329.82145
  22357440.380   117489148.11109  22357437.540    91549979.06547
  23590203.080   123967446.59008  23590199.500    96598045.24846
  20862480.460   109633097.01609  20862475.600    85428365.67349
  20989312.120   110299665.24809  20989306.880    85947807.85648
  20333515.000   106853363.35709  20333513.860    83262381.23649
  22291443.760   117142383.06109  22291442.100    91279792.05947
 15 02 23 03 20 30.0000000  0 10G01G04G11G14G16G18G19G22G27G32
  24112680.620   126712996.45407  24112681.920    98737408.34945
  21754421.380   114320271.93909  21754419.440    89080743.11947
  23125744.560   121526625.47008  23125741.660    94696077.46046
  23749989.020   124807050.50108  23749986.160    97252238.79245
  22374865.520   117580718.10309  22374862.740    91621332.28347
  23606284.680   124051956.65408  23606281.120    96663897.24845
  20854794.380   109592706.74509  20854789.540    85396892.74149
  20997384.920   110342088.00909  20997379.660    85980864.56248
  20334613.860   106859137.85509  20334612.740    83266880.84449
  22272260.400   117041573.93409  22272258.720    91201239.52547
 15 02 23 03 21  0.0000000  0 10G01G04G11G14G16G18G19G22G27G32
  24098646.820   126639248.44807  24098648.120    98679942.40945
  21743701.280   114263937.80309  21743699.360    89036846.39647
  23110390.820   121445940.80108  23110387.920    94633206.30846
  23737060.600   124739111.63708  23737057.700    97199299.43645
  22392343.920   117672568.01709  22392341.200    91692903.62647
  23622398.900   124136637.45708  23622395.440    96729882.27146
  20847165.220   109552615.27809  20847160.380    85365652.63249
  21005539.600   110384941.12609  21005534.300    86014256.60348
  20335790.360   106865320.22809  20335789.240    83271698.26949
  22253136.240   116941075.85009  22253134.480    91122929.36347
 15 02 23 03 21 30.0000000  0 10G01G04G11G14G16G18G19G22G27G32
  24084634.460   126565613.13307  24084635.860    98622564.28145
  21733021.860   114207817.24109  21733019.880    88993116.09347
  23095055.420   121365352.18108  23095052.460    94570410.00346
  23724169.980   124671371.84908  23724167.400    97146515.22545
  22409875.280   117764696.12409  22409872.640    91764691.75647
  23638545.320   124221488.14508  23638542.000    96795999.65745
  20839593.500   109512825.61909  20839588.660    85334647.70549
  21013776.040   110428224.11309  21013770.780    86047983.61848
  20337044.880   106871912.73909  20337043.740    83276835.28649
  22234072.000   116840892.60809  22234070.160    91044864.51947
 15 02 23 03 22  0.0000000  0 10G01G04G11G14G16G18G19G22G27G32
  24070643.100   126492088.21007  24070644.540    98565272.16245
  21722382.640   114151907.79409  21722380.620    88949550.32147
  23079737.880   121284857.51608  23079734.700    94507686.92646
  23711317.340   124603831.81308  23711315.080    97093886.66445
  22427458.520   117857096.93409  22427455.940    91836692.36647
  23654723.340   124306504.71308  23654719.980    96862246.33845
  20832079.020   109473336.94609  20832074.300    85303877.32349
  21022093.560   110471933.18509  21022088.320    86082042.63948
  20338377.120   106878914.03509  20338376.040    83282290.83649
  22215067.700   116741024.38809  22215065.760    90967045.15547
 15 02 23 03 22 30.0000000  0 10G01G04G11G14G16G18G19G22G27G32
  24056673.520   126418677.71408  24056675.020    98508069.20144
  21711784.400   114096213.69809  21711782.340    88906152.32947
  23064439.140   121204461.87608  23064435.780    94445040.99045
  23698504.260   124536498.71008  23698502.100    97041419.32146
  22445094.040   117949772.39409  22445091.480    91908906.97947
  23670933.220   124391689.03208  23670930.140    96928623.67045
  20824622.900   109434155.00509  20824618.320    85273345.94449
  21030492.540   110516070.43609  21030487.340    86116435.30048
  20339788.100   106886329.17709  20339787.100    83288068.85849
  22196124.580   116641477.67009  22196122.620    90889476.30747
 15 02 23 03 23  0.0000000  0 10G01G04G11G14G16G18G19G22G27G32
  24042724.500   126345375.14308  24042725.940    98450950.35145
  21701225.940   114040728.60109  21701223.880    88862917.20847
  23049158.060   121124159.26908  23049154.640    94382467.56545
  23685729.800   124469369.01908  23685728.140    96989110.53745
  22462779.980   118042712.53809  22462777.360    91981327.86147
  23687173.580   124477032.61308  23687170.480    96995125.19146
  20817224.140   109395274.50609  20817219.680    85243049.46449
  21038971.540   110560627.81109  21038966.300    86151155.34148
  20341276.800   106894152.66309  20341275.880    83294165.08149
  22177241.840   116542248.49309  22177239.920    90812154.90547
 15 02 23 03 23 30.0000000  0 10G01G04G11G14G16G18G19G22G27G32
  24028797.820   126272190.14207  24028799.240    98393923.11345
  21690709.100   113985462.15509  21690707.040    88819852.45147
  23033896.620   121043960.11608  23033893.160    94319974.74246
  23672996.440   124402455.13608  23672994.900    96936969.86746
  22480517.700   118135924.73609  22480515.020    92053960.71847
  23703445.700   124562543.21008  23703442.380    97061756.79045
  20809885.080   109356707.40609  20809880.620    85212997.18749
  21047531.960   110605612.84309  21047526.620    86186208.61048
  20342845.260   106902395.08109  20342844.400    83300587.73249
  22158421.840   116443349.04109  22158419.920    90735090.42247
 15 02 23 03 24  0.0000000  0 10G01G04G11G14G16G18G19G22G27G32
  24014892.140   126199115.27207  24014893.560    98336981.69645
  21680232.480   113930407.04809  21680230.420    88776952.38248
  23018653.520   120963857.35008  23018650.060    94257557.01946
  23660303.340   124335752.65808  23660301.800    96884993.93946
  22498305.180   118229398.16709  22498302.420    92126797.14147
  23719747.680   124648211.14208  23719744.600    97128510.99445
  20802604.620   109318447.79509  20802600.020    85183184.49849
  21056172.100   110651016.90909  21056166.700    86221588.40849
  20344492.260   106911049.94109  20344491.440    83307331.77949
  22139663.640   116344774.23209  22139661.700    90658278.91547
 15 02 23 03 24 30.0000000  0 10G01G04G11G14G16G18G19G22G27G32
  24001007.480   126126150.82007  24001009.020    98280126.32045
  21669796.140   113875563.42709  21669794.040    88734217.10647
  23003428.920   120883852.00208  23003425.520    94195215.22446
  23647651.220   124269265.13008  23647649.780    96833185.53346
  22516142.000   118323130.90309  22516139.120    92199835.62047
  23736079.540   124734034.81008  23736076.040    97195386.60445
  20795383.120   109280497.73609  20795378.240    85153613.02649
  21064891.700   110696838.19309  21064886.200    86257293.32048
  20346218.000   106920118.50809  20346217.140    83314398.18749
  22120967.820   116246526.94509  22120965.800    90581722.60647
 15 02 23 03 25  0.0000000  0 10G01G04G11G14G16G18G19G22G27G32
  23987144.400   126053299.89307  23987145.900    98223359.38246
  21659400.660   113820934.57209  21659398.500    88691649.17147
  22988223.620   120803948.04008  22988220.420    94132952.40046
  23635041.160   124202998.13108  23635039.460    96781548.90645
  22534028.120   118417122.87209  22534025.200    92273076.08947
  23752441.140   124820015.51208  23752437.600    97262384.50845
  20788221.380   109242861.79009  20788216.300    85124286.30849
  21073690.920   110743077.81809  21073685.320    86293324.19648
  20348023.200   106929604.85109  20348022.340    83321790.13449
  22102335.380   116148612.78109  22102333.300    90505425.86747
 15 02 23 03 25 30.0000000  0 10G01G04G11G14G16G18G19G22G27G32
  23973302.360   125980559.51307  23973303.740    98166678.60645
  21649045.460   113766517.53609  21649043.240    88649246.29447
  22973037.140   120724142.93208  22973034.160    94070766.61346
  23622473.080   124136952.13608  23622471.260    96730084.52945
  22551962.400   118511368.06009  22551959.460    92346513.87747
  23768831.580   124906148.07108  23768827.960    97329500.76845
  20781119.040   109205538.75709  20781113.920    85095203.43249
  21082568.840   110789731.26109  21082563.180    86329677.53048
  20349907.500   106939506.90409  20349906.600    83329506.01749
  22083766.180   116051031.14409  22083764.100    90429388.24647
 15 02 23 03 26  0.0000000  0 10G01G04G11G14G16G18G19G22G27G32
  23959481.820   125907932.40108  23959483.200    98110086.08345
  21638731.100   113712315.20909  21638728.900    88607010.72348
  22957870.060   120644439.87208  22957867.220    94008660.35346
  23609948.040   124071132.52308  23609946.380    96678796.56846
  22569944.980   118605867.08509  22569942.080    92420149.46547
  23785251.160   124992433.55908  23785247.840    97396736.19945
  20774076.980   109168532.94409  20774071.900    85066367.73449
  21091525.700   110836799.46009  21091519.960    86366354.05148
  20351871.580   106949828.34009  20351870.660    83337548.69749
  22065261.220   115953787.26209  22065259.220    90353613.82347
 15 02 23 03 26 30.0000000  0 10G01G04G11G14G16G18G19G22G27G32
  23945682.640   125835417.48808  23945683.880    98053580.98145
  21628457.400   113658326.60609  21628455.280    88564941.69448
  22942722.320   120564838.51608  22942719.560    93946633.35646
  23597466.460   124005541.27208  23597464.660    96627686.51745
  22587975.040   118700615.76109  22587972.120    92493979.56947
  23801699.160   125078868.41408  23801695.880    97464088.00345
  20767095.360   109131845.01109  20767090.380    85037779.73449
  21100560.860   110884279.28109  21100555.080    86403351.32048
  20353915.420   106960568.97609  20353914.500    83345918.01149
  22046820.780   115856882.56409  22046818.920    90278103.68347
 15 02 23 03 27  0.0000000  0 10G01G04G11G14G16G18G19G22G27G32
  23931904.300   125763012.12308  23931905.580    97997161.25746
  21618223.820   113604548.89609  21618221.780    88523037.00148
  22927593.640   120485337.11308  22927590.860    93884684.23446
  23585028.540   123940178.79408  23585026.300    96576754.73246
  22606051.600   118795608.62509  22606048.680    92567999.95247
  23818174.760   125165448.65008  23818171.300    97531553.13845
  20760174.060   109095474.12009  20760169.180    85009438.79249
  21109673.500   110932166.53509  21109667.720    86440666.06448
  20356038.760   106971727.09809  20356037.820    83354612.65349
  22028444.780   115760316.67609  22028443.160    90202857.56147
 15 02 23 03 27 30.0000000  0 10G01G04G11G14G16G18G19G22G27G32
  23918147.260   125690718.71508  23918148.700    97940828.74446
  21608030.880   113550984.79809  21608028.840    88481298.74748
  22912484.640   120405938.75508  22912481.800    93822815.39846
  23572635.120   123875050.52508  23572632.740    96526005.47945
  22624174.500   118890844.85709  22624171.560    92642209.98747
  23834678.200   125252174.53408  23834675.000    97599131.72045
  20753313.920   109059424.27209  20753309.120    84981347.99949
  21118863.740   110980461.86409  21118858.020    86478298.78148
  20358242.200   106983305.96709  20358241.220    83363635.14049
  22010134.260   115664094.56909  22010132.760    90127879.31547
 15 02 23 03 28  0.0000000  0 10G01G04G11G14G16G18G19G22G27G32
  23904411.540   125618537.05908  23904412.940    97884583.33045
  21597878.560   113497634.18009  21597876.540    88439726.84748
  22897395.380   120326643.92508  22897392.500    93761027.23346
  23560286.820   123810159.09008  23560284.140    96475440.72245
  22642343.260   118986321.61009  22642340.240    92716607.42647
  23851208.840   125339043.79308  23851205.700    97666822.03445
  20746515.220   109023696.91509  20746510.420    84953508.50249
  21128131.220   111029162.98209  21128125.540    86516247.70648
  20360525.800   106995306.28409  20360524.820    83372986.03149
  21991889.600   115568218.49409  21991888.220    90053170.70547
 15 02 23 03 28 30.0000000  0 10G01G04G11G14G16G18G19G22G27G32
  23890697.200   125546467.78108  23890698.580    97828425.48646
  21587766.980   113444497.69409  21587764.960    88398321.81848
  22882326.100   120247453.93008  22882323.120    93699320.76246
  23547984.160   123745507.96808  23547981.440    96425063.24345
  22660557.500   119082037.14209  22660554.340    92791190.94347
  23867766.420   125426055.03908  23867763.380    97734622.98445
  20739778.400   108988294.40809  20739773.560    84925922.14249
  21137475.700   111078268.97609  21137470.060    86554512.12748
  20362889.860   107007729.56109  20362888.920    83382666.51149
  21973711.360   115472691.40309  21973710.020    89978734.03847
 15 02 23 03 29  0.0000000  0 10G01G04G11G14G16G18G19G22G27G32
  23877004.200   125474510.64108  23877005.520    97772355.01246
  21577696.120   113391575.16709  21577694.120    88357083.49548
  22867276.780   120168369.08608  22867273.780    93637696.23646
  23535727.580   123681100.11408  23535724.860    96374875.31145
  22678816.520   119177988.18309  22678813.280    92865957.96347
  23884350.760   125513206.27908  23884347.880    97802533.02545
  20733103.700   108953218.11309  20733098.780    84898589.96049
  21146896.820   111127777.75309  21146891.220    86593090.38948
  20365334.500   107020576.43609  20365333.600    83392677.06149
  21955599.980   115377515.58809  21955598.660    89904571.08547
 15 02 23 03 29 30.0000000  0 10G01G04G11G14G16G18G19G22G27G32
  23863332.520   125402665.50408  23863333.760    97716371.81346
  21567665.980   113338866.63609  21567664.000    88316011.92348
  22852247.620   120089390.26208  22852244.600    93576154.31046
  23523517.700   123616938.25708  23523515.040    96324879.07746
  22697119.620   119274171.24709  22697116.360    92940905.79347
  23900961.400   125600495.46608  23900958.260    97870550.58045
  20726491.360   108918469.72209  20726486.380    84871513.29549
  21156394.180   111177687.12409  21156388.640    86631980.81648
  20367859.880   107033847.62309  20367859.020    83403018.23349
  21937555.880   115282693.19209  21937554.560    89830683.52647
 15 02 23 03 30  0.0000000  0 10G01G04G11G14G16G18G19G22G27G32
  23849681.420   125330928.61008  23849682.780    97660472.95746
  21557675.900   113286368.41109  21557673.840    88275104.23048
  22837237.980   120010514.09508  22837234.940    93514692.38646
  23511354.480   123553021.34508  23511352.340    96275073.68746
  22715465.760   119370580.74009  22715462.540    93016030.05047
  23917597.240   125687917.05908  23917594.100    97938671.28145
  20719940.980   108884047.03509  20719935.960    84844690.42949
  21165966.780   111227991.62609  21165961.240    86671179.12848
  20370465.460   107047540.19409  20370464.620    83413687.76949
  21919578.800   115188222.95409  21919577.480    89757070.37647
 15 02 23 03 30 30.0000000  0 10G01G04G11G14G16G18G19G22G27G32
  23836051.760   125259304.41308  23836053.160    97604661.91746
  21547726.680   113234084.83409  21547724.560    88234363.79448
  22822248.900   119931745.83709  22822245.740    93453314.54846
  23499239.400   123489357.42508  23499237.620    96225465.46745
  22733855.080   119467217.46309  22733852.020    93091331.37147
  23934258.540   125775473.33608  23934255.660    98006896.91045
  20713453.740   108849956.26409  20713448.720    84818126.19449
  21175615.120   111278693.82209  21175609.560    86710687.33248
  20373152.280   107061659.51009  20373151.420    83424689.82349
  21901670.020   115094111.67709  21901668.740    89683736.94347
 15 02 23 03 31  0.0000000  0 10G01G04G11G14G16G18G19G22G27G32
  23822443.400   125187791.99608  23822444.720    97548937.98046
  21537818.160   113182015.25709  21537816.080    88193790.11648
  22807280.300   119853085.12408  22807277.040    93392020.50246
  23487172.960   123425947.64008  23487171.260    96176055.25446
  22752286.940   119564077.89009  22752284.020    93166806.99847
  23950945.000   125863161.39008  23950942.100    98075225.28745
  20707029.740   108816198.15609  20707024.760    84791821.18049
  21185338.620   111329790.77009  21185333.020    86750503.14048
  20375920.220   107076205.32709  20375919.420    83436024.22049
  21883829.840   115000360.82509  21883828.580    89610684.35747
 15 02 23 03 31 30.0000000  0 10G01G04G11G14G16G18G19G22G27G32
  23808855.980   125116389.65108  23808857.280    97493299.81246
  21527950.020   113130157.86809  21527947.940    88153381.77647
  22792332.040   119774531.23308  22792328.780    93330809.70446
  23475155.240   123362793.88708  23475153.440    96126844.55745
  22770760.480   119661157.47409  22770757.700    93242453.40447
  23967655.820   125950977.79408  23967653.080    98143653.61545
  20700669.040   108782772.73809  20700664.120    84765775.41249
  21195136.580   111381278.92709  21195130.880    86790623.78448
  20378769.160   107091176.82109  20378768.420    83447690.32149
  21866058.340   114906971.00409  21866057.100    89537913.09747
 15 02 23 03 32  0.0000000  0 10G01G04G11G14G16G18G19G22G27G32
  23795289.400   125045096.85808  23795290.680    97437747.01246
  21518122.240   113078512.55909  21518120.140    88113138.68847
  22777404.100   119696084.32308  22777400.780    93269682.24946
  23463186.820   123299898.33108  23463184.720    96077835.01546
  22789275.220   119758453.44409  22789272.520    93318268.41547
  23984390.860   126038920.22908  23984387.560    98212180.22945
  20694371.880   108749680.96809  20694366.980    84739989.61949
  21205008.580   111433156.08809  21205002.780    86831047.53948
  20381699.120   107106574.29809  20381698.480    83459688.34949
  21848355.920   114813944.10109  21848354.640    89465424.62047
 15 02 23 03 32 30.0000000  0 10G01G04G11G14G16G18G19G22G27G32
  23781744.140   124973916.09708  23781745.520    97382281.51346
  21508335.240   113027081.76909  21508333.140    88073062.75448
  22762497.100   119617747.76508  22762493.640    93208640.79946
  23451268.560   123237266.51908  23451266.440    96029031.04346
  22807831.020   119855964.94909  22807828.340    93394251.38147
  24001149.740   126126989.10308  24001147.000    98280805.25645
  20688139.060   108716927.09909  20688134.180    84714467.13049
  21214954.600   111485422.56009  21214948.760    86871774.66348
  20384710.840   107122401.03009  20384710.200    83472020.86349
  21830723.520   114721284.99809  21830722.180    89393222.74247
 15 02 23 03 33  0.0000000  0 10G01G04G11G14G16G18G19G22G27G32
  23768220.160   124902847.32508  23768221.580    97326903.27846
  21498589.080   112975865.36009  21498586.920    88033153.88448
  22747611.140   119539521.87408  22747607.680    93147685.57846
  23439401.020   123174901.09308  23439398.460    95980434.60745
  22826427.280   119953688.76609  22826424.560    93470399.78147
  24017932.280   126215182.43308  24017929.580    98349527.34444
  20681970.860   108684512.83709  20681965.960    84689209.27049
  21224974.340   111538076.66509  21224968.480    86912803.84048
  20387804.460   107138657.69009  20387803.740    83484688.39249
  21813161.520   114628995.97409  21813160.120    89321309.24947
 15 02 23 03 33 30.0000000  0 10G01G04G11G14G16G18G19G22G27G32
  23754717.220   124831888.99908  23754718.540    97271611.09846
  21488883.540   112924862.07809  21488881.320    87993411.06948
  22732746.100   119461406.01408  22732742.720    93086816.10346
  23427584.300   123112803.47408  23427581.480    95932046.85046
  22845063.180   120051620.60909  22845060.340    93546710.28447
  24034737.840   126303496.94508  24034735.560    98418343.79744
  20675867.260   108652438.17109  20675862.360    84664216.02549
  21235067.220   111591115.13709  21235061.360    86954132.51648
  20390979.820   107155343.50509  20390978.940    83497690.31649
  21795670.100   114537077.69909  21795668.640    89249684.64447
 15 02 23 03 34  0.0000000  0 10G01G04G11G14G16G18G19G22G27G32
  23741235.020   124761039.63108  23741236.260    97216403.82546
  21479218.280   112874070.39909  21479216.020    87953833.14248
  22717901.900   119383399.61608  22717898.480    93026031.93146
  23415818.820   123050975.39308  23415815.840    95883869.14345
  22863737.980   120149756.83009  22863735.040    93623180.04847
  24051566.020   126391929.55508  24051563.580    98487252.34045
  20669828.320   108620703.34809  20669823.440    84639487.60049
  21245232.540   111644534.39609  21245226.720    86995757.91948
  20394236.740   107172457.76809  20394235.640    83511026.10349
  21778249.420   114445531.16109  21778247.900    89178349.69847
 15 02 23 03 34 30.0000000  0 10G01G04G11G14G16G18G19G22G27G32
  23727773.860   124690300.80508  23727775.080    97161282.67846
  21469593.580   112823492.06209  21469591.320    87914421.45948
  22703079.040   119305505.16008  22703075.680    92965334.95946
  23404105.340   122989421.20008  23404102.360    95835904.83346
  22882451.340   120248095.67809  22882448.300    93699807.68747
  24068416.700   126480479.68708  24068414.080    98556252.44345
  20663854.620   108589311.59709  20663849.720    84615026.50249
  21255470.180   111698334.03209  21255464.520    87037679.70848
  20397575.600   107190002.83409  20397574.340    83524697.57349
  21760900.220   114354360.13409  21760898.560    89107307.36247
 15 02 23 03 35  0.0000000  0 10G01G04G11G14G16G18G19G22G27G32
  23714333.800   124619672.90008  23714335.020    97106247.97247
  21460009.500   112773127.49209  21460007.320    87875176.34948
  22688277.620   119227723.31008  22688274.440    92904725.74446
  23392444.360   122928143.92608  23392441.820    95788156.32846
  22901202.800   120346634.76309  22901199.740    93776591.36347
  24085289.480   126569145.73608  24085286.640    98625342.84445
  20657946.620   108558265.18409  20657941.740    84590834.48849
  21265779.880   111752512.58909  21265774.420    87079896.76748
  20400996.520   107207979.75309  20400995.240    83538705.54849
  21743622.980   114263567.41509  21743621.220    89036559.80748
 15 02 23 03 35 30.0000000  0 10G01G04G11G14G16G18G19G22G27G32
  23700914.860   124549155.78908  23700916.020    97051299.59446
  21450466.040   112722976.70009  21450463.940    87836097.82848
  22673497.860   119150055.16308  22673494.760    92844205.13446
  23380836.660   122867146.65608  23380834.200    95740626.00346
  22919991.860   120445371.50409  22919988.760    93853529.06747
  24102183.780   126657925.78908  24102181.020    98694522.09445
  20652104.620   108527565.36909  20652099.720    84566912.56049
  21276161.260   111807067.87909  21276155.980    87122407.39348
  20404499.620   107226389.13009  20404498.440    83553050.51349
  21726418.140   114173155.03209  21726416.240    88966108.62648
 15 02 23 03 36  0.0000000  0 10G01G04G11G14G16G18G19G22G27G32
  23687516.640   124478747.90408  23687517.880    96996436.31946
  21440962.960   112673038.16409  21440960.980    87797184.69748
  22658739.540   119072499.66508  22658736.460    92783772.30946
  23369282.600   122806430.63108  23369280.420    95693314.82046
  22938817.560   120544301.00209  22938814.420    93930616.94247
  24119099.440   126746816.44108  24119096.240    98763787.56345
  20646328.640   108497212.27409  20646323.700    84543260.80249
  21286613.700   111861996.63909  21286608.680    87165209.01448
  20408084.820   107245230.10109  20408083.780    83567731.77649
  21709285.820   114083123.93809  21709283.780    88895954.54548
 15 02 23 03 36 30.0000000  0 10G01G04G11G14G16G18G19G22G27G32
  23674139.200   124408448.98508  23674140.420    96941657.96646
  21431500.300   112623311.94609  21431498.420    87758437.00848
  22644002.800   118995057.50808  22643999.740    92723427.80646
  23357782.680   122745998.28808  23357780.720    95646224.69746
  22957679.340   120643420.22509  22957676.220    94007852.68847
  24136035.540   126835815.71908  24136032.180    98833137.61545
  20640618.900   108467207.30609  20640613.980    84519880.30749
  21297136.900   111917296.65709  21297132.000    87208299.94948
  20411752.240   107264503.12509  20411751.340    83582749.71949
  21692226.380   113993475.91809  21692224.220    88826098.96147
 15 02 23 03 37  0.0000000  0 10G01G04G11G14G16G18G19G22G27G32
  23660782.820   124338260.79508  23660784.020    96886965.89046
  21422078.380   112573799.60909  21422076.520    87719855.98448
  22629288.080   118917731.15308  22629284.960    92663173.53146
  23346337.760   122685854.50408  23346335.840    95599359.41746
  22976577.020   120742728.22209  22976573.900    94085235.51447
  24152992.520   126924923.47408  24152989.100    98902572.24045
  20634976.080   108437553.94009  20634971.100    84496773.79449
  21307730.780   111972967.62209  21307725.860    87251679.92248
  20415502.380   107284210.62409  20415501.580    83598106.20249
  21675240.580   113904215.05709  21675238.340    88756545.07147
 15 02 23 03 37 30.0000000  0 10G01G04G11G14G16G18G19G22G27G32
  23647447.780   124268184.82308  23647448.900    96832361.25746
  21412697.480   112524502.80509  21412695.620    87681442.90248
  22614595.760   118840522.49308  22614592.560    92603010.94946
  23334948.620   122626003.70708  23334946.680    95552722.43246
  22995510.360   120842223.56609  22995507.260    94162764.31947
  24169969.720   127014139.24408  24169966.060    98972090.99144
  20629400.820   108408255.52509  20629395.800    84473943.86149
  21318395.180   112029009.09709  21318390.240    87295348.60048
  20419335.640   107304354.66009  20419334.900    83613802.84749
  21658329.140   113815345.04509  21658326.840    88687295.71747
 15 02 23 03 38  0.0000000  0 10G01G04G11G14G16G18G19G22G27G32
  23634133.160   124198216.13108  23634134.200    96777840.21447
  21403356.740   112475416.76909  21403354.800    87643194.05848
  22599925.160   118763428.23808  22599921.900    92542937.52546
  23323614.700   122566443.54008  23323612.720    95506311.93946
  23014477.880   120941898.34409  23014474.740    94240432.95646
  24186966.400   127103456.22008  24186962.580    99041688.66645
  20623892.500   108379308.60609  20623887.360    84451387.82249
  21329128.820   112085414.29609  21329123.800    87339300.70148
  20423251.220   107324931.04809  20423250.480    83629836.38449
  21641491.540   113726863.24609  21641489.280    88618348.88547
 15 02 23 03 38 30.0000000  0 10G01G04G11G14G16G18G19G22G27G32
  23620839.660   124128358.50808  23620840.740    96723405.72046
  21394056.880   112426545.38809  21394054.820    87605112.47548
  22585277.040   118686452.35508  22585273.780    92482956.33846
  23312337.500   122507180.90708  23312335.340    95460133.26846
  23033479.760   121041753.89209  23033476.700    94318242.45247
  24203982.620   127192876.57408  24203979.000    99111366.82245
  20618452.020   108350718.41509  20618446.800    84429109.75949
  21339932.000   112142185.09609  21339926.900    87383537.68848
  20427249.880   107345944.19009  20427249.140    83646210.25949
  21624728.920   113638775.67209  21624726.740    88549709.24747
 15 02 23 03 39  0.0000000  0 10G01G04G11G14G16G18G19G22G27G32
  23607567.480   124058612.77608  23607568.600    96669058.41747
  21384798.000   112377889.53809  21384795.880    87567198.82748
  22570651.780   118609596.73808  22570648.480    92423068.85746
  23301117.520   122448219.41708  23301115.140    95414189.25646
  23052515.640   121141788.37408  23052512.680    94396191.37247
  24221018.180   127282399.10608  24221014.360    99181124.67345
  20613079.880   108322487.49209  20613074.600    84407111.63349
  21350804.440   112199320.10609  21350799.280    87428058.47748
  20431331.960   107367395.52109  20431331.180    83662925.57349
  21608041.880   113551085.29209  21608039.780    88481379.10447
 15 02 23 03 39 30.0000000  0 10G01G04G11G14G16G18G19G22G27G32
  23594315.400   123988972.68908  23594316.580    96614793.43047
  21375578.960   112329443.12409  21375576.840    87529448.39148
  22556048.420   118532855.98908  22556045.120    92363270.88546
  23289954.240   122389555.43308  23289951.620    95368477.08745
  23071583.760   121241992.29708  23071580.840    94474272.33747
  24238071.720   127372016.14307  24238067.980    99250956.15845
  20607775.220   108294611.41509  20607769.940    84385390.02549
  21361744.680   112256811.31109  21361739.380    87472856.81648
  20435496.340   107389279.43309  20435495.520    83679977.96649
  21591429.700   113463788.14109  21591427.700    88413355.36448
 15 02 23 03 40  0.0000000  0 10G01G04G11G14G16G18G19G22G27G32
  23581084.840   123919445.68208  23581086.020    96560616.55847
  21366401.160   112281213.78009  21366399.140    87491867.08848
  22541468.500   118456238.13708  22541465.180    92303568.66946
  23278849.520   122331199.59408  23278846.360    95323004.97246
  23090684.940   121342370.08208  23090682.100    94552488.75647
  24255144.000   127461732.93008  24255140.100    99320865.29244
  20602539.780   108267099.23709  20602534.540    84363951.95849
  21372753.800   112314664.16709  21372748.340    87517936.96448
  20439744.540   107411603.93809  20439743.700    83697373.67049
  21574894.180   113376893.73609  21574892.240    88345645.46448
 15 02 23 03 40 30.0000000  0 10G01G04G11G14G16G18G19G22G27G32
  23567874.740   123850026.22208  23567875.900    96506523.49547
  21357263.540   112233195.88609  21357261.660    87454450.56548
  22526911.140   118379738.50008  22526907.760    92243958.57846
  23267802.900   122273149.00408  23267799.880    95277770.78546
  23109817.660   121442913.55408  23109814.920    94630834.29246
  24272234.040   127551542.21108  24272230.240    99390846.53645
  20597372.840   108239946.96809  20597367.640    84342794.35249
  21383830.340   112372871.17109  21383824.700    87563293.07148
  20444075.620   107434364.12209  20444074.820    83715108.86849
  21558434.680   113290398.82109  21558432.780    88278246.84847
 15 02 23 03 41  0.0000000  0 10G01G04G11G14G16G18G19G22G27G32
  23554685.500   123780716.36908  23554686.660    96452515.84247
  21348166.580   112185391.62709  21348164.860    87417200.52248
  22512376.900   118303360.48208  22512373.600    92184443.27046
  23256815.400   122215408.62308  23256812.200    95232778.27946
  23128981.760   121543622.00508  23128979.160    94709308.37946
  24289341.800   127641444.61508  24289338.420    99460900.37145
  20592275.040   108213158.10009  20592269.940    84321919.91649
  21394974.240   112431432.46109  21394968.440    87608925.25348
  20448490.100   107457562.55509  20448489.340    83733185.56149
  21542052.040   113204307.56209  21542050.160    88211162.77248
 15 02 23 03 41 30.0000000  0 10G01G04G11G14G16G18G19G22G27G32
  23541516.580   123711513.04908  23541517.720    96398591.18947
  21339109.780   112137798.12909  21339108.040    87380114.68848
  22497865.360   118227101.51708  22497861.980    92125020.71946
  23245886.900   122157978.04308  23245883.480    95188027.18646
  23148176.160   121644489.79108  23148173.720    94787906.61947
  24306466.440   127731435.13208  24306462.640    99531022.86644
  20587246.180   108186731.38109  20587241.100    84301327.66949
  21406184.500   112490342.96709  21406178.720    87654829.53548
  20452987.520   107481196.72509  20452986.800    83751601.79349
  21525746.080   113118619.11909  21525744.160    88144392.57747
 15 02 23 03 42  0.0000000  0 10G01G04G11G14G16G18G19G22G27G32
  23528369.240   123642423.00908  23528370.360    96344754.82247
  21330094.520   112090422.25509  21330092.640    87343198.44548
  22483377.820   118150968.83308  22483374.380    92065696.57246
  23235019.240   122100867.12208  23235015.840    95143525.17146
  23167401.660   121745520.60109  23167399.240    94866631.88946
  24323608.460   127821518.48708  24323605.080    99601217.65145
  20582287.860   108160675.23309  20582282.820    84281024.18649
  21417462.080   112549607.46509  21417456.380    87701009.67048
  20457569.240   107505273.92809  20457568.580    83770363.25049
  21509518.480   113033342.26609  21509516.480    88077943.10448
 15 02 23 03 42 30.0000000  0 10G01G04G11G14G16G18G19G22G27G32
  23515242.400   123573440.93108  23515243.480    96291002.56847
  21321119.780   112043258.68309  21321117.660    87306447.61748
  22468913.600   118074958.57109  22468910.120    92006467.80346
  23224211.680   122044072.98508  23224208.320    95099270.01346
  23186656.700   121846706.28608  23186654.220    94945477.84646
  24340766.960   127911687.48008  24340763.680    99671479.20944
  20577399.340   108134985.79309  20577394.320    84261006.43649
  21428805.620   112609218.61409  21428800.040    87747459.91048
  20462234.380   107529789.43109  20462233.740    83789466.22549
  21493368.640   112948473.90609  21493366.620    88011811.91948
 15 02 23 03 43  0.0000000  0 10G01G04G11G14G16G18G19G22G27G32
  23502135.680   123504564.85708  23502136.800    96237332.91747
  21312185.080   111996305.91809  21312182.860    87269861.06448
  22454472.460   117999069.37709  22454468.900    91947333.38446
  23213464.540   121987596.49808  23213461.300    95055262.36246
  23205940.300   121948041.79909  23205937.800    95024440.55946
  24357941.240   128001938.84707  24357938.120    99741804.95944
  20572580.560   108109662.78309  20572575.520    84241274.23149
  21440214.420   112669172.41509  21440208.900    87794177.15748
  20466982.680   107554741.69209  20466982.020    83808909.54149
  21477296.520   112864014.11109  21477294.520    87945999.11448
 15 02 23 03 43 30.0000000  0 10G01G04G11G14G16G18G19G22G27G32
  23489050.220   123435800.43208  23489051.280    96183750.26447
  21303291.500   111949569.40109  21303289.180    87233443.00548
  22440055.540   117923307.58809  22440051.980    91888298.23446
  23202779.340   121931446.20808  23202776.220    95011508.92846
  23225253.040   122049530.38408  23225250.480    95103522.53446
  24375132.020   128092276.11208  24375128.720    99812197.64045
  20567832.860   108084713.29409  20567827.780    84221833.06649
  21451689.140   112729472.46209  21451683.680    87841164.20748
  20471815.320   107580136.93509  20471814.580    83828698.03649
  21461303.580   112779970.70209  21461301.660    87880510.75648
 15 02 23 03 44  0.0000000  0 10G01G04G11G14G16G18G19G22G27G32
  23475985.220   123367143.50908  23475986.220    96130251.38447
  21294438.200   111903045.02409  21294435.880    87197190.25848
  22425662.220   117847670.11309  22425658.740    91829359.97046
  23192156.020   121875620.97308  23192152.620    94968008.73246
  23244593.540   122151164.81608  23244590.900    95182718.17646
  24392338.160   128182693.56408  24392334.520    99882652.81644
  20563155.760   108060134.94109  20563150.660    84202681.11149
  21463228.620   112790112.87609  21463223.240    87888416.48448
  20476731.560   107605971.49309  20476730.720    83848828.85749
  21445389.420   112696341.58209  21445387.600    87815345.23648
 15 02 23 03 44 30.0000000  0 10G01G04G11G14G16G18G19G22G27G32
  23462940.920   123298595.26608  23462941.900    96076837.18047
  21285625.500   111856734.17809  21285623.200    87161103.89548
  22411292.900   117772158.88408  22411289.480    91770520.07546
  23181595.220   121820124.46708  23181592.020    94924764.72246
  23263961.420   122252943.19008  23263958.640    95262025.96046
  24409559.280   128273190.50408  24409555.520    99953169.91345
  20558549.820   108035930.55809  20558544.700    84183820.55449
  21474832.660   112851092.57809  21474827.340    87935933.14348
  20481731.680   107632246.91509  20481730.720    83869303.20549
  21429554.680   112613129.86909  21429552.980    87750504.95848
 15 02 23 03 45  0.0000000  0 10G01G04G11G14G16G18G19G22G27G32
  23449917.120   123230154.75308  23449918.140    96023506.92147
  21276853.240   111810636.15009  21276851.000    87125183.36848
  22396947.560   117696773.96308  22396944.240    91711778.60246
  23171097.300   121764958.46308  23171094.280    94881778.23846
  23283356.060   122354862.13008  23283353.180    95341443.27146
  24426795.120   128363764.41908  24426791.300   100023746.97444
  20554015.100   108012100.73009  20554010.000    84165251.85949
  21486500.720   112912408.78409  21486495.380    87983712.00248
  20486815.560   107658962.86109  20486814.620    83890120.81549
  21413799.640   112530336.94509  21413798.000    87685991.01248
 15 02 23 03 45 30.0000000  0 10G01G04G11G14G16G18G19G22G27G32
  23436914.720   123161827.00608  23436915.800    95970264.54547
  21268122.460   111764755.97009  21268120.240    87089432.59348
  22382627.420   117621521.35408  22382624.120    91653140.22346
  23160663.720   121710130.88608  23160660.940    94839055.45046
  23302777.800   122456923.44308  23302774.780    95420971.54846
  24444045.960   128454418.55208  24444042.140   100094386.55244
  20549552.920   107988651.94909  20549547.820    84146980.07849
  21498233.400   112974064.45409  21498228.020    88031755.38848
  20491984.260   107686124.68109  20491983.360    83911285.86049
  21398125.600   112447969.66109  21398123.980    87621808.73848
 15 02 23 03 46  0.0000000  0 10G01G04G11G14G16G18G19G22G27G32
  23423932.140   123093603.83908  23423933.300    95917103.65846
  21259431.660   111719085.54709  21259429.420    87053845.26548
  22368331.060   117546393.57208  22368327.800    91594599.11747
  23150293.700   121655636.22008  23150291.020    94796592.07546
  23322224.640   122559116.70108  23322221.480    95500602.61446
  24461310.060   128545142.62508  24461306.780   100165080.56945
  20545161.980   107965577.71909  20545156.980    84129000.15749
  21510028.780   113036049.46309  21510023.300    88080055.39348
  20497236.340   107713724.66309  20497235.500    83932792.32949
  21382531.440   112366021.91009  21382529.780    87557953.36848
 15 02 23 03 46 30.0000000  0 10G01G04G11G14G16G18G19G22G27G32
  23410970.120   123025488.59208  23410971.300    95864026.86147
  21250781.460   111673628.30609  21250779.120    87018424.04548
  22354059.280   117471394.83808  22354056.040    91536158.56647
  23139988.140   121601480.55208  23139985.600    94754392.89446
  23341696.660   122661442.49708  23341693.440    95580336.97646
  24478587.840   128635938.55507  24478584.080   100235830.74544
  20540843.240   107942882.78209  20540838.320    84111315.79649
  21521887.040   113098364.94609  21521881.460    88128612.91648
  20502572.500   107741766.53409  20502571.740    83954643.13549
  21367018.120   112284499.08409  21367016.440    87494429.11248
 15 02 23 03 47  0.0000000  0 10G01G04G11G14G16G18G19G22G27G32
  23398029.160   122957483.37508  23398030.260    95811035.80347
  21242172.280   111628386.49909  21242169.800    86983170.69848
  22339812.620   117396528.26908  22339809.380    91477821.00247
  23129748.200   121547668.58408  23129745.360    94712461.48846
  23361193.620   122763899.52208  23361190.380    95660173.57746
  24495879.280   128726806.86008  24495875.820   100306637.18845
  20536597.380   107920570.88409  20536592.540    84093929.90649
  21533808.200   113161011.01709  21533802.580    88177428.03248
  20507993.260   107770252.82809  20507992.540    83976840.23549
  21351586.500   112203405.31009  21351584.760    87431239.17148
 15 02 23 03 47 30.0000000  0 10G01G04G11G14G16G18G19G22G27G32
  23385108.280   122889583.51908  23385109.360    95758126.84547
  21233603.240   111583355.69809  21233600.680    86948081.77448
  22325590.340   117321790.12409  22325587.200    91419583.50747
  23119573.280   121494198.39908  23119570.280    94670796.40446
  23380714.120   122866480.34208  23380710.900    95740106.64946
  24513183.440   128817740.77408  24513180.080   100377494.77745
  20532423.800   107898638.92509  20532419.020    84076840.06849
  21545790.940   113223981.09009  21545785.400    88226495.61848
  20513497.780   107799179.20209  20513497.080    83999380.26549
  21336236.020   112122737.81009  21336234.180    87368381.40348
 15 02 23 03 48  0.0000000  0 10G01G04G11G14G16G18G19G22G27G32
  23372208.760   122821796.09708  23372209.880    95705305.49447
  21225075.640   111538543.01009  21225073.120    86913162.81148
  22311394.020   117247188.35108  22311390.880    91361452.27647
  23109465.080   121441079.77508  23109462.360    94629405.29646
  23400259.040   122969189.67108  23400255.900    95820139.86846
  24530501.080   128908745.97508  24530497.820   100448407.87844
  20528324.200   107877095.66309  20528319.440    84060053.11249
  21557836.220   113287280.17609  21557830.820    88275819.56048
  20519087.480   107828553.11109  20519086.760    84022269.01949
  21320968.460   112042505.74409  21320966.460    87305862.91848
 15 02 23 03 48 30.0000000  0 10G01G04G11G14G16G18G19G22G27G32
  23359328.920   122754112.31708  23359330.040    95652564.91147
  21216587.900   111493939.85909  21216585.520    86878407.13148
  22297222.140   117172715.08409  22297219.000    91303421.19347
  23099422.680   121388306.73008  23099420.100    94588283.45346
  23419826.140   123072015.55208  23419823.140    95900263.89246
  24547830.560   128999812.22508  24547827.220   100519368.66145
  20524297.180   107855933.63009  20524292.360    84043563.22049
  21569942.140   113350897.48809  21569936.800    88325391.50248
  20524760.740   107858366.17809  20524759.980    84045499.97249
  21305782.440   111962702.19409  21305780.260    87243678.35748
 15 02 23 03 49  0.0000000  0 10G01G04G11G14G16G18G19G22G27G32
  23346470.100   122686538.90708  23346471.220    95599910.32847
  21208141.320   111449552.94209  21208139.060    86843819.92948
  22283076.220   117098377.92209  22283073.000    91245496.14747
  23089447.600   121335888.28208  23089445.200    94547437.91146
  23439416.100   123174961.65708  23439413.240    95980481.59546
  24565172.520   129090944.41907  24565169.300   100590380.73445
  20520344.280   107835160.96109  20520339.400    84027376.71549
  21582109.580   113414837.76209  21582104.220    88375215.09048
  20530518.920   107888625.36809  20530518.080    84069078.54849
  21290679.580   111883335.80109  21290677.300    87181834.42048
 15 02 23 03 49 30.0000000  0 10G01G04G11G14G16G18G19G22G27G32
  23333631.920   122619073.90808  23333632.980    95547340.23146
  21199735.540   111405380.65109  21199733.380    86809399.99148
  22268956.060   117024175.92009  22268952.800    91187676.42747
  23079540.220   121283825.55308  23079538.140    94506869.58346
  23459028.020   123278023.38608  23459025.340    96060789.39546
  24582526.120   129182138.18408  24582522.660   100661440.86444
  20516465.460   107814777.49809  20516460.520    84011493.49749
  21594337.720   113479096.95009  21594332.380    88425287.17648
  20536361.660   107919329.14009  20536360.760    84093003.55449
  21275659.880   111804406.62409  21275657.540    87120331.17848
 15 02 23 03 50  0.0000000  0 10G01G04G11G14G16G18G19G22G27G32
  23320813.780   122551714.03008  23320814.800    95494852.04647
  21191369.920   111361419.49909  21191367.840    86775144.57048
  22254861.200   116950106.62309  22254857.860    91129960.11347
  23069700.580   121232117.72008  23069698.680    94466577.78146
  23478660.800   123381194.76708  23478658.240    96141182.64946
  24599890.460   129273388.91908  24599887.380   100732545.27145
  20512660.360   107794781.21309  20512655.360    83995911.97849
  21606625.500   113543669.69109  21606620.160    88475603.60248
  20542288.420   107950474.40109  20542287.480    84117272.58649
  21260723.000   111725913.18909  21260720.700    87059167.47948
 15 02 23 03 50 30.0000000  0 10G01G04G11G14G16G18G19G22G27G32
  23308016.680   122484464.59808  23308017.680    95442449.92146
  21183045.600   111317675.22809  21183043.580    86741058.15048
  22240792.820   116876176.37509  22240789.400    91072352.14347
  23059930.040   121180772.73308  23059927.800    94426568.69546
  23498314.920   123484478.21408  23498312.460    96221663.20446
  24617266.380   129364700.75708  24617263.740   100803697.33844
  20508930.300   107775179.07909  20508925.240    83980637.58449
  21618973.540   113608559.47909  21618968.280    88526167.06948
  20548300.300   107982066.86709  20548299.340    84141890.08949
  21245870.400   111647862.77209  21245868.180    86998348.99648
 15 02 23 03 51  0.0000000  0 10G01G04G11G14G16G18G19G22G27G32
  23295239.340   122417319.03308  23295240.280    95390128.72347
  21174761.320   111274141.31309  21174759.360    86707135.62748
  22226749.720   116802379.32108  22226746.280    91014847.95747
  23050227.740   121129786.50608  23050225.580    94386839.20846
  23517988.680   123587864.72608  23517986.320    96302224.07946
  24634652.480   129456065.10308  24634649.640   100874890.37045
  20505274.240   107755965.98609  20505269.140    83965666.32749
  21631380.240   113673757.20909  21631374.960    88576970.49948
  20554396.080   108014100.13409  20554395.100    84166851.06149
  21231101.180   111570250.60709  21231099.080    86937871.99548
 15 02 23 03 51 30.0000000  0 10G01G04G11G14G16G18G19G22G27G32
  23282482.820   122350283.26308  23282483.800    95337893.08247
  21166518.260   111230823.74909  21166516.300    86673381.69548
  22212733.280   116728722.73109  22212729.900    90957453.24547
  23040595.440   121079167.90508  23040593.000    94347396.14446
  23537682.660   123691357.16608  23537680.340    96382867.50846
  24652049.400   129547486.15908  24652046.480   100946127.57745
  20501693.640   107737149.39109  20501688.540    83951004.05149
  21643846.320   113739267.12209  21643841.100    88628017.18448
  20560576.920   108046580.41809  20560575.940    84192160.36549
  21216416.860   111493084.53609  21216414.900    86877742.61648
 15 02 23 03 52  0.0000000  0 10G01G04G11G14G16G18G19G22G27G32
  23269746.680   122283354.55308  23269747.720    95285740.87347
  21158315.900   111187719.97709  21158313.920    86639794.35348
  22198743.180   116655204.49309  22198739.840    90900166.32347
  23031033.120   121028916.72008  23031030.280    94308239.37746
  23557395.680   123794949.67708  23557393.420    96463588.89646
  24669456.100   129638959.57908  24669453.220   101017405.51544
  20498188.240   107718728.00409  20498183.100    83936649.72749
  21656370.940   113805084.47609  21656365.800    88679303.43448
  20566842.340   108079505.20909  20566841.380    84217816.04149
  21201817.280   111416363.55409  21201815.420    86817960.06148
 15 02 23 03 52 30.0000000  0 10G01G04G11G14G16G18G19G22G27G32
  23257031.040   122216533.33808  23257032.060    95233672.41846
  21150154.380   111144830.49009  21150152.280    86606373.98048
  22184779.800   116581826.21009  22184776.360    90842988.45847
  23021541.120   120979035.82109  23021538.300    94269371.16546
  23577127.420   123898640.32908  23577125.140    96544386.78446
  24686872.540   129730484.42408  24686869.940   101088723.57144
  20494758.420   107700703.96509  20494753.260    83922605.01149
  21668953.740   113871207.57009  21668948.660    88730827.92348
  20573192.500   108112875.20709  20573191.540    84243818.62749
  21187302.880   111340090.12209  21187301.100    86758526.22648
 15 02 23 03 53  0.0000000  0 10G01G04G11G14G16G18G19G22G27G32
  23244335.200   122149816.11408  23244336.220    95181685.00846
  21142033.020   111102151.95109  21142030.760    86573117.98748
  22170842.560   116508585.05409  22170839.120    90785917.43647
  23012119.500   120929524.18008  23012116.640    94230790.65946
  23596876.600   124002422.61608  23596874.280    96625256.04746
  24704297.900   129822055.36707  24704295.240   101160077.55044
  20491403.640   107683074.70809  20491398.520    83908867.92849
  21681593.600   113937630.88509  21681588.620    88782586.34248
  20579626.760   108146687.07809  20579625.740    84270165.52049
  21172873.340   111264262.36709  21172871.580    86699439.68448
 15 02 23 03 53 30.0000000  0 10G01G04G11G14G16G18G19G22G27G32
  23231660.120   122083208.13508  23231661.060    95129782.73047
  21133952.900   111059689.82909  21133950.400    86540030.63248
  22156932.640   116435487.50009  22156929.100    90728958.33447
  23002769.360   120880389.66908  23002766.720    94192504.07046
  23616643.700   124106298.99108  23616641.340    96706198.63746
  24721732.660   129913675.59908  24721729.920   101231469.92844
  20488125.280   107665847.29709  20488120.240    83895443.98149
  21694291.220   114004357.53609  21694286.340    88834581.14148
  20586146.160   108180946.27309  20586145.020    84296860.99949
  21158530.000   111188887.39109  21158528.240    86640705.96748
 15 02 23 03 54  0.0000000  0 10G01G04G11G14G16G18G19G22G27G32
  23219005.060   122016705.60108  23219005.920    95077962.61046
  21125913.220   111017440.40809  21125910.600    86507109.00848
  22143049.460   116362530.73909  22143045.880    90672108.93047
  22993490.860   120831631.30609  22993488.480    94154510.54746
  23636427.380   124210262.61108  23636425.020    96787209.21846
  24739175.980   130005339.99207  24739173.420   101302896.71645
  20484922.920   107649019.37209  20484918.000    83882331.31349
  21707045.520   114071381.60609  21707040.540    88886807.67948
  20592749.960   108215649.17909  20592748.700    84323902.21049
  21144272.520   111113963.26309  21144270.660    86582323.53248
 15 02 23 03 54 30.0000000  0 10G01G04G11G14G16G18G19G22G27G32
  23206370.480   121950310.71808  23206371.280    95026226.37547
  21117914.380   110975406.10509  21117911.800    86474355.02548
  22129193.640   116289717.92209  22129189.980    90615371.69047
  22984284.920   120783253.83908  22984282.360    94116813.81546
  23656227.500   124314312.79908  23656225.160    96868287.23046
  24756627.780   130097049.13708  24756625.260   101374358.38345
  20481797.300   107632594.51209  20481792.440    83869532.72349
  21719856.440   114138703.20609  21719851.380    88939266.06148
  20599438.620   108250798.13809  20599437.280    84351291.00149
  21130101.560   111039493.80309  21130099.620    86524295.40248
 15 02 23 03 55  0.0000000  0 10G01G04G11G14G16G18G19G22G27G32
  23193756.280   121884023.04908  23193757.060    94974573.66246
  21109956.280   110933586.50609  21109953.840    86441768.33548
  22115365.200   116217049.29709  22115361.500    90558746.80247
  22975151.800   120735258.88509  22975149.100    94079415.15846
  23676043.580   124418447.05008  23676041.340    96949430.74746
  24774087.680   130188801.00508  24774084.860   101445853.38245
  20478748.640   107616573.73509  20478743.800    83857049.00049
  21732723.640   114206320.10509  21732718.520    88991954.54148
  20606212.000   108286392.88709  20606210.700    84379027.15149
  21116017.380   110965480.43309  21116015.320    86466622.64248
 15 02 23 03 55 30.0000000  0 10G01G04G11G14G16G18G19G22G27G32
  23181162.240   121817841.11708  23181163.080    94923003.36646
  21102038.740   110891980.25409  21102036.420    86409347.89848
  22101564.120   116144524.51309  22101560.400    90502234.00247
  22966091.840   120687647.93808  22966089.220    94042315.72446
  23695874.740   124522660.38608  23695872.440    97030635.90145
  24791554.940   130280592.52008  24791552.300   101517379.17044
  20475776.860   107600956.76009  20475771.980    83844879.92349
  21745646.300   114274228.66609  21745641.140    89044870.30948
  20613069.860   108322431.97509  20613068.720    84407109.55349
  21102019.960   110891923.31609  21102017.860    86409305.42648
 15 02 23 03 56  0.0000000  0 10G01G04G11G14G16G18G19G22G27G32
  23168588.560   121751766.22708  23168589.400    94871516.46646
  21094162.080   110850588.74909  21094159.840    86377094.78348
  22087790.880   116072146.01609  22087787.100    90445835.18747
  22957105.400   120640424.38408  22957103.180    94005518.18946
  23715720.760   124626951.82008  23715718.420    97111901.90845
  24809029.720   130372423.35607  24809027.140   101588935.64944
  20472882.480   107585746.53809  20472877.560    83833027.80249
  21758624.280   114342428.15109  21758619.140    89098012.73648
  20620012.540   108358916.90909  20620011.580    84435539.36349
  21088109.900   110818825.46309  21088107.760    86352346.06648
 15 02 23 03 56 30.0000000  0 10G01G04G11G14G16G18G19G22G27G32
  23156034.980   121685797.00808  23156035.920    94820111.90846
  21086326.120   110809410.86709  21086323.880    86345008.12648
  22074045.420   115999913.55409  22074041.640    90389550.17547
  22948193.040   120593589.56608  22948190.560    93969023.51546
  23735580.840   124731316.93008  23735578.380    97193225.31346
  24826511.580   130464290.33807  24826508.760   101660520.33144
  20470065.540   107570943.22409  20470060.560    83821492.75049
  21771656.980   114410915.16809  21771651.880    89151379.23148
  20627039.840   108395846.35509  20627039.020    84464315.54149
  21074287.180   110746187.19109  21074285.140    86295744.82248
 15 02 23 03 57  0.0000000  0 10G01G04G11G14G16G18G19G22G27G32
  23143502.040   121619936.16308  23143503.060    94768791.80847
  21078531.380   110768449.50009  21078529.160    86313090.18548
  22060328.340   115927830.40109  22060324.600    90333381.50047
  22939355.660   120547148.53408  22939353.140    93932835.71346
  23755454.900   124835755.30208  23755452.300    97274605.81646
  24844000.400   130556194.74708  24843997.360   101732134.14845
  20467326.700   107556550.55209  20467321.720    83810277.68749
  21784744.500   114479690.04009  21784739.400    89204970.05448
  20634152.320   108433223.06009  20634151.600    84493440.24049
  21060552.720   110674012.87109  21060550.760    86239505.11248
 15 02 23 03 57 30.0000000  0 11G01G03G04G11G14G16G18G19G22G27G32
  23130989.020   121554179.82608  23130989.960    94717553.13246
  24646179.240   129516553.02907  24646181.540   100921993.06056
  21070777.160   110727700.73309  21070774.900    86281337.90648
  22046639.180   115855893.92909  22046635.600    90277327.12547
  22930592.900   120501099.95708  22930590.200    93896953.71846
  23775341.720   124940260.66308  23775339.020    97356038.51546
  24861495.280   130648131.30107  24861492.500   101803772.94644
  20464665.600   107542566.24009  20464660.620    83799380.82049
  21797885.700   114548746.98109  21797880.460    89258780.64848
  20641349.300   108471043.30909  20641348.560    84522910.55749
  21046906.160   110602300.37609  21046904.240    86183625.25848
 15 02 23 03 58  0.0000000  0 11G01G03G04G11G14G16G18G19G22G27G32
  23118496.580   121488531.79408  23118497.460    94666398.85346
  24626373.160   129412469.62308  24626375.100   100840889.31746
  21063064.160   110687168.47609  21063061.880    86249754.33348
  22032978.860   115784108.85909  22032975.340    90221390.72147
  22921905.920   120455449.95808  22921903.120    93861382.29946
  23795241.460   125044833.81408  23795238.560    97437524.03045
  24878996.700   130740101.70508  24878993.660   101875438.22644
  20462083.200   107528995.39709  20462078.140    83788806.13249
  21811080.900   114618087.62609  21811075.520    89312812.31748
  20648631.420   108509310.82109  20648630.640    84552729.39049
  21033348.500   110531054.98809  21033346.660    86128109.37648
 15 02 23 03 58 30.0000000  0 11G01G03G04G11G14G16G18G19G22G27G32
  23106024.320   121422989.32108  23106025.000    94615326.81846
  24606591.240   129308514.51908  24606592.900   100759885.51446
  21055391.920   110646850.16809  21055389.600    86218337.47348
  22019347.100   115712473.57909  22019343.600    90165571.03947
  22913294.900   120410198.41109  22913292.280    93826121.37046
  23815153.160   125149469.71108  23815150.060    97519058.45246
  24896503.780   130832101.80308  24896500.540   101947126.61444
  20459579.220   107515836.61509  20459574.100    83778552.53949
  21824329.180   114687707.36909  21824323.660    89367061.45748
  20655998.220   108548022.97309  20655997.320    84582894.69349
  21019879.540   110460275.63009  21019877.800    86072956.65848
 15 02 23 03 59  0.0000000  0 10G01G03G04G11G14G16G19G22G27G32
  23093571.340   121357548.01208  23093571.880    94564333.61746
  24586833.120   129204685.05808  24586834.560   100678979.62146
  21047759.580   110606741.74509  21047757.240    86187084.16848
  22005743.220   115640984.63409  22005739.700    90109865.39047
  22904759.180   120365343.17508  22904756.480    93791169.24847
  23835075.320   125254160.74808  23835072.140    97600635.83945
  20457153.040   107503086.77709  20457147.880    83768617.60549
  21837629.260   114757599.62409  21837623.600    89421522.95948
  20663448.800   108587175.28609  20663447.780    84613402.98749
  21006498.800   110389959.52709  21006497.100    86018164.90648
 15 02 23 03 59 30.0000000  0 10G01G03G04G11G14G16G19G22G27G32
  23081139.380   121292217.43208  23081139.800    94513426.68246
  24567101.060   129100992.72208  24567102.500   100598180.55745
  21040168.980   110566852.84409  21040166.640    86156001.91148
  21992169.240   115569652.74309  21992165.620    90054282.10447
  22896301.120   120320896.03809  22896298.340    93756535.12646
  23855009.260   125358913.70808  23855005.940    97682261.46446
  20454806.840   107490757.06609  20454801.600    83759010.02749
  21850982.620   114827772.11209  21850976.860    89476202.79748
  20670984.960   108626777.41209  20670983.800    84644261.76649
  20993208.400   110320117.84109  20993206.660    85963742.81448
 15 02 23 04 00  0.0000000  0 10G01G03G04G11G14G16G19G22G27G32
  23068727.680   121226993.47708  23068728.080    94462602.84347
  24547394.500   128997434.81007  24547395.960   100517486.25446
  21032619.320   110527179.52809  21032617.080    86125087.65148
  21978624.440   115498474.47509  21978620.880    89998818.53547
  22887920.520   120276855.44108  22887917.980    93722217.79047
  23874953.600   125463721.54608  23874950.340    97763929.84646
  20452539.980   107478844.38409  20452534.700    83749727.42249
  21864387.980   114898218.27509  21864382.140    89531095.90948
  20678605.860   108666825.09709  20678604.660    84675467.75049
  20980007.800   110250747.94609  20980006.000    85909688.36848
 15 02 23 04 00 30.0000000  0 10G01G03G04G11G14G16G19G22G27G32
  23056335.540   121161872.52508  23056336.020    94411859.28447
  24527713.200   128894009.72108  24527714.700   100436895.44846
  21025110.020   110487718.27209  21025107.800    86094338.63048
  21965108.420   115427447.61809  21965104.920    89943472.96147
  22879617.020   120233220.20908  22879614.780    93688216.33947
  23894907.160   125568578.07308  23894903.940    97845636.18746
  20450352.040   107467346.45309  20450346.720    83740767.99349
  21877844.360   114968932.54709  21877838.560    89586197.93048
  20686310.800   108707314.75609  20686309.580    84707018.12649
  20966896.620   110181847.73409  20966894.700    85855999.91348
 15 02 23 04 01  0.0000000  0 10G01G03G04G11G14G16G19G22G27G32
  23043964.360   121096861.60408  23043964.960    94361201.45047
  24508058.840   128790726.16107  24508060.400   100356414.88346
  21017642.460   110448476.16009  21017640.200    86063760.36848
  21951622.700   115356579.91509  21951619.320    89888251.39147
  22871392.300   120189999.55808  22871390.040    93654537.92446
  23914870.800   125673487.65408  23914867.620    97927383.84745
  20448244.620   107456271.61109  20448239.260    83732138.24449
  21891352.640   115039919.78309  21891346.960    89641512.64848
  20694101.040   108748253.25109  20694099.920    84738918.24949
  20953876.440   110113425.83509  20953874.440    85802684.16448
 15 02 23 04 01 30.0000000  0 10G01G03G04G11G14G16G19G22G27G32
  23031612.880   121031954.46708  23031613.580    94310624.49247
  24488430.600   128687579.67807  24488432.140   100276041.15046
  21010215.500   110409447.22509  21010213.180    86033348.21648
  21938166.340   115285866.40009  21938162.960    89833149.97547
  22863245.700   120147189.60608  22863243.340    93621179.52847
  23934842.760   125778441.08508  23934839.780    98009165.68145
  20446216.820   107445615.06109  20446211.400    83723834.43749
  21904911.400   115111171.97409  21904905.820    89697033.83748
  20701975.480   108789634.34809  20701974.480    84771163.25049
  20940946.380   110045477.48809  20940944.280    85749737.41248
 15 02 23 04 02  0.0000000  0 10G01G03G04G11G14G16G19G22G27G32
  23019281.240   120967151.43208  23019281.940    94260128.64647
  24468828.860   128584572.29108  24468830.240   100195775.79046
  21002829.220   110370632.00109  21002826.860    86003102.59548
  21924739.600   115215308.29709  21924736.140    89778169.64647
  22855177.960   120104792.93109  22855175.680    93588143.18446
  23954822.620   125883435.94008  23954819.700    98090979.81245
  20444268.840   107435378.17009  20444263.380    83715857.63749
  21918520.220   115182687.07909  21918514.780    89752759.87948
  20709934.140   108831458.16109  20709933.300    84803753.22649
  20928106.720   109978004.43009  20928104.540    85697161.01248
 15 02 23 04 02 30.0000000  0 10G01G03G04G11G14G16G19G22G27G32
  23006969.960   120902455.32408  23006970.580    94209716.11947
  24449254.520   128481708.62208  24449255.820   100115622.39846
  20995484.140   110332033.19809  20995481.800    85973025.61048
  21911343.140   115144909.25709  21911339.560    89723313.25647
  22847189.880   120062814.88208  22847187.480    93555433.01746
  23974810.420   125988472.47808  23974807.600    98172826.38745
  20442401.440   107425564.96709  20442396.000    83708210.97749
  21932179.220   115254466.01809  21932173.960    89808691.50848
  20717977.640   108873727.48809  20717976.920    84836690.35049
  20915358.280   109911010.99909  20915356.080    85644958.34048
 15 02 23 04 03  0.0000000  0 10G01G03G04G11G14G16G19G22G27G32
  22994679.220   120837867.25508  22994679.840    94159387.78547
  24429707.960   128378991.43608  24429709.340   100035583.19545
  20988180.480   110293652.02909  20988178.160    85943118.21848
  21897977.340   115074671.27209  21897973.700    89668582.37247
  22839281.740   120021258.45108  22839279.380    93523051.40846
  23994805.780   126093548.58308  23994802.980    98254703.80645
  20440615.120   107416177.88709  20440609.700    83700896.36049
  21945888.260   115326507.58009  21945883.160    89864827.79048
  20726106.120   108916443.25209  20726105.480    84869975.35249
  20902701.540   109844499.71309  20902699.420    85593131.37448
 15 02 23 04 03 30.0000000  0 10G01G03G04G11G14G16G19G22G27G32
  22982407.780   120773380.71008  22982408.440    94109138.55847
  24410188.400   128276415.96008  24410189.740    99955654.36345
  20980917.040   110255482.20309  20980914.720    85913375.50948
  21884641.240   115004589.33909  21884637.540    89613973.07947
  22831453.200   119980119.56308  22831450.780    93490995.15946
  24014806.940   126198655.11708  24014804.220    98336604.94145
  20438908.880   107407211.81109  20438903.520    83693909.81449
  21959645.700   115398803.14809  21959640.680    89921161.98848
  20734318.360   108959598.77209  20734317.720    84903603.02049
  20890135.520   109778465.48109  20890133.560    85541676.14548
 15 02 23 04 04  0.0000000  0 10G01G03G04G11G14G16G19G22G27G32
  22970156.480   120709000.08508  22970157.240    94058971.87347
  24390696.980   128173988.35608  24390698.220    99875840.75445
  20973694.720   110217528.44209  20973692.320    85883801.15648
  21871335.920   114934669.25609  21871332.220    89559489.91647
  22823705.520   119939404.87309  22823702.920    93459269.42846
  24034814.300   126303794.05208  24034811.560    98418531.30745
  20437283.900   107398672.60109  20437278.580    83687255.88149
  21973451.980   115471355.25209  21973447.000    89977696.09248
  20742615.100   109003198.30409  20742614.460    84937576.66749
  20877661.360   109712914.09709  20877659.560    85490597.15548
 15 02 23 04 04 30.0000000  0 10G01G03G04G11G14G16G19G22G27G32
  22957925.580   120644726.61908  22957926.400    94008888.68747
  24371234.260   128071711.53708  24371235.340    99796144.61345
  20966513.720   110179792.00909  20966511.300    85854396.15548
  21858061.620   114864912.76409  21858058.080    89505134.22447
  22816039.260   119899117.70609  22816036.540    93427876.85946
  24054827.520   126408963.62808  24054824.660    98500481.54945
  20435740.500   107390562.20309  20435735.200    83680936.08849
  21987306.880   115544162.95209  21987301.860    90034429.37248
  20750996.540   109047242.85809  20750995.900    84971897.09049
  20865279.580   109647848.18209  20865277.900    85439896.45448
 15 02 23 04 05  0.0000000  0 10G01G03G04G11G14G16G19G22G27G32
  22945714.280   120580556.23008  22945715.140    93958885.81147
  24351799.780   127969583.05008  24351800.800    99716564.07646
  20959373.240   110142268.95109  20959370.820    85825157.42148
  21844817.860   114795317.02409  21844814.500    89450903.79247
  22808454.080   119859256.27309  22808450.880    93396816.00246
  24074845.240   126514156.90008  24074842.300    98582450.27745
  20434278.200   107382877.89909  20434272.900    83674948.32449
  22001209.360   115617220.12109  22001204.160    90091357.03848
  20759461.860   109091728.17609  20759461.240    85006560.96449
  20852989.700   109583265.00009  20852988.100    85389571.90448
 15 02 23 04 05 30.0000000  0 10G01G03G04G11G14G16G19G22G27G32
  22933523.520   120516493.37708  22933524.280    93908966.72347
  24332394.720   127867609.12108  24332395.800    99637103.96645
  20952274.280   110104964.02709  20952271.900    85796088.64948
  21831605.740   114725887.33509  21831602.520    89396802.75847
  22800951.000   119819827.27408  22800947.900    93366092.11347
  24094867.740   126619375.67408  24094864.920    98664438.85446
  20432898.060   107375625.31409  20432892.780    83669296.94949
  22015159.640   115690529.08209  22015154.240    90148480.89648
  20768011.820   109136658.45609  20768011.280    85041571.55949
  20840792.840   109519170.32009  20840791.240    85339628.00048
 15 02 23 04 06  0.0000000  0 10G01G03G04G11G14G16G19G22G27G32
  22921352.940   120452536.45008  22921353.640    93859130.17847
  24313019.060   127765789.78408  24313020.280    99557764.33246
  20945216.620   110067875.68409  20945214.180    85767188.64448
  21818425.140   114656623.11909  21818422.000    89342830.65647
  22793530.220   119780831.19009  22793527.540    93335705.58747
  24114894.300   126724615.65508  24114891.620    98746443.95645
  20431599.980   107368803.98609  20431594.740    83663981.62949
  22029157.120   115764086.03109  22029151.640    90205797.98748
  20776646.100   109182031.86409  20776645.580    85076927.45049
  20828688.940   109455563.88309  20828687.300    85290064.55548
 15 02 23 04 06 30.0000000  0 10G01G03G04G11G14G16G19G22G27G32
  22909202.200   120388683.73908  22909202.840    93809374.84947
  24293672.800   127664124.99808  24293674.000    99478545.08846
  20938199.860   110031002.19609  20938197.320    85738456.06848
  21805275.900   114587523.54609  21805272.760    89288986.84547
  22786192.000   119742268.58409  22786189.600    93305656.82347
  24134924.020   126829872.24508  24134921.380    98828462.00645
  20430383.920   107362413.39809  20430378.700    83659001.95249
  22043201.100   115837887.37309  22043195.540    90263305.52248
  20785364.300   109227846.35609  20785363.800    85112627.04049
  20816677.940   109392445.28409  20816676.200    85240881.23348
 15 02 23 04 07  0.0000000  0 10G01G03G04G11G14G16G19G22G27G32
  22897071.480   120324936.10208  22897072.040    93759701.39447
  24274356.400   127562617.36708  24274357.680    99399448.32646
  20931224.140   109994344.74209  20931221.580    85709891.81848
  21792158.500   114518591.29909  21792155.340    89235273.42047
  22778936.960   119704142.13709  22778934.300    93275947.90447
  24154956.600   126935143.63508  24154953.960    98910491.59245
  20429250.220   107356455.59109  20429245.020    83654359.49449
  22057291.280   115911931.71409  22057285.600    90321002.40748
  20794166.600   109274102.61309  20794166.080    85148670.86849
  20804760.180   109329816.59909  20804758.320    85192079.67948
 15 02 23 04 07 30.0000000  0 10G01G03G04G11G14G16G19G22G27G32
  22884960.480   120261292.29608  22884961.060    93710108.84747
  24255070.040   127461267.23408  24255071.420    99320474.27946
  20924289.280   109957902.20909  20924286.780    85681495.05348
  21779072.880   114449825.82009  21779069.700    89181689.95347
  22771765.160   119666452.67609  22771761.880    93246579.50747
  24174991.200   127040425.78808  24174988.740    98992529.53045
  20428198.820   107350930.36009  20428193.660    83650054.13249
  22071427.040   115986215.63909  22071421.340    90378885.97748
  20803052.720   109320799.00009  20803052.100    85185057.65149
  20792935.720   109267677.97509  20792933.700    85143659.97848
 15 02 23 04 08  0.0000000  0 10G01G03G04G11G14G16G19G22G27G32
  22872870.200   120197757.76608  22872870.840    93660601.44847
  24235815.020   127360081.72808  24235816.360    99241628.51646
  20917396.400   109921680.22709  20917394.060    85653270.14248
  21766020.260   114381233.61909  21766017.020    89128241.48447
  22764677.720   119629208.08308  22764674.440    93217557.75447
  24195028.360   127145721.41908  24195025.820    99074577.99745
  20427231.040   107345844.49209  20427225.880    83646091.10849
  22085609.060   116060742.89409  22085603.380    90436959.14848
  20812023.580   109367940.68309  20812022.820    85221791.42849
  20781205.760   109206035.94109  20781203.560    85095627.22748
 15 02 23 04 08 30.0000000  0 10G01G03G04G11G14G16G19G22G27G32
  22860799.960   120134328.42708  22860800.680    93611176.01947
  24216590.840   127259058.31708  24216592.120    99162909.03846
  20910544.740   109885674.60809  20910542.520    85625213.83448
  21752999.980   114312811.32009  21752996.660    89074925.41847
  22757674.320   119592406.21309  22757671.600    93188881.00347
  24215066.740   127251023.28608  24215064.360    99156631.33245
  20426346.200   107341194.56809  20426341.040    83642467.79349
  22099836.160   116135507.00609  22099830.540    90495216.90048
  20821078.360   109415523.16909  20821077.400    85258868.67149
  20769569.740   109144887.60809  20769567.340    85047979.18148
 15 02 23 04 09  0.0000000  0 10G01G03G04G11G14G16G19G22G27G32
  22848749.760   120071004.49308  22848750.560    93561832.72247
  24197397.920   127158198.98408  24197399.120    99084317.41146
  20903734.420   109849886.10309  20903732.300    85597326.70048
  21740012.340   114244560.77409  21740009.020    89021743.19747
  22750755.520   119556049.30008  22750753.240    93160550.95347
  24235105.920   127356329.50408  24235103.520    99238688.02745
  20425544.600   107336982.12709  20425539.420    83639185.37749
  22114108.020   116210506.08909  22114102.440    90553657.75048
  20830217.000   109463546.39209  20830215.880    85296289.35449
  20758027.920   109084234.47209  20758025.420    85000717.01148
 15 02 23 04 09 30.0000000  0 10G01G03G04G11G14G16G19G22G27G32
  22836719.600   120007785.68608  22836720.340    93512571.33547
  24178236.480   127057505.02608  24178237.680    99005854.66346
  20896965.340   109814314.34209  20896963.260    85569608.45348
  21727057.440   114176482.41009  21727054.120    88968695.13147
  22743921.640   119520139.11208  22743919.440    93132568.99746
  24255145.220   127461636.32708  24255142.820    99320745.18945
  20424826.400   107333208.13909  20424821.240    83636244.59549
  22128424.040   116285737.73209  22128418.580    90612279.79048
  20839439.320   109512009.66709  20839438.100    85334052.93049
  20746580.400   109024077.28209  20746577.880    84953841.28548
 15 02 23 04 10  0.0000000  0 10G01G03G04G11G14G16G19G22G27G32
  22824709.200   119944670.70208  22824709.860    93463390.85347
  24159106.560   126956976.71308  24159107.780    98927520.96946
  20890237.220   109778958.10909  20890235.160    85542058.15848
  21714135.300   114108576.07709  21714132.020    88915781.12447
  22737172.940   119484676.17008  22737170.840    93104935.52146
  24275183.840   127566939.88008  24275181.520    99402799.79345
  20424191.520   107329872.09809  20424186.400    83633645.07649
  22142783.680   116361198.55909  22142778.400    90671080.42548
  20848744.980   109560911.25809  20848743.800    85372158.05049
  20735227.200   108964416.02409  20735224.740    84907352.00548
 15 02 23 04 10 30.0000000  0 10G01G03G04G11G14G16G19G22G27G32
  22812718.560   119881659.73708  22812719.240    93414291.42047
  24140008.500   126856615.89008  24140009.700    98849317.79746
  20883550.200   109743817.80709  20883548.100    85514676.11348
  21701246.260   114040843.38109  21701242.940    88863002.41247
  22730509.840   119449662.87508  22730508.240    93077652.47947
  24295221.580   127672238.60208  24295219.340    99484850.67445
  20423640.200   107326975.34609  20423635.160    83631387.86549
  22157186.580   116436886.71409  22157181.440    90730058.20248
  20858133.980   109610251.01509  20858132.900    85410604.60649
  20723968.580   108905251.89409  20723966.240    84861250.10248
 15 02 23 04 11  0.0000000  0 10G01G03G04G11G14G16G19G22G27G32
  22800748.080   119818754.71108  22800748.840    93365274.54547
  24120942.980   126756426.14308  24120944.140    98771247.92546
  20876904.740   109708895.85309  20876902.620    85487464.21748
  21688390.780   113973287.02309  21688387.360    88810361.10848
  22723933.140   119415103.10808  22723931.840    93050722.79947
  24315258.140   127777531.18608  24315256.000    99566896.74745
  20423173.060   107324520.80609  20423168.060    83629475.24049
  22171632.720   116512802.07609  22171627.720    90789213.02748
  20867606.600   109660030.40009  20867605.700    85449393.73149
  20712805.120   108846587.96509  20712802.920    84815537.96248
 15 02 23 04 11 30.0000000  0 10G01G03G04G11G14G16G19G22G27G32
  22788797.200   119755952.69308  22788798.000    93316337.92647
  24101909.740   126656406.05908  24101910.800    98693310.24546
  20870300.200   109674188.95809  20870298.040    85460419.88948
  21675568.520   113905905.14009  21675564.940    88757855.75547
  22717442.680   119380995.75208  22717441.380    93024145.64947
  24335292.340   127882811.49408  24335290.240    99648933.24845
  20422789.700   107322506.48309  20422784.740    83627905.62349
  22186121.220   116588939.65209  22186116.300    90848540.99048
  20877162.220   109710246.02409  20877161.500    85488522.76649
  20701736.540   108788422.39509  20701734.460    84770214.15048
 15 02 23 04 12  0.0000000  0 10G01G03G04G11G14G16G19G22G27G32
  22776866.460   119693256.81008  22776867.320    93267484.02647
  24082909.660   126556560.34108  24082910.760    98615508.46646
  20863737.240   109639700.77509  20863735.080    85433545.99148
  21662780.320   113838702.17209  21662776.540    88705489.81447
  22711039.500   119347345.90808  22711037.920    92997925.01147
  24355324.360   127988080.10208  24355322.280    99730960.64245
  20422490.960   107320936.69109  20422486.000    83626682.40949
  22200652.180   116665300.25909  22200647.340    90908042.74848
  20886801.360   109760900.50609  20886800.800    85527993.77949
  20690763.600   108730759.35909  20690761.560    84725281.93048
 15 02 23 04 12 30.0000000  0 10G01G03G04G11G14G16G19G22G27G32
  22764955.580   119630665.22208  22764956.500    93218711.39547
  24063942.720   126456888.71108  24063943.840    98537842.31946
  20857215.520   109605429.28109  20857213.420    85406840.94748
  21650025.960   113771677.24009  21650022.040    88653262.60547
  22704723.460   119314153.79008  22704721.400    92972061.02347
  24375353.280   128093332.29308  24375350.940    99812975.25945
  20422276.620   107319810.29509  20422271.680    83625804.69149
  22215224.860   116741880.02609  22215220.040    90967715.28348
  20896523.620   109811991.53809  20896523.160    85567804.95649
  20679886.120   108673598.01209  20679884.140    84680740.62948
 15 02 23 04 13  0.0000000  0 10G01G03G04G11G14G16G19G22G27G32
  22753064.700   119568178.20508  22753065.660    93170020.24047
  24045009.280   126357393.07008  24045010.340    98460313.29946
  20850735.180   109571375.03809  20850733.060    85380305.18148
  21637305.680   113704831.71009  21637301.680    88601175.18747
  22698494.900   119281421.27209  22698492.780    92946555.19047
  24395378.680   128198566.03408  24395376.360    99894975.43345
  20422146.940   107319128.61909  20422141.940    83625273.51849
  22229838.900   116818677.21109  22229834.060    91027557.22748
  20906328.920   109863518.89509  20906328.520    85607956.13149
  20669104.400   108616939.71809  20669102.440    84636591.31348
