     2.11           OBSERVATION DATA    G                   RINEX VERSION / TYPE
SPIDER V4,0,0,3554                      2015 03 13 00:54    PGM / RUN BY / DATE 
EMHD                                                        MARKER NAME         
EMHD                                                        MARKER NUMBER       
                                                            OBSERVER / AGENCY   
462397              LEICA GRX1200PRO    8.20/2.127          REC # / TYPE / VERS 
103297              LEIAT504                                ANT # / TYPE        
  5146535.6892   265261.6083  3747697.6292                  APPROX POSITION XYZ 
        0.0470        0.0000        0.0000                  ANTENNA: DELTA H/E/N
     1     1                                                WAVELENGTH FACT L1/2
     4    C1    L1    P2    L2                              # / TYPES OF OBSERV 
    30.000                                                  INTERVAL            
  2015    02    14    00    00    0.0000000     GPS         TIME OF FIRST OBS   
  2015    02    14    20    00    0.0000000     GPS         TIME OF LAST OBS    
    16                                                      LEAP SECONDS        
    30                                                      # OF SATELLITES     
   G 1   804   804   803   803                              PRN / # OF OBS      
   G 2   633   633   633   633                              PRN / # OF OBS      
   G 3   830   830   830   830                              PRN / # OF OBS      
   G 4   834   834   833   833                              PRN / # OF OBS      
   G 5   663   663   663   663                              PRN / # OF OBS      
   G 6   707   707   707   707                              PRN / # OF OBS      
   G 7   649   649   649   649                              PRN / # OF OBS      
   G 9   773   773   773   773                              PRN / # OF OBS      
   G10   768   768   768   768                              PRN / # OF OBS      
   G11   776   776   776   776                              PRN / # OF OBS      
   G12   462   462   461   461                              PRN / # OF OBS      
   G13   800   800   800   800                              PRN / # OF OBS      
   G14   564   564   563   563                              PRN / # OF OBS      
   G15   713   713   713   713                              PRN / # OF OBS      
   G16   591   591   591   591                              PRN / # OF OBS      
   G17   928   928   928   928                              PRN / # OF OBS      
   G18   882   882   882   882                              PRN / # OF OBS      
   G19   765   765   765   765                              PRN / # OF OBS      
   G20   792   792   792   792                              PRN / # OF OBS      
   G21   399   399   399   399                              PRN / # OF OBS      
   G22   756   756   756   756                              PRN / # OF OBS      
   G23   733   733   733   733                              PRN / # OF OBS      
   G24   574   574   574   574                              PRN / # OF OBS      
   G25   367   367   367   367                              PRN / # OF OBS      
   G27   788   788   788   788                              PRN / # OF OBS      
   G28   868   868   868   868                              PRN / # OF OBS      
   G29   279   279   279   279                              PRN / # OF OBS      
   G30   682   682   682   682                              PRN / # OF OBS      
   G31   390   390   390   390                              PRN / # OF OBS      
   G32   744   744   744   744                              PRN / # OF OBS      
BIT 2 OF LLI FLAGS DATA COLLECTED UNDER A/S CONDITION       COMMENT             
SNR is mapped to RINEX snr flag value [2-9]                 COMMENT             
Lx:     = 25dBHz -> 1; 26-27dBHz -> 2; 28-31dBHz -> 3       COMMENT             
       32-35dBHz -> 4; 36-38dBHz -> 5; 39-41dBHz -> 6       COMMENT             
       42-44dBHz -> 7; 45-48dBHz -> 8; >=49dBHz -> 9        COMMENT             
                                                            END OF HEADER       
 15 02 14 00 00  0.0000000  0  7G16G18G21G25G27G29G31
  23254948.060   122205580.81105  23254945.720    95225119.67646
  24257285.880   127472907.40304  24257286.220    99329544.41744
  20978635.560   110243476.75107  20978633.520    85904002.58649
  23209459.900   121966527.34805  23209462.140    95038858.16345
  24263829.940   127507287.73704  24263832.440    99356340.77644
  22412150.780   117776642.76406  22412149.860    91774000.82247
  21317449.440   112023948.89407  21317447.740    87291377.73648
 15 02 14 00 00 30.0000000  0  7G16G18G21G25G27G29G31
  23238594.520   122119642.91705  23238592.380    95158155.11445
  24242730.080   127396417.92904  24242730.540    99269942.37145
  20976861.680   110234155.08007  20976859.660    85896738.95449
  23225042.700   122048415.54405  23225044.980    95102667.13045
  24249135.140   127430067.34204  24249137.660    99296169.10344
  22425797.120   117848354.94906  22425796.220    91829880.43447
  21327854.320   112078626.75507  21327852.620    87333983.84148
 15 02 14 00 01  0.0000000  0  7G16G18G21G25G27G29G31
  23222253.220   122033769.34205  23222251.240    95091240.66546
  24228172.460   127319919.18204  24228172.920    99210333.22644
  20975175.680   110225295.18207  20975173.680    85889835.14249
  23240668.940   122130531.70805  23240671.140    95166653.73546
  24234462.520   127352963.02404  24234465.320    99236087.87645
  22439455.980   117920132.49606  22439455.000    91885811.00247
  21338348.680   112133775.04507  21338347.000    87376956.51548
 15 02 14 00 01 30.0000000  0  7G16G18G21G25G27G29G31
  23205924.420   121947960.87405  23205922.360    95024376.94445
  24213613.680   127243413.32004  24213614.340    99150718.44245
  20973577.600   110216897.23607  20973575.580    85883291.29449
  23256338.440   122212875.38405  23256340.600    95230817.61846
  24219812.260   127275974.98304  24219815.080    99176097.25245
  22453127.120   117991974.57406  22453126.160    91941791.82447
  21348932.220   112189391.77308  21348930.520    87420294.20548
 15 02 14 00 02  0.0000000  0  7G16G18G21G25G27G29G31
  23189608.980   121862223.03705  23189606.960    94957568.26645
  24199054.620   127166906.87704  24199055.380    99091103.22945
  20972068.100   110208964.79207  20972066.040    85877110.18149
  23272051.740   122295449.39305  23272053.900    95295160.96946
  24205184.900   127199107.03604  24205187.560    99116200.19546
  22466811.060   118063883.99906  22466810.200    91997825.10947
  21359605.280   112245478.55608  21359603.540    87463998.17448
 15 02 14 00 02 30.0000000  0  7G16G18G21G25G27G29G31
  23173305.920   121776549.66805  23173303.900    94890809.81746
  24184495.040   127090395.13404  24184495.040    99031483.79044
  20970645.600   110201489.63007  20970643.560    85871285.38549
  23287807.380   122378245.55105  23287809.580    95359677.44745
  24190578.900   127122351.49904  24190581.260    99056390.75445
  22480506.120   118135852.03806  22480505.320    92053904.08647
  21370365.980   112302026.19307  21370364.220    87508061.25148
 15 02 14 00 03  0.0000000  0  7G16G18G21G25G27G29G31
  23157016.880   121690950.31405  23157014.980    94824109.04445
  24169936.260   127013887.89804  24169935.960    98971867.97845
  20969311.420   110194478.66907  20969309.460    85865822.30149
  23303606.580   122461270.74705  23303608.880    95424372.39145
  24175995.680   127045716.06304  24175997.540    98996674.89144
  22494213.700   118207885.68606  22494212.900    92110034.17547
  21381215.360   112359039.96207  21381213.580    87552487.55448
 15 02 14 00 03 30.0000000  0  7G16G18G21G25G27G29G31
  23140741.960   121605425.51505  23140740.140    94757466.35045
  24155378.320   126937387.41204  24155378.140    98912257.37645
  20968065.560   110187931.71407  20968063.640    85860720.78049
  23319449.180   122544523.97705  23319451.400    95489244.99146
  24161435.240   126969200.49004  24161437.240    98937052.43446
  22507933.640   118279984.38406  22507932.860    92166214.95247
  21392152.960   112416517.43807  21392151.140    87597275.17348
 15 02 14 00 04  0.0000000  0  7G16G18G21G25G27G29G31
  23124480.660   121519972.19805  23124478.900    94690879.36546
  24140821.460   126860891.46804  24140821.120    98852650.32945
  20966906.920   110181842.87607  20966904.960    85855976.24149
  23335334.200   122627999.78005  23335336.180    95554291.06545
  24146896.720   126892800.17504  24146898.520    98877519.76045
  22521664.800   118352142.21906  22521664.040    92222441.81847
  21403177.540   112474451.94407  21403175.740    87642418.93048
 15 02 14 00 04 30.0000000  0  7G16G18G21G25G27G29G31
  23108233.720   121434594.36505  23108231.980    94624351.19346
  24126266.500   126784405.42804  24126266.520    98793050.96544
  20965835.980   110176214.94307  20965834.000    85851590.84949
  23351261.800   122711699.83505  23351263.680    95619511.86745
  24132380.640   126816517.45204  24132382.220    98818078.71644
  22535407.560   118424360.93706  22535406.720    92278716.13847
  21414289.160   112532843.96207  21414287.420    87687919.18748
 15 02 14 00 05  0.0000000  0  7G16G18G21G25G27G29G31
  23092001.460   121349293.31305  23091999.700    94557882.87345
  24111713.680   126707931.13804  24111714.400    98733460.74445
  20964852.620   110171047.41407  20964850.620    85847564.20349
  23367231.920   122795623.26405  23367233.860    95684906.73246
  24117887.020   126740352.30004  24117889.000    98758729.30746
  22549161.660   118496639.39906  22549160.860    92335036.99747
  21425487.380   112591691.25207  21425485.740    87733774.20248
 15 02 14 00 05 30.0000000  0  7G16G18G21G25G27G29G31
  23075783.960   121264069.19506  23075782.080    94491474.47446
  24097163.680   126631470.13604  24097164.060    98673880.85945
  20963956.380   110166337.83307  20963954.400    85843894.40649
  23383244.200   122879767.97205  23383246.100    95750474.01646
  24103415.360   126664303.30604  24103417.340    98699470.40946
  22562926.780   118568975.51406  22562925.900    92391402.78447
  21436771.580   112650990.23407  21436769.980    87779981.18548
 15 02 14 00 06  0.0000000  0  7G16G18G21G25G27G29G31
  23059582.400   121178929.44006  23059580.560    94425131.85345
  24082617.440   126555031.24904  24082617.920    98614318.24643
  20963148.440   110162092.02707  20963146.460    85840585.99049
  23399299.460   122964139.06705  23399301.540    95816217.70446
  24088966.800   126588376.43804  24088968.880    98640306.67646
  22576703.900   118641374.51906  22576702.960    92447817.57747
  21448142.500   112710744.88507  21448140.920    87826543.23448
 15 02 14 00 06 30.0000000  0  7G16G18G21G25G27G29G31
  23043395.800   121093868.76705  23043394.080    94358850.83146
  24068074.840   126478609.67804  24068075.200    98554769.06345
  20962427.380   110158302.51907  20962425.380    85837633.13649
  23415396.220   123048729.03405  23415398.540    95882131.93946
  24074540.160   126512564.96904  24074542.460    98581232.87346
  22590491.500   118713828.53606  22590490.400    92504275.24847
  21459598.460   112770946.23207  21459596.900    87873453.35248
 15 02 14 00 07  0.0000000  0  7G16G18G21G25G27G29G31
  23027225.060   121008891.88705  23027223.540    94292635.09946
  24053536.700   126402211.43104  24053536.780    98495238.10344
  20961793.640   110154972.02407  20961791.600    85835037.95249
  23431535.240   123133540.02805  23431537.560    95948218.41646
  24060136.080   126436871.83404  24060138.680    98522251.25945
  22604290.060   118786340.20306  22604288.820    92560777.82547
  21471139.620   112831595.00707  21471138.040    87920712.12348
 15 02 14 00 07 30.0000000  0  7G16G18G21G25G27G29G31
  23011070.040   120923997.48805  23011068.620    94226483.64446
  24039002.940   126325836.77604  24039003.160    98435725.51945
  20961246.600   110152097.29907  20961244.500    85832797.91249
  23447715.820   123218568.91105  23447718.060    96014474.65445
  24045754.340   126361294.67104  24045756.900    98463360.01045
  22618098.840   118858905.73706  22618097.600    92617322.37947
  21482764.960   112892686.41507  21482763.380    87968315.80648
 15 02 14 00 08  0.0000000  0  7G16G18G21G25G27G29G31
  22994931.600   120839189.11706  22994930.140    94160399.20146
  24024474.620   126249490.20004  24024474.640    98376234.75545
  20960786.460   110149679.43407  20960784.340    85830913.86749
  23463938.000   123303816.83705  23463940.260    96080901.59146
  24031394.880   126285835.43104  24031397.440    98404560.64945
  22631918.220   118931526.96906  22631917.000    92673910.33847
  21494474.520   112954220.45307  21494472.920    88016264.38648
 15 02 14 00 08 30.0000000  0  7G16G18G21G25G27G29G31
  22978810.160   120754469.84206  22978808.500    94094384.19046
  24009952.280   126173175.31604  24009952.300    98316768.73743
  20960413.580   110147720.09107  20960411.480    85829387.11349
  23480201.800   123389284.39204  23480204.200    96147499.63946
  24017058.160   126210495.51904  24017060.520    98345854.28845
  22645748.280   119004204.32306  22645747.160    92730542.00147
  21506268.200   113016196.40407  21506266.520    88064557.31948
 15 02 14 00 09  0.0000000  0  7G16G18G21G25G27G29G31
  22962705.460   120669838.62506  22962703.620    94028437.82645
  23995436.260   126096892.44604  23995436.360    98257327.63244
  20960127.300   110146215.65907  20960125.220    85828214.82649
  23496506.800   123474968.16605  23496509.420    96214266.20746
  24002743.560   126135272.35804  24002745.820    98287238.87746
  22659588.400   119076934.01106  22659587.220    92787214.45747
  21518145.040   113078609.37807  21518143.300    88113190.78248
 15 02 14 00 09 30.0000000  0  7G16G18G21G25G27G29G31
  22946617.900   120585297.68006  22946615.920    93962561.77345
  23980926.740   126020644.28304  23980926.740    98197913.57745
  20959927.600   110145166.50907  20959925.600    85827397.31549
  23512853.020   123560868.06405  23512855.660    96281201.15446
  23988451.500   126060166.57704  23988453.600    98228714.94446
  22673438.540   119149716.92506  22673437.440    92843928.37647
  21530104.700   113141457.63707  21530102.980    88162163.43548
 15 02 14 00 10  0.0000000  0  7G16G18G21G25G27G29G31
  22930548.160   120500850.25606  22930546.060    93896758.57945
  23966424.680   125944435.68804  23966424.200    98138530.34443
  20959814.680   110144573.12607  20959812.680    85826934.94749
  23529240.600   123646984.82605  23529243.000    96348305.13945
  23974182.060   125985179.93504  23974184.100    98170283.82445
  22687298.820   119222553.39806  22687297.860    92900684.04146
  21542147.040   113204740.72407  21542145.400    88211474.91148
 15 02 14 00 10 30.0000000  0  7G16G18G21G25G27G29G31
  22914496.220   120416497.20206  22914494.220    93831028.94946
  23951930.460   125868268.65404  23951929.900    98079179.49944
  20959788.380   110144434.85607  20959786.280    85826827.20649
  23545669.040   123733317.02904  23545671.200    96415576.94045
  23959935.180   125910311.71304  23959937.100    98111945.00645
  22701169.140   119295442.31606  22701168.240    92957480.57247
  21554271.600   113268455.90007  21554270.040    88261123.08448
 15 02 14 00 11  0.0000000  0  7G16G18G21G25G27G29G31
  22898462.400   120332239.27905  22898460.520    93765373.43746
  23937444.540   125792144.62004  23937443.760    98019862.18144
  20959848.200   110144749.15207  20959846.060    85827072.11849
  23562138.200   123819862.74705  23562140.100    96483015.13145
  23945710.520   125835560.87004  23945712.380    98053697.64145
  22715049.100   119368381.78306  22715048.180    93014316.52246
  21566477.680   113332599.68107  21566476.200    88311105.23248
 15 02 14 00 11 30.0000000  0  7G16G18G21G25G27G29G31
  22882447.300   120248079.39506  22882445.460    93699794.30746
  23922967.340   125716067.36904  23922966.840    97960581.30845
  20959994.320   110145517.10907  20959992.200    85827670.53549
  23578647.980   123906622.35305  23578649.780    96550620.02346
  23931508.300   125760928.50604  23931510.200    97995542.62945
  22728938.800   119441372.46306  22728937.760    93071192.38946
  21578765.140   113397170.73707  21578763.660    88361420.32148
 15 02 14 00 12  0.0000000  0  7G16G18G21G25G27G29G31
  22866450.820   120164016.67906  22866448.960    93634290.91046
  23908499.180   125640037.48204  23908498.680    97901337.32043
  20960226.260   110146736.18807  20960224.220    85828620.47049
  23595198.100   123993593.02905  23595199.800    96618389.34445
  23917328.260   125686412.78104  23917330.200    97937478.45646
  22742837.620   119514411.26006  22742836.580    93128105.74846
  21591133.160   113462164.99207  21591131.660    88412065.17448
 15 02 14 00 12 30.0000000  0  7G16G18G21G25G27G29G31
  22850473.460   120080055.02006  22850471.600    93568866.26346
  23894041.160   125564060.00604  23894040.680    97842134.19444
  20960544.360   110148407.83307  20960542.340    85829923.05949
  23611788.520   124080775.99404  23611790.340    96686324.09746
  23903170.960   125612015.74404  23903172.900    97879506.77345
  22756745.920   119587500.04806  22756744.820    93185058.04446
  21603581.680   113527582.23507  21603580.180    88463039.63148
 15 02 14 00 13  0.0000000  0  7G16G18G21G25G27G29G31
  22834515.620   119996196.52206  22834513.780    93503521.98946
  23879593.480   125488137.42604  23879592.780    97782973.83545
  20960948.400   110150531.22507  20960946.360    85831577.66049
  23628419.100   124168170.67304  23628421.000    96754423.82145
  23889036.340   125537737.60904  23889038.220    97821627.76746
  22770663.540   119660638.15305  22770662.460    93242048.77946
  21616110.300   113593420.56007  21616108.840    88514342.20348
 15 02 14 00 13 30.0000000  0  7G16G18G21G25G27G29G31
  22818577.580   119912442.17406  22818575.860    93438258.88646
  23865156.620   125412271.83304  23865155.760    97723857.86844
  20961438.240   110153105.49907  20961436.180    85833583.60448
  23645089.640   124255775.67204  23645091.840    96822687.44446
  23874924.200   125463577.91804  23874925.940    97763841.05045
  22784590.300   119733824.54805  22784589.360    93299077.13547
  21628718.520   113659677.08207  21628717.020    88565970.64348
 15 02 14 00 14  0.0000000  0  7G16G18G21G25G27G29G31
  22802659.140   119828791.01606  22802657.580    93373076.18846
  23850731.020   125336463.44204  23850729.960    97664786.45044
  20962013.220   110156127.30207  20962011.220    85835938.26049
  23661799.740   124343587.50104  23661801.960    96891112.19745
  23860834.100   125389534.00105  23860835.680    97706144.54845
  22798525.680   119807056.09505  22798524.960    93356140.63747
  21641405.360   113726346.63407  21641403.800    88617920.92248
 15 02 14 00 14 30.0000000  0  7G16G18G21G25G27G29G31
  22786761.060   119745246.16006  22786759.520    93307976.30246
  23836317.000   125260716.17604  23836316.000    97605762.68645
  20962673.440   110159596.68407  20962671.460    85838641.68149
  23678549.460   124431606.84104  23678551.560    96959698.67545
  23846766.440   125315607.36804  23846767.800    97648539.44346
  22812469.940   119880333.51606  22812469.300    93413239.88147
  21654170.640   113793428.49407  21654169.000    88670192.48048
 15 02 14 00 15  0.0000000  0  7G16G18G21G25G27G29G31
  22770884.080   119661811.68106  22770882.460    93242962.41646
  23821915.340   125185035.22604  23821914.480    97546790.59343
  20963419.260   110163515.82407  20963417.260    85841695.56449
  23695338.820   124519834.81904  23695340.820    97028447.71245
  23832721.400   125241800.15304  23832722.660    97591027.37346
  22826423.260   119953657.77706  22826422.560    93470375.65747
  21667014.220   113860922.18907  21667012.620    88722784.94948
 15 02 14 00 15 30.0000000  0  7G16G18G21G25G27G29G31
  22755028.320   119578488.75306  22755026.580    93178035.47646
  23807526.560   125109422.78304  23807525.560    97487871.87144
  20964250.400   110167883.35707  20964248.340    85845098.84349
  23712167.640   124608270.45804  23712169.400    97097358.58346
  23818699.040   125168112.12004  23818700.340    97533608.15946
  22840385.480   120027028.79306  22840384.780    93527547.84447
  21679935.780   113928825.47607  21679934.240    88775696.58348
 15 02 14 00 16  0.0000000  0  7G16G18G21G25G27G29G31
  22739193.920   119495278.37506  22739192.140    93113196.23046
  23793151.120   125033881.08804  23793150.240    97429008.30743
  20965166.640   110172698.38307  20965164.560    85848850.82249
  23729035.700   124696912.13605  23729037.240    97166429.98244
  23804699.060   125094542.67904  23804700.640    97476281.39046
  22854356.320   120100445.31706  22854355.600    93584755.49447
  21692934.700   113997135.14407  21692933.220    88828924.87348
 15 02 14 00 16 30.0000000  0  7G16G18G21G25G27G29G31
  22723381.140   119412181.84406  22723379.320    93048445.70546
  23778789.500   124958411.53704  23778788.660    97370200.90844
  20966167.580   110177958.30407  20966165.440    85852949.47349
  23745942.600   124785758.14604  23745944.040    97235660.61045
  23790721.480   125021090.87004  23790723.240    97419046.25945
  22868335.460   120173905.71506  22868334.680    93641997.34047
  21706010.300   114065847.86507  21706008.840    88882467.23648
 15 02 14 00 17  0.0000000  0  7G16G18G21G25G27G29G31
  22707589.920   119329199.02706  22707587.980    92983783.77246
  23764442.100   124883015.52804  23764441.400    97311450.84344
  20967252.960   110183661.91707  20967250.800    85857393.86249
  23762887.980   124874806.25104  23762889.440    97305048.71544
  23776766.100   124947755.48204  23776767.980    97361901.84345
  22882322.520   120247407.93006  22882321.620    93699271.78046
  21719161.900   114134960.20707  21719160.440    88936320.98948
 15 02 14 00 17 30.0000000  0  7G16G18G21G25G27G29G31
  22691821.200   119246334.14106  22691819.140    92919213.74746
  23750109.620   124807698.31804  23750108.900    97252762.16744
  20968423.040   110189810.73407  20968420.940    85862185.15249
  23779872.060   124964057.93404  23779873.620    97374595.45844
  23762833.420   124874538.93304  23762835.280    97304850.03646
  22896317.900   120320953.93606  22896316.800    93756580.34946
  21732389.520   114204471.79607  21732388.000    88990485.83948
 15 02 14 00 18  0.0000000  0  7G16G18G21G25G27G29G31
  22676075.280   119163588.96206  22676073.280    92854736.99746
  23735792.660   124732462.43804  23735791.960    97194136.88645
  20969677.540   110196403.29107  20969675.500    85867322.21849
  23796894.560   125053512.09304  23796896.380    97444299.96945
  23748923.440   124801440.99504  23748925.100    97247890.65545
  22910321.300   120394542.66705  22910320.160    93813922.19746
  21745692.720   114274380.32607  21745691.180    89044959.99648
 15 02 14 00 18 30.0000000  0  7G16G18G21G25G27G29G31
  22660352.340   119080964.27406  22660350.440    92790354.11846
  23721491.400   124657309.90204  23721490.700    97135576.50145
  20971016.140   110203438.00507  20971014.160    85872803.81749
  23813955.260   125143167.17604  23813957.040    97514161.03645
  23735035.840   124728460.86004  23735037.400    97191023.05846
  22924332.640   120468173.27905  22924331.340    93871296.66945
  21759070.780   114344682.35607  21759069.240    89099740.78048
 15 02 14 00 19  0.0000000  0  7G16G18G21G25G27G29G31
  22644652.900   118998462.94906  22644651.100    92726067.38546
  23707206.720   124582244.16204  23707206.200    97077083.78644
  20972438.920   110210914.98307  20972436.900    85878630.03549
  23831054.260   125233022.92704  23831056.080    97584178.47846
  23721170.500   124655599.39604  23721172.400    97134247.93346
  22938351.980   120541845.96205  22938350.700    93928703.94046
  21772523.400   114415376.41407  21772521.920    89154827.03748
 15 02 14 00 19 30.0000000  0  7G16G18G21G25G27G29G31
  22628977.100   118916085.66806  22628975.240    92661877.30746
  23692938.780   124507266.46904  23692938.440    97018659.69045
  20973945.560   110218832.43407  20973943.500    85884799.48849
  23848191.000   125323077.35104  23848193.000    97654350.70945
  23707327.620   124582855.53804  23707329.780    97077564.45846
  22952379.000   120615558.87805  22952377.860    93986142.56846
  21786049.920   114486458.73607  21786048.420    89210215.83448
 15 02 14 00 20  0.0000000  0  7G16G18G21G25G27G29G31
  22613325.160   118833834.16806  22613323.300    92597785.24446
  23678688.380   124432380.18304  23678688.000    96960306.75445
  20975535.940   110227189.77507  20975533.840    85891311.71449
  23865365.420   125413329.82104  23865367.400    97724677.29345
  23693507.280   124510229.49704  23693509.600    97020972.77146
  22966413.680   120689311.85005  22966412.580    94043612.39646
  21799650.040   114557927.21007  21799648.400    89265905.53648
 15 02 14 00 20 30.0000000  0  7G16G18G21G25G27G29G31
  22597697.200   118751709.15406  22597695.320    92533791.73746
  23664455.840   124357586.66905  23664455.140    96902026.16145
  20977209.700   110235985.05907  20977207.560    85898165.18949
  23882577.260   125503778.38804  23882579.120    97795156.67745
  23679709.160   124437720.31804  23679711.680    96964472.16146
  22980455.820   120763103.60006  22980454.680    94101112.42246
  21813322.920   114629778.29107  21813321.220    89321893.36448
 15 02 14 00 21  0.0000000  0  7G16G18G21G25G27G29G31
  22582093.860   118669713.28806  22582091.980    92469898.85646
  23650241.720   124282889.46905  23650240.880    96843820.59844
  20978966.640   110245217.88607  20978964.520    85905359.60149
  23899826.280   125594422.83604  23899828.240    97865788.69845
  23665933.480   124365328.75704  23665935.860    96908063.18346
  22994505.400   120836934.13606  22994504.260    94158642.69046
  21827068.360   114702010.62407  21827066.580    89378178.28348
 15 02 14 00 21 30.0000000  0  7G16G18G21G25G27G29G31
  22566515.960   118587851.03606  22566514.080    92406110.08946
  23636046.780   124208293.69105  23636045.800    96785694.07544
  20980807.040   110254889.38707  20980804.920    85912895.84049
  23917112.660   125685264.58504  23917114.600    97936574.43644
  23652180.580   124293057.12904  23652182.900    96851747.68646
  23008562.580   120910805.17605  23008561.580    94216204.51847
  21840886.220   114774623.74507  21840884.360    89434759.90948
 15 02 14 00 22  0.0000000  0  7G16G18G21G25G27G29G31
  22550962.960   118506119.24406  22550961.100    92342422.98446
  23621870.580   124133797.10205  23621869.380    96727644.81445
  20982729.980   110264994.59207  20982727.820    85920770.03449
  23934435.580   125776297.95104  23934437.400    98007509.46446
  23638449.840   124220900.77105  23638451.880    96795521.96046
  23022626.500   120984711.23806  23022625.600    94273793.65447
  21854775.160   114847610.44907  21854773.220    89491632.64148
 15 02 14 00 22 30.0000000  0  7G16G18G21G25G27G29G31
  22535435.980   118424524.30606  22535434.160    92278842.52746
  23607714.660   124059407.18504  23607713.380    96669678.71445
  20984736.060   110275536.56407  20984733.840    85928984.56949
  23951795.800   125867526.47804  23951797.700    98078596.60446
  23624741.800   124148864.20104  23624743.580    96739389.58946
  23036697.840   121058656.83405  23036697.120    94331413.57446
  21868735.560   114920972.74407  21868733.600    89548798.04748
 15 02 14 00 23  0.0000000  0  7G16G18G21G25G27G29G31
  22519935.160   118343066.92306  22519933.380    92215369.24846
  23593579.040   123985125.39404  23593578.080    96611796.84644
  20986825.060   110286514.18007  20986822.800    85937538.56049
  23969192.820   125958948.35304  23969195.020    98149834.39845
  23611056.340   124076946.47105  23611058.240    96683349.84246
  23050776.340   121132640.39705  23050775.800    94389063.05547
  21882766.800   114994707.35507  21882764.880    89606253.56648
 15 02 14 00 23 30.0000000  0  7G16G18G21G25G27G29G31
  22504460.120   118261744.98106  22504458.320    92152001.51346
  23579463.960   123910950.79104  23579462.800    96553998.48544
  20988995.820   110297921.72507  20988993.620    85946427.56449
  23986625.620   126050558.22004  23986628.140    98221218.69446
  23597392.780   124005143.34005  23597394.520    96627399.40146
  23064861.320   121206657.43305  23064860.720    94446738.64247
  21896867.580   115068807.32607  21896865.700    89663993.78448
 15 02 14 00 24  0.0000000  0  7G16G18G21G25G27G29G31
  22489012.100   118180565.06706  22489010.280    92088744.43546
  23565370.720   123836890.54404  23565369.620    96496289.27146
  20991249.120   110309763.11107  20991247.020    85955654.61949
  24004095.000   126142360.15104  24004097.640    98292752.61643
  23583751.920   123933459.74505  23583753.440    96571542.07146
  23078953.540   121280712.30705  23078952.980    94504443.70646
  21911038.280   115143274.93507  21911036.460    89722020.46948
 15 02 14 00 24 30.0000000  0  7G16G18G21G25G27G29G31
  22473590.980   118099526.46606  22473589.100    92025597.48046
  23551299.300   123762944.81405  23551298.280    96438669.24644
  20993584.320   110322034.78307  20993582.320    85965216.96549
  24021600.260   126234350.42404  24021602.880    98364433.33042
  23570133.260   123861893.03605  23570134.740    96515775.85546
  23093052.440   121354801.96205  23093051.780    94562175.88246
  21925277.980   115218104.96407  21925276.140    89780329.55948
 15 02 14 00 25  0.0000000  0  7G16G18G21G25G27G29G31
  22458197.360   118018632.28706  22458195.440    91962563.06847
  23537250.340   123689117.42504  23537249.260    96381141.45044
  20996001.420   110334736.82407  20995999.420    85975114.67149
  24039141.420   126326529.24004  24039144.000    98436260.95544
  23556537.080   123790444.42305  23556538.480    96460101.63046
  23107158.180   121428927.40005  23107157.540    94619935.93546
  21939586.400   115293296.16607  21939584.520    89838920.08248
 15 02 14 00 25 30.0000000  0  7G16G18G21G25G27G29G31
  22442831.780   117937885.37706  22442829.800    91899643.39947
  23523224.580   123615412.14705  23523223.620    96323708.80244
  20998500.480   110347869.32107  20998498.380    85985347.79149
  24056718.520   126418896.48904  24056720.780    98508235.38745
  23542963.400   123719114.82505  23542964.860    96404520.16746
  23121270.640   121503088.45805  23121270.000    94677723.75847
  21953963.200   115368846.88107  21953961.320    89897790.74648
 15 02 14 00 26  0.0000000  0  7G16G18G21G25G27G29G31
  22427493.800   117857283.41706  22427491.780    91836836.68347
  23509221.920   123541827.44105  23509220.940    96266370.10744
  21001080.380   110361426.99407  21001078.300    85995912.21649
  24074330.560   126511447.29904  24074332.600    98580352.88145
  23529411.660   123647900.26105  23529413.380    96349028.34546
  23135389.080   121577280.96405  23135388.400    94735536.06647
  21968407.180   115444750.52707  21968405.360    89956936.42348
 15 02 14 00 26 30.0000000  0  7G16G18G21G25G27G29G31
  22412184.840   117776834.54206  22412182.920    91774149.26846
  23495243.880   123468372.52405  23495243.040    96209132.53844
  21003742.260   110375415.39407  21003740.260    86006812.27049
  24091978.460   126604186.86104  24091980.340    98652617.46545
  23515882.860   123576807.00105  23515884.680    96293631.03947
  23149514.480   121651510.93905  23149513.840    94793377.55947
  21982919.000   115521010.77407  21982917.280    90016359.97048
 15 02 14 00 27  0.0000000  0  7G16G18G21G25G27G29G31
  22396904.440   117696535.74706  22396902.520    91711578.77247
  23481290.080   123395044.72304  23481289.120    96151994.03945
  21006485.000   110389828.32207  21006483.060    86018043.12749
  24109660.900   126697109.00504  24109662.980    98725024.26944
  23502376.420   123505829.88905  23502377.720    96238324.19646
  23163645.980   121725772.57005  23163645.280    94851243.73046
  21997497.300   115597619.90007  21997495.560    90076055.36748
 15 02 14 00 27 30.0000000  0  7G16G18G21G25G27G29G31
  22381653.220   117616389.85606  22381651.260    91649127.42646
  23467361.060   123321847.82005  23467359.940    96094957.55144
  21009308.500   110404665.48607  21009306.500    86029604.56249
  24127378.300   126790213.75104  24127380.340    98797573.36646
  23488892.220   123434970.02905  23488893.400    96183108.77646
  23177783.520   121800066.07005  23177782.820    94909134.74146
  22012141.640   115674576.41807  22012139.940    90136021.46248
 15 02 14 00 28  0.0000000  0  7G16G18G21G25G27G29G31
  22366431.680   117536399.93706  22366429.680    91586797.63247
  23453457.760   123248786.01405  23453456.520    96038026.29144
  21012212.700   110419927.10507  21012210.640    86041496.74149
  24145130.360   126883501.26104  24145132.500    98870264.89445
  23475430.480   123364228.58805  23475431.720    96127985.60446
  23191927.580   121874393.29905  23191926.840    94967052.02446
  22026851.740   115751878.63407  22026850.080    90196256.93048
 15 02 14 00 28 30.0000000  0  7G16G18G21G25G27G29G31
  22351239.540   117456564.71307  22351237.520    91524588.36847
  23439579.960   123175858.65705  23439578.820    95981199.81945
  21015196.740   110435608.94307  21015194.680    86053716.35948
  24162916.280   126976967.14104  24162918.360    98943095.45545
  23461990.860   123293602.27505  23461992.040    96072952.13847
  23206077.360   121948750.33805  23206076.600    95024992.53446
  22041626.600   115829520.94407  22041624.980    90256757.40848
 15 02 14 00 29  0.0000000  0  7G16G18G21G25G27G29G31
  22336078.060   117376890.82606  22336076.080    91462504.82847
  23425729.300   123103073.17105  23425728.180    95924483.88446
  21018261.460   110451714.69407  21018259.440    86066266.30149
  24180736.640   127070615.33804  24180738.860    99016068.04645
  23448574.000   123223095.86905  23448575.240    96018012.12046
  23220233.640   122023141.18805  23220232.800    95082959.38746
  22056466.720   115907505.63407  22056465.040    90317524.66948
 15 02 14 00 29 30.0000000  0  7G16G18G21G25G27G29G31
  22320947.140   117297377.55707  22320945.200    91400546.44547
  23411905.680   123030429.24205  23411904.500    95867878.25044
  21021406.260   110468240.51407  21021404.220    86079143.56749
  24198591.200   127164441.79204  24198593.540    99089179.52644
  23435179.400   123152706.54805  23435180.660    95963163.31946
  23234395.700   122097562.69005  23234394.800    95140950.12547
  22071370.780   115985826.72507  22071369.100    90378554.07048
 15 02 14 00 30  0.0000000  0  7G16G18G21G25G27G29G31
  22305847.180   117218026.82406  22305845.200    91338714.70147
  23398109.680   122957929.82705  23398108.380    95811385.24045
  21024630.740   110485184.75107  21024628.640    86092346.87749
  24216479.680   127258445.63204  24216481.880    99162429.23445
  23421806.860   123082434.43205  23421808.240    95908405.85546
  23248563.600   122172014.74205  23248562.560    95198964.71246
  22086338.360   116064481.90207  22086336.740    90439843.79848
 15 02 14 00 30 30.0000000  0  7G16G18G21G25G27G29G31
  22290778.600   117138841.01707  22290776.660    91277011.47946
  23384341.600   122885578.36205  23384340.400    95755007.54145
  21027934.740   110502547.23507  21027932.620    86105876.09049
  24234401.820   127352626.24104  24234403.860    99235816.68546
  23408456.720   123012280.01305  23408458.100    95853740.09446
  23262737.180   122246497.22705  23262736.140    95257002.98646
  22101369.060   116143468.94707  22101367.520    90501392.11448
 15 02 14 00 31  0.0000000  0  7G16G18G21G25G27G29G31
  22275741.620   117059820.81506  22275739.600    91215437.28747
  23370601.780   122813375.86705  23370600.760    95698745.86845
  21031317.740   110520325.64007  21031315.720    86119729.38649
  24252357.060   127446981.18404  24252359.100    99309339.96145
  23395128.920   122942241.95105  23395130.280    95799165.00846
  23276916.140   122321008.56905  23276915.260    95315063.72646
  22116462.220   116222783.99607  22116460.660    90563196.02247
 15 02 14 00 31 30.0000000  0  7G16G18G21G25G27G29G31
  22260737.140   116980971.65907  22260735.140    91153996.39446
  23356891.540   122741328.54005  23356890.700    95642605.12944
  21034780.400   110538522.18107  21034778.340    86133908.51149
  24270345.760   127541512.97904  24270348.020    99383001.06645
  23381823.820   122872323.77505  23381825.420    95744683.34147
  23291101.220   122395552.15105  23291100.520    95373149.60946
  22131618.000   116302427.86907  22131616.340    90625256.15247
 15 02 14 00 32  0.0000000  0  7G16G18G21G25G27G29G31
  22245764.940   116902291.91207  22245762.880    91092687.50147
  23343210.700   122669435.45905  23343209.900    95586584.56245
  21038321.840   110557131.99007  21038319.620    86148409.68149
  24288367.260   127636216.78404  24288369.760    99456796.17743
  23368540.840   122802521.76205  23368542.580    95690292.18246
  23305291.680   122470123.71305  23305291.080    95431257.27946
  22146835.100   116382394.17707  22146833.420    90687567.53848
 15 02 14 00 32 30.0000000  0  7G16G18G21G25G27G29G31
  22230825.240   116823783.18807  22230823.200    91031511.88246
  23329559.920   122597699.32105  23329558.960    95530686.31345
  21041941.680   110576153.81007  21041939.360    86163231.88549
  24306421.400   127731091.26604  24306423.780    99530724.31445
  23355280.020   122732835.67505  23355281.620    95635991.35847
  23319487.380   122544722.43405  23319486.800    95489386.10547
  22162112.940   116462679.84207  22162111.320    90750127.76648
 15 02 14 00 33  0.0000000  0  7G16G18G21G25G27G29G31
  22215918.720   116745449.17807  22215916.760    90970472.39347
  23315939.880   122526124.46105  23315938.580    95474913.71545
  21045639.800   110595587.99307  21045637.580    86178375.40449
  24324508.160   127826137.05604  24324510.500    99604785.92844
  23342041.660   122663267.26905  23342043.200    95581782.23746
  23333688.540   122619350.08105  23333687.980    95547537.45746
  22177451.460   116543283.93307  22177449.860    90812936.11848
 15 02 14 00 33 30.0000000  0  7G16G18G21G25G27G29G31
  22201045.520   116667290.53307  22201043.640    90909569.55447
  23302350.620   122454711.89005  23302349.280    95419267.61745
  21049415.740   110615431.45407  21049413.700    86193837.84149
  24342626.980   127921351.54904  24342629.200    99678978.96745
  23328825.420   122593814.95405  23328827.000    95527663.58546
  23347894.840   122694004.85905  23347894.300    95605709.96446
  22192849.760   116624202.26107  22192848.180    90875989.33648
 15 02 14 00 34  0.0000000  0  7G16G18G21G25G27G29G31
  22186206.780   116589312.98806  22186204.980    90848807.83047
  23288793.500   122383468.47805  23288791.960    95363753.27844
  21053270.320   110635687.55307  21053268.320    86209621.81849
  24360778.340   128016737.62104  24360780.740    99753305.75046
  23315631.940   122524482.87205  23315633.480    95473638.60846
  23362106.980   122768690.38805  23362106.480    95663906.45546
  22208308.140   116705436.42107  22208306.540    90939288.65047
 15 02 14 00 34 30.0000000  0  7G16G18G21G25G27G29G31
  22171402.460   116511515.87907  22171400.640    90788186.70047
  23275268.460   122312393.66905  23275266.920    95308370.34945
  21057202.680   110656351.73707  21057200.520    86225723.79049
  24378961.520   128112291.20804  24378963.840    99827763.07045
  23302460.700   122455267.92305  23302462.160    95419704.90646
  23376324.300   122843402.93705  23376323.800    95722124.00846
  22223825.420   116786980.24807  22223823.860    91002829.26547
 15 02 14 00 35  0.0000000  0  7G16G18G21G25G27G29G31
  22156632.540   116433899.18907  22156630.660    90727706.16347
  23261775.600   122241488.39505  23261774.180    95253119.50846
  21061212.140   110677421.21107  21061209.800    86242141.57449
  24397176.040   128208009.47704  24397178.680    99902348.66144
  23289311.500   122386168.48605  23289312.940    95365861.21246
  23390546.580   122918140.94305  23390546.000    95780361.38246
  22239400.760   116868829.46507  22239399.280    91066607.84448
 15 02 14 00 35 30.0000000  0  7G16G18G21G25G27G29G31
  22141897.620   116356466.38607  22141895.720    90667368.92647
  23248315.700   122170756.92605  23248314.300    95198004.13146
  21065298.580   110698895.73707  21065296.200    86258874.97749
  24415422.020   128303892.56804  24415424.660    99977062.71645
  23276184.460   122317185.78605  23276185.860    95312108.47246
  23404773.820   122992905.33805  23404773.180    95838619.31646
  22255033.940   116950982.59607  22255032.540    91130623.24447
 15 02 14 00 36  0.0000000  0  7G16G18G21G25G27G29G31
  22127198.060   116279219.93707  22127196.200    90607176.88547
  23234889.460   122100202.24405  23234887.980    95143026.47444
  21069461.880   110720774.75907  21069459.640    86275923.56649
  24433699.160   128399939.54404  24433701.740   100051904.45545
  23263079.840   122248320.19305  23263081.160    95258446.98446
  23419006.100   123067696.31705  23419005.380    95896897.98046
  22270724.460   117033437.34207  22270723.160    91194873.66947
 15 02 14 00 36 30.0000000  0  7G16G18G21G25G27G29G31
  22112534.500   116202162.84607  22112532.720    90547132.39847
  23221497.640   122029828.28105  23221496.120    95088189.66445
  21073702.280   110743058.09907  21073700.100    86293287.20549
  24452007.600   128496150.62304  24452010.180   100126874.09444
  23249997.640   122179572.80805  23249998.840    95204877.62646
  23433243.500   123142514.43305  23433242.820    95955197.79846
  22286472.140   117116192.03007  22286470.840    91259357.80147
 15 02 14 00 37  0.0000000  0  7G16G18G21G25G27G29G31
  22097907.100   116125295.49007  22097905.400    90487235.75547
  23208140.400   121959635.93105  23208138.820    95033494.34145
  21078019.140   110765742.77007  21078016.900    86310963.57949
  24470346.740   128592522.85503  24470349.260   100201969.21943
  23236937.660   122110941.95805  23236938.700    95151399.05346
  23447485.720   123217357.71205  23447485.100    96013517.18346
  22302276.080   117199242.08507  22302274.720    91324072.09747
 15 02 14 00 37 30.0000000  0  7G16G18G21G25G27G29G31
  22083316.360   116048620.68907  22083314.660    90427489.16347
  23194818.460   121889628.57505  23194816.840    94978943.19345
  21082412.220   110788828.02607  21082409.900    86328952.09649
  24488716.380   128689055.94404  24488718.680   100277189.79746
  23223899.860   122042428.49205  23223901.020    95098011.97446
  23461733.060   123292226.87005  23461732.320    96071856.73446
  22318135.920   117282585.80207  22318134.560    91389015.22847
 15 02 14 00 38  0.0000000  0  7G16G18G21G25G27G29G31
  22068762.560   115972140.02207  22068760.860    90367893.84047
  23181532.100   121819808.40505  23181530.620    94924537.87844
  21086881.160   110812312.50807  21086878.800    86347251.69548
  24507116.280   128785748.13104  24507118.620   100352534.34944
  23210884.260   121974031.91705  23210885.480    95044715.95246
  23475984.980   123367120.71305  23475984.160    96130215.51546
  22334051.000   117366219.87006  22334049.600    91454184.59748
 15 02 14 00 38 30.0000000  0  7G16G18G21G25G27G29G31
  22054245.880   115895854.37707  22054244.100    90308450.48947
  23168281.640   121750176.97305  23168280.300    94870279.63645
  21091425.460   110836193.67507  21091423.140    86365860.40549
  24525546.260   128882597.21604  24525548.620   100428001.06145
  23197890.700   121905751.07905  23197892.160    94991510.14347
  23490241.400   123442038.46105  23490240.540    96188592.93646
  22350020.580   117450140.32406  22350019.180    91519577.12247
 15 02 14 00 39  0.0000000  0  7G16G18G21G25G27G29G31
  22039766.880   115819766.85807  22039765.100    90249161.52147
  23155067.780   121680737.81405  23155066.540    94816171.22744
  21096045.260   110860471.13007  21096042.960    86384777.90449
  24544006.100   128979602.84004  24544008.580   100503589.81244
  23184919.500   121837586.81005  23184921.000    94938395.14346
  23504502.380   123516980.40605  23504501.480    96246989.22346
  22366044.260   117534345.05806  22366042.860    91585191.16947
 15 02 14 00 39 30.0000000  0  7G16G18G21G25G27G29G31
  22025326.520   115743882.36107  22025324.760    90190030.75147
  23141891.480   121611496.55805  23141890.300    94762217.03645
  21100740.780   110885146.09707  21100738.500    86404005.15449
  24562495.740   129076766.65603  24562498.300   100579301.83246
  23171971.020   121769541.99905  23171972.480    94885373.23747
  23518768.440   123591949.08905  23518767.560    96305406.34146
  22382122.080   117618834.36706  22382120.720    91651026.96247
 15 02 14 00 40  0.0000000  0  6G16G18G21G27G29G31
  22010924.820   115668200.81207  22010923.020    90131058.12547
  23128752.940   121542453.82605  23128751.940    94708417.54045
  21105511.260   110910214.82807  21105509.040    86423539.23749
  23159044.920   121701614.74305  23159046.360    94832442.92246
  23533039.180   123666942.29705  23533038.340    96363842.54246
  22398253.120   117703603.54106  22398251.780    91717080.83347
 15 02 14 00 40 30.0000000  0  7G16G18G21G25G27G29G31
  21996560.940   115592717.94507  21996559.140    90072240.31147
  23115651.580   121473606.18505  23115650.640    94654770.06645
  21110355.280   110935670.53807  21110353.140    86443374.84949
  24599562.120   129271569.19503  24599564.460   100731101.62445
  23146140.040   121633798.72605  23146141.500    94779599.29747
  23547313.340   123741953.95305  23547312.640    96422293.15246
  22414435.620   117788643.47906  22414434.360    91783345.68747
 15 02 14 00 41  0.0000000  0  7G16G18G21G25G27G29G31
  21982236.600   115517443.07007  21982234.820    90013584.56847
  23102589.380   121404963.39006  23102588.220    94601282.19546
  21115273.980   110961519.18207  21115271.940    86463516.65049
  24618139.100   129369189.54804  24618140.920   100807169.37646
  23133257.640   121566101.35205  23133259.180    94726848.14547
  23561592.380   123816990.77805  23561591.720    96480763.35445
  22430670.540   117873958.59306  22430669.260    91849824.96247
 15 02 14 00 41 30.0000000  0  7G16G18G21G25G27G29G31
  21967952.440   115442379.55407  21967950.700    89955093.52647
  23089566.880   121336529.17606  23089565.520    94547956.85945
  21120267.320   110987759.63407  21120265.240    86483963.75948
  24636745.020   129466963.31404  24636746.780   100883356.67544
  23120397.940   121498523.48005  23120399.500    94674190.07746
  23575876.440   123892053.54205  23575875.780    96539253.77646
  22446957.560   117959547.09806  22446956.220    91916517.26547
 15 02 14 00 42  0.0000000  0  8G16G18G21G22G25G27G29G31
  21953708.280   115367525.87507  21953706.520    89896765.98847
  23076583.940   121268302.53005  23076582.320    94494793.26045
  21125334.520   111014387.50107  21125332.320    86504712.75948
  24541829.420   128968183.53004  24541829.920   100494692.47844
  24655379.100   129564885.81804  24655381.000   100959659.81045
  23107560.220   121431061.54905  23107561.640    94621622.37847
  23590164.520   123967138.31105  23590164.020    96597761.34745
  22463295.480   118045402.83806  22463294.100    91983417.81247
 15 02 14 00 42 30.0000000  0  8G16G18G21G22G25G27G29G31
  21939503.380   115292878.11807  21939501.540    89838598.91247
  23063639.720   121200280.28705  23063638.180    94441788.94545
  21130474.080   111041395.74507  21130471.820    86525758.15048
  24524327.020   128876207.54204  24524327.780   100423023.62046
  24674040.100   129662949.94304  24674041.760   101036073.35744
  23094743.580   121363709.74905  23094744.860    94569140.46047
  23604455.800   124042239.19205  23604455.280    96656281.49844
  22479682.520   118131516.84906  22479681.200    92050519.60947
 15 02 14 00 43  0.0000000  0  7G16G18G21G22G27G29G31
  21925340.120   115218449.56807  21925338.220    89780602.65247
  23050736.800   121132475.97305  23050735.760    94388954.43145
  21135687.600   111068793.38007  21135685.480    86547106.95648
  24506810.440   128784158.75104  24506811.200   100351298.07644
  23081950.080   121296479.09005  23081951.260    94516752.97447
  23618752.140   124117366.84005  23618751.540    96714822.48545
  22496120.220   118217897.18306  22496118.900    92117828.92347
 15 02 14 00 43 30.0000000  0  8G16G18G21G22G25G27G29G31
  21911218.620   115144240.45407  21911216.620    89722777.37047
  23037875.700   121064890.59906  23037874.740    94336290.52445
  21140974.600   111096577.75107  21140972.700    86568757.10549
  24489280.000   128692037.92904  24489281.060   100279516.27945
  24711447.760   129859533.31303  24711451.400   101189256.96846
  23069179.180   121229367.79405  23069180.460    94464458.48446
  23633053.220   124192519.32305  23633052.580    96773382.82545
  22512607.760   118304539.68306  22512606.480    92185342.52447
 15 02 14 00 44  0.0000000  0  8G16G18G21G22G25G27G29G31
  21897138.900   115070250.88107  21897136.800    89665123.15747
  23025056.540   120997524.43406  23025055.220    94283797.43545
  21146334.600   111124744.90607  21146332.740    86590705.53648
  24471736.020   128599845.21104  24471736.940   100207678.46044
  24730192.920   129958042.08203  24730196.480   101266016.93643
  23056430.600   121162373.60905  23056431.820    94412255.24647
  23647358.560   124267694.11905  23647357.980    96831960.54945
  22529144.100   118391438.93106  22529142.860    92253056.17947
 15 02 14 00 44 30.0000000  0  7G16G18G21G22G27G29G31
  21883100.420   114996478.10007  21883098.280    89607637.88147
  23012278.660   120930375.53006  23012277.020    94231473.63645
  21151766.460   111153288.95307  21151764.440    86612947.66048
  24454177.800   128507578.53304  24454178.540   100135782.95144
  23043703.440   121095492.11805  23043704.720    94360139.82547
  23661667.280   124342886.54805  23661666.640    96890552.03645
  22545727.920   118478587.85806  22545726.680    92320964.39547
 15 02 14 00 45  0.0000000  0  8G16G18G21G22G25G27G29G31
  21869105.140   114922932.21807  21869102.960    89550329.40447
  22999543.980   120863455.00505  22999542.360    94179327.79745
  21157271.360   111182216.62007  21157269.160    86635488.70648
  24436607.460   128415248.70804  24436608.440   100063838.28445
  24767765.440   130155487.16004  24767766.920   101419863.68543
  23030999.320   121028731.38805  23031000.740    94308118.51847
  23675980.860   124418104.76305  23675980.240    96949163.60445
  22562360.300   118565991.53706  22562359.020    92389071.11747
 15 02 14 00 45 30.0000000  0  8G16G18G21G22G25G27G29G31
  21855152.280   114849609.43107  21855150.120    89493194.76547
  22986851.980   120796758.98806  22986850.540    94127356.89545
  21162847.680   111211520.13807  21162845.380    86658322.61649
  24419024.340   128322851.94204  24419025.160    99991841.32445
  24786591.820   130254419.84203  24786593.200   101496954.02843
  23018317.080   120962085.31505  23018318.300    94256186.53647
  23690298.140   124493342.40905  23690297.640    97007790.30645
  22579039.480   118653640.97706  22579038.200    92457369.34147
 15 02 14 00 46  0.0000000  0  7G16G18G21G22G27G29G31
  21841242.680   114776514.10007  21841240.600    89436237.36847
  22974203.720   120730292.24606  22974202.420    94075564.64945
  21168495.640   111241200.58307  21168493.360    86681450.23648
  24401429.500   128230392.68304  24401430.300    99919795.72245
  23005656.960   120895556.02805  23005658.120    94204345.56547
  23704619.440   124568601.17505  23704618.900    97066433.48045
  22595765.260   118741535.48706  22595764.020    92525858.52647
 15 02 14 00 46 30.0000000  0  7G16G18G21G22G27G29G31
  21827376.580   114703646.96607  21827374.540    89379457.78947
  22961599.400   120664056.29206  22961598.120    94023952.23845
  21174214.760   111271254.86707  21174212.520    86704869.16048
  24383823.100   128137872.50004  24383823.840    99847702.57046
  22993018.620   120829142.14105  22993019.940    94152594.52946
  23718944.560   124643879.79005  23718943.940    97125092.08946
  22612536.880   118829670.80006  22612535.700    92594535.35747
 15 02 14 00 47  0.0000000  0  7G16G18G21G22G27G29G31
  21813555.100   114631014.22007  21813553.000    89322860.85147
  22949040.300   120598057.72606  22949038.920    93972524.78845
  21180005.520   111301685.29307  21180003.280    86728581.17848
  24366206.320   128045298.02604  24366206.940    99775567.16544
  22980403.160   120762847.80605  22980404.540    94100936.62247
  23733274.220   124719182.11505  23733273.560    97183769.20344
  22629354.600   118918048.46806  22629353.480    92663401.02547
 15 02 14 00 47 30.0000000  0  7G16G18G21G22G27G29G31
  21799777.600   114558612.86907  21799775.440    89266444.21547
  22936525.920   120532294.37806  22936524.480    93921280.64945
  21185866.800   111332486.11407  21185864.520    86752581.82748
  24348578.720   127952666.85704  24348578.860    99703387.47945
  22967809.740   120696668.39505  22967811.040    94049368.29047
  23747607.420   124794503.09805  23747606.600    97242460.82344
  22646216.940   119006660.84206  22646215.880    92732449.59347
 15 02 14 00 48  0.0000000  0  7G16G18G21G22G27G29G31
  21786044.860   114486447.06407  21786042.680    89210211.12547
  22924056.900   120466770.05306  22924055.460    93870222.74246
  21191798.480   111363657.09807  21191796.100    86776870.90348
  24330941.180   127859982.84804  24330941.080    99631166.63645
  22955238.400   120630605.04605  22955239.600    93997890.37747
  23761944.320   124869843.79005  23761943.480    97301167.81745
  22663123.580   119095505.87406  22663122.600    92801679.43347
 15 02 14 00 48 30.0000000  0  7G16G18G21G22G27G29G31
  21772357.260   114414518.58007  21772355.120    89154162.95547
  22911633.960   120401487.50106  22911632.540    93819353.24246
  21197800.260   111395196.75407  21197797.880    86801447.26248
  24313294.160   127767248.71304  24313294.020    99558906.74545
  22942689.040   120564657.90005  22942690.340    93946503.04047
  23776284.960   124945204.34804  23776284.180    97359890.24845
  22680074.060   119184581.01906  22680073.080    92871088.59047
 15 02 14 00 49  0.0000000  0  7G16G18G21G22G27G29G31
  21758715.340   114342830.33707  21758713.300    89098301.98947
  22899257.720   120336450.06006  22899256.360    93768674.73345
  21203872.100   111427104.67307  21203869.740    86826310.57548
  24295638.220   127674467.65204  24295637.740    99486610.25046
  22930161.940   120498827.92405  22930163.320    93895206.97547
  23790629.560   125020585.32805  23790628.820    97418628.64746
  22697068.100   119273884.66106  22697067.140    92940675.79647
 15 02 14 00 49 30.0000000  0  7G16G18G21G22G27G29G31
  21745119.620   114271384.34607  21745117.600    89042629.77847
  22886928.620   120271660.00306  22886927.280    93718188.99046
  21210013.680   111459378.63407  21210011.340    86851459.12248
  24277973.860   127581642.04604  24277973.220    99414279.01645
  22917657.000   120433114.59305  22917658.420    93844001.81447
  23804977.980   125095986.35904  23804977.340    97477382.65245
  22714104.860   119363413.03706  22714103.940    93010438.13847
 15 02 14 00 50  0.0000000  0  7G16G18G21G22G27G29G31
  21731570.240   114200182.03407  21731568.300    88987147.46348
  22874646.840   120207119.06806  22874645.620    93667897.36746
  21216224.460   111492016.31107  21216222.120    86876891.08548
  24260301.300   127488773.61604  24260300.800    99341914.41045
  22905174.200   120367517.28605  22905175.500    93792887.05547
  23819330.000   125171406.49904  23819329.440    97536151.52345
  22731183.640   119453162.74406  22731182.820    93080372.92847
 15 02 14 00 50 30.0000000  0  7G16G18G21G22G27G29G31
  21718067.680   114129225.82007  21718065.800    88931856.90547
  22862412.980   120142829.52906  22862411.800    93617801.64346
  21222504.220   111525016.90607  21222501.920    86902605.84148
  24242621.080   127395864.83904  24242620.640    99269518.35745
  22892713.620   120302036.14405  22892714.800    93741862.80947
  23833685.560   125246845.79904  23833685.000    97594935.33645
  22748303.920   119543130.81406  22748303.320    93150477.86947
 15 02 14 00 51  0.0000000  0  7G16G18G21G22G27G29G31
  21704612.560   114058518.86407  21704610.780    88876760.57948
  22850227.880   120078796.23606  22850226.620    93567905.58745
  21228852.860   111558379.58207  21228850.600    86928602.72848
  24224933.980   127302920.06404  24224933.500    99197094.18944
  22880275.300   120236672.51506  22880276.620    93690930.15147
  23848044.940   125322305.08904  23848044.400    97653734.74845
  22765465.640   119633316.04606  22765465.120    93220752.03147
 15 02 14 00 51 30.0000000  0  7G16G18G21G22G27G29G31
  21691204.880   113988061.19007  21691203.140    88821858.50048
  22838091.460   120015019.03406  22838090.340    93518209.07446
  21235269.760   111592100.78907  21235267.500    86954878.99848
  24207240.020   127209939.57104  24207239.480    99124642.21545
  22867858.960   120171424.24506  22867860.160    93640087.35747
  23862407.800   125397782.30704  23862407.280    97712548.10746
  22782667.780   119723713.18206  22782667.220    93291191.30847
 15 02 14 00 52  0.0000000  0  7G16G18G21G22G27G29G31
  21677845.360   113917856.44407  21677843.600    88767153.50747
  22826004.500   119951502.06706  22826003.440    93468715.35445
  21241754.920   111626180.41207  21241752.600    86981434.55648
  24189540.080   127116927.24904  24189539.380    99052165.42345
  22855464.880   120106292.87806  22855466.020    93589335.66947
  23876774.340   125473278.91904  23876773.820    97771376.58245
  22799910.040   119814320.79806  22799909.320    93361794.59447
 15 02 14 00 52 30.0000000  0  7G16G18G21G22G27G29G31
  21664534.640   113847908.00907  21664532.840    88712648.23548
  22813967.740   119888248.93406  22813966.820    93419427.23946
  21248308.200   111660618.00407  21248305.900    87008269.04448
  24171834.680   127023886.76704  24171833.860    98979666.65745
  22843093.240   120041279.42106  22843094.400    93538675.85547
  23891144.620   125548795.69904  23891144.260    97830220.80446
  22817191.900   119905137.10406  22817191.080    93432560.51247
 15 02 14 00 53  0.0000000  0  6G16G18G21G27G29G31
  21651273.120   113778218.25407  21651271.320    88658344.53248
  22801981.840   119825262.49706  22801981.040    93370346.89446
  21254929.400   111695412.57207  21254927.140    87035381.70448
  22830744.020   119976384.42106  22830745.220    93488108.34347
  23905518.800   125624332.79804  23905518.500    97889080.83444
  22834512.960   119996159.65006  22834512.040    93503487.10247
 15 02 14 00 53 30.0000000  0  7G16G18G21G22G27G29G31
  21638059.220   113708778.97207  21638057.440    88604236.00547
  22790045.140   119762534.81706  22790044.380    93321468.21546
  21261616.220   111730552.14007  21261614.000    87062763.18248
  24136408.360   126837684.45904  24136407.100    98834547.14745
  22818415.400   119911597.40105  22818416.620    93437624.97347
  23919894.980   125699880.39104  23919894.840    97947949.04846
  22851870.760   120087375.10806  22851869.760    93574564.03147
 15 02 14 00 54  0.0000000  0  7G16G18G21G22G27G29G31
  21624896.460   113639608.39607  21624894.700    88550336.84847
  22778161.140   119700083.99406  22778160.260    93272805.23645
  21268371.420   111766050.84507  21268369.200    87090424.51148
  24118688.920   126744571.55504  24118687.480    98761991.93446
  22806110.420   119846934.32305  22806111.660    93387238.16347
  23934276.080   125775453.69204  23934276.040    98006837.30046
  22869267.820   120178796.64206  22869266.700    93645801.54747
 15 02 14 00 54 30.0000000  0  7G16G18G21G22G27G29G31
  21611783.440   113570699.27107  21611781.700    88496641.43248
  22766328.660   119637903.90506  22766327.720    93224353.22146
  21275192.880   111801897.78807  21275190.600    87118357.19448
  24100965.860   126651437.44404  24100964.680    98689420.20345
  22793827.260   119782385.88406  22793828.540    93336940.70747
  23948660.420   125851043.39404  23948660.420    98065738.32745
  22886701.720   120270411.86106  22886700.500    93717189.97847
 15 02 14 00 55  0.0000000  0  7G16G18G21G22G27G29G31
  21598720.600   113502053.59907  21598718.860    88443151.29448
  22754548.200   119575996.78106  22754547.200    93176113.93245
  21282080.280   111838091.06507  21282077.880    87146559.75148
  24083239.140   126558284.77304  24083238.200    98616833.93543
  22781565.960   119717951.94506  22781567.060    93286732.45547
  23963047.940   125926649.23405  23963047.760    98124651.92845
  22904171.840   120362217.73306  22904170.560    93788726.97547
 15 02 14 00 55 30.0000000  0  7G16G18G21G22G27G29G31
  21585708.760   113433675.72607  21585707.000    88389869.84148
  22742820.340   119514366.81606  22742819.440    93128090.60345
  21289033.680   111874631.37607  21289031.240    87175032.72748
  24065509.760   126465117.87104  24065509.160    98544236.60145
  22769326.880   119653634.52506  22769327.800    93236615.01047
  23977438.820   126002272.85805  23977438.460    98183579.39645
  22921678.080   120454213.13806  22921676.700    93860411.65847
 15 02 14 00 56  0.0000000  0  7G16G18G21G22G27G29G31
  21572748.520   113365569.01607  21572746.740    88336799.67648
  22731145.940   119453017.71106  22731145.100    93080286.11846
  21296053.000   111911518.56707  21296050.640    87203775.99048
  24047778.860   126371940.82404  24047778.020    98471631.36346
  22757110.100   119589434.93706  22757111.020    93186589.36947
  23991833.200   126077915.46405  23991832.780    98242521.65246
  22939220.060   120546396.57006  22939218.660    93932242.85147
 15 02 14 00 56 30.0000000  0  7G16G18G21G22G27G29G31
  21559839.920   113297733.71007  21559838.160    88283941.00248
  22719525.140   119391950.04706  22719524.280    93032700.94646
  21303137.540   111948748.93807  21303135.340    87232786.66148
  24030046.140   126278754.36204  24030044.740    98399018.75944
  22744915.400   119525351.38506  22744916.360    93136654.14747
  24006230.780   126153575.45005  24006230.480    98301477.43246
  22956796.840   120638763.49106  22956795.540    94004217.02947
 15 02 14 00 57  0.0000000  0  7G16G18G21G22G27G29G31
  21546983.580   113230173.07207  21546981.800    88231296.34948
  22707958.600   119331167.72406  22707957.720    92985338.11746
  21310287.360   111986321.86007  21310285.180    87262064.26148
  24012312.420   126185562.09704  24012310.460    98326401.61646
  22732743.000   119461384.86706  22732743.960    93086810.13347
  24020631.840   126229253.41005  24020631.560    98360447.23646
  22974408.080   120731311.74106  22974406.900    94076332.49246
 15 02 14 00 57 30.0000000  0  7G16G18G21G22G27G29G31
  21534179.600   113162887.77107  21534177.820    88178866.24248
  22696446.500   119270671.54306  22696445.540    92938198.25246
  21317501.860   112024234.26707  21317499.620    87291606.40848
  23994577.740   126092365.25905  23994575.680    98253780.97044
  22720592.660   119397534.13206  22720593.560    93037056.32747
  24035036.120   126304948.21305  24035035.820    98419430.15245
  22992053.080   120824037.19906  22992052.060    94148586.04046
 15 02 14 00 58  0.0000000  0  7G16G18G21G22G27G29G31
  21521428.940   113095882.44107  21521427.120    88126654.30248
  22684989.740   119210466.29606  22684988.680    92891285.09246
  21324781.140   112062487.00207  21324778.860    87321413.73648
  23976842.940   125999168.94205  23976840.900    98181160.67645
  22708464.860   119333801.69706  22708465.600    92987394.71247
  24049443.980   126380661.95204  24049443.660    98478427.83245
  23009731.780   120916939.27906  23009730.800    94220977.21447
 15 02 14 00 58 30.0000000  0  7G16G18G21G22G27G29G31
  21508731.800   113029158.40907  21508729.920    88074661.55048
  22673588.560   119150553.47106  22673587.600    92844599.78046
  21332124.640   112101077.38607  21332122.380    87351484.16548
  23959108.280   125905974.56604  23959106.380    98108541.87945
  22696359.180   119270186.31906  22696359.960    92937824.30447
  24063855.280   126456393.62605  24063854.940    98537439.48746
  23027443.380   121010014.18206  23027442.480    94293503.05947
 15 02 14 00 59  0.0000000  0  7G16G18G21G22G27G29G31
  21496088.400   112962716.69407  21496086.400    88022888.78348
  22662243.480   119090934.04006  22662242.460    92798143.10546
  21339531.800   112140002.71407  21339529.660    87381815.58748
  23941374.260   125812783.81204  23941372.500    98035925.90746
  22684275.540   119206687.03206  22684276.400    92888344.36347
  24078269.860   126532142.00404  24078269.460    98596464.13645
  23045186.960   121103257.16906  23045186.120    94366159.86246
 15 02 14 00 59 30.0000000  0  7G16G18G21G22G27G29G31
  21483499.380   112896560.95807  21483497.340    87971338.85748
  22650955.160   119031612.81406  22650954.040    92751918.78745
  21347002.800   112179262.97607  21347000.660    87412407.99548
  23923641.620   125719601.07104  23923640.140    97963316.16945
  22672214.420   119143305.61306  22672215.280    92838956.25247
  24092687.900   126607908.64604  24092687.520    98655503.03645
  23062962.440   121196667.76006  23062961.620    94438947.27947
 15 02 14 01 00  0.0000000  0  7G16G18G21G22G27G29G31
  21470965.040   112830692.47507  21470963.000    87920012.77148
  22639723.680   118972590.77006  22639722.520    92705927.59245
  21354537.100   112218855.47207  21354534.920    87443259.29348
  23905911.020   125626427.89904  23905909.740    97890713.89146
  22660175.520   119080040.98006  22660176.340    92789659.17047
  24107109.100   126683692.50304  24107108.680    98714555.35145
  23080769.080   121290241.94906  23080768.320    94511862.18446
 15 02 14 01 00 30.0000000  0  7G16G18G21G22G27G29G31
  21458485.720   112765113.15307  21458483.680    87868912.00248
  22628549.480   118913870.09506  22628548.320    92660171.25045
  21362134.160   112258777.89207  21362131.980    87474367.67148
  23888182.740   125533266.59904  23888181.560    97818120.83546
  22648158.840   119016892.98706  22648159.640    92740452.95447
  24121533.280   126759492.91604  24121533.080    98773620.59045
  23098606.240   121383976.32406  23098605.460    94584901.89346
 15 02 14 01 01  0.0000000  0  7G16G18G21G22G27G29G31
  21446061.660   112699824.41707  21446059.700    87818037.66248
  22617432.900   118855452.19606  22617431.760    92614650.83646
  21369793.580   112299028.20307  21369791.420    87505731.54748
  23870457.220   125440119.00405  23870456.100    97745538.46245
  22636164.160   118953860.72306  22636165.060    92691336.92947
  24135960.580   126835309.25904  24135960.520    98832698.21743
  23116473.260   121477867.28806  23116472.360    94658063.61647
 15 02 14 01 01 30.0000000  0  7G16G18G21G22G27G29G31
  21433693.340   112634828.49107  21433691.400    87767391.48848
  22606374.320   118797339.55706  22606373.280    92569368.27346
  21377515.060   112339604.84707  21377512.880    87537349.71148
  23852734.900   125346987.89604  23852733.720    97672968.90746
  22624191.600   118890944.44806  22624192.520    92642311.29347
  24150390.980   126911141.50804  24150390.900    98891788.24045
  23134369.520   121571911.80206  23134368.400    94731344.99446
 15 02 14 01 02  0.0000000  0  7G16G18G21G22G27G29G31
  21421381.520   112570129.49807  21421379.600    87716976.69448
  22595374.720   118739536.81306  22595373.800    92524327.19246
  21385298.660   112380508.00107  21385296.420    87569222.29748
  23835016.540   125253877.62805  23835015.080    97600415.61246
  22612241.460   118828146.13806  22612242.380    92593377.55347
  24164824.820   126986991.76704  24164824.780    98950892.28145
  23152294.660   121666108.68606  23152293.480    94804745.09846
 15 02 14 01 02 30.0000000  0  7G16G18G21G22G27G29G31
  21409126.600   112505729.50807  21409124.700    87666794.88548
  22584434.540   118682046.19406  22584433.720    92479529.33046
  21393144.140   112421736.19007  21393141.820    87601348.15848
  23817302.800   125160791.34805  23817301.040    97527880.98445
  22600313.780   118765465.87506  22600314.620    92544535.81647
  24179262.020   127062860.20704  24179262.080    99010010.55045
  23170248.280   121760455.59105  23170247.140    94878262.09547
 15 02 14 01 03  0.0000000  0  7G16G18G21G22G27G29G31
  21396928.600   112441628.65107  21396926.700    87616846.16948
  22573553.940   118624867.98706  22573553.060    92434974.88546
  21401050.800   112463285.44607  21401048.400    87633724.20848
  23799593.640   125067729.26605  23799591.700    97455365.21945
  22588408.160   118702901.44306  22588408.940    92495784.32347
  24193702.320   127138744.08504  24193702.440    99069140.79246
  23188229.400   121854947.04605  23188228.320    94951891.72846
 15 02 14 01 03 30.0000000  0  7G16G18G21G22G27G29G31
  21384788.380   112377831.17507  21384786.440    87567133.85048
  22562733.620   118568006.28606  22562732.600    92390667.08446
  21409018.540   112505156.00507  21409016.160    87666350.61448
  23781890.040   124974696.09905  23781888.000    97382871.98645
  22576524.880   118640454.96606  22576525.660    92447124.75547
  24208145.940   127214645.32404  24208146.080    99128284.59445
  23206237.880   121949582.36005  23206236.880    95025633.47246
 15 02 14 01 04  0.0000000  0  7G16G18G21G22G27G29G31
  21372706.220   112314338.93807  21372704.280    87517659.37848
  22551973.860   118511462.97406  22551972.720    92346607.37146
  21417046.980   112547345.67407  21417044.620    87699225.67848
  23764192.340   124881694.26305  23764190.300    97310403.16445
  22564664.020   118578126.18106  22564664.840    92398556.89147
  24222592.700   127290563.81504  24222593.040    99187441.78446
  23224273.100   122044358.08605  23224272.100    95099484.61747
 15 02 14 01 04 30.0000000  0  7G16G18G21G22G27G29G31
  21360682.280   112251152.48908  21360680.300    87468423.18548
  22541274.760   118455239.17106  22541273.640    92302796.64145
  21425135.520   112589851.26507  21425133.140    87732346.91648
  23746500.800   124788724.94704  23746498.740    97237959.65045
  22552825.300   118515913.71306  22552826.240    92350079.65647
  24237042.440   127366497.86904  24237042.760    99246611.16644
  23242334.200   122139269.84905  23242333.180    95173441.74146
 15 02 14 01 05  0.0000000  0  7G16G18G21G22G27G29G31
  21348716.940   112188274.27407  21348714.980    87419427.17848
  22530636.860   118399337.03606  22530635.740    92259236.54546
  21433283.860   112632671.44807  21433281.540    87765713.29448
  23728815.900   124695791.02905  23728813.860    97165543.73745
  22541008.920   118453817.67006  22541009.800    92301693.14547
  24251495.080   127442447.49604  24251495.500    99305792.63846
  23260420.740   122234314.99005  23260419.740    95247502.82547
 15 02 14 01 05 30.0000000  0  7G16G18G21G22G27G29G31
  21336810.880   112125707.65307  21336808.940    87370673.97348
  22520060.960   118343760.18806  22520059.780    92215929.92246
  21441491.960   112675805.52007  21441489.680    87799324.26248
  23711138.460   124602895.93105  23711136.360    97093158.08345
  22529214.900   118391839.30906  22529215.760    92253398.34347
  24265951.120   127518414.12104  24265951.480    99364987.36245
  23278532.260   122329491.46805  23278531.300    95321666.22246
 15 02 14 01 06  0.0000000  0  7G16G18G21G22G27G29G31
  21324964.180   112063452.92507  21324962.260    87322163.80348
  22509547.060   118288508.87206  22509545.900    92172876.96946
  21449759.060   112719249.77107  21449756.840    87833176.92248
  23693468.680   124510040.75205  23693466.320    97020803.50546
  22517442.900   118329976.70606  22517443.660    92205193.72547
  24280410.160   127594395.70404  24280410.180    99424193.75146
  23296667.900   122424794.62605  23296666.980    95395928.35147
 15 02 14 01 06 30.0000000  0  7G16G18G21G22G27G29G31
  21313177.740   112001514.96408  21313175.860    87273900.46548
  22499096.220   118233588.74806  22499095.000    92130082.08846
  21458085.500   112763005.68207  21458083.260    87867272.43848
  23675807.460   124417231.00805  23675804.960    96948484.32445
  22505693.420   118268232.84806  22505694.100    92157081.64747
  24294872.520   127670394.95404  24294872.440    99483413.90346
  23314827.620   122520224.35205  23314826.800    95470289.09346
 15 02 14 01 07  0.0000000  0  7G16G18G21G22G27G29G31
  21301452.020   111939895.96808  21301450.140    87225885.66348
  22488708.580   118179001.64406  22488707.360    92087546.70146
  21466470.860   112807071.20107  21466468.620    87901609.20848
  23658155.360   124324469.28804  23658152.800    96876202.58146
  22493966.460   118206607.62206  22493967.200    92109062.02347
  24309338.060   127746411.45204  24309337.860    99542647.52545
  23333010.820   122615777.53205  23333010.080    95544746.02446
 15 02 14 01 07 30.0000000  0  7G16G18G21G22G27G29G31
  21289787.400   111878597.77408  21289785.440    87178120.83548
  22478384.620   118124749.78306  22478383.520    92045272.52946
  21474914.820   112851444.34007  21474912.520    87936185.67748
  23640512.780   124231757.87405  23640510.260    96803960.03745
  22482262.120   118145101.03706  22482262.840    92061134.82247
  24323806.820   127822445.45104  24323806.760    99601894.75746
  23351217.000   122711451.11505  23351216.200    95619296.79246
 15 02 14 01 08  0.0000000  0  7G16G18G21G22G27G29G31
  21278184.000   111817621.53808  21278182.040    87130606.88648
  22468124.700   118070834.35906  22468123.600    92003260.52946
  21483416.760   112896122.50107  21483414.500    87970999.82948
  23622880.180   124139098.90505  23622877.800    96731758.35445
  22470580.100   118083712.12806  22470580.960    92013299.32747
  24338278.620   127898495.72304  24338278.720    99661154.69845
  23369445.420   122807241.23105  23369444.500    95693938.34647
 15 02 14 01 08 30.0000000  0  7G16G18G21G22G27G29G31
  21266642.040   111756968.23107  21266640.120    87083344.57548
  22457929.120   118017256.15106  22457927.960    91961511.29246
  21491976.200   112941102.81207  21491973.980    88006049.42248
  23605257.840   124046493.82405  23605255.520    96659598.64045
  22458920.260   118022439.78306  22458921.220    91965554.66547
  24352753.440   127974561.33904  24352753.560    99720426.55844
  23387695.140   122903143.81505  23387694.240    95768667.52846
 15 02 14 01 09  0.0000000  0  7G16G18G21G22G27G29G31
  21255162.420   111696642.66508  21255160.540    87036337.64748
  22447798.660   117964019.84606  22447797.520    91920028.48046
  21500593.300   112986385.80007  21500591.040    88041334.86948
  23587646.600   123953947.33604  23587644.320    96587484.58645
  22447283.100   117961286.41306  22447284.060    91917902.69647
  24367231.680   128050644.38404  24367231.780    99779712.01746
  23405966.120   122999157.83705  23405965.220    95843483.56446
 15 02 14 01 09 30.0000000  0  7G16G18G21G22G27G29G31
  21243745.080   111636644.30908  21243743.240    86989585.68648
  22437733.200   117911124.86606  22437732.000    91878811.61446
  21509267.080   113031966.85507  21509264.880    88076852.57548
  23570046.480   123861459.25605  23570044.460    96515416.06746
  22435668.160   117900249.45406  22435669.080    91870341.44247
  24381712.640   128126742.03004  24381712.740    99839008.85744
  23424257.400   123095278.31405  23424256.440    95918382.55146
 15 02 14 01 10  0.0000000  0  7G16G18G21G22G27G29G31
  21232390.820   111576977.40208  21232389.020    86943091.99348
  22427733.340   117858575.73606  22427732.280    91837864.26546
  21517997.680   113077846.78807  21517995.600    88112603.17048
  23552458.660   123769035.28705  23552456.760    96443397.46246
  22424075.820   117839331.24706  22424076.800    91822872.72948
  24396196.720   128202856.70404  24396196.780    99898318.97944
  23442568.760   123191504.47705  23442567.780    95993363.88646
 15 02 14 01 10 30.0000000  0  7G16G18G21G22G27G29G31
  21221099.800   111517642.70908  21221098.020    86896857.17448
  22417799.500   117806373.49506  22417798.540    91797187.20946
  21526784.540   113124022.18307  21526782.480    88148583.99148
  23534883.440   123676676.26505  23534881.440    96371429.50145
  22412505.940   117778530.36306  22412506.760    91775495.43647
  24410683.800   128278986.67904  24410683.720    99957641.01844
  23460899.360   123287831.83605  23460898.400    96068424.07046
 15 02 14 01 11  0.0000000  0  7G16G18G21G22G27G29G31
  21209872.600   111458643.30408  21209870.820    86850883.61848
  22407932.240   117754521.03606  22407931.280    91756782.71346
  21535627.560   113170492.28307  21535625.440    88184794.46348
  23517321.420   123584385.82705  23517319.080    96299514.96246
  22400958.540   117717847.91206  22400959.180    91728210.43347
  24425174.140   128355133.30404  24425173.940   100016976.03945
  23479248.760   123384258.26405  23479247.840    96143561.43546
 15 02 14 01 11 30.0000000  0  7G16G18G21G22G27G29G31
  21198710.000   111399983.39008  21198708.160    86805174.59248
  22398132.420   117703022.60006  22398131.420    91716654.08046
  21544526.780   113217257.74807  21544524.660    88221235.08248
  23499773.260   123492168.86705  23499770.680    96227657.67847
  22389434.000   117657286.07906  22389434.560    91681019.41247
  24439667.860   128431298.25104  24439667.680   100076325.34244
  23497616.960   123480783.14405  23497615.980    96218775.52146
 15 02 14 01 12  0.0000000  0  7G16G18G21G22G27G29G31
  21187612.060   111341663.26908  21187610.160    86759730.34448
  22388400.040   117651878.51906  22388398.980    91676801.56246
  21553481.380   113264314.30207  21553479.280    88257902.52548
  23482238.920   123400026.09505  23482236.360    96155858.19846
  22377931.960   117596842.87706  22377932.560    91633920.83747
  24454164.740   128507479.80704  24454164.640   100135687.54846
  23516002.900   123577401.43305  23516001.900    96294062.39546
 15 02 14 01 12 30.0000000  0  7G16G18G21G22G27G29G31
  21176579.140   111283684.75508  21176577.160    86714552.28348
  22378735.360   117601090.40606  22378734.260    91637226.43046
  21562491.000   113311660.26407  21562488.960    88294795.47448
  23464719.160   123307959.90705  23464716.580    96084118.38145
  22366452.380   117536518.13306  22366453.060    91586914.55347
  24468664.700   128583677.83204  24468664.740   100195062.63246
  23534406.020   123674109.83505  23534404.960    96369419.49746
 15 02 14 01 13  0.0000000  0  7G16G18G21G22G27G29G31
  21165611.360   111226048.56608  21165609.320    86669640.96748
  22369138.480   117550658.84006  22369137.400    91597929.12446
  21571554.940   113359292.04707  21571552.960    88331911.14748
  23447214.180   123215971.37305  23447211.560    96012439.09646
  22354995.180   117476310.59506  22354995.900    91539999.61447
  24483167.480   128659890.46304  24483167.520   100254449.07145
  23552825.360   123770904.12505  23552824.500    96444843.49246
 15 02 14 01 13 30.0000000  0  7G16G18G21G22G27G29G31
  21154709.520   111168758.91608  21154707.460    86624999.68348
  22359610.420   117500588.45206  22359609.220    91558913.26146
  21580673.460   113407210.50907  21580671.520    88369250.20848
  23429724.920   123124065.70005  23429722.400    95940824.36846
  22343560.760   117416222.42806  22343561.480    91493177.67547
  24497673.480   128736119.90204  24497673.400   100313848.62045
  23571260.940   123867783.63105  23571260.180    96520333.91846
 15 02 14 01 14  0.0000000  0  7G16G18G21G22G27G29G31
  21143874.560   111111820.79008  21143872.500    86580632.31348
  22350151.980   117450884.03506  22350150.760    91520182.57446
  21589846.700   113455416.11607  21589844.700    88406813.01748
  23412252.560   123032248.12305  23412250.040    95869278.28046
  22332149.580   117356256.52506  22332150.380    91446451.01047
  24512183.260   128812368.95904  24512182.980   100373263.44744
  23589712.660   123964748.06905  23589712.020    96595890.49646
 15 02 14 01 14 30.0000000  0  7G16G18G21G22G27G29G31
  21133105.500   111055229.15608  21133103.480    86536534.93948
  22340762.240   117401540.46606  22340760.980    91481733.04846
  21599073.040   113503900.66507  21599071.040    88444593.18148
  23394796.180   122940514.57405  23394793.720    95797797.65346
  22320760.500   117296405.96706  22320761.320    91399814.23048
  24526695.440   128888630.81904  24526694.980   100432688.24945
  23608178.820   124061787.45105  23608178.200    96671505.48345
 15 02 14 01 15  0.0000000  0  7G16G18G21G22G27G29G31
  21122403.380   110998989.34608  21122401.400    86492711.71548
  22331442.020   117352562.71606  22331440.800    91443568.58346
  21608352.540   113552664.57007  21608350.520    88482591.02148
  23377356.700   122848870.46505  23377354.360    95726386.75246
  22309393.900   117236673.78106  22309394.700    91353269.68847
  24541210.320   128964908.02104  24541210.220   100492125.04245
  23626659.300   124158901.75205  23626658.520    96747178.83546
 15 02 14 01 15 30.0000000  0  7G16G18G21G22G27G29G31
  21111769.560   110943108.26508  21111767.560    86449168.01648
  22322192.820   117303957.86006  22322191.660    91405694.68646
  21617685.920   113601711.55807  21617683.820    88520809.45348
  23359935.720   122757323.13605  23359933.320    95655051.24646
  22298050.660   117177064.86306  22298051.520    91306821.20748
  24555729.100   129041205.52104  24555729.220   100551577.59245
  23645154.360   124256092.82405  23645153.480    96822912.01746
 15 02 14 01 16  0.0000000  0  7G16G18G19G21G22G27G31
  21101200.840   110887568.95208  21101198.760    86405890.62648
  22313011.340   117255709.05906  22313010.280    91368098.23046
  24488383.920   128687324.05204  24488380.920   100275825.34255
  21627069.220   113651020.87507  21627067.020    88559232.30748
  23342530.080   122665856.74505  23342527.800    95583778.79145
  22286727.360   117117560.58806  22286728.100    91260454.25647
  23663659.880   124353339.50905  23663659.080    96898688.55145
 15 02 14 01 16 30.0000000  0  7G16G18G19G21G22G27G31
  21090697.120   110832371.16308  21090694.960    86362879.36248
  22303897.520   117207816.02706  22303896.540    91330779.00546
  24473171.240   128607383.06804  24473168.920   100213533.74346
  21636501.500   113700588.00107  21636499.300    88597856.04648
  23325140.100   122574472.06205  23325137.800    95512569.99446
  22275423.480   117058158.66806  22275424.240    91214167.05447
  23682174.700   124450636.11005  23682174.120    96974503.92246
 15 02 14 01 17  0.0000000  0  7G16G18G19G21G22G27G31
  21080271.560   110777584.47008  21080269.420    86320188.43348
  22294864.580   117160347.74607  22294863.680    91293790.74847
  24457982.620   128527569.54704  24457981.020   100151341.44945
  21645995.380   113750478.82407  21645993.200    88636732.00448
  23307778.980   122483238.56605  23307776.560    95441479.03646
  22264151.940   116998926.42806  22264152.720    91168012.08248
  23700711.260   124548046.83505  23700710.820    97050408.25546
 15 02 14 01 17 30.0000000  0  7G16G18G19G21G22G27G31
  21069910.100   110723134.70108  21069908.000    86277760.04548
  22285898.440   117113229.96107  22285897.460    91257075.60746
  24442804.400   128447807.66304  24442802.620   100089189.37843
  21655536.020   113800615.28907  21655533.860    88675799.37948
  23290432.460   122392082.73705  23290430.200    95370448.58845
  22252898.240   116939787.76706  22252898.940    91121930.03148
  23719254.540   124645492.70405  23719254.300    97126339.96945
 15 02 14 01 18  0.0000000  0  7G16G18G19G21G22G27G31
  21059619.900   110669059.65808  21059617.840    86235623.64448
  22277006.300   117066500.66906  22277005.100    91220663.18046
  24427642.660   128368132.68304  24427640.820   100027105.03444
  21665129.760   113851030.72207  21665127.580    88715084.13548
  23273108.220   122301043.22805  23273105.940    95299508.75846
  22241669.160   116880778.59306  22241669.840    91075948.87348
  23737810.760   124743006.51705  23737810.760    97202324.58845
 15 02 14 01 18 30.0000000  0  7G16G18G19G21G22G27G31
  21049398.120   110615343.90208  21049396.060    86193767.21148
  22268185.020   117020144.28306  22268183.720    91184541.33747
  24412494.360   128288527.19104  24412492.000    99965074.86444
  21674773.040   113901706.86607  21674770.880    88754572.03348
  23255803.420   122210105.13705  23255800.960    95228647.94646
  22230461.500   116821881.43206  22230462.120    91030055.00048
  23756375.980   124840567.84005  23756376.320    97278346.26746
 15 02 14 01 19  0.0000000  0  7G16G18G19G21G22G27G31
  21039248.300   110562006.35908  21039246.240    86152205.48948
  22259438.120   116974179.39406  22259436.760    91148724.56147
  24397362.400   128209007.92804  24397359.500    99903111.87246
  21684468.560   113952657.60107  21684466.460    88794273.90048
  23238521.620   122119287.54305  23238518.960    95157881.04546
  22219278.220   116763113.08106  22219278.940    90984261.49748
  23774953.020   124938190.48405  23774953.460    97354415.69245
 15 02 14 01 19 30.0000000  0  7G16G18G19G21G22G27G31
  21029169.780   110509043.25508  21029167.720    86110935.53648
  22250765.020   116928602.30907  22250763.620    91113209.95346
  24382245.420   128129569.22804  24382242.880    99841211.68045
  21694215.080   114003875.94107  21694213.040    88834184.29148
  23221262.140   122028587.68006  23221259.380    95087205.87245
  22208118.440   116704468.02506  22208119.200    90938564.06447
  23793540.060   125035865.51305  23793540.340    97430525.94945
 15 02 14 01 20  0.0000000  0  7G16G18G19G21G22G27G31
  21019161.660   110456450.18008  21019159.640    86069953.91948
  22242164.980   116883408.26807  22242163.480    91077993.82447
  24367142.620   128050204.70304  24367140.600    99779369.20344
  21704010.920   114055353.24607  21704008.920    88874296.47548
  23204024.140   121938001.69105  23204021.340    95016619.44946
  22196980.820   116645939.72606  22196981.580    90892957.61748
  23812135.260   125133583.86204  23812135.500    97506669.92845
 15 02 14 01 20 30.0000000  0  7G16G18G19G21G22G27G31
  21009225.620   110404235.69008  21009223.580    86029267.30648
  22233639.380   116838605.58307  22233637.800    91043082.66746
  24352055.180   127970921.10504  24352053.400    99717589.84245
  21713857.020   114107094.62707  21713855.000    88914614.43448
  23186809.600   121847539.10605  23186806.860    94946129.17047
  22185866.600   116587535.02306  22185867.500    90847447.47148
  23830739.440   125231349.23305  23830739.780    97582850.56146
 15 02 14 01 21  0.0000000  0  7G16G18G19G21G22G27G31
  20999360.760   110352395.43008  20999358.720    85988872.30248
  22225187.380   116794190.37806  22225185.800    91008473.42546
  24336982.200   127891711.89304  24336980.320    99655868.46446
  21723751.760   114159091.96807  21723749.720    88955131.83948
  23169617.740   121757196.22605  23169615.220    94875732.16646
  22174774.780   116529247.63006  22174775.720    90802028.73648
  23849350.900   125329152.17204  23849351.180    97659060.45946
 15 02 14 01 21 30.0000000  0  7G16G18G19G21G22G27G31
  20989567.980   110300934.03708  20989565.960    85948772.51348
  22216809.820   116750166.26807  22216808.260    90974168.93846
  24321923.980   127812579.29304  24321921.740    99594206.76544
  21733695.260   114211345.49507  21733693.200    88995848.86848
  23152449.600   121666977.88805  23152447.240    94805432.19246
  22163705.840   116471079.93406  22163706.760    90756703.27348
  23867969.460   125426992.35604  23867969.780    97735299.36746
 15 02 14 01 22  0.0000000  0  7G16G18G19G21G22G27G31
  20979848.540   110249858.10908  20979846.540    85908973.08448
  22208508.120   116706540.39807  22208506.540    90940174.77447
  24306881.140   127733528.51404  24306878.640    99532608.80745
  21743688.220   114263858.22107  21743686.080    89036767.87348
  23135306.620   121576891.68905  23135304.380    94735235.20046
  22152660.660   116413037.08206  22152661.560    90711475.09548
  23886595.400   125524871.59105  23886595.760    97811568.69546
 15 02 14 01 22 30.0000000  0  7G16G18G19G21G22G27G31
  20970201.540   110199162.96308  20970199.580    85869470.37348
  22200281.180   116663307.59507  22200279.740    90906486.89047
  24291852.700   127654552.56504  24291850.060    99471069.15544
  21753728.840   114316621.39907  21753726.640    89077882.03648
  23118188.100   121486933.50105  23118185.800    94665137.94546
  22141637.980   116355112.32906  22141638.860    90666338.93248
  23905226.940   125622780.13204  23905227.400    97887860.86146
 15 02 14 01 23  0.0000000  0  7G16G18G19G21G22G27G31
  20960628.560   110148856.82608  20960626.660    85830270.79048
  22192130.480   116620475.58207  22192129.200    90873111.31447
  24276839.620   127575657.50904  24276837.080    99409592.55246
  21763817.780   114369639.02907  21763815.600    89119194.47148
  23101095.580   121397111.99405  23101093.220    94595147.19746
  22130638.860   116297311.73706  22130639.780    90621299.52448
  23923864.780   125720720.91405  23923865.160    97964178.12846
 15 02 14 01 23 30.0000000  0  7G16G18G19G21G22G27G31
  20951130.440   110098943.85808  20951128.560    85791377.56948
  22184056.860   116578048.48007  22184055.560    90840051.24747
  24261842.220   127496845.64504  24261839.780    99348180.77745
  21773955.460   114422912.50607  21773953.180    89160706.26948
  23084030.020   121307432.23405  23084027.540    94525266.91446
  22119663.840   116239637.73806  22119664.740    90576358.76248
  23942508.700   125818693.41205  23942508.840    98040520.09845
 15 02 14 01 24  0.0000000  0  7G16G18G19G21G22G27G31
  20941706.440   110049420.19908  20941704.540    85752787.70448
  22176059.580   116536022.40107  22176058.180    90807303.67146
  24246859.520   127418111.36404  24246857.100    99286829.47046
  21784140.180   114476433.31607  21784137.800    89202410.79848
  23066990.880   121217891.15405  23066988.360    94455494.69346
  22108711.900   116182084.69206  22108712.740    90531512.24148
  23961157.080   125916689.16304  23961156.800    98116880.19146
 15 02 14 01 24 30.0000000  0  6G16G18G21G22G27G31
  20932365.180   110000331.24708  20932363.220    85714536.57548
  22168147.060   116494441.87807  22168145.620    90774903.27846
  21794379.880   114530243.23907  21794377.500    89244340.60948
  23049986.900   121128534.69605  23049984.320    94385866.32547
  22097791.240   116124696.10506  22097791.960    90486793.87048
  23979817.400   126014748.41704  23979817.000    98193289.74146
 15 02 14 01 25  0.0000000  0  7G16G18G19G21G22G27G31
  20923083.460   109951555.49508  20923081.500    85676529.50148
  22160296.140   116453185.14307  22160294.660    90742755.19146
  24216938.760   127260872.37104  24216936.720    99164305.70846
  21804650.700   114584217.03907  21804648.440    89286398.10948
  23032995.140   121039241.87406  23032992.380    94316287.54647
  22086878.380   116067348.48407  22086879.040    90442107.42648
  23998465.560   126112744.51004  23998465.280    98269650.06145
 15 02 14 01 25 30.0000000  0  7G16G18G19G21G22G27G31
  20913883.480   109903209.48608  20913881.540    85638857.28948
  22152529.120   116412369.33807  22152527.640    90710950.67647
  24202000.340   127182367.81704  24201997.500    99103133.37944
  21814974.100   114638467.11907  21814971.900    89328670.89448
  23016037.700   120950129.91506  23016034.860    94246849.68646
  22075995.140   116010156.59006  22075995.780    90397542.31648
  24017123.020   126210789.52004  24017123.020    98346048.51044
 15 02 14 01 26  0.0000000  0  7G16G18G19G21G22G27G31
  20904761.500   109855273.34208  20904759.540    85601504.45148
  22144842.120   116371974.04907  22144840.620    90679473.83346
  24187078.600   127103953.65404  24187075.660    99042031.53045
  21825345.580   114692970.04007  21825343.400    89371140.70348
  22999111.040   120861179.76406  22999108.220    94177537.91946
  22065137.420   115953098.85306  22065138.060    90353081.74948
  24035785.060   126308858.71105  24035785.300    98422465.77245
 15 02 14 01 26 30.0000000  0  7G16G18G19G21G22G27G31
  20895715.660   109807737.06908  20895713.680    85564463.19748
  22137233.120   116331988.79607  22137231.600    90648316.51646
  24172171.500   127025617.14004  24172168.860    98980990.16846
  21835762.500   114747711.86807  21835760.280    89413796.67948
  22982213.500   120772382.51805  22982210.720    94108345.29347
  22054302.880   115896163.22106  22054303.580    90308716.32848
  24054448.860   126406936.91104  24054449.340    98498890.04545
 15 02 14 01 27  0.0000000  0  7G16G18G19G21G22G27G31
  20886745.580   109760598.77808  20886743.560    85527732.05848
  22129701.880   116292411.73407  22129700.360    90617477.26147
  24157278.860   126947355.01104  24157276.060    98920006.71045
  21846223.820   114802686.79107  21846221.620    89456634.28148
  22965344.800   120683736.68306  22965341.940    94039270.65946
  22043490.880   115839346.18406  22043491.660    90264443.32148
  24073113.200   126505017.65204  24073113.780    98575316.27945
 15 02 14 01 27 30.0000000  0  7G16G18G19G21G22G27G31
  20877852.460   109713865.19608  20877850.460    85491316.27548
  22122249.560   116253249.45007  22122248.040    90586961.21247
  24142401.400   126869172.19004  24142398.100    98859085.08945
  21856730.180   114857898.07507  21856728.040    89499656.04448
  22948506.460   120595250.06806  22948503.380    93970320.08147
  22032702.580   115782652.82007  22032703.260    90220266.67548
  24091778.380   126603102.72404  24091779.120    98651745.83344
 15 02 14 01 28  0.0000000  0  7G16G18G19G21G22G27G31
  20869038.080   109667545.33708  20869036.100    85455222.87948
  22114877.700   116214510.04807  22114876.220    90556774.68147
  24127539.900   126791075.13504  24127536.780    98798230.30045
  21867282.540   114913350.91107  21867280.420    89542866.04348
  22931700.180   120506931.85106  22931697.000    93901500.71946
  22021939.140   115726090.04107  22021939.720    90176191.79748
  24110445.160   126701196.41904  24110446.020    98728182.07946
 15 02 14 01 28 30.0000000  0  7G16G18G19G21G22G27G31
  20860301.660   109621635.11408  20860299.700    85419448.67948
  22107585.520   116176189.24407  22107584.000    90526914.32546
  24112693.480   126713058.25804  24112690.660    98737438.01946
  21877879.460   114969037.72607  21877877.280    89586258.36448
  22914925.280   120418778.95106  22914922.120    93832810.20146
  22011199.420   115669652.15807  22011199.940    90132214.23448
  24129111.940   126799289.55705  24129112.860    98804617.77846
 15 02 14 01 29  0.0000000  0  7G16G18G19G21G22G27G31
  20851643.340   109576134.99908  20851641.340    85383994.04448
  22100372.940   116138287.02207  22100371.420    90497380.15147
  24097862.100   126635119.98904  24097859.680    98676706.92644
  21888520.060   115024954.11207  21888517.780    89629829.57647
  22898181.880   120330792.22106  22898178.680    93764249.13646
  22000483.140   115613337.58207  22000483.600    90088332.75248
  24147777.880   126897377.51104  24147778.740    98881049.29945
 15 02 14 01 29 30.0000000  0  7G16G18G19G21G22G27G31
  20843063.440   109531047.03108  20843061.400    85348860.56248
  22093240.400   116100805.49807  22093239.020    90468173.78247
  24083045.800   126557260.65604  24083043.500    98616037.39245
  21899204.220   115081099.58407  21899201.880    89673579.29048
  22881470.640   120242974.99006  22881467.540    93695820.16946
  21989790.400   115557146.95107  21989790.840    90044547.86248
  24166442.460   126995458.02104  24166443.160    98957474.95646
 15 02 14 01 30  0.0000000  0  7G16G18G19G21G22G27G31
  20834562.220   109486372.84208  20834560.160    85314049.50648
  22086188.240   116063746.17307  22086186.940    90439296.39747
  24068244.560   126479479.72504  24068241.460    98555428.92544
  21909931.500   115137471.33507  21909929.120    89717505.33048
  22864792.140   120155329.53506  22864789.080    93627525.04646
  21979121.240   115501080.09007  21979121.680    90000859.40648
  24185105.120   127093528.28404  24185105.860    99033892.81746
 15 02 14 01 30 30.0000000  0  7G16G18G19G21G22G27G31
  20826140.300   109442115.42208  20826138.220    85279563.19948
  22079216.740   116027110.83807  22079215.480    90410749.39047
  24053458.560   126401778.44704  24053455.160    98494882.53545
  21920701.680   115194068.85007  21920699.360    89761607.27948
  22848146.940   120067858.93606  22848143.860    93559366.16946
  21968475.780   115445138.04607  21968476.300    89957268.21648
  24203765.540   127191586.28104  24203766.340    99110301.18945
 15 02 14 01 31  0.0000000  0  7G16G18G19G21G22G27G31
  20817798.680   109398280.23408  20817796.640    85245405.90948
  22072327.100   115990905.46707  22072325.820    90382537.42547
  24038688.280   126324160.50404  24038685.000    98434401.07245
  21931515.020   115250893.14807  21931512.700    89805885.95448
  22831536.500   119980570.37706  22831533.320    93491349.14346
  21957854.820   115389324.80607  21957855.420    89913777.38348
  24222423.760   127289632.92004  24222424.620    99186700.75645
 15 02 14 01 31 30.0000000  0  7G16G18G19G21G22G27G31
  20809538.040   109354870.31208  20809536.040    85211579.99848
  22065519.660   115955132.23907  22065518.360    90354662.19947
  24023933.840   126246626.60504  24023931.180    98373985.10944
  21942371.520   115307944.53007  21942369.180    89850341.57248
  22814961.320   119893466.97706  22814958.080    93423476.39246
  21947258.620   115333641.51407  21947259.280    89870387.81648
  24241079.300   127387666.24504  24241080.360    99263090.00246
 15 02 14 01 32  0.0000000  0  7G16G18G19G21G22G27G31
  20801357.080   109311879.17408  20801355.120    85178080.40848
  22058793.260   115919784.71807  22058791.900    90327118.68947
  24009193.940   126169168.75304  24009191.420    98313628.36745
  21953269.240   115365212.48307  21953266.840    89894965.95647
  22798420.420   119806543.62906  22798417.100    93355743.94447
  21936685.600   115278080.28207  21936686.400    89827093.36548
  24259730.240   127485675.85704  24259731.520    99339460.99345
 15 02 14 01 32 30.0000000  0  7G16G18G19G21G22G27G31
  20793257.020   109269313.22908  20793255.060    85144912.13548
  22052148.880   115884868.31307  22052147.420    90299911.11246
  23994469.600   126091792.11904  23994467.160    98253334.92444
  21964208.740   115422699.95407  21964206.360    89939761.39048
  22781915.060   119719807.43506  22781911.680    93288157.33046
  21926136.640   115222645.75407  21926137.580    89783897.63348
  24278376.740   127583662.23904  24278377.920    99415813.62645
 15 02 14 01 33  0.0000000  0  7G16G18G19G21G22G27G31
  20785237.980   109227172.90808  20785236.000    85112075.51548
  22045586.700   115850383.71107  22045585.160    90273040.00547
  23979760.420   126014494.42504  23979757.920    98193103.02346
  21975189.360   115480403.46507  21975187.040    89984725.15548
  22765445.360   119633259.04806  22765442.060    93220717.05547
  21915611.580   115167336.52907  21915612.520    89740799.54648
  24297018.060   127681621.89904  24297019.340    99492145.69845
 15 02 14 01 33 30.0000000  0  7G16G18G19G21G22G27G31
  20777301.140   109185464.45308  20777299.140    85079575.41848
  22039107.840   115816336.78807  22039106.220    90246509.95547
  23965067.180   125937280.29504  23965064.540    98132936.18445
  21986211.440   115538325.29607  21986209.260    90029859.03748
  22749012.820   119546906.09506  22749009.720    93153429.07046
  21905111.380   115112157.47207  21905112.200    89697802.87848
  24315654.540   127779556.60504  24315655.940    99568458.45245
 15 02 14 01 34  0.0000000  0  7G16G18G19G21G22G27G31
  20769446.260   109144186.88808  20769444.300    85047411.08048
  22032711.940   115782726.00407  22032710.300    90220319.74047
  23950389.300   125860147.06304  23950386.600    98072832.43945
  21997274.260   115596461.48307  21997272.200    90075159.95448
  22732617.520   119460748.38506  22732614.420    93086293.22147
  21894635.420   115057105.83807  21894636.180    89654905.51348
  24334284.980   127877460.19705  24334286.660    99644746.95746
 15 02 14 01 34 30.0000000  0  7G16G18G19G21G22G27G31
  20761673.840   109103342.57108  20761671.920    85015584.33849
  22026399.340   115749553.14107  22026397.680    90194470.76447
  23935726.780   125783095.32304  23935724.040    98012792.16546
  22008377.640   115654810.11707  22008375.500    90120626.42647
  22716260.000   119374788.86406  22716256.820    93019311.79747
  21884183.840   115002182.27007  21884184.540    89612107.93048
  24352909.240   127975331.81205  24352911.020    99721011.30644
 15 02 14 01 35  0.0000000  0  7G16G18G19G21G22G27G31
  20753984.580   109062935.22708  20753982.700    84984098.09549
  22020170.700   115716821.46407  22020169.040    90168965.57447
  23921080.120   125706126.77604  23921077.280    97952816.70745
  22019521.400   115713371.23107  22019519.220    90166258.47348
  22699941.120   119289032.14806  22699937.860    92952488.42047
  21873757.020   114947388.99807  21873757.700    89569411.88448
  24371526.560   128073168.68504  24371528.580    99797248.33146
 15 02 14 01 35 30.0000000  0  6G16G18G19G21G22G27
  20746377.640   109022960.25108  20746375.720    84952948.75549
  22014025.140   115684526.36307  22014023.520    90143800.57447
  23906448.120   125629235.27305  23906445.160    97892901.33445
  22030704.020   115772136.83707  22030702.000    90212049.83247
  22683660.160   119203474.59506  22683656.800    92885820.22246
  21863353.880   114892720.04407  21863354.540    89526812.70748
 15 02 14 01 36  0.0000000  0  7G16G18G19G21G22G27G31
  20738855.100   108983428.88908  20738853.140    84922145.09249
  22007964.620   115652678.20707  22007963.060    90118983.83747
  23891832.800   125552430.15804  23891829.600    97833053.20046
  22041927.040   115831114.82807  22041925.200    90258006.69848
  22667419.280   119118127.94506  22667415.820    92819316.36147
  21852976.120   114838184.73907  21852976.860    89484317.67748
  24408737.500   128268780.52304  24408739.300    99949705.15446
 15 02 14 01 36 30.0000000  0  6G16G18G19G21G22G27
  20731414.880   108944330.19808  20731412.880    84891678.57849
  22001986.960   115621265.79607  22001985.460    90094506.64847
  23877231.200   125475698.67304  23877228.200    97773262.50746
  22053187.740   115890290.10107  22053185.940    90304117.28648
  22651216.640   119032982.30306  22651213.180    92752969.14046
  21842621.440   114783770.48107  21842622.180    89441916.96248
 15 02 14 01 37  0.0000000  0  7G16G18G19G21G22G27G31
  20724060.760   108905684.13908  20724058.800    84861564.76048
  21996095.980   115590308.51907  21996094.440    90070384.10147
  23862646.880   125399058.80004  23862644.160    97713543.12945
  22064489.140   115949678.52607  22064487.180    90350393.98548
  22635056.100   118948058.48106  22635052.700    92686794.75446
  21832293.280   114729495.74207  21832294.020    89399624.96448
  24445915.680   128464153.02504  24445917.060   100101945.86146
 15 02 14 01 37 30.0000000  0  6G16G18G19G21G22G27
  20716792.000   108867486.52408  20716790.060    84831800.38449
  21990290.800   115559801.97907  21990289.200    90046612.77947
  23848078.840   125322504.96504  23848076.480    97653890.83946
  22075829.800   116009273.51107  22075827.600    90396831.64347
  22618937.040   118863353.00506  22618933.760    92620790.51647
  21821990.600   114675354.95807  21821991.340    89357437.35148
 15 02 14 01 38  0.0000000  0  7G16G18G19G21G22G27G31
  20709607.520   108829731.96108  20709605.620    84802381.24449
  21984570.280   115529740.13407  21984568.540    90023187.98947
  23833525.780   125246029.79404  23833523.640    97594299.83646
  22087207.820   116069065.61407  22087205.560    90443422.88947
  22602858.640   118778861.48106  22602855.500    92554952.98947
  21811712.060   114621341.20307  21811712.800    89315348.72248
  24483057.080   128659336.06204  24483059.180   100254029.74244
 15 02 14 01 38 30.0000000  0  7G16G18G19G21G22G27G31
  20702507.520   108792421.24608  20702505.620    84773307.95749
  21978934.420   115500123.60807  21978932.580    90000110.18347
  23818987.780   125169632.70604  23818985.660    97534769.66644
  22098622.880   116129052.41407  22098620.700    90490165.84047
  22586821.360   118694585.72606  22586818.300    92489283.59247
  21801457.660   114567453.88307  21801458.320    89273358.60348
  24501611.480   128756841.49003  24501613.760   100330008.27445
 15 02 14 01 39  0.0000000  0  6G16G18G19G21G22G27
  20695491.320   108755551.17308  20695489.460    84744578.02949
  21973382.520   115470948.62807  21973380.720    89977376.44547
  23804463.900   125093309.12304  23804461.780    97475296.78146
  22110073.820   116189226.98707  22110071.620    90537055.11548
  22570824.800   118610523.73506  22570821.740    92423780.76447
  21791226.460   114513688.44807  21791227.040    89231463.46748
 15 02 14 01 39 30.0000000  0  6G16G18G19G21G22G27
  20688562.740   108719141.36108  20688560.880    84716206.74049
  21967918.200   115442233.89507  21967916.540    89955001.33247
  23789957.380   125017076.29904  23789955.100    97415894.60146
  22121563.380   116249604.53107  22121561.160    90584102.55448
  22554872.760   118526695.45106  22554869.680    92358460.04047
  21781021.820   114460062.64507  21781022.380    89189677.13148
 15 02 14 01 40  0.0000000  0  6G16G18G19G21G22G27
  20681720.880   108683187.22008  20681719.040    84688190.52649
  21962540.700   115413974.75607  21962539.120    89932981.23847
  23775466.960   124940928.10805  23775464.460    97356558.36346
  22133090.240   116310178.22907  22133088.000    90631302.83247
  22538964.560   118443097.22206  22538961.480    92293318.58846
  21770842.560   114406570.58307  21770843.200    89147995.00548
 15 02 14 01 40 30.0000000  0  7G16G18G19G21G22G27G31
  20674965.960   108647689.61608  20674964.060    84660530.05149
  21957249.980   115386171.57207  21957248.360    89911316.42747
  23760992.540   124864863.84004  23760990.080    97297287.54345
  22144653.760   116370945.01307  22144651.540    90678653.57047
  22523100.520   118359731.11906  22523097.400    92228358.01047
  21760688.700   114353211.76707  21760689.360    89106416.71948
  24575714.600   129146251.35204  24575716.900   100633452.32347
 15 02 14 01 41  0.0000000  0  6G16G18G19G21G22G27
  20668298.140   108612649.73808  20668296.200    84633226.25349
  21952046.060   115358824.88507  21952044.480    89890007.33747
  23746533.820   124788882.74004  23746531.600    97238081.52246
  22156253.480   116431902.00807  22156251.200    90726152.54047
  22507280.900   118276598.80706  22507277.840    92163579.61047
  21750560.120   114299985.88307  21750560.760    89064942.01248
 15 02 14 01 41 30.0000000  0  6G16G18G19G21G22G27
  20661717.880   108578070.11708  20661715.920    84606281.09049
  21946929.320   115331936.40307  21946927.780    89869055.28147
  23732091.160   124712985.84704  23732089.040    97178941.10746
  22167889.420   116493048.90707  22167887.000    90773799.46847
  22491506.500   118193703.78306  22491503.480    92098986.10847
  21740457.080   114246894.01007  21740457.660    89023571.72648
 15 02 14 01 42  0.0000000  0  6G16G18G19G21G22G27
  20655224.740   108543948.06908  20655222.700    84579692.47849
  21941899.400   115305503.86307  21941897.860    89848458.50347
  23717663.800   124637169.48805  23717661.720    97119863.47146
  22179560.320   116554379.68507  22179557.920    90821589.68748
  22475776.940   118111044.69706  22475774.040    92034576.44547
  21730378.800   114193932.46207  21730379.400    88982302.99348
 15 02 14 01 42 30.0000000  0  6G16G18G19G21G22G27
  20648820.720   108510294.43808  20648818.640    84553468.86649
  21936958.120   115279536.89907  21936956.540    89828224.52047
  23703253.160   124561442.40105  23703251.220    97060855.38045
  22191267.440   116615901.12407  22191265.120    90869528.45848
  22460094.640   118028633.43406  22460091.680    91970359.90047
  21720327.020   114141110.31707  21720327.700    88941142.88648
 15 02 14 01 43  0.0000000  0  6G16G18G19G21G22G27
  20642504.600   108477102.94008  20642502.520    84527605.35949
  21932104.080   115254028.59907  21932102.380    89808347.92947
  23688858.160   124485796.96104  23688856.140    97001910.88046
  22203008.980   116677603.79006  22203006.800    90917608.45247
  22444458.380   117946464.06206  22444455.380    91906331.83747
  21710300.360   114088419.87907  21710301.040    88900085.40648
 15 02 14 01 43 30.0000000  0  6G16G18G19G21G22G27
  20636276.360   108444373.42608  20636274.360    84502101.83749
  21927337.340   115228979.15907  21927335.560    89788828.89947
  23674478.520   124410231.15105  23674476.180    96943028.45945
  22214784.420   116739484.59907  22214782.360    90965827.25647
  22428868.360   117864538.21406  22428865.360    91842493.53947
  21700298.600   114035860.23807  21700299.220    88859129.85248
 15 02 14 01 44  0.0000000  0  6G16G18G19G21G22G27
  20630136.800   108412110.05908  20630134.860    84476961.55249
  21922658.520   115204391.50007  21922656.680    89769669.69647
  23660114.680   124334747.61405  23660112.140    96884210.14146
  22226593.920   116801543.95107  22226591.840    91014185.19647
  22413325.480   117782860.33306  22413322.460    91778848.45347
  21690322.160   113983433.69807  21690322.740    88818278.00748
 15 02 14 01 44 30.0000000  0  6G16G18G19G21G22G27
  20624087.900   108380323.02808  20624086.000    84452192.43649
  21918069.260   115180274.98607  21918067.520    89750877.61147
  23645768.080   124259354.71905  23645765.280    96825462.46346
  22238438.560   116863788.07506  22238436.480    91062687.10947
  22397831.880   117701441.47306  22397828.880    91715405.21147
  21680372.780   113931149.09507  21680373.320    88777536.76648
 15 02 14 01 45  0.0000000  0  6G16G18G19G21G22G27
  20618128.780   108349007.97208  20618126.900    84427791.09049
  21913568.840   115156625.32907  21913567.220    89732449.31447
  23631437.520   124184046.92605  23631434.720    96766781.13145
  22250316.980   116926209.95106  22250314.960    91111327.52447
  22382387.060   117620278.55306  22382384.000    91652161.40347
  21670449.420   113879001.11907  21670449.920    88736901.98348
 15 02 14 01 45 30.0000000  0  6G16G18G19G21G22G27
  20612259.460   108318164.35808  20612257.540    84403757.10149
  21909157.020   115133440.98307  21909155.400    89714383.59947
  23617122.680   124108822.28904  23617119.920    96708164.53746
  22262228.520   116988805.87406  22262226.580    91160103.55147
  22366991.140   117539372.21706  22366988.040    91589117.51647
  21660551.760   113826988.09907  21660552.200    88696372.36248
 15 02 14 01 46  0.0000000  0  6G16G18G19G21G22G27
  20606481.120   108287798.92408  20606479.200    84380095.72249
  21904834.940   115110728.23107  21904833.280    89696685.36747
  23602824.400   124033685.73104  23602821.760    96649616.63045
  22274173.660   117051578.13406  22274171.740    91209016.99147
  22351645.360   117458729.73006  22351642.380    91526279.24347
  21650680.660   113775115.11907  21650681.120    88655951.85848
 15 02 14 01 46 30.0000000  0  6G16G18G19G21G22G27
  20600793.180   108257908.42908  20600791.240    84356804.42549
  21900601.800   115088483.13507  21900600.100    89679351.53047
  23588542.000   123958632.71805  23588539.680    96591133.78746
  22286151.400   117114521.26707  22286149.360    91258063.58847
  22336349.440   117378349.20606  22336346.560    91463645.08447
  21640835.380   113723377.99907  21640835.900    88615637.22348
 15 02 14 01 47  0.0000000  0  6G16G18G19G21G22G27
  20595195.520   108228492.44108  20595193.560    84333882.87249
  21896457.580   115066705.14107  21896455.880    89662381.67947
  23574275.380   123883661.04305  23574273.140    96532714.33446
  22298160.860   117177630.99607  22298158.680    91307240.00247
  22321103.480   117298230.71506  22321100.600    91401215.10547
  21631015.640   113671774.88807  21631016.160    88575427.00948
 15 02 14 01 47 30.0000000  0  6G16G18G19G21G22G27
  20589689.180   108199556.45807  20589687.240    84311335.34649
  21892403.260   115045399.51607  21892401.560    89645779.89847
  23560025.260   123808775.76005  23560022.940    96474362.18446
  22310202.480   117240910.04106  22310200.320    91356548.33947
  22305908.860   117218381.94606  22305905.900    91338995.31647
  21621222.380   113620310.70007  21621222.880    88535325.05848
 15 02 14 01 48  0.0000000  0  6G16G18G19G21G22G27
  20584274.520   108171102.38807  20584272.600    84289163.34149
  21888438.940   115024567.01307  21888437.240    89629546.78947
  23545791.560   123733976.54905  23545789.160    96416077.12447
  22322276.060   117304357.07707  22322274.000    91405987.56947
  22290765.960   117138805.21706  22290762.900    91276987.49547
  21611455.540   113568985.66707  21611456.080    88495331.52448
 15 02 14 01 48 30.0000000  0  6G16G18G19G21G22G27
  20578952.320   108143134.21107  20578950.460    84267369.95349
  21884565.240   115004210.69807  21884563.520    89613684.73147
  23531574.540   123659265.86805  23531572.060    96357861.02946
  22334381.580   117367971.90707  22334379.580    91455557.55348
  22275675.560   117059504.73806  22275672.480    91215194.93047
  21601715.640   113517802.42507  21601716.260    88455448.48348
 15 02 14 01 49  0.0000000  0  6G16G18G19G21G22G27
  20573722.000   108115648.91207  20573720.180    84245952.83349
  21880781.520   114984327.07607  21880779.740    89598191.01047
  23517373.560   123584639.44505  23517371.020    96299710.61546
  22346517.940   117431748.54407  22346515.900    91505253.62847
  22260637.440   116980479.39906  22260634.520    91153616.76747
  21592002.020   113466757.08107  21592002.660    88415672.89248
 15 02 14 01 49 30.0000000  0  6G16G18G19G21G22G27
  20568584.260   108088649.91207  20568582.420    84224914.64949
  21877088.360   114964919.47607  21877086.500    89583068.21147
  23503189.040   123510099.38205  23503186.680    96241627.50245
  22358685.380   117495688.44707  22358683.180    91555076.92947
  22245652.620   116901733.75107  22245649.720    91092256.53247
  21582315.120   113415852.26707  21582315.840    88376006.80748
 15 02 14 01 50  0.0000000  0  6G16G18G19G21G22G27
  20563539.740   108062140.68308  20563537.880    84204258.10149
  21873486.280   114945990.38107  21873484.400    89568318.27547
  23489021.240   123435647.62905  23489018.840    96183613.16145
  22370883.680   117559791.14006  22370881.420    91605027.07247
  22230721.860   116823271.87506  22230718.920    91031117.42947
  21572655.340   113365089.98007  21572656.100    88336451.78348
 15 02 14 01 50 30.0000000  0  6G16G18G19G21G22G27
  20558588.140   108036119.72607  20558586.260    84183982.02649
  21869974.800   114927537.89707  21869973.000    89553939.72447
  23474869.920   123361281.75905  23474867.580    96125665.78346
  22383111.940   117624051.53006  22383109.680    91655100.09847
  22215844.960   116745093.42506  22215842.060    90970199.17647
  21563022.300   113314467.83207  21563023.000    88297005.95548
 15 02 14 01 51  0.0000000  0  6G16G18G19G21G22G27
  20553730.100   108010590.61907  20553728.240    84164089.20949
  21866554.580   114909564.81907  21866552.820    89539934.73447
  23460735.180   123287003.68505  23460732.820    96067786.81446
  22395370.360   117688469.95606  22395368.080    91705296.26947
  22201023.000   116667203.55706  22201020.060    90909505.78747
  21553416.400   113263988.22407  21553417.020    88257671.20448
 15 02 14 01 51 30.0000000  0  6G16G18G19G21G22G27
  20548965.360   107985551.66807  20548963.520    84144578.33449
  21863225.140   114892068.70907  21863223.420    89526301.40647
  23446616.640   123212810.27505  23446614.120    96009973.76946
  22407658.160   117753042.27407  22407655.840    91755612.35247
  22186255.740   116589600.91107  22186252.740    90849036.21747
  21543837.080   113213648.51107  21543837.660    88218445.46148
 15 02 14 01 52  0.0000000  0  6G16G18G19G21G22G27
  20544295.200   107961009.72208  20544293.360    84125454.73449
  21859987.660   114875055.87607  21859986.020    89513044.66147
  23432515.260   123138707.11205  23432512.640    95952231.08446
  22419975.800   117817771.62006  22419973.540    91806050.79047
  22171544.660   116512293.64606  22171541.560    90788796.81247
  21534285.440   113163454.38507  21534286.020    88179333.15548
 15 02 14 01 52 30.0000000  0  6G16G18G19G21G22G27
  20539719.260   107936962.83707  20539717.380    84106716.89649
  21856841.720   114858523.93307  21856840.060    89500162.62847
  23418430.520   123064691.57405  23418427.640    95894556.64946
  22432322.380   117882653.58506  22432320.220    91856608.15147
  22156889.720   116435281.42707  22156886.580    90728787.30547
  21524761.000   113113403.20207  21524761.600    88140332.23548
 15 02 14 01 53  0.0000000  0  6G16G18G19G21G22G27
  20535237.400   107913410.38007  20535235.480    84088364.32649
  21853787.000   114842471.20807  21853785.280    89487654.02247
  23404362.140   122990761.05305  23404359.080    95836948.47346
  22444697.260   117947684.22906  22444695.120    91907281.36947
  22142290.820   116358563.68207  22142287.600    90669007.25647
  21515263.400   113063493.11607  21515264.000    88101441.26648
 15 02 14 01 53 30.0000000  0  6G16G18G19G21G22G27
  20530850.680   107890358.21607  20530848.800    84070401.59649
  21850824.640   114826903.84907  21850822.940    89475523.61847
  23390310.780   122916920.42105  23390307.760    95779410.36946
  22457100.880   118012865.82906  22457098.740    91958072.22047
  22127749.380   116282148.51607  22127746.260    90609462.99447
  21505793.640   113013729.16307  21505794.220    88062664.15948
 15 02 14 01 54  0.0000000  0  6G16G18G19G21G22G27
  20526559.100   107867806.25807  20526557.320    84052828.63549
  21847954.440   114811820.52307  21847952.700    89463770.38347
  23376276.200   122843168.43705  23376273.280    95721941.32346
  22469532.840   118078196.21707  22469530.700    92008979.01447
  22113265.700   116206036.82407  22113262.640    90550155.19647
  21496351.500   112964110.54507  21496352.120    88024000.30748
 15 02 14 01 54 30.0000000  0  6G16G18G19G21G22G27
  20522363.000   107845755.62207  20522361.240    84035646.31649
  21845176.360   114797221.64807  21845174.700    89452394.64347
  23362258.500   122769505.23905  23362255.620    95664541.44945
  22481992.660   118143672.97906  22481990.500    92059999.85347
  22098840.220   116130230.61207  22098837.160    90491085.43747
  21486937.060   112914637.59707  21486937.760    87985449.95848
 15 02 14 01 55  0.0000000  0  6G16G18G19G21G22G27
  20518262.540   107824207.37807  20518260.740    84018855.47249
  21842490.560   114783107.48707  21842488.940    89441396.60347
  23348257.700   122695930.39905  23348254.780    95607210.43646
  22494480.000   118209294.37806  22494477.880    92111133.40247
  22084473.300   116054732.03207  22084470.200    90432255.39747
  21477550.320   112865309.98707  21477551.060    87947012.86648
 15 02 14 01 55 30.0000000  0  6G16G18G19G21G22G27
  20514257.780   107803162.03007  20514255.960    84002456.49249
  21839896.940   114769477.87507  21839895.340    89430776.12647
  23334273.680   122622443.17105  23334270.640    95549947.68446
  22506994.280   118275057.25806  22506992.160    92162377.19947
  22070165.260   115979542.67707  22070162.120    90373666.30847
  21468191.220   112816127.48507  21468191.920    87908688.83848
 15 02 14 01 56  0.0000000  0  6G16G18G19G21G22G27
  20510349.480   107782623.92507  20510347.720    83986452.77149
  21837396.260   114756336.94207  21837394.700    89420536.44847
  23320306.920   122549046.90505  23320303.840    95492755.81346
  22519535.920   118340964.02306  22519533.800    92213733.11447
  22055917.100   115904668.05707  22055913.940    90315322.46247
  21458860.440   112767093.78707  21458861.080    87870480.77248
 15 02 14 01 56 30.0000000  0  6G16G18G19G21G22G27
  20506537.880   107762593.67407  20506536.080    83970844.77949
  21834988.640   114743684.78207  21834987.020    89410677.62647
  23306357.280   122475741.27805  23306354.120    95435634.58246
  22532104.440   118407012.06806  22532102.360    92265199.11147
  22041729.160   115830110.33107  22041726.040    90257225.54947
  21449557.960   112718208.93507  21449558.600    87832388.68648
 15 02 14 01 57  0.0000000  0  6G16G18G19G21G22G27
  20502822.860   107743070.93607  20502821.020    83955632.24849
  21832673.660   114731519.55007  21832672.080    89401198.24047
  23292424.600   122402524.43705  23292421.460    95378582.51546
  22544699.180   118473197.90506  22544697.160    92316772.48047
  22027601.720   115755869.82007  22027598.560    90199375.82147
  21440283.480   112669471.18207  21440284.140    87794411.21848
 15 02 14 01 57 30.0000000  0  6G16G18G19G21G22G27
  20499205.020   107724058.97707  20499203.160    83940817.73149
  21830451.920   114719844.34907  21830450.440    89392100.68447
  23278509.240   122329398.84805  23278506.100    95321601.55246
  22557320.260   118539522.03106  22557318.300    92368453.60347
  22013535.460   115681950.68107  22013532.200    90141776.50847
  21431037.560   112620883.37607  21431038.200    87756550.59048
 15 02 14 01 58  0.0000000  0  6G16G18G19G21G22G27
  20495684.600   107705558.97207  20495682.760    83926402.13449
  21828323.500   114708659.60507  21828322.040    89383385.30147
  23264611.120   122256364.45705  23264608.280    95264691.68247
  22569967.300   118605982.22806  22569965.280    92420240.76147
  21999530.960   115608356.25307  21999527.600    90084430.21547
  21421820.280   112572445.90407  21421820.900    87718807.11548
 15 02 14 01 58 30.0000000  0  6G16G18G19G21G22G27
  20492261.400   107687569.86107  20492259.560    83912384.64249
  21826288.180   114697963.83707  21826286.620    89375050.93847
  23250730.080   122183419.66405  23250727.420    95207851.61146
  22582639.560   118672575.01506  22582637.540    92472131.23647
  21985588.160   115535086.55707  21985584.780    90027336.96247
  21412631.240   112524157.29407  21412631.880    87681179.63148
 15 02 14 01 59  0.0000000  0  6G16G18G19G21G22G27
  20488936.280   107670096.39707  20488934.460    83898768.94949
  21824346.580   114687760.73407  21824344.940    89367100.47247
  23236866.600   122110567.55005  23236864.000    95151083.74747
  22595337.520   118739303.03206  22595335.460    92524127.08647
  21971708.200   115462146.93307  21971704.820    89970500.90547
  21403471.180   112476021.08807  21403471.860    87643670.90548
 15 02 14 01 59 30.0000000  0  6G16G18G19G21G22G27
  20485708.500   107653134.49307  20485706.700    83885551.87749
  21822497.860   114678045.55807  21822496.140    89359530.21247
  23223020.000   122037803.19405  23223017.380    95094384.25346
  22608059.680   118806158.53406  22608057.640    92576222.27647
  21957890.540   115389534.70807  21957887.120    89913919.97147
  21394339.260   112428032.65807  21394339.980    87606277.33248
 15 02 14 02 00  0.0000000  0  6G16G18G19G21G22G27
  20482579.300   107636690.51807  20482577.500    83872738.38349
  21820743.100   114668824.33107  21820741.420    89352344.85347
  23209191.180   121965132.20405  23209188.460    95037757.54746
  22620806.880   118873145.53806  22620804.760    92628419.93947
  21944136.640   115317257.65407  21944133.240    89857600.20847
  21385236.540   112380197.93307  21385237.340    87569003.52248
 15 02 14 02 00 30.0000000  0  6G16G18G19G21G22G27
  20479549.480   107620768.53307  20479547.640    83860331.63349
  21819083.020   114660100.47307  21819081.340    89345547.03747
  23195380.820   121892558.08405  23195378.060    94981206.29947
  22633579.400   118940265.59406  22633577.300    92680721.27146
  21930447.600   115245321.37107  21930444.200    89801545.97547
  21376163.800   112332520.65207  21376164.620    87531852.39848
 15 02 14 02 01  0.0000000  0  6G16G18G19G21G22G27
  20476617.480   107605360.34807  20476615.540    83848325.24349
  21817515.860   114651864.61407  21817514.120    89339129.49647
  23181586.980   121820070.89705  23181584.380    94924722.82147
  22646375.000   119007506.90206  22646372.960    92733117.08647
  21916821.960   115173718.24107  21916818.560    89745751.34547
  21367119.280   112284991.41007  21367120.080    87494816.63148
 15 02 14 02 01 30.0000000  0  6G16G18G19G21G22G27
  20473784.280   107590471.63207  20473782.300    83836723.64449
  21816042.480   114644121.84707  21816040.680    89333096.18247
  23167810.600   121747675.50005  23167807.980    94868310.83247
  22659194.340   119074872.68906  22659192.320    92785609.89447
  21903261.080   115102455.41007  21903257.700    89690221.88247
  21358103.920   112237615.37307  21358104.680    87457900.24948
 15 02 14 02 02  0.0000000  0  6G16G18G19G21G22G27
  20471050.340   107576104.84107  20471048.420    83825528.73449
  21814663.220   114636873.86007  21814661.460    89327448.40447
  23154051.980   121675373.61305  23154049.380    94811971.72646
  22672037.380   119142363.30706  22672035.380    92838199.98047
  21889765.780   115031536.74807  21889762.280    89634960.59647
  21349118.100   112190394.62307  21349118.860    87421104.86348
 15 02 14 02 02 30.0000000  0  6G16G18G19G21G22G27
  20468415.700   107562259.86407  20468413.840    83814740.43249
  21813377.940   114630120.06207  21813376.300    89322185.70947
  23140311.020   121603164.45205  23140308.360    94755704.85846
  22684903.480   119209975.35506  22684901.500    92890884.67247
  21876336.280   114960963.56907  21876332.600    89579968.52348
  21340161.720   112143328.50707  21340162.500    87384429.97248
 15 02 14 02 03  0.0000000  0  6G16G18G19G21G22G27
  20465880.860   107548939.11907  20465879.000    83804360.62449
  21812187.060   114623862.22707  21812185.460    89317309.48447
  23126587.980   121531049.80805  23126585.200    94699511.65146
  22697792.840   119277709.27306  22697790.780    92943664.34847
  21862973.180   114890739.50507  21862969.380    89525248.49247
  21331235.160   112096419.11007  21331235.940    87347877.20348
 15 02 14 02 03 30.0000000  0  6G16G18G19G21G22G27
  20463446.280   107536145.01007  20463444.340    83794391.18549
  21811090.800   114618101.84107  21811089.260    89312820.87547
  23112883.120   121459030.59505  23112880.260    94643392.79447
  22710705.240   119345564.52206  22710703.140    92996538.56847
  21849677.000   114820867.90707  21849673.280    89470803.10547
  21322338.740   112049668.01807  21322339.500    87311447.78748
 15 02 14 02 04  0.0000000  0  6G16G18G19G21G22G27
  20461111.340   107523874.43607  20461109.300    83784829.68749
  21810088.640   114612835.69907  21810087.080    89308717.39647
  23099195.780   121387103.42405  23099192.880    94587345.67546
  22723639.640   119413535.11606  22723637.420    93049502.65546
  21836447.560   114751347.30907  21836443.940    89416631.22247
  21313471.820   112003071.92907  21313472.520    87275139.15048
 15 02 14 02 04 30.0000000  0  6G16G18G19G21G22G27
  20458876.440   107512130.00207  20458874.420    83775678.17349
  21809180.720   114608064.65207  21809179.160    89304999.70847
  23085526.260   121315269.71205  23085523.400    94531371.37046
  22736596.040   119481621.39206  22736593.760    93102556.89047
  21823285.620   114682181.43107  21823282.040    89362735.74747
  21304634.720   111956632.73607  21304635.400    87238952.77048
 15 02 14 02 05  0.0000000  0  6G16G18G19G21G22G27
  20456742.180   107500914.65307  20456740.220    83766938.93649
  21808367.560   114603791.57307  21808366.040    89301670.04647
  23071874.920   121243531.78505  23071872.060    94475471.71146
  22749574.460   119549823.54106  22749572.140    93155701.42446
  21810192.160   114613374.64507  21810188.480    89309120.08047
  21295828.060   111910353.22307  21295828.700    87202890.80648
 15 02 14 02 05 30.0000000  0  6G16G18G19G21G22G27
  20454708.180   107490226.22907  20454706.320    83758610.28849
  21807648.660   114600013.79607  21807647.160    89298726.32347
  23058241.360   121171886.92005  23058238.460    94419644.55046
  22762574.080   119618137.13406  22762571.760    93208932.77946
  21797166.960   114544925.94507  21797163.180    89255783.44748
  21287051.300   111864230.70407  21287051.880    87166951.18748
 15 02 14 02 06  0.0000000  0  6G16G18G19G21G22G27
  20452775.300   107480068.71807  20452773.440    83750695.33449
  21807024.660   114596734.69907  21807023.160    89296171.19347
  23044626.180   121100338.46705  23044623.180    94363892.52947
  22775595.320   119686564.46206  22775593.100    93262252.76446
  21784210.920   114476841.05107  21784207.140    89202730.30047
  21278305.160   111818269.13207  21278305.660    87131136.97548
 15 02 14 02 06 30.0000000  0  6G16G18G19G21G22G27
  20450943.560   107470442.49707  20450941.660    83743194.37449
  21806495.360   114593953.11907  21806493.840    89294003.73847
  23031029.300   121028885.75806  23031026.280    94308215.10147
  22788637.660   119755102.44206  22788635.520    93315658.96446
  21771324.220   114409121.19607  21771320.540    89149961.59348
  21269589.500   111772468.08207  21269590.000    87095447.85148
 15 02 14 02 07  0.0000000  0  6G16G18G19G21G22G27
  20449212.840   107461347.37107  20449210.920    83736107.25349
  21806060.680   114591668.35007  21806059.060    89292223.40847
  23017450.540   120957528.26905  23017447.500    94252611.88446
  22801700.400   119823748.07206  22801698.320    93369149.05346
  21758507.200   114341767.64307  21758503.560    89097478.31548
  21260904.280   111726827.26307  21260904.840    87059883.57948
 15 02 14 02 07 30.0000000  0  6G16G18G19G21G22G27
  20447584.160   107452788.63407  20447582.260    83729438.10349
  21805721.380   114589885.06507  21805719.700    89290833.84447
  23003890.620   120886270.45605  23003887.540    94197086.33646
  22814784.260   119892504.39606  22814782.160    93422725.41446
  21745761.200   114274787.13907  21745757.520    89045285.73048
  21252250.500   111681351.57607  21252251.100    87024447.98548
 15 02 14 02 08  0.0000000  0  6G16G18G19G21G22G27
  20446056.920   107444763.10707  20446055.040    83723184.43949
  21805476.760   114588599.80107  21805475.140    89289832.34947
  22990348.800   120815108.82305  22990345.800    94141635.72147
  22827888.320   119961366.73006  22827886.300    93476384.36746
  21733085.960   114208178.11207  21733082.200    88993382.60448
  21243627.560   111636037.89107  21243628.200    86989138.62448
 15 02 14 02 08 30.0000000  0  6G16G18G19G21G22G27
  20444631.200   107437271.08407  20444629.360    83717346.49149
  21805326.700   114587811.70107  21805325.200    89289218.24947
  22976825.300   120744042.69505  22976822.280    94086259.52747
  22841012.120   120030332.79906  22841010.080    93530124.15546
  21720481.600   114141942.04207  21720477.860    88941770.09648
  21235035.420   111590886.05107  21235036.100    86953955.37248
 15 02 14 02 09  0.0000000  0  6G16G18G19G21G22G27
  20443307.920   107430317.30307  20443306.100    83711927.95749
  21805272.060   114587524.92607  21805270.660    89288994.79247
  22963320.700   120673076.21105  22963318.000    94030960.99547
  22854156.100   120099404.75906  22854154.000    93583946.45547
  21707949.340   114076084.96307  21707945.720    88890452.89548
  21226474.940   111545900.57007  21226475.660    86918901.75448
 15 02 14 02 09 30.0000000  0  6G16G18G19G21G22G27
  20442086.300   107423897.55507  20442084.480    83706925.54749
  21805311.840   114587734.48607  21805310.500    89289158.09847
  22949834.360   120602205.04205  22949831.740    93975736.73047
  22867319.120   120168576.24706  22867316.980    93637846.31446
  21695488.740   114010604.12807  21695485.200    88839428.88348
  21217945.280   111501077.13807  21217945.980    86883974.40948
 15 02 14 02 10  0.0000000  0  6G16G18G19G21G22G27
  20440967.100   107418015.91407  20440965.260    83702342.44249
  21805446.780   114588443.96807  21805445.420    89289710.95147
  22936366.780   120531432.73105  22936364.100    93920589.48347
  22880501.360   120237848.66606  22880499.140    93691824.81247
  21683100.760   113945504.82007  21683097.220    88788702.15748
  21209447.220   111456419.73307  21209447.920    86849176.43748
 15 02 14 02 10 30.0000000  0  6G16G18G19G21G22G27
  20439950.480   107412673.35907  20439948.620    83698179.40849
  21805676.820   114589653.25207  21805675.480    89290653.25647
  22922918.080   120460759.16505  22922915.300    93865519.18147
  22893702.500   120307220.90406  22893700.280    93745881.10246
  21670785.780   113880789.26807  21670782.240    88738274.47348
  21200980.800   111411928.77907  21200981.580    86814508.16648
 15 02 14 02 11  0.0000000  0  6G16G18G19G21G22G27
  20439036.540   107407870.52207  20439034.640    83694436.92949
  21806002.020   114591362.48907  21806000.700    89291985.13347
  22909488.240   120390184.83705  22909485.500    93810526.21747
  22906922.400   120376691.62206  22906920.160    93800014.10646
  21658544.320   113816460.14307  21658540.780    88688147.89448
  21192546.300   111367605.21407  21192547.160    86779970.32749
 15 02 14 02 11 30.0000000  0  6G16G18G19G21G22G27
  20438225.460   107403608.18607  20438223.540    83691115.62149
  21806422.440   114593571.47707  21806421.060    89293706.42947
  22896077.340   120319710.19206  22896074.740    93755610.93847
  22920160.720   120446259.18706  22920158.440    93854222.60046
  21646376.720   113752519.28107  21646373.200    88638323.86248
  21184143.740   111323449.63707  21184144.680    86745563.38349
 15 02 14 02 12  0.0000000  0  7G04G16G18G19G21G22G27
  24583228.740   129185738.36914                                
  20437517.500   107399887.78607  20437515.580    83688216.60849
  21806938.340   114596281.85107  21806936.860    89295818.42547
  22882685.640   120249336.61506  22882683.080    93700774.40947
  22933417.340   120515923.51606  22933415.120    93908506.47946
  21634283.660   113688970.00507  21634280.180    88588804.95748
  21175773.580   111279464.00507  21175774.480    86711288.87148
 15 02 14 02 12 30.0000000  0  7G04G16G18G19G21G22G27
  24564150.800   129085484.66304  24564150.660   100586102.56145
  20436914.680   107396719.92007  20436912.760    83685748.13049
  21807551.340   114599502.50507  21807549.720    89298328.03347
  22869315.060   120179073.62706  22869312.340    93646024.04547
  22946693.840   120585692.30906  22946691.720    93962871.76447
  21622267.340   113625823.94407  21622263.900    88539600.25248
  21167437.620   111235658.13407  21167438.460    86677154.42649
 15 02 14 02 13  0.0000000  0  7G04G16G18G19G21G22G27
  24545097.360   128985360.93204  24545097.840   100508084.26244
  20436412.820   107394082.63007  20436410.900    83683693.09549
  21808257.000   114603210.74407  21808255.320    89301217.57747
  22855961.320   120108899.04006  22855958.460    93591342.56747
  22959985.460   120655540.47806  22959983.360    94017298.89646
  21610323.780   113563060.18607  21610320.340    88490693.43848
  21159131.680   111192009.88807  21159132.460    86643142.81248
 15 02 14 02 13 30.0000000  0  7G04G16G18G19G21G22G27
  24526072.800   128885389.29804  24526074.200   100430184.33044
  20436015.940   107391996.92007  20436014.000    83682067.85649
  21809059.320   114607427.03307  21809057.660    89304503.00247
  22842628.400   120038833.74106  22842625.420    93536746.25147
  22973296.120   120725488.45006  22973294.060    94071803.79746
  21598457.300   113500701.86707  21598453.940    88442102.55848
  21150859.800   111148540.68707  21150860.560    86609270.70749
 15 02 14 02 14  0.0000000  0  7G04G16G18G19G21G22G27
  24507074.860   128785556.19404  24507076.740   100352392.26844
  20435721.380   107390448.78607  20435719.400    83680861.51449
  21809955.540   114612136.46107  21809953.860    89308172.69747
  22829313.420   119968862.95906  22829310.400    93482223.58746
  22986622.660   120795519.74806  22986620.620    94126373.63246
  21586665.480   113438735.60307  21586662.120    88393817.16648
  21142619.280   111105236.43608  21142620.040    86575527.13749
 15 02 14 02 14 30.0000000  0  7G04G16G18G19G21G22G27
  24488104.720   128685868.24704  24488106.760   100274713.48644
  20435530.080   107389443.70307  20435528.140    83680078.32749
  21810946.560   114617344.08307  21810944.920    89312230.59747
  22816017.600   119898992.36306  22816014.400    93427778.97447
  22999965.660   120865637.95706  22999963.680    94181011.18147
  21574949.800   113377168.96107  21574946.380    88345843.16748
  21134411.300   111062102.90508  21134412.000    86541916.60049
 15 02 14 02 15  0.0000000  0  6G16G18G19G21G22G27
  20435437.720   107388958.59707  20435435.840    83679700.31449
  21812027.940   114623026.56307  21812026.320    89316658.51447
  22802736.300   119829198.64406  22802733.120    93373394.27747
  23013320.460   120935818.19106  23013318.540    94235697.06146
  21563306.140   113315980.87007  21563302.720    88298164.14848
  21126231.420   111019117.29008  21126232.100    86508421.32049
 15 02 14 02 15 30.0000000  0  7G04G16G18G19G21G22G27
  24450249.860   128486932.28204  24450252.900   100119700.23743
  20435460.520   107389078.51507  20435458.680    83679793.75249
  21813215.520   114629267.44907  21813213.880    89321521.55247
  22789485.720   119759566.57106  22789482.620    93319135.53147
  23026702.920   121006143.32806  23026700.980    94290495.86946
  21551750.740   113255256.86507  21551747.320    88250846.76148
  21118095.840   110976364.52408  21118096.500    86475107.47849
 15 02 14 02 16  0.0000000  0  7G04G16G18G19G21G22G27
  24431365.200   128387693.48304  24431368.480   100042371.60245
  20435581.580   107389714.51107  20435579.720    83680289.32549
  21814492.280   114635977.27507  21814490.640    89326749.99047
  22776248.820   119690006.66206  22776245.800    93264933.03347
  23040095.640   121076522.17306  23040093.600    94345336.51346
  21540267.100   113194910.10507  21540263.700    88203823.31948
  21109987.620   110933755.63708  21109988.300    86441905.75649
 15 02 14 02 16 30.0000000  0  6G16G18G19G21G22G27
  20435800.860   107390866.66707  20435798.980    83681187.10149
  21815858.120   114643155.40407  21815856.540    89332343.34347
  22763025.760   119620518.83906  22763022.620    93210786.69046
  23053498.180   121146953.00406  23053496.040    94400217.67246
  21528855.440   113134941.80307  21528852.120    88157094.78448
  21101906.820   110891290.88608  21101907.520    86408816.33949
 15 02 14 02 17  0.0000000  0  6G16G18G19G21G22G27
  20436129.980   107392595.94907  20436128.040    83682534.59249
  21817324.740   114650862.67807  21817323.180    89338349.02347
  22749828.280   119551164.96206  22749825.040    93156744.72247
  23066922.000   121217495.55506  23066919.800    94455185.89346
  21517527.860   113075415.25707  21517524.620    88110710.47548
  21093865.300   110849032.21608  21093865.960    86375887.51049
 15 02 14 02 17 30.0000000  0  7G04G16G18G19G21G22G27
  24374883.560   128090875.59504  24374884.620    99811083.45645
  20436569.460   107394905.34507  20436567.500    83684334.11349
  21818892.420   114659100.17707  21818890.720    89344767.86447
  22736656.340   119481946.23906  22736653.180    93102808.07947
  23080367.020   121288149.75106  23080364.880    94510241.09246
  21506285.000   113016333.95207  21506281.860    88064673.10448
  21085863.380   110806981.76408  21085864.040    86343120.93049
 15 02 14 02 18  0.0000000  0  7G04G16G18G19G21G22G27
  24356114.680   127992245.36404  24356116.040    99734228.95244
  20437107.720   107397733.84207  20437105.740    83686538.12449
  21820549.300   114667806.67507  21820547.480    89351552.16347
  22723498.660   119412802.21206  22723495.420    93048929.62847
  23093821.380   121358852.98206  23093819.360    94565334.48247
  21495115.580   112957638.36207  21495112.480    88018936.28948
  21077889.540   110765079.20908  21077890.240    86310469.58949
 15 02 14 02 18 30.0000000  0  7G04G16G18G19G21G22G27
  24337375.640   127893772.43104  24337377.380    99657496.96445
  20437750.980   107401114.13307  20437749.000    83689172.11149
  21822301.480   114677014.65607  21822299.620    89358727.22347
  22710361.440   119343765.89106  22710358.180    92995135.10947
  23107291.080   121429636.78006  23107289.240    94620490.68746
  21484026.180   112899363.11407  21484023.080    87973527.01548
  21069950.180   110723357.86908  21069950.860    86277959.45649
 15 02 14 02 19  0.0000000  0  7G04G16G18G19G21G22G27
  24318666.460   127795456.42704  24318668.640    99580887.25143
  20438499.160   107405045.65907  20438497.180    83692235.63149
  21824148.600   114686722.19407  21824146.840    89366291.53847
  22697244.460   119274836.21906  22697241.340    92941423.69147
  23120775.480   121500498.37705  23120773.800    94675707.49146
  21473017.020   112841509.28307  21473013.760    87928446.12048
  21062045.220   110681817.02108  21062045.820    86245589.97449
 15 02 14 02 19 30.0000000  0  7G04G16G18G19G21G22G27
  24299986.960   127697294.27504  24299989.200    99504397.34643
  20439351.540   107409524.74107  20439349.520    83695725.82149
  21826090.120   114696925.21807  21826088.440    89374241.94747
  22684146.980   119206009.34306  22684144.040    92887792.38147
  23134273.680   121571432.29105  23134271.960    94730980.65846
  21462087.480   112784074.54907  21462084.180    87883691.79448
  21054174.000   110640453.33408  21054174.620    86213358.52949
 15 02 14 02 20  0.0000000  0  7G04G16G18G19G21G22G27
  24281337.640   127599290.74904  24281339.680    99428031.12944
  20440308.780   107414555.31307  20440306.820    83699645.73549
  21828126.600   114707627.02507  21828124.980    89382581.02947
  22671069.900   119137289.61206  22671067.160    92834244.55547
  23147786.100   121642440.85005  23147784.440    94786312.00346
  21451238.740   112727064.42107  21451235.480    87839268.32648
  21046337.400   110599271.48108  21046338.040    86181268.77849
 15 02 14 02 20 30.0000000  0  7G04G16G18G19G21G22G27
  24262718.880   127501449.40804  24262720.760    99351791.24744
  20441371.520   107420140.23107  20441369.600    83703997.61349
  21830258.480   114718829.76707  21830256.840    89391310.44347
  22658013.840   119068679.97106  22658011.200    92780782.51647
  23161313.040   121713525.38605  23161311.340    94841702.55746
  21440471.680   112670483.51207  21440468.580    87795179.32348
  21038535.960   110558274.71108  21038536.620    86149323.24549
 15 02 14 02 21  0.0000000  0  7G04G16G18G19G21G22G27
  24244130.340   127403766.54904  24244132.480    99275674.85444
  20442539.020   107426275.43507  20442537.100    83708778.28149
  21832484.720   114730528.39607  21832483.000    89400426.26947
  22644977.940   119000176.04606  22644975.340    92727402.84547
  23174853.300   121784679.99905  23174851.560    94897147.69947
  21429785.820   112614329.11507  21429782.800    87751422.64948
  21030769.000   110517459.15008  21030769.660    86117518.91249
 15 02 14 02 21 30.0000000  0  7G04G16G18G19G21G22G27
  24225572.680   127306245.86104  24225574.860    99199684.80845
  20443811.860   107432963.84107  20443809.860    83713990.01649
  21834805.760   114742725.30707  21834803.960    89409930.36047
  22631962.820   118931781.21106  22631960.260    92674108.18847
  23188407.240   121855906.30305  23188405.620    94952648.69946
  21419182.100   112558605.94607  21419178.980    87708002.01448
  21023037.220   110476828.46108  21023037.860    86085858.63949
 15 02 14 02 22  0.0000000  0  7G04G16G18G19G21G22G27
  24207046.200   127208889.27404  24207048.460    99123822.65545
  20445190.220   107440206.89907  20445188.180    83719633.94949
  21837221.680   114755421.13907  21837219.900    89419823.22647
  22618968.640   118863496.59906  22618966.020    92620899.42847
  23201974.680   121927203.41805  23201973.060    95008204.87747
  21408661.000   112503316.76907  21408657.700    87664919.54748
  21015340.940   110436384.19208  21015341.560    86054343.62849
 15 02 14 02 22 30.0000000  0  7G04G16G18G19G21G22G27
  24188550.480   127111694.14504  24188552.440    99048086.27344
  20446673.420   107448001.17007  20446671.400    83725707.40149
  21839731.740   114768611.64607  21839730.020    89430101.55247
  22605995.040   118795319.27706  22605992.200    92567774.24747
  23215554.680   121998566.71305  23215553.040    95063812.60646
  21398222.100   112448460.00607  21398218.780    87622174.03248
  21007679.600   110396123.66308  21007680.260    86022971.79149
 15 02 14 02 23  0.0000000  0  7G04G16G18G19G21G22G27
  24170086.140   127014663.21304  24170087.720    98972477.87945
  20448261.860   107456348.69107  20448259.880    83732211.95549
  21842336.220   114782298.28607  21842334.560    89440766.47447
  22593042.220   118727251.24706  22593039.300    92514734.24547
  23229147.360   122069996.43405  23229145.680    95119472.11346
  21387866.080   112394039.08407  21387862.860    87579768.12548
  21000053.720   110356049.45608  21000054.420    85991745.13249
 15 02 14 02 23 30.0000000  0  7G04G16G18G19G21G22G27
  24151653.400   126917798.11904  24151654.700    98896998.64944
  20449955.720   107465249.96007  20449953.760    83739148.00049
  21845035.260   114796481.79707  21845033.580    89451818.57747
  22580110.340   118659293.63506  22580107.400    92461780.28347
  23242752.640   122141492.26105  23242750.800    95175183.12246
  21377593.500   112340056.35107  21377590.400    87537703.66848
  20992463.580   110316162.97508  20992464.300    85960664.75749
 15 02 14 02 24  0.0000000  0  7G04G16G18G19G21G22G27
  24133252.780   126821102.64704  24133253.600    98821651.61145
  20451755.800   107474709.28907  20451753.820    83746518.89149
  21847829.160   114811164.18507  21847827.460    89463259.40347
  22567200.080   118591450.09706  22567197.120    92408915.20147
  23256370.840   122213056.10205  23256368.860    95230947.13346
  21367405.360   112286517.07507  21367402.300    87495984.76048
  20984909.900   110276468.14008  20984910.620    85929733.71949
 15 02 14 02 24 30.0000000  0  7G04G16G18G19G21G22G27
  24114883.760   126724573.55204  24114884.640    98746434.22345
  20453661.280   107484722.23307  20453659.240    83754321.17849
  21850716.980   114826340.49107  21850715.340    89475085.09847
  22554310.860   118523716.77606  22554307.820    92356136.00847
  23270000.940   122284682.27205  23269998.840    95286759.73746
  21357301.080   112233418.51007  21357297.940    87454609.26748
  20977392.060   110236961.51608  20977392.760    85898949.33949
 15 02 14 02 25  0.0000000  0  7G04G16G18G19G21G22G27
  24096546.680   126628212.14504  24096547.700    98671347.47446
  20455672.040   107495289.01907  20455670.060    83762555.02949
  21853698.960   114842011.20407  21853697.360    89487296.04347
  22541442.840   118456094.49906  22541439.740    92303443.34047
  23283642.840   122356369.90206  23283640.580    95342620.24945
  21347281.080   112180763.03107  21347277.840    87413579.02748
  20969910.300   110197644.34408  20969910.940    85868312.58649
 15 02 14 02 25 30.0000000  0  7G04G16G18G19G21G22G27
  24078241.920   126532020.41004  24078243.320    98596392.98045
  20457788.360   107506410.55807  20457786.420    83771221.15549
  21856775.080   114858176.51807  21856773.540    89499892.40447
  22528596.240   118388584.51906  22528593.120    92250838.17647
  23297296.240   122428118.59905  23297294.000    95398528.31246
  21337345.900   112128553.32907  21337342.560    87372896.15548
  20962464.880   110158518.35308  20962465.520    85837824.80349
 15 02 14 02 26  0.0000000  0  7G04G16G18G19G21G22G27
  24059969.840   126435999.46704  24059971.060    98521571.53144
  20460010.480   107518088.04807  20460008.580    83780320.48949
  21859945.280   114874835.95507  21859943.720    89512873.79047
  22515771.080   118321187.63806  22515768.000    92198321.14447
  23310961.040   122499927.54205  23310958.900    95454483.32446
  21327495.980   112076791.55307  21327492.600    87332562.31448
  20955056.040   110119584.75508  20955056.720    85807486.93449
 15 02 14 02 26 30.0000000  0  7G04G16G18G19G21G22G27
  24041730.700   126340152.57004  24041731.700    98446885.73844
  20462338.840   107530323.49507  20462336.900    83789854.59349
  21863209.960   114891991.65907  21863208.360    89526241.88647
  22502967.980   118253906.87006  22502964.980    92145894.58647
  23324637.440   122571797.82205  23324635.460    95510486.10146
  21317732.100   112025481.92207  21317728.720    87292580.79648
  20947684.440   110080846.71208  20947685.140    85777301.45049
 15 02 14 02 27  0.0000000  0  7G04G16G18G19G21G22G27
  24023524.440   126244479.63904  24023525.580    98372335.48144
  20464773.200   107543115.86207  20464771.180    83799822.66349
  21866568.700   114909641.94407  21866567.140    89539995.35447
  22490186.820   118186741.78106  22490183.940    92093558.16747
  23338325.120   122643727.33605  23338323.300    95566535.04147
  21308054.380   111974624.93207  21308050.920    87252951.98048
  20940350.040   110042304.19508  20940350.780    85747268.32049
 15 02 14 02 27 30.0000000  0  7G04G16G18G19G21G22G27
  24005350.960   126148978.59704  24005352.400    98297919.15342
  20467313.100   107556462.81107  20467311.020    83810222.87349
  21870020.860   114927782.93607  21870019.260    89554131.19847
  22477427.120   118119689.57506  22477424.300    92041309.71147
  23352023.140   122715711.54305  23352021.460    95622626.58946
  21298462.580   111924219.40107  21298458.960    87213674.95648
  20933052.360   110003954.82808  20933053.120    85717385.69849
 15 02 14 02 28  0.0000000  0  7G04G16G18G19G21G22G27
  23987210.660   126053651.50704  23987212.180    98223638.35144
  20469958.660   107570365.37307  20469956.600    83821056.03049
  21873566.660   114946415.77907  21873564.980    89568650.29847
  22464689.380   118052752.31006  22464686.540    91989150.81247
  23365731.680   122787750.77705  23365730.040    95678761.04946
  21288957.260   111874268.48707  21288953.520    87174752.17748
  20925791.920   109965800.91308  20925792.620    85687655.37349
 15 02 14 02 28 30.0000000  0  7G04G16G18G19G21G22G27
  23969103.800   125958499.39504  23969105.140    98149493.89944
  20472709.940   107584823.31007  20472707.880    83832321.94749
  21877205.880   114965539.60107  21877204.180    89583551.99147
  22451973.480   117985930.14906  22451970.600    91937081.61247
  23379450.400   122859843.12405  23379448.760    95734936.91045
  21279538.640   111824773.50207  21279534.920    87136184.67148
  20918568.820   109927843.24608  20918569.500    85658077.97049
 15 02 14 02 29  0.0000000  0  7G04G16G18G19G21G22G27
  23951030.680   125863523.77204  23951031.920    98075487.03343
  20475567.100   107599837.53507  20475565.000    83844021.33149
  21880938.500   114985154.45207  21880936.780    89598836.29647
  22439279.760   117919224.45506  22439276.900    91885103.16947
  23393179.300   122931989.18305  23393177.620    95791154.61245
  21270207.260   111775736.84807  21270203.580    87097974.29748
  20911383.360   109890083.51108  20911384.040    85628654.80449
 15 02 14 02 29 30.0000000  0  7G04G16G18G19G21G22G27
  23932991.360   125768725.47905  23932992.620    98001618.27544
  20478530.040   107615407.73707  20478527.940    83856153.95049
  21884764.320   115005259.45907  21884762.620    89614502.54147
  22426608.380   117852635.67706  22426605.440    91833215.81047
  23406918.140   123004187.27205  23406916.440    95847412.87146
  21260963.420   111727160.37507  21260959.800    87060122.51248
  20904235.760   109852522.42808  20904236.420    85599386.43049
 15 02 14 02 30  0.0000000  0  7G04G16G18G19G21G22G27
  23914986.060   125674106.47904  23914987.220    97927889.24645
  20481599.000   107631535.22607  20481596.940    83868720.81649
  21888683.420   115025855.13807  21888681.760    89630551.12547
  22413959.440   117786165.49606  22413956.500    91781420.88447
  23420666.880   123076437.37205  23420665.260    95903711.63745
  21251807.620   111679046.58607  21251804.020    87022631.26548
  20897126.340   109815162.04808  20897127.000    85570274.44549
 15 02 14 02 30 30.0000000  0  7G04G16G18G19G21G22G27
  23897015.080   125579668.13404  23897016.200    97854300.97945
  20484774.140   107648220.87507  20484772.120    83881722.61049
  21892695.900   115046941.33307  21892694.260    89646981.93047
  22401333.320   117719815.06006  22401330.440    91729719.26147
  23434425.300   123148738.59405  23434423.820    95960050.22846
  21242740.380   111631398.09707  21242736.740    86985502.57848
  20890055.360   109778003.87608  20890056.020    85541320.02549
 15 02 14 02 31  0.0000000  0  7G04G16G18G19G21G22G27
  23879078.000   125485407.99004  23879079.100    97780851.58544
  20488054.760   107665460.72007  20488052.780    83895156.25249
  21896800.920   115068513.71907  21896799.280    89663791.58747
  22388729.440   117653581.20806  22388726.540    91678108.47747
  23448192.660   123221086.34105  23448191.200    96016425.07645
  21233761.260   111584212.66807  21233757.640    86948734.72248
  20883022.320   109741045.17708  20883023.020    85512521.04349
 15 02 14 02 31 30.0000000  0  7G04G16G18G19G21G22G27
  23861175.600   125391330.46604  23861176.800    97707544.44945
  20491441.460   107683258.27707  20491439.580    83909024.46849
  21900999.120   115090575.19107  21900997.440    89680982.35547
  22376148.500   117587468.21106  22376145.620    91626591.87247
  23461969.420   123293483.14105  23461967.900    96072838.14046
  21224871.240   111537495.59207  21224867.700    86912331.81848
  20876028.140   109704290.62608  20876028.820    85483881.13449
 15 02 14 02 32  0.0000000  0  7G04G16G18G19G21G22G27
  23843307.800   125297434.60905  23843308.880    97634378.93645
  20494934.040   107701611.95407  20494932.200    83923326.02849
  21905290.040   115113123.52807  21905288.280    89698552.49647
  22363590.380   117521475.11606  22363587.420    91575168.69147
  23475755.100   123365926.58205  23475753.400    96129287.56946
  21216070.360   111491247.09507  21216066.940    86876294.03648
  20869072.680   109667739.49208  20869073.320    85455399.73149
 15 02 14 02 32 30.0000000  0  7G04G16G18G19G21G22G27
  23825474.840   125203721.32505  23825475.720    97561355.65745
  20498532.420   107720521.38407  20498530.560    83938060.63749
  21909673.320   115136157.48107  21909671.520    89716501.03947
  22351055.140   117455602.24806  22351052.140    91523839.18647
  23489549.340   123438415.14305  23489547.440    96185772.15145
  21207358.880   111445468.35507  21207355.520    86840622.30348
  20862156.080   109631392.49308  20862156.700    85427077.39149
 15 02 14 02 33  0.0000000  0  7G04G16G18G19G21G22G27
  23807677.080   125110193.12404  23807677.920    97488476.59244
  20502236.820   107739988.01707  20502234.940    83953229.43549
  21914149.240   115159678.78607  21914147.440    89734829.33147
  22338543.200   117389851.92206  22338540.280    91472605.17247
  23503352.260   123510949.46005  23503350.280    96242292.38646
  21198737.460   111400162.76807  21198734.160    86805319.25648
  20855278.820   109595252.42108  20855279.520    85398916.30349
 15 02 14 02 33 30.0000000  0  7G04G16G18G19G21G22G27
  23789914.620   125016851.02604  23789915.220    97415742.57644
  20506047.200   107760011.81207  20506045.300    83968832.38449
  21918717.600   115183685.94307  21918715.820    89753536.21247
  22326054.680   117324224.63506  22326051.880    91421467.04247
  23517163.460   123583527.95005  23517161.360    96298847.04744
  21190206.340   111355331.54607  21190203.080    86770385.84948
  20848441.100   109559320.00008  20848441.860    85370917.01549
 15 02 14 02 34  0.0000000  0  7G04G16G18G19G21G22G27
  23772187.400   124923694.49204  23772187.880    97343153.08845
  20509963.360   107780591.60607  20509961.520    83984868.57949
  21923378.100   115208177.15107  21923376.320    89772620.28147
  22313589.500   117258719.80606  22313586.680    91370424.32947
  23530982.640   123656148.90405  23530980.700    96355434.77345
  21181765.660   111310975.36307  21181762.400    86735822.59748
  20841642.880   109523595.16508  20841643.680    85343079.48449
 15 02 14 02 34 30.0000000  0  7G04G16G18G19G21G22G27
  23754495.840   124830725.13205  23754496.500    97270709.51745
  20513985.380   107801727.70807  20513983.600    84001338.26249
  21928130.720   115233152.44807  21928128.940    89792081.55847
  22301147.920   117193338.82206  22301145.100    91319478.12047
  23544809.880   123728812.02105  23544807.880    96412055.39645
  21173415.760   111267096.35807  21173412.540    86701631.17548
  20834884.480   109488079.53608  20834885.280    85315404.97249
 15 02 14 02 35  0.0000000  0  7G04G16G18G19G21G22G27
  23736839.780   124737942.48404  23736840.480    97198411.39244
  20518113.020   107823418.58107  20518111.240    84018240.23249
  21932975.060   115258609.61407  21932973.280    89811918.31247
  22288729.820   117128080.99006  22288726.980    91268627.87647
  23558644.720   123801514.51505  23558642.700    96468706.69445
  21165156.720   111223694.60707  21165153.440    86667811.63948
  20828165.860   109452772.79208  20828166.600    85287893.22549
 15 02 14 02 35 30.0000000  0  7G04G16G18G19G21G22G27
  23719219.500   124645347.45505  23719220.180    97126259.47544
  20522346.180   107845663.89507  20522344.360    84035574.23049
  21937910.940   115284547.81407  21937909.140    89832129.90747
  22276335.260   117062947.07206  22276332.400    91217874.19047
  23572486.980   123874255.66705  23572484.840    96525388.10345
  21156988.800   111180771.86607  21156985.420    86634365.35648
  20821487.220   109417676.00208  20821487.880    85260545.07749
 15 02 14 02 36  0.0000000  0  7G04G16G18G19G21G22G27
  23701635.620   124552944.30204  23701636.300    97054257.06345
  20526685.440   107868466.88707  20526683.620    84053342.78949
  21942938.760   115310969.27407  21942936.960    89852718.07847
  22263964.940   116997940.87506  22263962.160    91167220.02047
  23586337.000   123947037.66605  23586334.800    96582101.34945
  21148912.940   111138332.77807  21148909.480    86601295.94748
  20814849.380   109382793.46308  20814849.920    85233363.88449
 15 02 14 02 36 30.0000000  0  7G04G16G18G19G21G22G27
  23684087.840   124460731.68004  23684088.720    96982403.12745
  20531130.320   107891824.86007  20531128.500    84071543.80149
  21948057.860   115337871.06407  21948056.180    89873680.51447
  22251618.620   116933061.01206  22251615.960    91116664.29147
  23600194.320   124019857.75705  23600192.040    96638844.25046
  21140929.020   111096376.90307  21140925.520    86568603.06848
  20808252.000   109348124.05208  20808252.520    85206348.76149
 15 02 14 02 37  0.0000000  0  7G04G16G18G19G21G22G27
  23666576.160   124368708.26804  23666577.240    96910696.64244
  20535680.360   107915735.48107  20535678.560    84090175.44249
  21953267.840   115365250.14807  21953266.240    89895014.86547
  22239296.140   116868305.94506  22239293.460    91066205.80747
  23614058.120   124092711.81605  23614055.780    96695613.63946
  21133036.840   111054903.22307  21133033.320    86536285.91848
  20801694.940   109313666.55308  20801695.460    85179498.76649
 15 02 14 02 37 30.0000000  0  7G04G16G18G19G21G22G27
  23649101.440   124276878.97705  23649102.740    96839141.39544
  20540336.440   107940203.26007  20540334.620    84109241.23549
  21958569.440   115393109.97407  21958567.820    89916723.82447
  22226998.380   116803680.55706  22226995.640    91015848.37047
  23627928.900   124165603.64905  23627926.760    96752412.45746
  21125237.460   111013917.28607  21125233.920    86504348.83848
  20795179.200   109279426.22908  20795179.740    85152817.99449
 15 02 14 02 38  0.0000000  0  7G04G16G18G19G21G22G27
  23631663.240   124185241.25604  23631664.880    96767735.43645
  20545097.780   107965224.02607  20545095.940    84128737.92849
  21963961.720   115421446.06807  21963960.040    89938803.91247
  22214724.780   116739181.95906  22214721.940    90965589.73947
  23641805.960   124238528.81604  23641804.080    96809237.21844
  21117530.660   110973417.51507  21117527.020    86472790.58848
  20788704.340   109245400.64508  20788704.860    85126304.55549
 15 02 14 02 38 30.0000000  0  7G04G16G18G19G21G22G27
  23614261.820   124093796.37405  23614263.520    96696479.71744
  20549964.200   107990797.09407  20549962.360    84148664.98549
  21969444.480   115450257.79107  21969442.700    89961254.61347
  22202475.420   116674811.17706  22202472.580    90915430.69748
  23655689.260   124311486.37604  23655687.460    96866087.25445
  21109916.600   110933405.26007  21109912.940    86441612.21648
  20782270.580   109211591.03708  20782271.080    85099959.40849
 15 02 14 02 39  0.0000000  0  7G04G16G18G19G21G22G27
  23596897.680   124002547.59405  23596899.380    96625376.82645
  20554936.220   108016925.33607  20554934.420    84169024.64649
  21975017.980   115479546.86007  21975016.180    89984077.27447
  22190251.100   116610571.62407  22190248.180    90865373.91847
  23669579.000   124384478.16405  23669577.480    96922963.95645
  21102396.140   110893884.96807  21102392.500    86410817.19348
  20775878.620   109178001.28108  20775879.120    85073785.57749
 15 02 14 02 39 30.0000000  0  7G04G16G18G19G21G22G27
  23579570.600   123911492.93005  23579572.120    96554425.19545
  20560013.280   108043605.53407  20560011.500    84189814.40149
  21980681.480   115509309.17607  21980679.700    90007268.69447
  22178051.340   116546460.99607  22178048.340    90815417.58847
  23683474.480   124457499.87505  23683473.040    96979863.99545
  21094968.840   110854854.26407  21094965.260    86380403.66648
  20769528.100   109144629.27008  20769528.620    85047781.41049
 15 02 14 02 40  0.0000000  0  7G04G16G18G19G21G22G27
  23562280.960   123820634.90104  23562282.260    96483626.75645
  20565195.600   108070838.74707  20565193.800    84211035.07349
  21986435.280   115539545.67307  21986433.500    90030829.59847
  22165876.560   116482481.75606  22165873.500    90765563.65447
  23697375.940   124530552.72905  23697374.440    97036788.32345
  21087635.440   110816316.94507  21087631.860    86350374.59048
  20763219.640   109111477.87108  20763220.140    85021949.15149
 15 02 14 02 40 30.0000000  0  7G04G16G18G19G21G22G27
  23545028.700   123729973.89904  23545029.920    96412981.87745
  20570483.000   108098624.24707  20570481.200    84232686.10349
  21992279.160   115570255.04907  21992277.340    90054758.98947
  22153726.740   116418634.24406  22153723.720    90715812.36447
  23711283.160   124603635.33505  23711281.560    97093735.80945
  21080396.080   110778273.71507  21080392.440    86320730.52148
  20756953.260   109078547.65108  20756953.780    84996289.24249
 15 02 14 02 41  0.0000000  0  7G04G16G18G19G21G22G27
  23527814.160   123639511.24105  23527815.300    96342491.53545
  20575875.460   108126961.90007  20575873.700    84254767.38249
  21998212.860   115601436.48807  21998210.980    90079056.22047
  22141602.220   116354919.55407  22141599.180    90666164.54948
  23725196.040   124676747.13005  23725194.260    97150706.05345
  21073251.040   110740726.09507  21073247.340    86291472.65448
  20750729.260   109045840.19708  20750729.820    84970802.91449
 15 02 14 02 41 30.0000000  0  7G04G16G18G19G21G22G27
  23510637.200   123549245.63305  23510638.340    96272154.71245
  20581372.520   108155849.13507  20581370.760    84277276.90649
  22004235.740   115633087.12507  22004233.880    90103719.06247
  22129502.800   116291336.55107  22129499.740    90616619.37147
  23739113.900   124749885.18005  23739112.020    97207696.71646
  21066200.240   110703673.87308  21066196.540    86262600.80448
  20744547.480   109013354.78408  20744548.080    84945489.61049
 15 02 14 02 42  0.0000000  0  7G04G16G18G19G21G22G27
  23493498.540   123459181.55405  23493499.700    96201974.97745
  20586974.800   108185289.12107  20586973.000    84300217.14249
  22010348.300   115665209.46207  22010346.460    90128749.46547
  22117429.180   116227889.41306  22117426.140    90567180.06148
  23753037.140   124823051.98204  23753035.320    97264709.78446
  21059244.520   110667121.37008  21059240.860    86234118.34148
  20738408.760   108981095.67208  20738409.400    84920352.64149
 15 02 14 02 42 30.0000000  0  7G04G16G18G19G21G22G27
  23476398.000   123369317.98204  23476399.140    96131951.46245
  20592681.840   108215279.73707  20592680.060    84323586.44349
  22016550.200   115697801.01807  22016548.360    90154145.48547
  22105381.280   116164577.32407  22105378.260    90517845.98448
  23766965.280   124896244.98804  23766963.500    97321743.25645
  21052383.840   110631068.48208  21052380.240    86206025.18548
  20732313.020   108949062.43108  20732313.680    84895391.67849
 15 02 14 02 43  0.0000000  0  7G04G16G18G19G21G22G27
  23459335.740   123279655.99705  23459337.080    96062085.00546
  20598493.520   108245820.46307  20598491.760    84347384.40449
  22022841.240   115730860.62807  22022839.380    90179906.23247
  22093359.120   116101400.83006  22093356.200    90468617.55648
  23780898.200   124969463.52604  23780896.500    97378796.63645
  21045618.520   110595516.51708  21045614.900    86178322.36248
  20726260.460   108917256.15308  20726261.140    84870607.56949
 15 02 14 02 43 30.0000000  0  7G04G16G18G19G21G22G27
  23442311.940   123190195.93105  23442313.260    95992375.91045
  20604409.780   108276910.58807  20604408.040    84371610.46449
  22029221.100   115764386.63807  22029219.180    90206030.41247
  22081362.920   116038360.70707  22081360.040    90419495.39447
  23794835.740   125042706.14005  23794834.060    97435868.78246
  21038948.780   110560466.48108  21038945.040    86151010.65848
  20720251.320   108885677.84108  20720251.960    84846001.09749
 15 02 14 02 44  0.0000000  0  7G04G16G18G19G21G22G27
  23425326.320   123100935.37305  23425327.480    95922822.25244
  20610429.880   108308546.33707  20610428.120    84396261.68649
  22035688.900   115798374.83307  22035687.000    90232514.72247
  22069392.300   115975454.44907  22069389.280    90370477.53947
  23808777.260   125115968.78305  23808775.460    97492956.56745
  21032374.120   110525916.28608  21032370.340    86124088.43848
  20714285.120   108854325.24308  20714285.720    84821570.50149
 15 02 14 02 44 30.0000000  0  7G04G16G18G19G21G22G27
  23408379.820   123011880.34105  23408380.900    95853428.77744
  20616554.680   108340732.12607  20616552.900    84421341.51149
  22042245.320   115832829.13907  22042243.480    90259362.23947
  22057448.320   115912688.03707  22057445.140    90321568.65947
  23822723.420   125189255.93405  23822721.580    97550063.41445
  21025895.700   110491872.01708  21025891.960    86097560.44348
  20708363.060   108823204.57608  20708363.660    84797320.63349
 15 02 14 02 45  0.0000000  0  7G04G16G18G19G21G22G27
  23391471.940   122923028.33605  23391472.900    95784193.50745
  20622783.240   108373463.22807  20622781.440    84446846.25549
  22048889.560   115867745.37407  22048887.880    90286569.68647
  22045530.420   115850058.74007  22045527.140    90272766.61348
  23836673.480   125262563.34705  23836671.440    97607186.09145
  21019513.120   110458331.64508  21019509.460    86071425.09848
  20702484.700   108792313.64908  20702485.320    84773249.78249
 15 02 14 02 45 30.0000000  0  7G04G16G18G19G21G22G27
  23374603.140   122834382.51705  23374604.060    95715118.88145
  20629116.100   108406742.66307  20629114.340    84472778.27049
  22055622.000   115903124.86007  22055620.340    90314138.12247
  22033639.260   115787570.24907  22033635.940    90224074.29048
  23850627.680   125335892.59305  23850625.420    97664325.78344
  21013227.180   110425299.12308  21013223.620    86045685.47548
  20696650.720   108761656.03508  20696651.400    84749360.73049
 15 02 14 02 46  0.0000000  0  7G04G16G18G19G21G22G27
  23357773.780   122745944.68405  23357774.880    95646206.34245
  20635553.360   108440570.64307  20635551.580    84499137.72949
  22062442.660   115938967.50207  22062440.900    90342067.45747
  22021775.180   115725224.05107  22021771.820    90175492.83748
  23864586.060   125409243.73904  23864583.520    97721482.50845
  21007038.280   110392776.30808  21007034.720    86020343.03148
  20690861.560   108731233.97008  20690862.260    84725655.22949
 15 02 14 02 46 30.0000000  0  7G04G16G18G19G21G22G27
  23340983.620   122657712.30705  23340984.740    95577453.87344
  20642094.140   108474942.81808  20642092.380    84525921.23249
  22069350.660   115975268.72307  22069348.700    90370354.13147
  22009937.660   115663017.65807  22009934.320    90127020.33648
  23878547.620   125482612.77604  23878545.100    97778653.16244
  21000946.020   110360761.09708  21000942.380    85995396.12248
  20685116.840   108701045.24908  20685117.500    84702131.54949
 15 02 14 02 47  0.0000000  0  7G04G16G18G19G21G22G27
  23324232.960   122569687.30805  23324234.100    95508863.01045
  20648738.580   108509859.38407  20648736.780    84553128.93349
  22076345.820   116012028.27907  22076343.800    90398997.95347
  21998127.140   115600952.78507  21998123.760    90078658.11248
  23892512.520   125555999.84604  23892510.300    97835837.84044
  20994950.640   110329255.27608  20994946.980    85970846.13948
  20679416.920   108671091.91008  20679417.540    84678791.28649
 15 02 14 02 47 30.0000000  0  7G04G16G18G19G21G22G27
  23307521.820   122481869.26205  23307522.680    95440433.39045
  20655486.340   108545319.04208  20655484.560    84580759.82349
  22083427.780   116049244.21407  22083425.740    90427997.38547
  21986343.520   115539029.39207  21986340.160    90030406.12748
  23906480.540   125629403.07404  23906478.500    97893035.13945
  20989052.240   110298259.49208  20989048.680    85946693.59348
  20673761.880   108641374.21608  20673762.420    84655634.64449
 15 02 14 02 48  0.0000000  0  7G04G16G18G19G21G22G27
  23290850.560   122394260.60305  23290851.280    95372166.97845
  20662337.620   108581322.46707  20662335.820    84608814.43249
  22090596.540   116086916.79407  22090594.640    90457352.63847
  21974587.380   115477250.30907  21974584.040    89982266.59148
  23920451.880   125702823.47104  23920449.980    97950245.81745
  20983251.460   110267776.37908  20983247.940    85922940.52048
  20668152.200   108611894.92608  20668152.680    84632663.76849
 15 02 14 02 48 30.0000000  0  7G04G16G18G19G21G22G27
  23274218.740   122306859.45405  23274219.220    95304062.21044
  20669291.700   108617866.31407  20669289.880    84637290.14749
  22097851.520   116125042.12907  22097849.680    90487060.69147
  21962858.300   115415613.48107  21962855.040    89934237.91148
  23934425.960   125776257.41604  23934424.160    98007467.03446
  20977548.000   110237804.22108  20977544.420    85899585.60248
  20662587.600   108582652.45808  20662588.020    84609877.43049
 15 02 14 02 49  0.0000000  0  7G04G16G18G19G21G22G27
  23257627.080   122219669.73505  23257627.540    95236122.21445
  20676349.100   108654953.17008  20676347.240    84666188.98849
  22105193.080   116163622.37107  22105191.220    90517123.22647
  21951157.020   115354123.03107  21951153.840    89886323.29448
  23948403.180   125849707.20404  23948401.280    98064700.61945
  20971942.580   110208347.21708  20971938.920    85876632.10148
  20657068.880   108553651.23908  20657069.260    84587279.07349
 15 02 14 02 49 30.0000000  0  7G04G16G18G19G21G22G27
  23241075.660   122132691.70105  23241076.120    95168347.17345
  20683509.440   108692581.24708  20683507.620    84695509.55549
  22112620.840   116202655.50807  22112618.980    90547538.66147
  21939483.460   115292778.67407  21939480.380    89838522.51048
  23962383.060   125923171.39105  23962381.080    98121945.41945
  20966435.160   110179405.42708  20966431.460    85854080.06748
  20651596.100   108524891.79108  20651596.540    84564869.11249
 15 02 14 02 50  0.0000000  0  7G04G16G18G19G21G22G27
  23224564.360   122045924.44105  23224564.840    95100736.33444
  20690772.340   108730748.07307  20690770.540    84725249.92649
  22120134.320   116242138.98607  22120132.440    90578305.00947
  21927837.800   115231580.60407  21927834.780    89790835.71348
  23976365.360   125996648.30605  23976363.260    98179200.16045
  20961025.760   110150978.85208  20961022.060    85831929.49048
  20646169.300   108496373.98308  20646169.800    84542647.44749
 15 02 14 02 50 30.0000000  0  7G04G16G18G19G21G22G27
  23208093.560   121959369.81605  23208094.000    95033291.22944
  20698137.880   108769454.33107  20698136.120    84755410.64549
  22127733.360   116282071.93207  22127731.420    90609421.59747
  21916220.380   115170530.63407  21916217.320    89743264.31448
  23990350.020   126070137.99404  23990347.820    98236464.82745
  20955714.840   110123069.43708  20955711.080    85810181.90548
  20640788.820   108468099.59608  20640789.400    84520615.45749
 15 02 14 02 51  0.0000000  0  7G04G16G18G19G21G22G27
  23191663.420   121873028.84005  23191663.960    94966012.59345
  20705606.040   108808699.86608  20705604.300    84785991.56749
  22135417.920   116322454.42807  22135415.900    90640888.48347
  21904631.340   115109629.64407  21904628.220    89695809.01448
  24004336.920   126143639.90904  24004334.780    98293739.04144
  20950502.520   110095678.36308  20950498.720    85788838.22348
  20635455.060   108440070.57108  20635455.680    84498774.65949
 15 02 14 02 51 30.0000000  0  7G04G16G18G19G21G22G27
  23175273.960   121786901.78005  23175274.600    94898900.64245
  20713176.400   108848482.46107  20713174.640    84816990.97949
  22143187.520   116363283.91707  22143185.480    90672703.66647
  21893070.720   115048878.02707  21893067.520    89648470.10148
  24018325.840   126217152.26704  24018323.820    98351021.39744
  20945388.800   110068805.97808  20945385.040    85767898.71048
  20630168.080   108412287.19608  20630168.700    84477125.27949
 15 02 14 02 52  0.0000000  0  7G04G16G18G19G21G22G27
  23158925.400   121700989.83005  23158926.040    94831956.29845
  20720848.860   108888801.60208  20720847.080    84848408.47949
  22151041.960   116404559.64607  22151040.020    90704866.58147
  21881538.740   114988277.22007  21881535.500    89601248.69948
  24032316.840   126290675.45004  24032315.020    98408312.16545
  20940374.060   110042453.73208  20940370.360    85747364.49948
  20624928.180   108384751.29608  20624928.780    84455668.73449
 15 02 14 02 52 30.0000000  0  7G04G16G18G19G21G22G27
  23142617.540   121615291.17705  23142618.180    94765178.16345
  20728622.900   108929654.33707  20728621.100    84880241.77149
  22158980.680   116446278.01107  22158978.800    90737374.39547
  21870035.220   114927825.78807  21870031.900    89554143.69648
  24046309.200   126364206.11604  24046307.580    98465608.75544
  20935458.040   110016619.81808  20935454.320    85727234.18548
  20619735.120   108357461.65308  20619735.740    84434404.08149
 15 02 14 02 53  0.0000000  0  7G04G16G18G19G21G22G27
  23126350.900   121529809.49305  23126351.600    94698569.08445
  20736498.820   108971042.75807  20736497.080    84912492.47649
  22167003.920   116488440.56407  22167002.100    90770228.34447
  21858560.860   114867527.51407  21858557.500    89507158.04048
  24060303.420   126437746.03304  24060301.880    98522912.56645
  20930641.380   109991308.03808  20930637.580    85707510.73048
  20614589.700   108330422.24308  20614590.300    84413334.40949
 15 02 14 02 53 30.0000000  0  7G04G16G18G19G21G22G27
  23110125.560   121444544.87705  23110126.220    94632129.16646
  20744476.420   109012965.28107  20744474.700    84945159.36949
  22175111.240   116531045.09907  22175109.460    90803426.67947
  21847115.620   114807382.43307  21847112.240    89460291.75348
  24074299.140   126511294.18304  24074297.540    98580222.77245
  20925924.140   109966518.78508  20925920.280    85688194.44348
  20609492.000   108303633.62008  20609492.580    84392460.15849
 15 02 14 02 54  0.0000000  0  7G04G16G18G19G21G22G27
  23093941.340   121359496.52105  23093941.960    94565857.76145
  20752555.080   109055419.04407  20752553.400    84978240.20949
  22183302.220   116574088.99207  22183300.460    90836967.38347
  21835699.420   114747390.25707  21835696.120    89413544.61348
  24088296.180   126584848.68004  24088294.320    98637537.96045
  20921306.220   109942251.64408  20921302.360    85669284.98748
  20604441.960   108277095.48908  20604442.520    84371781.09249
 15 02 14 02 54 30.0000000  0  7G04G16G18G19G21G22G27
  23077798.500   121274665.09605  23077798.980    94499755.38945
  20760734.680   109098403.21607  20760733.060    85011734.35949
  22191576.480   116617570.81707  22191574.800    90870849.32647
  21824312.540   114687551.93807  21824309.260    89366917.36048
  24102294.200   126658408.74604  24102292.300    98694857.46746
  20916787.840   109918507.34108  20916783.980    85650782.94548
  20599439.820   108250809.20508  20599440.380    84351298.27149
 15 02 14 02 55  0.0000000  0  7G04G16G18G19G21G22G27
  23061697.640   121190054.88105  23061698.180    94433825.38046
  20769015.680   109141920.38107  20769014.140    85045643.83049
  22199934.480   116661492.34307  22199932.760    90905073.89846
  21812955.760   114627871.83007  21812952.520    89320413.38948
  24116293.700   126731976.82504  24116291.960    98752183.19845
  20912369.740   109895289.98808  20912365.900    85632691.50748
  20594486.520   108224779.36208  20594487.060    84331015.27749
 15 02 14 02 55 30.0000000  0  7G04G16G18G19G21G22G27
  23045638.300   121105663.17905  23045638.960    94368065.64446
  20777397.240   109185966.04607  20777395.760    85079965.12049
  22208375.380   116705849.36407  22208373.620    90939637.81147
  21801628.580   114568347.57807  21801625.440    89274030.87448
  24130294.020   126805549.25504  24130292.280    98809512.35345
  20908051.340   109872596.85008  20908047.540    85615008.55348
  20589581.600   108199003.75708  20589582.100    84310930.39049
 15 02 14 02 56  0.0000000  0  7G04G16G18G19G21G22G27
  23029620.760   121021490.59305  23029621.460    94302476.65144
  20785879.220   109230539.26507  20785877.780    85114697.48349
  22216898.880   116750640.71107  22216897.160    90974540.17047
  21790331.240   114508980.25407  21790328.240    89227770.62848
  24144294.960   126879125.17004  24144293.260    98866844.19744
  20903832.860   109850428.97208  20903829.120    85597734.88748
  20584725.320   108173483.77508  20584725.800    84291044.69449
 15 02 14 02 56 30.0000000  0  7G04G16G18G19G21G22G27
  23013645.780   120937541.62705  23013646.440    94237061.92646
  20794461.980   109275641.93907  20794460.540    85149842.41649
  22225505.340   116795867.97407  22225503.640    91009782.19347
  21779064.660   114449774.46007  21779061.800    89181636.24948
  24158297.240   126952707.60804  24158295.620    98924181.11346
  20899715.140   109828790.62508  20899711.480    85580873.84448
  20579918.600   108148224.15208  20579919.060    84271361.86949
 15 02 14 02 57  0.0000000  0  7G04G16G18G19G21G22G27
  22997712.140   120853809.96005  22997712.720    94171816.48545
  20803144.140   109321267.12907  20803142.740    85185394.50049
  22234193.060   116841522.73706  22234191.500    91045357.33747
  21767827.640   114390723.87607  21767824.840    89135622.81548
  24172299.300   127026288.73104  24172297.720    98981517.08944
  20895697.020   109807675.35408  20895693.420    85564420.39248
  20575160.280   108123219.11708  20575160.760    84251877.43049
 15 02 14 02 57 30.0000000  0  8G04G11G16G18G19G21G22G27
  22981820.300   120770298.42905  22981821.000    94106742.60645
  24649360.380   129533266.92403  24649360.420   100935012.13341
  20811925.900   109367415.57907  20811924.500    85221354.31948
  22242962.360   116887606.34506  22242960.920    91081266.62946
  21756621.020   114331832.48807  21756618.140    89089733.43948
  24186301.520   127099870.75104  24186299.660    99038853.69445
  20891779.160   109787086.70508  20891775.580    85548377.30048
  20570451.140   108098472.40808  20570451.620    84232594.28049
 15 02 14 02 58  0.0000000  0  8G04G11G16G18G19G21G22G27
  22965970.720   120687008.35806  22965971.480    94041841.29946
  24632017.100   129442124.32204  24632016.580   100863991.99741
  20820807.140   109414086.61307  20820805.700    85257721.34649
  22251813.080   116934117.50306  22251811.660    91117509.09247
  21745444.860   114273101.36907  21745441.980    89043968.94048
  24200303.700   127173452.85604  24200301.940    99096190.36144
  20887961.560   109767025.21108  20887958.020    85532744.97248
  20565791.440   108073985.59308  20565791.900    84213513.64749
 15 02 14 02 58 30.0000000  0  7G04G16G18G19G21G22G27
  22950164.000   120603943.23205  22950164.660    93977115.26746
  20829788.120   109461281.57207  20829786.600    85294496.62849
  22260745.500   116981057.80706  22260744.040    91154085.94846
  21734299.880   114214534.14007  21734297.020    88998332.14548
  24214306.520   127247037.92804  24214304.680    99153529.38344
  20884245.020   109747494.95508  20884241.500    85517526.60048
  20561182.000   108049762.82808  20561182.480    84194638.76749
 15 02 14 02 59  0.0000000  0  7G04G16G18G19G21G22G27
  22934399.840   120521101.90706  22934400.460    93912563.63745
  20838868.260   109508997.67007  20838866.700    85331677.99149
  22269759.000   117028423.87007  22269757.440    91190994.56947
  21723186.060   114156130.28607  21723183.120    88952822.65248
  24228309.300   127320623.00704  24228307.540    99210868.38244
  20880629.280   109728494.45808  20880625.800    85502721.02748
  20556622.680   108025803.48708  20556623.220    84175969.14549
 15 02 14 02 59 30.0000000  0  8G04G11G16G18G19G21G22G27
  22918676.940   120438477.54105  22918677.440    93848181.05145
  24580076.300   129169167.30904  24580075.140   100651292.98844
  20848046.000   109557226.83507  20848044.440    85369259.15249
  22278851.900   117076206.93507  22278850.200    91228228.14046
  21712102.120   114097883.53307  21712099.060    88907435.58048
  24242310.800   127394200.72704  24242309.040    99268201.65545
  20877113.100   109710017.07508  20877109.660    85488323.07148
  20552112.320   108002101.43808  20552112.880    84157500.01349
 15 02 14 03 00  0.0000000  0  8G04G11G16G18G19G21G22G27
  22902998.640   120356088.04105  22902999.040    93783981.49046
  24562793.540   129078347.40303  24562792.860   100580524.24041
  20857324.400   109605984.77507  20857322.800    85407252.33648
  22288027.140   117124422.60007  22288025.260    91265798.79146
  21701051.560   114039812.37707  21701048.440    88862185.33948
  24256313.940   127467787.33504  24256312.200    99325541.81044
  20873699.900   109692080.43808  20873696.400    85474346.48148
  20547654.420   107978675.04108  20547654.980    84139245.67849
 15 02 14 03 00 30.0000000  0  8G04G11G16G18G19G21G22G27
  22887362.800   120273921.61805  22887363.180    93719955.75746
  24545525.720   128987605.82003  24545525.420   100509816.59541
  20866700.700   109655257.51908  20866699.100    85445646.67248
  22297282.040   117173056.94507  22297280.040    91303695.69946
  21690032.080   113981904.69307  21690028.960    88817062.47048
  24270316.120   127541369.29804  24270314.400    99382878.39541
  20870387.340   109674672.71808  20870383.800    85460782.03448
  20543246.800   107955513.06308  20543247.400    84121197.38749
 15 02 14 03 01  0.0000000  0  7G04G16G18G19G21G22G27
  22871770.360   120191983.11605  22871770.760    93656107.62046
  20876175.600   109705048.41308  20876174.000    85484444.76148
  22306616.980   117222112.55407  22306615.000    91341920.83846
  21679044.820   113924165.97807  21679041.640    88772071.26448
  24284318.380   127614951.26704  24284316.720    99440214.99546
  20867176.360   109657798.87008  20867172.780    85447633.58548
  20538890.560   107932621.11408  20538891.240    84103359.50349
 15 02 14 03 01 30.0000000  0  7G04G11G16G18G19G22G27
  22856220.480   120110268.04506  22856220.880    93592433.57645
  24511036.720   128806367.65004  24511034.580   100368592.14642
  20885747.760   109755350.35908  20885746.120    85523641.07248
  22316030.700   117271582.45607  22316028.860    91380468.81246
  21668088.880   113866592.16707  21668085.780    88727208.56648
  20864066.160   109641454.27808  20864062.460    85434897.55048
  20534585.000   107909995.15108  20534585.640    84085728.88549
 15 02 14 03 02  0.0000000  0  6G04G16G18G19G22G27
  22840713.080   120028776.38105  22840713.560    93528933.61545
  20895416.940   109806162.15308  20895415.300    85563234.66848
  22325523.080   117321464.98507  22325521.240    91419338.32146
  21657164.480   113809184.20207  21657161.420    88682475.09348
  20861056.620   109625638.51608  20861052.800    85422573.58748
  20530330.120   107887635.75608  20530330.760    84068305.97549
 15 02 14 03 02 30.0000000  0  8G04G11G16G18G19G21G22G27
  22825250.360   119947518.95006  22825250.840    93465616.19246
  24476608.760   128625446.53514  24476608.980   100227621.25651
  20905184.840   109857492.75107  20905183.180    85603232.52248
  22335095.660   117371768.79307  22335093.780    91458536.09247
  21646273.720   113751952.95907  21646270.660    88637879.32948
  24326318.920   127835668.67904  24326317.780    99612203.40041
  20858149.720   109610362.41408  20858145.900    85410670.14448
  20526128.180   107865554.54308  20526128.840    84051099.83049
 15 02 14 03 03  0.0000000  0  7G04G16G18G19G21G22G27
  22809830.280   119866485.58606  22809830.740    93402473.33546
  20915048.980   109909329.20907  20915047.300    85643624.56148
  22344746.000   117422481.34107  22344744.040    91498052.36947
  21635414.700   113694888.52307  21635411.620    88593413.54448
  24340316.920   127909229.46104  24340315.760    99669523.45844
  20855343.520   109595615.88308  20855339.740    85399179.34948
  20521977.380   107843742.01808  20521978.060    84034103.05349
 15 02 14 03 03 30.0000000  0  8G04G11G16G18G19G21G22G27
  22794454.120   119785683.03306  22794454.460    93339510.35645
  24442245.480   128444867.46204  24442246.500   100086905.31944
  20925010.420   109961677.14808  20925008.780    85684415.14848
  22354474.960   117473607.22407  22354472.960    91537890.71746
  21624588.820   113637998.02707  21624585.740    88549083.29348
  24354314.120   127982786.70504  24354313.100    99726840.74144
  20852639.240   109581405.12208  20852635.520    85388106.03848
  20517879.080   107822205.40608  20517879.780    84017321.27349
 15 02 14 03 04  0.0000000  0  8G04G11G16G18G19G21G22G27
  22779121.300   119705108.50206  22779121.500    93276725.05046
  24425087.440   128354700.98303  24425088.140   100016645.76244
  20935068.120   110014531.00708  20935066.540    85725599.96348
  22364281.520   117525141.23407  22364279.560    91578047.08746
  21613795.680   113581279.54407  21613792.580    88504887.08248
  24368310.100   128056336.18404  24368308.740    99784152.01945
  20850036.380   109567727.17608  20850032.700    85377447.91148
  20513832.920   107800942.61808  20513833.620    84000752.86349
 15 02 14 03 04 30.0000000  0  8G04G11G16G18G19G21G22G27
  22763831.600   119624761.39506  22763831.740    93214116.95045
  24407945.240   128264616.15703  24407945.040    99946449.82845
  20945221.860   110067889.06308  20945220.260    85767177.65948
  22374165.300   117577080.91106  22374163.400    91618519.56047
  21603035.180   113524732.54807  21603032.020    88460824.49248
  24382304.440   128129876.26404  24382302.800    99841455.90245
  20847534.820   109554581.32108  20847531.120    85367204.39848
  20509838.860   107779953.62808  20509839.580    83984397.80449
 15 02 14 03 05  0.0000000  0  8G04G11G16G18G19G21G22G27
  22748586.240   119544647.58106  22748586.520    93151690.64846
  24390819.440   128174618.54304  24390819.180    99876321.90945
  20955472.260   110121754.97708  20955470.580    85809151.08648
  22384126.940   117629429.79806  22384125.100    91659310.90347
  21592308.420   113468363.29307  21592305.260    88416900.40448
  24396297.900   128203411.97804  24396296.320    99898756.45444
  20845135.460   109541972.67008  20845131.780    85357379.48348
  20505898.160   107759244.98708  20505898.880    83968261.19849
 15 02 14 03 05 30.0000000  0  8G04G11G16G18G19G21G22G27
  22733385.380   119464767.08406  22733385.680    93089446.12846
  24373710.300   128084708.46404  24373708.700    99806267.14144
  20965818.880   110176126.64508  20965817.140    85851518.61048
  22394166.080   117682185.89806  22394164.260    91700419.55046
  21581615.740   113412172.84907  21581612.520    88373115.64848
  24410290.360   128276941.99704  24410288.780    99956052.53044
  20842838.440   109529901.99308  20842834.840    85347973.76148
  20502010.940   107738817.50508  20502011.660    83952343.67849
 15 02 14 03 06  0.0000000  0  8G04G11G16G18G19G21G22G27
  22718226.720   119385107.78806  22718226.940    93027373.97446
  24356615.780   127994873.59904  24356613.740    99736265.95145
  20976259.020   110230989.82808  20976257.260    85894269.13748
  22404279.980   117735334.60707  22404278.060    91741834.13947
  21570954.900   113356149.46507  21570951.620    88329461.07648
  24424279.080   128350452.95204  24424277.700   100013333.79845
  20840641.360   109518356.61708  20840637.800    85338977.37849
  20498175.020   107718659.68608  20498175.740    83936636.28249
 15 02 14 03 06 30.0000000  0  8G04G11G16G18G19G21G22G27
  22703113.960   119305689.17806  22703114.080    92965489.38245
  24339538.660   127905132.96704  24339536.480    99666338.28241
  20986796.000   110286361.81308  20986794.200    85937416.12948
  22414471.840   117788893.00907  22414469.900    91783567.96046
  21560329.580   113300312.87107  21560326.280    88285952.04848
  24438267.740   128423964.16104  24438266.500   100070615.22245
  20838547.900   109507355.71308  20838544.360    85330405.25748
  20494394.240   107698791.50508  20494394.940    83921154.58149
 15 02 14 03 07  0.0000000  0  8G04G11G16G18G19G21G22G27
  22688045.980   119226506.14406  22688046.040    92903788.36345
  24322478.580   127815482.19304  24322476.400    99596480.66542
  20997428.480   110342235.74908  20997426.680    85980954.24548
  22424740.340   117842854.22006  22424738.380    91825615.66146
  21549738.980   113244658.96607  21549735.680    88242585.37348
  24452255.260   128497469.40304  24452253.980   100127892.03944
  20836557.060   109496893.99108  20836553.560    85322253.27248
  20490667.800   107679208.85208  20490668.460    83905895.36649
 15 02 14 03 07 30.0000000  0  8G04G11G16G18G19G21G22G27
  22673020.620   119147546.92606  22673020.640    92842261.73245
  24305433.140   127725909.07604  24305431.320    99526683.42443
  21008153.740   110398597.33408  21008151.940    86024872.36148
  22435082.820   117897204.22707  22435080.860    91867966.32046
  21539181.040   113189176.40207  21539177.680    88199352.21648
  24466239.020   128570954.51804  24466237.840   100185153.12045
  20834666.560   109486959.24908  20834663.040    85314511.92948
  20486993.580   107659900.54908  20486994.200    83890849.93549
 15 02 14 03 08  0.0000000  0  9G04G11G16G18G19G21G22G27G32
  22658041.020   119068828.78106  22658041.060    92780922.95345
  24288405.660   127636430.65904  24288403.880    99456960.04846
  21018974.800   110455462.28807  21018972.980    86069182.70248
  22445502.080   117951957.95507  22445500.200    91910631.55946
  21528659.060   113133882.95807  21528655.640    88156266.42448
  24480222.120   128644436.55704  24480221.020   100242411.83544
  20832879.520   109477568.17508  20832875.960    85307194.21548
  20483374.940   107640884.47008  20483375.560    83876032.20349
  24463570.920   128556925.32103  24463574.220   100174250.66941
 15 02 14 03 08 30.0000000  0  9G04G11G16G18G19G21G22G27G32
  22643104.100   118990334.97306  22643104.080    92719758.98746
  24271393.060   127547030.03304  24271391.520    99387297.30344
  21029887.920   110512811.32308  21029886.160    86113870.25448
  22455994.500   118007096.25206  22455992.740    91953596.46346
  21518169.960   113078762.41507  21518166.520    88113315.36048
  24494201.420   128717897.59404  24494199.980   100299654.18345
  20831192.820   109468704.20708  20831189.180    85300287.23449
  20479808.900   107622144.69808  20479809.480    83861429.78549
  24440927.620   128437934.84904  24440930.720   100081531.04144
 15 02 14 03 09  0.0000000  0  9G04G11G16G18G19G21G22G27G32
  22628212.460   118912079.68606  22628212.460    92658780.86046
  24254398.200   127457721.75604  24254396.900    99317706.43444
  21040895.620   110570657.16208  21040893.860    86158944.91748
  22466562.440   118062631.48006  22466560.760    91996870.67746
  21507716.640   113023829.98507  21507713.220    88070510.87248
  24508179.180   128791350.94004  24508177.760   100356890.52044
  20829609.040   109460381.16308  20829605.340    85293801.75549
  20476298.260   107603696.21508  20476298.860    83847054.34249
  24418290.100   128318975.21604  24418292.980    99988835.54744
 15 02 14 03 09 30.0000000  0  9G04G11G16G18G19G21G22G27G32
  22613365.900   118834060.58906  22613365.780    92597986.79345
  24237420.600   127368503.03804  24237419.040    99248185.46144
  21051997.000   110628995.20207  21051995.220    86204403.12248
  22477204.980   118118558.53906  22477203.280    92040450.19246
  21497298.660   112969083.23307  21497295.260    88027851.07648
  24522154.640   128864792.51503  24522153.060   100414117.67446
  20828127.560   109452595.82808  20828123.820    85287735.27148
  20472842.680   107585537.03608  20472843.280    83832904.32849
  24395658.340   128200045.84104  24395661.440    99896163.53045
 15 02 14 03 10  0.0000000  0  8G04G11G16G18G19G22G27G32
  22598563.260   118756272.51606  22598563.140    92537372.73446
  24220458.820   127279368.93704  24220457.560    99178730.34245
  21063190.560   110687817.87307  21063188.840    86250238.96148
  22487920.680   118174870.42906  22487918.980    92084329.58146
  21486915.140   112914517.76607  21486911.820    87985332.53548
  20826747.380   109445343.10408  20826743.640    85282083.80848
  20469441.360   107567662.94408  20469441.960    83818976.45949
  24373031.880   128081144.06804  24373034.880    99803513.08744
 15 02 14 03 10 30.0000000  0  8G04G11G16G18G19G22G27G32
  22583806.480   118678725.80306  22583806.480    92476946.75546
  24203515.020   127190329.61604  24203514.360    99109349.11045
  21074477.920   110747133.33108  21074476.240    86296458.78248
  22498711.100   118231574.95306  22498709.420    92128514.92846
  21476568.300   112860144.68907  21476564.980    87942963.90748
  20825470.440   109438632.71308  20825466.680    85276854.94048
  20466096.360   107550084.97408  20466096.980    83805279.34149
  24350412.960   127962282.51504  24350416.060    99710894.03544
 15 02 14 03 11  0.0000000  0  8G04G11G16G18G19G22G27G32
  22569094.720   118601415.41006  22569094.860    92416704.91846
  24186588.360   127101379.90804  24186588.040    99040037.69744
  21085857.700   110806934.49208  21085856.060    86343057.08348
  22509574.960   118288665.03806  22509573.240    92173000.70846
  21466257.160   112805959.55107  21466253.880    87900741.73648
  20824295.600   109432458.82708  20824291.840    85272044.12748
  20462806.880   107532798.86108  20462807.520    83791809.63649
  24327801.180   127843458.22804  24327804.300    99618303.98841
 15 02 14 03 11 30.0000000  0  8G04G11G16G18G19G22G27G32
  22554428.040   118524341.57306  22554428.200    92356647.41546
  24169678.820   127012520.28304  24169678.540    98970796.47144
  21097329.520   110867219.42107  21097327.920    86390032.33648
  22520511.820   118346138.39906  22520509.980    92217785.15046
  21455982.020   112751963.34707  21455978.760    87858666.76848
  20823222.940   109426822.11508  20823219.240    85267651.88948
  20459573.160   107515805.55808  20459573.800    83778568.10249
  24305196.860   127724673.82204  24305200.160    99525745.02243
 15 02 14 03 12  0.0000000  0  9G04G11G16G18G19G21G22G27G32
  22539806.640   118447505.88906  22539806.880    92296775.49946
  24152786.840   126923752.20804  24152786.520    98901626.57144
  21108893.240   110927987.37607  21108891.660    86437383.98048
  22531521.440   118403994.50106  22531519.620    92262867.83246
  21445743.220   112698158.07707  21445740.020    87816740.58948
  24591995.100   129231805.06404  24591992.860   100700093.33644
  20822252.600   109421723.15708  20822248.960    85263678.67948
  20456395.600   107499107.39608  20456396.280    83765556.54749
  24282601.000   127605932.92704  24282604.300    99433219.93844
 15 02 14 03 12 30.0000000  0  9G04G11G16G18G19G21G22G27G32
  22525230.480   118370907.54706  22525230.660    92237088.49747
  24135911.980   126835074.36204  24135911.680    98832526.96745
  21120548.360   110989235.45908  21120546.800    86485109.74348
  22542603.360   118462230.13106  22542601.540    92308246.24046
  21435540.760   112644543.71407  21435537.620    87774963.17448
  24605954.520   129305163.55404  24605952.180   100757255.77544
  20821384.420   109417160.72708  20821380.720    85260123.54748
  20453274.180   107482704.18208  20453274.880    83752774.82149
  24260013.760   127487237.07504  24260017.100    99340729.92445
 15 02 14 03 13  0.0000000  0  9G04G11G16G18G19G21G22G27G32
  22510699.460   118294546.61606  22510699.640    92177586.51846
  24119054.420   126746487.47304  24119053.920    98763498.32744
  21132294.380   111050961.18708  21132292.860    86533207.70348
  22553757.120   118520843.57206  22553755.320    92353919.05146
  21425374.780   112591121.27007  21425371.700    87733335.30848
  24619909.880   129378499.70804  24619907.380   100814410.45744
  20820618.280   109413134.57708  20820614.540    85256986.29948
  20450209.060   107466596.80908  20450209.760    83740223.61849
  24237435.500   127368588.59304  24237438.640    99248276.83345
 15 02 14 03 13 30.0000000  0  8G04G11G16G18G19G21G22G27
  22496213.660   118218423.32006  22496213.840    92118269.70346
  24102213.980   126657992.12604  24102213.440    98694540.93143
  21144131.160   111113163.61708  21144129.600    86581677.11548
  22564982.360   118579832.27506  22564980.520    92399884.25846
  21415245.560   112537891.83607  21415242.480    87691857.83148
  24633863.160   129451824.36304  24633861.420   100871547.47845
  20819954.140   109409644.72408  20819950.440    85254266.93948
  20447200.460   107450786.33108  20447201.100    83727903.75949
 15 02 14 03 14  0.0000000  0  9G04G11G16G18G19G21G22G27G32
  22481772.800   118142536.21206  22481773.080    92059136.91646
  24085390.920   126569586.36304  24085390.280    98625653.37645
  21156057.840   111175838.47308  21156056.240    86630514.65548
  22576278.380   118639192.79606  22576276.460    92446139.21946
  21405152.820   112484854.03007  21405149.680    87650529.67448
  24647813.420   129525136.13104  24647812.700   100928671.82545
  20819391.600   109406688.86608  20819387.940    85251963.67749
  20444248.240   107435272.17108  20444248.860    83715814.79749
  24192307.500   127131431.43004  24192309.580    99063465.08544
 15 02 14 03 14 30.0000000  0  8G04G11G16G18G19G22G27G32
  22467377.420   118066887.84606  22467377.620    92000190.16646
  24068585.340   126481272.55704  24068584.780    98556837.45044
  21168074.460   111238985.82808  21168072.820    86679720.37448
  22587645.220   118698925.35806  22587643.160    92492684.06846
  21395097.120   112432011.16707  21395093.960    87609353.41748
  20818931.020   109404268.80108  20818927.420    85250077.91748
  20441353.020   107420057.48208  20441353.600    83703959.19549
  24169759.040   127012939.46704  24169761.420    98971133.94544
 15 02 14 03 15  0.0000000  0  9G04G11G16G18G19G21G22G27G32
  22453028.860   117991485.62806  22453029.060    91941435.22646
  24051799.200   126393058.17604  24051798.380    98488099.01844
  21180181.920   111302610.81507  21180180.260    86729298.27748
  22599083.760   118759035.04706  22599081.640    92539522.78346
  21385080.080   112379371.57607  21385076.960    87568335.55948
  24675703.760   129671692.32504  24675702.620   101042871.84244
  20818573.860   109402391.90708  20818570.240    85248615.41248
  20438516.280   107405150.38408  20438516.860    83692343.27049
  24147223.060   126894512.68104  24147225.780    98878853.52145
 15 02 14 03 15 30.0000000  0  9G04G11G16G18G19G21G22G27G32
  22438725.340   117916320.39606  22438725.560    91882864.94446
  24035029.840   126304934.32404  24035029.180    98419431.09045
  21192378.060   111366702.28107  21192376.500    86779239.66548
  22610591.820   118819510.44106  22610589.700    92586646.46946
  21375100.200   112326927.04507  21375097.140    87527469.69048
  24689643.620   129744946.79904  24689641.920   101099953.20944
  20818318.160   109401048.16308  20818314.500    85247568.34748
  20435736.500   107390542.66008  20435737.100    83680960.63249
  24124698.200   126776144.41804  24124700.300    98786618.71345
 15 02 14 03 16  0.0000000  0  9G04G11G16G18G19G21G22G27G32
  22424467.880   117841397.70206  22424468.200    91824483.64746
  24018278.340   126216906.52004  24018278.100    98350838.03944
  21204663.680   111431263.91008  21204662.160    86829547.41848
  22622170.120   118880354.69806  22622167.980    92634057.57646
  21365158.660   112274683.81007  21365155.560    87486760.67848
  24703580.240   129818184.81304  24703578.580   101157021.78945
  20818164.840   109400242.65308  20818161.180    85246940.68349
  20433014.860   107376240.61808  20433015.540    83669816.17849
  24102185.880   126657842.88104  24102188.280    98694435.97644
 15 02 14 03 16 30.0000000  0  9G04G11G16G18G19G21G22G27G32
  22410256.060   117766714.34706  22410256.320    91766288.84746
  24001544.640   126128971.43204  24001544.520    98282317.25444
  21217037.680   111496289.80607  21217036.160    86880216.93148
  22633817.660   118941562.79706  22633815.500    92681752.19946
  21355254.980   112222639.24507  21355251.740    87446206.47348
  24717513.120   129891402.29904  24717511.520   101214074.28045
  20818113.180   109399971.21508  20818109.520    85246729.17749
  20430350.940   107362241.75808  20430351.680    83658907.97549
  24079686.100   126539606.70604  24079687.940    98602304.12344
 15 02 14 03 17  0.0000000  0  9G04G11G16G18G19G21G22G27G32
  22396090.100   117692271.56206  22396090.280    91708281.50946
  23984829.100   126041130.50804  23984828.600    98213869.79144
  21229499.780   111561778.75907  21229498.300    86931247.27648
  22645534.120   119003133.24406  22645532.040    92729729.17946
  21345389.400   112170795.09807  21345386.040    87405808.44548
  24731442.000   129964599.22104  24731440.320   101271110.80144
  20818163.460   109400234.98108  20818159.780    85246934.71548
  20427745.140   107348548.09508  20427745.880    83648237.58449
  24057199.440   126421439.61604  24057201.600    98510226.06045
 15 02 14 03 17 30.0000000  0  9G04G11G16G18G19G21G22G27G32
  22381970.380   117618071.49406  22381970.400    91650463.31246
  23968131.940   125953385.99604  23968131.080    98145497.50644
  21242050.040   111627730.61007  21242048.580    86982638.31448
  22657319.440   119065065.71606  22657317.440    92777988.24146
  21335562.540   112119154.81107  21335559.200    87365569.26248
  24745367.300   130037777.09304  24745365.300   101328132.48544
  20818315.840   109401035.36508  20818312.160    85247558.40148
  20425198.040   107335162.71808  20425198.720    83637807.41649
  24034726.880   126303346.26504  24034729.380    98418205.46945
 15 02 14 03 18  0.0000000  0  9G04G11G16G18G19G21G22G27G32
  22367896.460   117544112.32906  22367896.360    91592832.82846
  23951452.740   125865735.94004  23951451.860    98077198.79244
  21254687.660   111694141.47307  21254686.200    87034387.03148
  22669172.960   119127356.54106  22669171.020    92826526.54746
  21325774.260   112067717.08407  21325770.960    87325487.91948
  24759288.660   130110933.76604  24759286.560   101385137.61946
  20818569.740   109402369.93408  20818566.100    85248598.32948
  20422709.400   107322084.54008  20422710.020    83627616.62649
  24012268.520   126185327.05204  24012270.540    98326242.58346
 15 02 14 03 18 30.0000000  0  9G04G11G16G18G19G21G22G27G32
  22353868.740   117470396.17606  22353868.620    91535391.69046
  23934791.900   125778182.64504  23934791.420    98008975.48643
  21267412.480   111761010.75407  21267411.000    87086492.95348
  22681094.600   119190005.33206  22681092.660    92875343.77846
  21316025.080   112016484.50307  21316021.760    87285566.43148
  24773206.000   130184069.78104  24773203.780   101442126.70144
  20818925.500   109404240.08808  20818921.920    85250055.59649
  20420279.720   107309316.33808  20420280.320    83617667.37649
  23989825.260   126067386.51204  23989827.080    98234341.07945
 15 02 14 03 19  0.0000000  0  9G04G11G16G18G19G21G22G27G32
  22339887.220   117396923.22406  22339887.280    91478140.06146
  23918149.560   125690726.53704  23918148.840    97940827.90044
  21280224.220   111828336.87007  21280222.720    87138954.84848
  22693084.020   119253009.89406  22693082.080    92924438.24246
  21306315.220   111965458.66507  21306311.880    87245806.04248
  24787119.420   130257185.03404  24787117.300   101499099.56644
  20819383.120   109406645.12308  20819379.540    85251929.65748
  20417909.200   107296859.17708  20417909.800    83607960.49549
  23967397.260   125949527.06504  23967399.120    98142502.72145
 15 02 14 03 19 30.0000000  0  9G04G11G16G18G19G21G22G27G32
  22325952.080   117323694.14406  22325952.340    91421078.46346
  23901525.720   125603367.82104  23901525.120    97872756.23545
  21293122.400   111896117.50807  21293120.940    87191770.91748
  22705140.840   119316368.45606  22705138.880    92973808.55546
  21296644.960   111914641.10407  21296641.600    87206207.94848
  24801028.780   130330279.66104  24801027.220   101556056.35346
  20819942.680   109409585.21808  20819939.040    85254220.64748
  20415598.120   107284714.51708  20415598.740    83598497.12149
  23944985.280   125831751.93804  23944987.120    98050730.06545
 15 02 14 03 20  0.0000000  0  9G04G11G16G18G19G21G22G27G32
  22312063.360   117250708.60906  22312063.640    91364206.63646
  23884920.400   125516106.90604  23884919.880    97804760.75345
  21306106.640   111964350.40707  21306105.260    87244939.39848
  22717264.640   119380079.01906  22717262.580    93023453.14545
  21287014.380   111864032.04607  21287011.020    87166772.31948
  24814934.060   130403352.73704  24814932.760   101612996.38741
  20820603.840   109413059.50108  20820600.220    85256927.89449
  20413346.660   107272883.09608  20413347.300    83589277.83149
  23922589.700   125714063.39604  23922591.620    97959024.89945
 15 02 14 03 20 30.0000000  0  9G04G11G16G18G19G21G22G27G32
  22298220.860   117177965.86506  22298221.180    91307524.00546
  23868333.640   125428942.66004  23868333.080    97736840.63544
  21319176.460   112033032.79907  21319175.080    87298458.12648
  22729454.720   119444138.27206  22729452.600    93073369.44846
  21277423.480   111813631.57607  21277420.140    87127499.23448
  24828834.880   130476401.76004  24828833.640   101669917.64143
  20821366.280   109417066.57308  20821362.780    85260050.28849
  20411154.820   107261364.75208  20411155.400    83580302.49549
  23900210.980   125596462.90904  23900212.780    97867388.34344
 15 02 14 03 21  0.0000000  0  9G04G11G16G18G19G21G22G27G32
  22284425.220   117105469.20606  22284425.440    91251033.13746
  23851765.760   125341878.38904  23851765.160    97668998.38545
  21332331.860   112102164.75607  21332330.440    87352327.17548
  22741711.140   119508546.74606  22741709.060    93123557.87146
  21267872.980   111763443.56507  21267869.680    87088391.70148
  24842731.800   130549429.89503  24842730.460   101726822.65344
  20822230.460   109421608.48408  20822227.060    85263589.44048
  20409023.300   107250163.40208  20409023.840    83571574.16549
  23877849.920   125478955.81504  23877851.700    97775824.53144
 15 02 14 03 21 30.0000000  0  9G04G11G16G18G19G21G22G27G32
  22270675.940   117033216.10206  22270676.040    91194732.04346
  23835216.640   125254912.26304  23835215.940    97601232.61345
  21345571.940   112171742.02207  21345570.540    87406543.21248
  22754033.220   119573300.58306  22754031.300    93174015.38646
  21258362.600   111713466.72407  21258359.420    87049448.71648
  24856624.180   130622434.28003  24856622.740   101783709.12142
  20823196.020   109426682.33908  20823192.520    85267543.10448
  20406951.860   107239277.68808  20406952.380    83563091.79049
  23855506.720   125361542.44204  23855508.420    97684333.77744
 15 02 14 03 22  0.0000000  0  9G04G11G16G18G19G21G22G27G32
  22256973.440   116961208.96006  22256973.440    91138622.60946
  23818686.480   125168046.35304  23818685.880    97533544.94744
  21358896.720   112241764.38907  21358895.380    87461106.08348
  22766421.100   119638399.20306  22766419.200    93224741.59146
  21248893.100   111663704.38407  21248889.960    87010672.86948
  24870512.220   130695416.06803  24870510.620   101840578.03844
  20824263.180   109432289.93808  20824259.520    85271912.67748
  20404941.100   107228710.85008  20404941.600    83554857.88449
  23833182.180   125244227.70404  23833183.880    97592919.84344
 15 02 14 03 22 30.0000000  0  9G04G11G16G18G19G21G22G27G32
  22243317.960   116889449.35706  22243317.960    91082706.05546
  23802175.760   125081282.43604  23802175.200    97465936.76343
  21372306.120   112312231.27207  21372304.840    87516015.32948
  22778874.480   119703841.75706  22778872.540    93275735.78846
  21239464.940   111614159.05307  21239461.800    86972066.12648
  24884395.440   130768381.30003  24884393.980   101897444.12245
  20825431.900   109438431.67608  20825428.240    85276698.45648
  20402991.440   107218465.15708  20402991.920    83546874.22749
  23810877.220   125127015.40404  23810878.780    97501585.74943
 15 02 14 03 23  0.0000000  0  8G04G11G16G18G19G22G27G32
  22229707.060   116817923.58906  22229706.940    91026971.72247
  23785681.940   124994606.56605  23785681.460    97398397.20445
  21385796.960   112383125.95707  21385795.720    87571257.92848
  22791390.240   119769612.18606  22791388.320    93326985.47046
  21230075.500   111564817.41007  21230072.380    86933618.10048
  20826699.420   109445093.25407  20826695.920    85281889.29949
  20401100.420   107208527.59008  20401100.860    83539130.66149
  23788589.640   125009894.31304  23788591.180    97410322.76045
 15 02 14 03 23 30.0000000  0  8G04G11G16G18G19G22G27G32
  22216144.680   116746653.00106  22216144.540    90971436.22746
  23769209.060   124908040.32004  23769208.440    97330943.00944
  21399372.820   112454467.49107  21399371.580    87626848.72248
  22803972.020   119835729.83406  22803970.160    93378505.70745
  21220729.120   111515701.98307  21220725.980    86895346.34348
  20828069.900   109452295.30308  20828066.480    85287501.28248
  20399272.240   107198920.39508  20399272.660    83531644.53349
  23766323.980   124892888.03704  23766325.420    97319149.19446
 15 02 14 03 24  0.0000000  0  8G04G11G16G18G19G22G27G32
  22202629.500   116675630.12506  22202629.340    90916093.75646
  23752755.580   124821576.81705  23752754.940    97263568.91645
  21413031.940   112526246.41207  21413030.660    87682780.33448
  22816617.920   119902184.83606  22816616.100    93430288.81446
  21211424.540   111466806.15807  21211421.400    86857245.70348
  20829541.780   109460029.51008  20829538.260    85293527.94448
  20397505.660   107189636.94908  20397506.080    83524410.67349
  23744079.280   124775991.66004  23744080.660    97228061.27446
 15 02 14 03 24 30.0000000  0  8G04G11G16G18G19G22G27G32
  22189161.140   116604853.13106  22189160.960    90860942.87947
  23736321.320   124735214.15305  23736320.520    97196273.38744
  21426773.460   112598458.49507  21426772.200    87739049.47748
  22829327.280   119968973.32606  22829325.380    93482331.78646
  21202161.660   111418129.41907  21202158.500    86819315.77648
  20831114.400   109468293.11908  20831110.720    85299967.13248
  20395800.540   107180676.55408  20395800.960    83517428.54449
  23721855.500   124659206.13504  23721856.900    97137059.73044
 15 02 14 03 25  0.0000000  0  8G04G11G16G18G19G22G27G32
  22175739.660   116534322.68306  22175739.460    90805984.11746
  23719906.220   124648952.89804  23719905.780    97129056.87845
  21440596.980   112671101.56707  21440595.760    87795654.45448
  22842099.840   120036093.34006  22842097.820    93534633.10046
  21192940.720   111369673.11807  21192937.520    86781557.62148
  20832787.520   109477085.91207  20832783.860    85306818.66448
  20394157.100   107172040.42908  20394157.580    83510699.08449
  23699653.380   124542534.25804  23699654.900    97046146.71644
 15 02 14 03 25 30.0000000  0  8G04G11G16G18G19G22G27G32
  22162365.160   116464039.23806  22162364.960    90751217.82146
  23703510.600   124562793.98504  23703510.340    97061920.12445
  21454502.100   112744173.47107  21454500.940    87852593.59048
  22854935.160   120103543.06006  22854933.100    93587191.32446
  21183761.980   111321438.46407  21183758.740    86743972.18348
  20834561.220   109486407.30708  20834557.640    85314082.08749
  20392575.640   107163729.90008  20392576.160    83504223.34949
  23677473.560   124425979.08204  23677475.280    96955324.64845
 15 02 14 03 26  0.0000000  0  8G04G11G16G18G19G22G27G32
  22149037.600   116394002.71306  22149037.500    90696643.93847
  23687134.440   124476737.41704  23687134.200    96994863.12644
  21468488.500   112817672.32607  21468487.340    87909865.41448
  22867832.800   120171320.06406  22867830.640    93640004.58646
  21174625.600   111273426.22407  21174622.320    86706560.04748
  20836435.520   109496256.48108  20836431.920    85321756.77648
  20391056.280   107155745.70408  20391056.840    83498001.90049
  23655316.580   124309542.97204  23655318.220    96864595.39445
 15 02 14 03 26 30.0000000  0  8G04G11G16G18G19G22G27G32
  22135757.560   116324215.95306  22135757.540    90642264.66746
  23670778.500   124390786.29104  23670778.280    96927888.28144
  21482556.140   112891597.93207  21482554.900    87967469.76648
  22880792.700   120239424.74606  22880790.560    93693073.17746
  21165532.320   111225640.35507  21165529.020    86669324.30848
  20838410.820   109506635.76808  20838407.080    85329844.53848
  20389599.780   107148091.67708  20389600.340    83492037.71949
  23633183.160   124193231.27005  23633184.600    96773963.04045
 15 02 14 03 27  0.0000000  0  8G04G11G16G18G19G22G27G32
  22122524.540   116254676.29406  22122524.520    90588077.95746
  23654441.940   124304937.85304  23654441.680    96860993.43043
  21496704.080   112965945.58007  21496702.760    88025402.99648
  22893814.120   120307852.62806  22893812.040    93746393.59946
  21156481.840   111178079.58607  21156478.560    86632263.97648
  20840486.120   109517541.05708  20840482.220    85338342.18648
  20388205.780   107140765.92308  20388206.300    83486329.34149
  23611073.440   124077043.83904  23611074.740    96683427.51545
 15 02 14 03 27 30.0000000  0  8G04G11G16G18G19G22G27G32
  22109338.840   116185385.19606  22109338.840    90534084.91246
  23638125.360   124219193.79104  23638124.860    96794179.93445
  21510932.080   113040713.96707  21510930.720    88083664.05548
  22906896.840   120376602.85406  22906894.800    93799965.19346
  21147474.540   111130745.85707  21147471.280    86595380.55348
  20842661.500   109528973.28407  20842657.600    85347250.41948
  20386874.620   107133770.73308  20386875.140    83480878.53949
  23588987.980   123960984.62005  23588989.320    96592991.91145
 15 02 14 03 28  0.0000000  0  8G04G11G16G18G19G22G27G32
  22096200.840   116116344.80806  22096200.900    90480287.22546
  23621829.060   124133556.36604  23621828.340    96727449.53945
  21525240.060   113115902.68107  21525238.680    88142252.65348
  22920040.620   120445674.71705  22920038.760    93853787.41045
  21138510.980   111083642.32607  21138507.780    86558676.50348
  20844937.260   109540933.40808  20844933.500    85356569.99848
  20385606.920   107127109.09008  20385607.460    83475687.63749
  23566927.900   123845058.20904  23566929.160    96502659.75445
 15 02 14 03 28 30.0000000  0  8G04G11G16G18G19G22G27G32
  22083110.400   116047553.80106  22083110.380    90426683.87146
  23605552.860   124048024.66005  23605552.140    96660801.52845
  21539627.300   113191507.85907  21539625.900    88201165.76448
  22933244.880   120515065.06105  22933243.240    93907857.78345
  21129591.220   111036768.72607  21129588.000    86522151.61848
  20847313.200   109553419.18308  20847309.520    85366299.18048
  20384402.660   107120780.63208  20384403.200    83470756.36549
  23544893.340   123729265.89305  23544894.600    96412432.11745
 15 02 14 03 29  0.0000000  0  9G01G04G11G16G18G19G22G27G32
  24586579.800   129203346.95504                                
  22070067.120   115979010.48106  22070067.020    90373273.51746
  23589296.640   123962596.66805  23589295.560    96594234.27844
  21554092.960   113267525.08907  21554091.520    88260399.95748
  22946509.140   120584769.72506  22946507.580    93962173.09645
  21120715.120   110990124.36107  21120711.860    86485805.36848
  20849788.720   109566427.88408  20849785.080    85376435.84048
  20383261.520   107114784.22108  20383262.100    83466083.83549
  23522884.240   123613608.23605  23522885.500    96322309.39145
 15 02 14 03 29 30.0000000  0  9G01G04G11G16G18G19G22G27G32
  24570671.260   129119746.74004  24570674.340   100612807.50543
  22057072.060   115910720.50406  22057071.840    90320060.56746
  23573061.220   123877278.54505  23573060.020    96527752.68945
  21568637.760   113343958.38207  21568636.300    88319958.35348
  22959833.980   120654791.91406  22959832.380    94016735.84845
  21111883.900   110943715.83707  21111880.600    86449642.88348
  20852364.580   109579964.30407  20852361.020    85386983.70048
  20382184.840   107109126.66608  20382185.500    83461675.35249
  23500902.480   123498093.75105  23500903.600    96232298.24845
 15 02 14 03 30  0.0000000  0  9G01G04G11G16G18G19G22G27G32
  24554787.220   129036274.44304  24554790.380   100547764.22245
  22044123.320   115842674.52706  22044123.120    90267037.75246
  23556844.720   123792061.24505  23556843.920    96461349.66145
  21583259.400   113420795.20907  21583257.900    88379831.18748
  22973217.140   120725120.03006  22973215.280    94071536.99446
  21103095.960   110897534.93707  21103092.640    86413657.76748
  20855038.740   109594017.95007  20855035.300    85397934.59748
  20381171.040   107103799.30308  20381171.760    83457524.15649
  23478946.560   123382715.37505  23478947.520    96142393.12446
 15 02 14 03 30 30.0000000  0  9G01G04G11G16G18G19G22G27G32
  24538928.740   128952936.81704  24538932.060   100482825.84246
  22031222.260   115774879.14107  22031222.080    90214210.19846
  23540648.740   123706951.46805  23540648.140    96395030.41045
  21597958.500   113498039.47207  21597957.000    88440021.50548
  22986659.320   120795758.41406  22986657.240    94126579.91345
  21094352.780   110851589.28207  21094349.440    86377855.95748
  20857812.540   109608594.46208  20857809.040    85409292.92048
  20380221.560   107098809.62308  20380222.280    83453636.09049
  23457018.300   123267482.27605  23457019.220    96052601.19244
 15 02 14 03 31  0.0000000  0  9G01G04G11G16G18G19G22G27G32
  24523096.020   128869735.77103  24523099.580   100417993.92746
  22018369.200   115707336.19106  22018369.080    90161579.34747
  23524473.680   123621951.42205  23524473.000    96328796.63845
  21612735.020   113575690.71907  21612733.580    88500528.95848
  23000160.380   120866706.54506  23000158.180    94181864.16346
  21085654.880   110805881.75907  21085651.600    86342239.70748
  20860686.180   109623694.70408  20860682.480    85421059.35548
  20379336.920   107094160.42508  20379337.580    83450013.33449
  23435118.540   123152399.03105  23435119.580    95962926.05644
 15 02 14 03 31 30.0000000  0  9G01G04G11G16G18G19G22G27G32
  24507288.940   128786670.08504  24507293.040   100353267.45945
  22005563.940   115640044.27407  22005563.840    90109144.10847
  23508319.300   123537059.87105  23508318.620    96262647.43944
  21627588.280   113653744.88507  21627586.840    88561350.37448
  23013719.680   120937960.97905  23013717.480    94237387.08546
  21077002.240   110760412.01507  21076999.000    86306808.74748
  20863658.940   109639316.18308  20863655.180    85433231.94849
  20378516.940   107089851.12208  20378517.580    83446655.42749
  23413247.480   123037466.70705  23413248.660    95873368.51645
 15 02 14 03 32  0.0000000  0  8G04G11G16G18G19G22G27G32
  21992805.700   115572999.41207  21992805.560    90056901.37247
  23492185.020   123452273.20205  23492184.340    96196579.93944
  21642516.980   113732195.57307  21642515.460    88622480.76048
  23027335.880   121009515.23405  23027333.860    94293143.61646
  21068394.300   110715177.13207  21068391.100    86271560.78448
  20866729.800   109655453.98707  20866726.160    85445806.86249
  20377761.040   107085878.64908  20377761.640    83443559.98849
  23391404.880   122922683.87304  23391405.980    95783927.44146
 15 02 14 03 32 30.0000000  0  8G04G11G16G18G19G22G27G32
  21980097.000   115506214.64607  21980096.760    90004861.31547
  23476072.980   123367604.08105  23476072.020    96130604.06445
  21657523.080   113811053.12407  21657521.560    88683928.19648
  23041011.180   121081379.94405  23041009.300    94349142.06245
  21059833.720   110670191.04107  21059830.520    86236506.68748
  20869901.100   109672119.84808  20869897.600    85458793.24149
  20377071.820   107082256.76308  20377072.420    83440737.73149
  23369593.600   122808065.99305  23369594.840    95694614.92744
 15 02 14 03 33  0.0000000  0  9G01G04G11G16G18G19G22G27G32
  24460022.840   128538289.81704  24460027.660   100159722.21044
  21967435.280   115439676.61607  21967434.920    89953013.51847
  23459980.820   123283039.65405  23459979.840    96064709.74544
  21672603.500   113890301.40807  21672602.000    88745680.08348
  23054742.660   121153539.39006  23054740.700    94405370.19246
  21051318.160   110625441.57907  21051314.960    86201636.98448
  20873170.320   109689299.17708  20873166.680    85472179.73748
  20376446.820   107078972.86808  20376447.500    83438178.85149
  23347811.800   122693602.24504  23347813.180    95605422.49746
 15 02 14 03 33 30.0000000  0  9G01G04G11G16G18G19G22G27G32
  24444318.100   128455757.79503  24444322.800   100095412.85245
  21954821.120   115373388.83407  21954820.720    89901360.72647
  23443909.580   123198584.39205  23443908.340    95998900.45646
  21687758.640   113969942.17407  21687757.180    88807737.81548
  23068530.660   121225995.31406  23068528.600    94461829.36046
  21042848.660   110580933.76407  21042845.380    86166955.57548
  20876537.840   109706994.91708  20876534.000    85485968.64348
  20375887.040   107076031.74508  20375887.820    83435887.06549
  23326060.620   122579299.04604  23326062.020    95516355.15746
 15 02 14 03 34  0.0000000  0  8G04G11G16G18G19G22G27G32
  21942252.600   115307340.89207  21942252.200    89849894.81747
  23427857.060   123114227.49105  23427855.720    95933167.85145
  21702985.880   114049961.82907  21702984.460    88870090.77248
  23082372.560   121298734.56706  23082370.460    94518509.29746
  21034423.220   110536657.72107  21034419.940    86132454.76548
  20880001.260   109725194.93908  20879997.340    85500150.48449
  20375390.620   107073423.43708  20375391.480    83433854.61149
  23304338.460   122465148.23805  23304339.780    95427406.57446
 15 02 14 03 34 30.0000000  0  9G01G04G11G16G18G19G22G27G32
  24412988.200   128291112.09304  24412992.140    99967118.92546
  21929735.840   115241565.16907  21929735.500    89798641.01747
  23411829.480   123030001.80005  23411828.080    95867537.48045
  21718290.900   114130390.21507  21718289.480    88932762.22948
  23096274.040   121371787.15105  23096271.920    94575433.39945
  21026048.240   110492646.82208  21026044.960    86098160.56349
  20883566.500   109743930.81408  20883562.680    85514749.86548
  20374963.940   107071181.37708  20374964.840    83432107.54349
  23282652.060   122351184.89005  23282653.080    95338604.04945
 15 02 14 03 35  0.0000000  0  9G01G04G11G16G18G19G22G27G32
  24397362.740   128208999.18104  24397366.460    99903134.90143
  21917265.780   115176034.84807  21917265.540    89747578.44547
  23395821.640   122945880.31205  23395820.340    95801988.33444
  21733668.020   114211197.81007  21733666.660    88995729.17048
  23110229.560   121445123.90805  23110227.540    94632578.91846
  21017718.860   110448875.50308  21017715.640    86064053.04648
  20887228.420   109763174.72308  20887224.720    85529745.11848
  20374602.080   107069279.50608  20374602.900    83430625.55749
  23260996.460   122237384.59105  23260997.540    95249928.57145
 15 02 14 03 35 30.0000000  0  9G01G04G11G16G18G19G22G27G32
  24381763.280   128127023.36604  24381767.140    99839257.68546
  21904843.820   115110757.04707  21904843.600    89696712.63947
  23379834.940   122861870.36205  23379833.620    95736526.05945
  21749118.180   114292389.10107  21749116.840    89058995.09348
  23124240.160   121518750.15805  23124238.260    94689950.00845
  21009436.680   110405352.16508  21009433.480    86030138.75449
  20890988.240   109782932.33708  20890984.500    85545140.66648
  20374306.500   107067725.70708  20374307.200    83429414.79749
  23239373.740   122123757.15505  23239374.800    95161387.80046
 15 02 14 03 36  0.0000000  0  9G01G04G11G16G18G19G22G27G32
  24366189.780   128045183.64504  24366193.420    99775486.51845
  21892469.700   115045730.23707  21892469.340    89646042.41847
  23363869.360   122777971.34505  23363868.180    95671150.24746
  21764640.620   114373960.02407  21764639.280    89122556.83747
  23138305.200   121592662.09306  23138303.280    94747543.70046
  21001201.620   110362076.40908  21001198.420    85996417.39049
  20894845.380   109803201.21408  20894841.500    85560934.60848
  20374077.140   107066519.72408  20374077.740    83428475.06449
  23217784.120   122010303.91905  23217785.200    95072982.76546
 15 02 14 03 36 30.0000000  0  8G04G11G16G18G19G22G27G32
  21880142.940   114980951.99007  21880142.360    89595565.88247
  23347924.400   122694180.50605  23347923.200    95605858.71745
  21780234.300   114455905.42307  21780232.960    89186410.37847
  23152423.540   121666854.32106  23152421.640    94805355.83046
  20993013.360   110319046.62808  20993010.160    85962887.69349
  20898798.980   109823977.44908  20898795.020    85577123.89448
  20373913.580   107065659.60908  20373914.140    83427804.83249
  23196227.640   121897024.69005  23196228.780    94984713.33745
 15 02 14 03 37  0.0000000  0  9G01G04G11G16G18G19G22G27G32
  24335120.960   127881922.73104  24335125.200    99648272.37545
  21867866.860   114916440.84307  21867866.260    89545297.47547
  23332003.720   122610517.27305  23332002.620    95540666.63644
  21795902.340   114538241.20607  21795900.920    89250568.11247
  23166598.380   121741343.57906  23166596.440    94863399.39745
  20984875.600   110276282.59707  20984872.420    85929565.07549
  20902852.300   109845278.32808  20902848.420    85593721.98248
  20373819.480   107065164.82908  20373820.040    83427419.27549
  23174708.420   121783940.67305  23174709.520    94896595.98045
 15 02 14 03 37 30.0000000  0  9G01G04G11G16G18G19G22G27G32
  24319625.880   127800492.94504  24319629.540    99584820.66545
  21855636.300   114852169.36107  21855635.820    89495215.80847
  23316102.120   122526954.37605  23316101.180    95475552.74445
  21811638.960   114620937.31907  21811637.460    89315006.62747
  23180824.080   121816100.03706  23180822.080    94921651.17345
  20976783.420   110233758.11707  20976780.200    85896429.11749
  20907000.180   109867075.55008  20906996.320    85610706.83548
  20373789.700   107065008.84908  20373790.400    83427297.73249
  23153221.700   121671027.05005  23153222.680    94808611.42745
 15 02 14 03 38  0.0000000  0  9G01G04G11G16G18G19G22G27G32
  24304157.800   127719205.05904  24304161.040    99521479.47945
  21843454.580   114788154.81506  21843454.280    89445334.36547
  23300223.040   122443509.06905  23300222.040    95410530.45645
  21827447.020   114704008.94807  21827445.460    89379737.75347
  23195103.460   121891138.74605  23195101.340    94980122.89045
  20968740.380   110191491.81407  20968737.160    85863494.33749
  20911245.620   109889385.02308  20911241.740    85628090.84348
  20373827.760   107065209.72008  20373828.620    83427454.24949
  23131771.100   121558303.67805  23131772.080    94720775.12346
 15 02 14 03 38 30.0000000  0  9G01G04G11G16G18G19G22G27G32
  24288715.720   127638056.57804  24288719.380    99458246.95045
  21831321.280   114724394.48707  21831321.100    89395651.01747
  23284365.900   122360178.95405  23284364.840    95345597.92644
  21843325.380   114787450.06507  21843323.760    89444756.78847
  23209435.640   121966454.65205  23209433.440    95038810.60145
  20960746.100   110149481.83407  20960742.900    85830759.29648
  20915587.740   109912202.84608  20915583.880    85645870.97248
  20373933.480   107065765.75008  20373934.380    83427887.51049
  23110356.640   121445770.53305  23110357.660    94633087.02545
 15 02 14 03 39  0.0000000  0  9G01G04G11G16G18G19G22G27G32
  24273300.160   127557047.52604  24273304.000    99395123.07745
  21819236.460   114660888.44807  21819236.300    89346165.80947
  23268530.860   122276964.51105  23268529.780    95280755.52545
  21859273.600   114871258.44007  21859271.980    89510061.99547
  23223820.020   122042045.34505  23223817.780    95097712.40945
  20952800.800   110107729.39508  20952797.660    85798224.92549
  20920026.160   109935527.46608  20920022.420    85664046.00248
  20374107.060   107066677.69608  20374107.860    83428598.10749
  23088978.960   121333430.19205  23088980.020    94545549.15946
 15 02 14 03 39 30.0000000  0  9G01G04G11G16G18G19G22G27G32
  24257911.420   127476178.80404  24257915.320    99332108.57545
  21807200.180   114597637.43207  21807200.020    89296879.32747
  23252717.880   122193866.90605  23252716.880    95216004.19545
  21875291.320   114955432.03507  21875289.720    89575651.79747
  23238256.280   122117909.63805  23238254.280    95156827.42445
  20944904.960   110066236.44407  20944901.780    85765892.75249
  20924560.900   109959358.39508  20924557.240    85682615.55348
  20374348.700   107067947.22008  20374349.400    83429587.33349
  23067638.640   121221286.13305  23067639.660    94458164.24745
 15 02 14 03 40  0.0000000  0  9G01G04G11G16G18G19G22G27G32
  24242548.960   127395447.00804  24242552.460    99269200.75845
  21795211.720   114534638.10407  21795211.620    89247788.96447
  23236926.460   122110882.99405  23236925.200    95151341.44344
  21891377.300   115039964.68007  21891375.780    89641521.36847
  23252743.620   122194041.71006  23252741.820    95216151.12845
  20937058.120   110025000.98207  20937054.920    85733761.22349
  20929191.260   109983691.14008  20929187.560    85701576.14848
  20374657.920   107069571.82208  20374658.540    83430853.24849
  23046335.520   121109337.57105  23046336.500    94370931.66946
 15 02 14 03 40 30.0000000  0  9G01G04G11G16G18G19G22G27G32
  24227212.980   127314856.14404  24227216.480    99206402.71746
  21783271.940   114471894.39207  21783271.840    89198897.77347
  23221157.520   122028016.93305  23221156.000    95086770.49946
  21907531.820   115124857.63407  21907530.380    89707671.71247
  23267282.420   122270443.30706  23267280.640    95275684.82245
  20929261.220   109984027.80907  20929258.020    85701834.08249
  20933917.720   110008528.67108  20933914.000    85720930.07748
  20375035.600   107071556.18708  20375036.160    83432399.49849
  23025070.800   120997591.02805  23025071.840    94283856.51144
 15 02 14 03 41  0.0000000  0  9G01G04G11G16G18G19G22G27G32
  24211903.620   127234405.92104  24211907.240    99143714.28244
  21771380.800   114409405.97907  21771380.680    89150205.53947
  23205411.060   121945268.98005  23205409.580    95022291.63045
  21923754.400   115210108.08007  21923753.000    89774100.62047
  23281872.100   122347111.71506  23281870.240    95335426.44746
  20921514.380   109943317.97407  20921511.240    85670112.13749
  20938739.840   110033869.10708  20938736.220    85740675.87348
  20375481.780   107073900.81308  20375482.320    83434226.47649
  23003844.900   120886048.60205  23003845.880    94196940.41245
 15 02 14 03 41 30.0000000  0 10G01G04G11G14G16G18G19G22G27G32
  24196621.780   127154100.00604  24196625.340    99081138.27345
  21759538.920   114347176.35107  21759538.800    89101714.93047
  23189687.840   121862642.75905  23189686.380    94957907.56845
  24605684.660   129303744.47104  24605682.920   100756165.97343
  21940045.160   115295716.76707  21940043.780    89840808.67047
  23296512.680   122424048.23006  23296510.840    95395376.98045
  20913818.540   109902876.21507  20913815.460    85638599.07349
  20943657.980   110059714.71607  20943654.520    85760815.30548
  20375997.260   107076610.22008  20375997.920    83436337.69149
  22982659.060   120774716.64205  22982660.080    94110188.28146
 15 02 14 03 42  0.0000000  0 10G01G04G11G14G16G18G19G22G27G32
  24181366.200   127073931.83104  24181369.060    99018669.66745
  21747745.040   114285199.01507  21747744.940    89053420.92447
  23173986.460   121780132.19405  23173985.360    94893613.66045
  24591843.160   129231008.96304  24591842.280   100699488.99045
  21956402.400   115381674.47507  21956400.980    89907788.68247
  23311202.600   122501244.01205  23311200.640    95455529.52645
  20906172.660   109862696.95407  20906169.600    85607290.56349
  20948670.720   110086057.26808  20948667.320    85781341.96548
  20376581.040   107079678.54608  20376581.840    83438728.59349
  22961512.520   120663591.15505  22961513.480    94023597.06646
 15 02 14 03 42 30.0000000  0 10G01G04G11G14G16G18G19G22G27G32
  24166135.580   126993894.20404  24166138.500    98956302.73544
  21735997.800   114223466.66307  21735997.660    89005317.80947
  23158305.720   121697730.53105  23158304.960    94829404.59345
  24578014.320   129158336.80204  24578013.660   100642857.10445
  21972824.220   115467971.32807  21972822.740    89975032.97047
  23325940.040   122578689.49105  23325938.080    95515876.61345
  20898575.560   109822774.31107  20898572.560    85576182.00749
  20953776.560   110112888.32608  20953773.080    85802249.29248
  20377232.000   107083099.40508  20377232.860    83441394.19249
  22940404.540   120552667.58005  22940405.280    93937163.18746
 15 02 14 03 43  0.0000000  0  9G01G04G11G16G18G19G22G27G32
  24150932.880   126914002.86904  24150935.820    98894049.80445
  21724300.120   114161994.74507  21724299.940    88957417.63047
  23142648.860   121615453.44705  23142648.080    94765292.60045
  21989313.040   115554620.24607  21989311.560    90042551.58447
  23340727.480   122656398.14905  23340725.440    95576428.81045
  20891030.600   109783125.19408  20891027.560    85545286.59649
  20958978.160   110140222.10708  20958974.480    85823548.35248
  20377953.260   107086889.25008  20377954.080    83444347.31649
  22919338.380   120441964.00705  22919338.940    93850900.72646
 15 02 14 03 43 30.0000000  0  9G01G04G11G16G18G19G22G27G32
  24135759.520   126834266.48204  24135762.500    98831917.60146
  21712653.680   114100792.27707  21712653.460    88909727.41547
  23127017.480   121533310.36905  23127016.920    94701285.05645
  22005869.960   115641627.23807  22005868.500    90110349.22347
  23355566.140   122734376.28305  23355564.080    95637190.96544
  20883539.600   109743759.52708  20883536.520    85514612.04949
  20964276.700   110168065.98008  20964272.940    85845244.88448
  20378746.580   107091057.66308  20378747.300    83447595.42549
  22898316.300   120331491.91105  22898316.780    93764818.64946
 15 02 14 03 44  0.0000000  0  9G01G04G11G16G18G19G22G27G32
  24120610.060   126754656.05204  24120613.340    98769883.57245
  21701052.960   114039829.97907  21701052.720    88862224.34247
  23111406.140   121451272.21105  23111405.440    94637359.23445
  22022488.900   115728960.05507  22022487.400    90178400.74447
  23370450.220   122812592.68505  23370448.080    95698138.83645
  20876097.200   109704649.18807  20876094.040    85484136.46549
  20969666.400   110196389.48407  20969662.700    85867315.14848
  20379606.480   107095576.28408  20379607.140    83451116.41849
  22877333.140   120221224.70305  22877333.540    93678896.20345
 15 02 14 03 44 30.0000000  0 10G01G04G11G14G16G18G19G22G27G32
  24105489.580   126675198.62604  24105493.060    98707968.70045
  21689503.040   113979134.77107  21689502.760    88814929.39047
  23095820.120   121369366.39005  23095819.140    94573536.56445
  24522859.940   128868499.50603  24522858.680   100417021.42241
  22039174.460   115816643.22007  22039172.940    90246725.27247
  23385384.380   122891071.98406  23385382.200    95759291.52845
  20868708.760   109665822.41108  20868705.500    85453881.83349
  20975152.280   110225218.34608  20975148.660    85889779.20048
  20380538.260   107100472.99908  20380538.880    83454932.03949
  22856394.560   120111192.19205  22856395.040    93593156.64445
 15 02 14 03 45  0.0000000  0 10G01G04G11G14G16G18G19G22G27G32
  24090394.440   126595873.41404  24090398.120    98646156.91246
  21678000.020   113918685.93307  21677999.680    88767826.41747
  23080255.240   121287572.58805  23080254.140    94509801.14245
  24509111.260   128796249.53104  24509110.640   100360722.82144
  22055922.280   115904653.42407  22055920.720    90315304.63947
  23400364.180   122969791.30906  23400362.120    95820631.26845
  20861370.580   109627259.77508  20861367.240    85423833.03149
  20980730.140   110254529.87208  20980726.460    85912619.35948
  20381538.080   107105727.69308  20381538.800    83459026.60149
  22835497.140   120001375.92705  22835497.620    93507585.59546
 15 02 14 03 45 30.0000000  0 10G01G04G11G14G16G18G19G22G27G32
  24075326.220   126516690.43404  24075329.900    98584455.92044
  21666545.800   113858493.41407  21666545.440    88720923.16647
  23064713.680   121205901.24405  23064712.520    94446161.18545
  24495380.320   128724091.75404  24495379.700   100304496.01442
  22072733.660   115992997.76707  22072732.120    90384144.36947
  23415391.080   123048757.95006  23415389.120    95882163.71746
  20854084.800   109588972.55708  20854081.420    85393998.83649
  20986401.520   110284333.00208  20986397.780    85935842.59348
  20382608.060   107111351.18308  20382608.920    83463408.54349
  22814643.280   119891788.56005  22814643.700    93422192.90346
 15 02 14 03 46  0.0000000  0  9G04G11G14G16G18G19G22G27G32
  21655139.620   113798553.43607  21655139.240    88674216.71047
  23049194.740   121124348.67405  23049193.620    94382613.75245
  24481666.560   128652024.93604  24481665.940   100248340.06242
  22089607.400   116081669.88207  22089605.940    90453239.49747
  23430463.960   123127966.09005  23430462.100    95943884.34645
  20846850.880   109550957.94308  20846847.480    85364377.05949
  20992165.160   110314621.89107  20992161.540    85959444.32548
  20383747.740   107117340.43908  20383748.660    83468075.49449
  22793832.880   119782428.93405  22793833.120    93336977.67146
 15 02 14 03 46 30.0000000  0  9G01G04G11G16G18G19G22G27G32
  24045269.800   126358745.43004  24045274.040    98461375.21044
  21643782.320   113738870.36707  21643781.920    88627710.43847
  23033699.380   121042919.66105  23033698.220    94319162.60445
  22106543.760   116170671.24407  22106542.340    90522591.19547
  23445583.280   123207418.06705  23445581.460    96005794.94546
  20839669.920   109513221.60408  20839666.520    85334972.12049
  20998021.960   110345400.25307  20998018.460    85983427.46048
  20384958.200   107123700.82908  20384959.040    83473031.63449
  22773067.160   119673304.18605  22773067.380    93251945.45046
 15 02 14 03 47  0.0000000  0 10G01G04G11G14G16G18G19G22G27G32
  24030285.820   126280004.10404  24030289.760    98400018.41045
  21632477.140   113679461.30007  21632476.740    88581417.67147
  23018230.820   120961631.88205  23018229.660    94255821.51645
  24454297.840   128508203.18303  24454298.200   100136262.32942
  22123545.600   116260016.49307  22123544.140    90592210.85547
  23460751.520   123287128.58105  23460749.980    96067906.99746
  20832545.400   109475782.01708  20832542.020    85305798.41649
  21003975.000   110376683.59408  21003971.520    86007804.09848
  20386242.760   107130450.23108  20386243.420    83478290.90049
  22752349.860   119564434.04505  22752349.980    93167111.64546
 15 02 14 03 47 30.0000000  0 10G01G04G11G14G16G18G19G22G27G32
  24015326.460   126201393.58704  24015330.600    98338763.48746
  21621218.440   113620296.88907  21621218.100    88535315.54647
  23002783.540   120880456.64505  23002782.600    94192568.11645
  24440642.980   128436445.29104  24440642.500   100080347.11744
  22140606.660   116349672.88107  22140605.200    90662072.95447
  23475962.860   123367066.11605  23475961.740    96130195.95646
  20825472.020   109438611.03108  20825468.640    85276834.01149
  21010018.300   110408440.86408  21010014.760    86032550.03348
  20387595.900   107137560.01008  20387596.400    83483830.97749
  22731675.840   119455791.79106  22731676.000    93082455.39546
 15 02 14 03 48  0.0000000  0 10G01G04G11G14G16G18G19G22G27G32
  24000393.960   126122923.68204  24000398.020    98277618.15746
  21610008.180   113561386.76507  21610007.840    88489411.57547
  22987359.580   120799403.69005  22987358.680    94129409.99545
  24427007.860   128364791.85704  24427007.640   100024513.29145
  22157728.300   116439647.38607  22157726.860    90732182.94147
  23491218.920   123447238.06105  23491218.000    96192667.55945
  20818451.800   109401719.71208  20818448.420    85248087.53349
  21016153.280   110440680.38107  21016149.740    86057671.74248
  20389019.520   107145040.74208  20389019.960    83489660.11149
  22711047.480   119347389.66405  22711047.780    92997986.26446
 15 02 14 03 48 30.0000000  0 10G01G04G11G14G16G18G19G22G27G32
  23985488.440   126044595.03704  23985492.520    98216582.90345
  21598846.460   113502731.65607  21598846.140    88443706.31647
  22971959.180   120718474.11305  22971958.320    94066348.01446
  24413393.300   128293246.09204  24413392.960    99968763.41844
  22174910.220   116529938.88007  22174908.820    90802539.93147
  23506519.420   123527642.89405  23506518.340    96255320.65545
  20811485.140   109365109.81708  20811481.760    85219560.34049
  21022379.720   110473401.13507  21022376.220    86083168.43448
  20390513.880   107152893.78608  20390514.360    83495779.36249
  22690465.440   119239231.01206  22690465.860    92913706.85246
 15 02 14 03 49  0.0000000  0 10G01G04G11G14G16G18G19G22G27G32
  23970610.280   125966409.28504  23970614.120    98155658.99346
  21587733.600   113444333.15907  21587733.280    88398201.01047
  22956582.660   120637669.94105  22956581.980    94003383.76144
  24399800.000   128221812.55304  24399799.200    99913100.85641
  22192152.180   116620546.06007  22192150.840    90873142.90547
  23521864.280   123608280.02105  23521862.920    96318154.80545
  20804572.580   109328784.15008  20804569.220    85191254.63049
  21028697.760   110506603.12207  21028694.280    86109040.11648
  20392079.440   107161121.46608  20392080.020    83502190.53949
  22669930.560   119131319.93905  22669930.900    92829620.36346
 15 02 14 03 49 30.0000000  0  9G01G04G11G16G18G19G22G27G32
  23955758.120   125888360.20004  23955761.860    98094841.59445
  21576668.320   113386184.90707  21576667.980    88352890.69847
  22941229.060   120556985.56405  22941228.220    93940512.83645
  22209452.360   116711459.29007  22209451.060    90943984.36547
  23537251.800   123689141.22005  23537250.040    96381163.53745
  20797713.220   109292737.91508  20797709.840    85163166.65249
  21035106.020   110540278.68708  21035102.500    86135280.81848
  20393715.260   107169718.38908  20393715.920    83508889.43849
  22649442.120   119023652.85906  22649442.440    92745723.99146
 15 02 14 03 50  0.0000000  0  9G01G04G11G16G18G19G22G27G32
  23940934.740   125810462.70704  23940938.440    98034142.27846
  21565653.480   113328301.88407  21565653.160    88307787.06047
  22925901.060   120476436.06005  22925899.960    93877747.03045
  22226813.080   116802690.66807  22226811.820    91015073.72847
  23552684.160   123770238.36705  23552682.380    96444356.12844
  20790910.120   109256987.24408  20790906.680    85135308.98249
  21041607.060   110574441.03108  21041603.400    86161900.83748
  20395424.380   107178700.13308  20395425.080    83515888.19149
  22629003.440   118916247.28606  22629003.760    92662031.38846
 15 02 14 03 50 30.0000000  0 10G01G04G11G14G16G18G19G22G27G32
  23926139.800   125732715.34504  23926143.560    97973559.98545
  21554688.820   113270682.46407  21554688.520    88262888.82947
  22910598.400   120396020.38305  22910597.380    93815085.48245
  24359154.980   128008224.97004  24359154.400    99746668.39444
  22244233.520   116894235.45407  22244232.220    91086407.30547
  23568160.820   123851568.29405  23568159.000    96507730.07045
  20784163.120   109221531.59608  20784159.680    85107681.21149
  21048200.120   110609087.27008  21048196.380    86188897.91648
  20397206.720   107188065.96708  20397207.380    83523186.23649
  22608614.820   118809104.32606  22608615.120    92578543.41346
 15 02 14 03 51  0.0000000  0 10G01G04G11G14G16G18G19G22G27G32
  23911371.320   125655106.34904  23911374.880    97913085.46545
  21543772.100   113213314.77107  21543771.740    88218186.74747
  22895318.940   120315727.21905  22895318.120    93752519.40145
  24345653.320   127937273.24204  24345652.680    99691381.39541
  22261711.060   116986080.54407  22261709.780    91157974.88547
  23583678.840   123933116.71505  23583677.260    96571274.29046
  20777470.280   109186360.71508  20777466.880    85080275.33049
  21054882.560   110644204.13407  21054878.920    86216261.70248
  20399060.140   107197804.87508  20399060.680    83530774.98349
  22588274.480   118702214.78606  22588274.720    92495252.92346
 15 02 14 03 51 30.0000000  0 10G01G04G11G14G16G18G19G22G27G32
  23896630.060   125577640.48404  23896633.460    97852722.49245
  21532904.220   113156203.55007  21532903.780    88173684.51847
  22880063.940   120235561.75305  22880063.080    93690052.81245
  24332175.660   127866447.89704  24332175.140    99636192.79845
  22279246.000   117078226.99407  22279244.660    91229777.30847
  23599238.960   124014886.23605  23599237.480    96634990.75345
  20770832.760   109151480.49108  20770829.440    85053095.93649
  21061655.080   110679794.50808  21061651.540    86243994.45748
  20400985.580   107207922.30808  20400986.000    83538658.68849
  22567983.800   118595586.02606  22567983.880    92412165.60946
 15 02 14 03 52  0.0000000  0 10G01G04G11G14G16G18G19G22G27G32
  23881915.940   125500317.34304  23881919.340    97792470.76444
  21522084.980   113099348.30207  21522084.520    88129381.75147
  22864833.320   120155523.94205  22864832.160    93627685.71745
  24318722.480   127795751.44004  24318722.000    99581104.68441
  22296837.640   117170671.61607  22296836.320    91301812.05147
  23614840.800   124096874.14805  23614839.280    96698877.39945
  20764250.800   109116891.96008  20764247.500    85026143.83949
  21068517.440   110715856.27708  21068513.820    86272094.55148
  20402982.980   107218418.59508  20402983.380    83546837.60749
  22547743.020   118489220.18006  22547743.100    92329283.20446
 15 02 14 03 52 30.0000000  0 10G01G04G11G14G16G18G19G22G27G32
  23867229.120   125423137.30204  23867232.520    97732330.52946
  21511314.540   113042749.52107  21511314.080    88085278.82147
  22849627.040   120075614.48305  22849625.820    93565418.62746
  24305294.460   127725186.82104  24305293.900    99526119.28145
  22314485.600   117263412.07407  22314484.280    91374077.33147
  23630484.020   124179078.99105  23630482.360    96762933.10245
  20757724.620   109082596.57408  20757721.320    84999420.15949
  21075469.400   110752388.45608  21075465.620    86300561.18648
  20405052.500   107229294.80808  20405053.060    83555312.57449
  22527552.800   118383120.24106  22527552.880    92246607.98046
 15 02 14 03 53  0.0000000  0 10G01G04G11G14G16G18G19G22G27G32
  23852569.960   125346102.62504  23852573.340    97672303.52746
  21500593.300   112986409.31607  21500592.880    88041377.37947
  22834445.760   119995836.30205  22834444.400    93503253.83145
  24291892.520   127654759.27204  24291891.760    99471240.71944
  22332189.700   117356447.49307  22332188.340    91446572.43647
  23646168.340   124261500.23705  23646166.540    96827157.41745
  20751254.860   109048597.84808  20751251.560    84972927.64549
  21082510.920   110789391.48608  21082507.040    86329394.72948
  20407194.840   107240553.89408  20407195.580    83564085.88549
  22507414.140   118277291.11506  22507414.200    92164143.77346
 15 02 14 03 53 30.0000000  0 10G01G04G11G14G16G18G19G22G27G32
  23837938.260   125269211.87104  23837941.580    97612388.69146
  21489921.000   112930326.36107  21489920.680    87997676.38847
  22819289.220   119916188.35505  22819287.840    93441190.51245
  24278516.880   127584470.23704  24278516.320    99416470.08344
  22349949.140   117449773.84907  22349947.720    91519294.24747
  23661893.140   124344134.34305  23661891.240    96891547.61546
  20744841.500   109014895.51908  20744838.200    84946666.08849
  21089641.260   110826862.22507  21089637.500    86358592.70148
  20409410.000   107252195.11408  20409410.800    83573156.96149
  22487327.200   118171733.82806  22487327.220    92081891.37646
 15 02 14 03 54  0.0000000  0 10G01G04G11G14G16G18G19G22G27G32
  23823334.160   125192465.89604  23823337.380    97552586.69545
  21479297.760   112874501.19907  21479297.520    87954176.28247
  22804157.680   119836671.83505  22804156.400    93379229.62945
  24265168.300   127514323.43104  24265167.780    99361810.25745
  22367763.560   117543389.15506  22367762.100    91592241.22747
  23677658.240   124426979.93705  23677656.260    96956102.61945
  20738485.020   108981491.90708  20738481.740    84920637.30549
  21096860.460   110864799.95807  21096856.860    86388154.56448
  20411698.300   107264219.99908  20411699.040    83582526.99349
  22467292.540   118066451.75406  22467292.640    91999853.43746
 15 02 14 03 54 30.0000000  0 10G01G04G11G14G16G18G19G22G27G32
  23808757.720   125115866.20504  23808760.800    97492898.66846
  21468723.860   112818935.24807  21468723.680    87910878.15547
  22789051.500   119757288.55005  22789050.220    93317372.54345
  24251847.460   127444322.90803  24251847.260    99307264.47145
  22385632.680   117637291.73306  22385631.200    91665412.04847
  23693463.420   124510036.28505  23693461.380    97020821.82145
  20732185.860   108948389.76108  20732182.620    84894843.42949
  21104168.580   110903204.30608  21104165.000    86418080.03148
  20414060.120   107276630.76908  20414060.720    83592197.71349
  22447311.040   117961449.11906  22447311.260    91918033.25046
 15 02 14 03 55  0.0000000  0  9G04G11G14G16G18G19G22G27G32
  21458198.900   112763626.22007  21458198.700    87867780.22147
  22773970.320   119678036.75805  22773969.040    93255617.91946
  24238554.480   127374469.05404  24238554.680    99252832.90841
  22403555.520   117731476.84906  22403554.100    91738803.02147
  23709307.800   124593298.80405  23709305.700    97085701.69545
  20725943.840   108915587.66108  20725940.580    84869283.35449
  21111564.820   110942071.34708  21111561.160    86448366.04748
  20416495.080   107289425.66408  20416495.520    83602167.75249
  22427382.800   117856725.93206  22427383.060    91836430.80746
 15 02 14 03 55 30.0000000  0  9G04G11G14G16G18G19G22G27G32
  21447722.920   112708574.26407  21447722.680    87824882.61547
  22758914.360   119598917.19405  22758913.240    93193966.34945
  24225290.180   127304765.14704  24225290.520    99198518.17744
  22421531.660   117825941.92606  22421530.260    91812412.15147
  23725190.980   124676765.81705  23725188.800    97150740.95544
  20719759.260   108883087.44508  20719755.980    84843958.51249
  21119048.740   110981399.49108  21119045.020    86479011.36048
  20419003.200   107302605.62408  20419003.620    83612437.84749
  22407508.480   117752285.16306  22407508.600    91755048.42446
 15 02 14 03 56  0.0000000  0  9G04G11G14G16G18G19G22G27G32
  21437296.340   112653782.02707  21437296.060    87782187.39047
  22743884.160   119519932.62305  22743882.920    93132419.95745
  24212055.620   127235216.62804  24212055.660    99144324.55346
  22439560.940   117920686.56806  22439559.580    91886239.12347
  23741113.140   124760437.22005  23741110.980    97215939.43044
  20713632.880   108850892.81408  20713629.540    84818871.79549
  21126620.520   111021189.66307  21126616.780    86510016.68748
  20421585.100   107316173.82308  20421585.640    83623010.46849
  22387688.820   117648131.82106  22387688.860    91673890.01946
 15 02 14 03 56 30.0000000  0 10G01G04G11G14G16G18G19G22G27G32
  23750726.180   124810908.65104  23750729.280    97255267.92246
  21426918.460   112599245.76007  21426918.120    87739691.61347
  22728879.120   119441080.18505  22728877.740    93070976.51845
  24198850.420   127165822.62104  24198850.340    99090251.32345
  22457642.180   118015704.24106  22457640.820    91960278.85447
  23757073.160   124844307.42605  23757070.740    97281292.82944
  20707564.180   108819001.46208  20707560.800    84794021.39349
  21134279.240   111061436.70008  21134275.540    86541378.01748
  20424240.240   107330127.42408  20424240.980    83633883.40649
  22367923.620   117544264.97206  22367923.620    91592954.86246
 15 02 14 03 57  0.0000000  0 10G01G04G11G14G16G18G19G22G27G32
  23736287.180   124735031.94804  23736289.980    97196143.27845
  21416589.580   112544967.38407  21416589.260    87697396.78447
  22713899.700   119362362.37106  22713898.240    93009637.99446
  24185675.500   127096588.30404  24185675.480    99036302.53244
  22475775.280   118110994.40706  22475773.860    92034530.90646
  23773070.960   124928376.25605  23773068.540    97346801.01345
  20701553.760   108787416.62608  20701550.340    84769409.83449
  21142025.000   111102140.75008  21142021.280    86573095.45748
  20426969.280   107344469.17608  20426970.120    83645058.79249
  22348213.660   117440689.28006  22348213.720    91512246.58146
 15 02 14 03 57 30.0000000  0 10G01G04G11G14G16G18G19G22G27G32
  23721876.020   124659300.11304  23721878.840    97137131.46745
  21406309.760   112490946.72607  21406309.400    87655302.77747
  22698945.900   119283779.29305  22698944.320    92948404.44545
  24172531.540   127027516.11804  24172531.400    98982480.10045
  22493959.600   118206553.74306  22493958.180    92108992.71446
  23789106.080   125012641.16805  23789103.700    97412461.96445
  20695601.900   108756139.32708  20695598.420    84745037.91149
  21149857.440   111143299.88508  21149853.600    86605167.52148
  20429772.360   107359199.40008  20429773.180    83656536.87949
  22328559.500   117337406.92606  22328559.640    91431766.85946
 15 02 14 03 58  0.0000000  0 10G01G04G11G14G16G18G19G22G27G32
  23707492.800   124583714.67804  23707495.760    97078233.78545
  21396079.320   112437185.31107  21396078.860    87613410.78247
  22684018.060   119205333.15905  22684016.440    92887277.61646
  24159419.060   126958610.23004  24159418.720    98928787.20845
  22512194.900   118302380.79606  22512193.480    92183663.11346
  23805178.400   125097101.72905  23805176.140    97478275.36245
  20689709.120   108725172.62808  20689705.640    84720908.01849
  21157776.400   111184913.82208  21157772.460    86637593.97248
  20432649.900   107374320.23908  20432650.540    83668319.34049
  22308962.060   117234422.06406  22308962.220    91351518.95046
 15 02 14 03 58 30.0000000  0 10G01G04G11G14G16G18G19G22G27G32
  23693137.040   124508273.53404  23693139.900    97019448.52246
  21385897.760   112383680.65807  21385897.220    87571718.85747
  22669115.960   119127022.30306  22669114.320    92826256.20445
  24146338.440   126889871.25704  24146338.100    98875224.39145
  22530480.260   118398471.01706  22530478.880    92258538.58946
  23821287.120   125181753.39805  23821284.860    97544237.69245
  20683875.220   108694515.45008  20683871.780    84697019.31249
  21165781.100   111226978.79408  21165777.140    86670371.87648
  20435601.480   107389830.22908  20435601.960    83680405.03549
  22289421.360   117131735.05806  22289421.440    91271503.13646
 15 02 14 03 59  0.0000000  0 10G01G04G11G14G16G18G19G22G27G32
  23678808.860   124432978.32704  23678811.820    96960776.95345
  21375765.380   112330434.54407  21375764.820    87530228.39947
  22654240.060   119048848.75006  22654238.400    92765341.76646
  24133290.540   126821304.06404  24133289.900    98821795.47345
  22548815.440   118494822.90706  22548814.040    92333617.96547
  23837432.040   125266595.59605  23837429.880    97610348.46545
  20678100.740   108664170.60008  20678097.360    84673373.97849
  21173871.420   111269494.14908  21173867.540    86703500.72448
  20438627.500   107405731.60108  20438627.880    83692795.70249
  22269938.180   117029350.05106  22269938.160    91191722.65246
 15 02 14 03 59 30.0000000  0 10G01G04G11G14G16G18G19G22G27G32
  23664508.560   124357829.83704  23664511.560    96902219.75845
  21365682.240   112277447.72507  21365681.800    87488939.98347
  22639390.440   118970813.56506  22639388.820    92704535.15746
  24120275.860   126752912.06904  24120275.280    98768503.01345
  22567200.000   118591434.27706  22567198.620    92408899.53446
  23853612.900   125351626.94405  23853610.840    97676606.61946
  20672386.160   108634140.42108  20672382.880    84649973.84349
  21182047.380   111312459.32108  21182043.540    86736980.08148
  20441728.140   107422025.83508  20441728.580    83705492.49949
  22250513.160   116927270.52006  22250513.060    91112180.20546
 15 02 14 04 00  0.0000000  0 10G01G04G11G14G16G18G19G22G27G32
  23650235.940   124282827.97204  23650239.160    96843776.75645
  21355648.380   112224720.00507  21355648.100    87447853.46247
  22624567.320   118892917.64306  22624565.720    92643837.05446
  24107295.180   126684698.23504  24107294.680    98715349.43645
  22585633.380   118688302.06706  22585631.980    92484380.90646
  23869829.340   125436845.46604  23869827.380    97743010.67245
  20666731.760   108604426.17208  20666728.500    84626819.88749
  21190308.620   111355872.41008  21190304.760    86770808.46648
  20444903.560   107438713.40708  20444904.160    83718495.80049
  22231146.640   116825498.81506  22231146.540    91032877.61346
 15 02 14 04 00 30.0000000  0 10G01G04G11G14G16G18G19G22G27G32
  23635991.020   124207971.06304  23635994.320    96785446.75146
  21345663.620   112172249.67907  21345663.380    87406967.50247
  22609770.420   118815159.79506  22609768.980    92583246.55046
  24094348.680   126616663.55804  24094348.140    98662335.38845
  22604114.840   118785422.27206  22604113.340    92560058.96747
  23886080.580   125522247.02904  23886078.740    97809557.28945
  20661137.380   108575027.38608  20661134.120    84603911.74449
  21198654.440   111399729.93208  21198650.560    86804983.16948
  20448153.620   107455793.24508  20448154.400    83731804.75949
  22211838.800   116724035.87006  22211838.720    90953815.61246
 15 02 14 04 01  0.0000000  0 10G01G04G11G14G16G18G19G22G27G32
  23621773.620   124133258.82404  23621777.040    96727229.46246
  21335727.840   112120036.69507  21335727.640    87366282.07248
  22594999.840   118737540.06806  22594998.460    92522763.67646
  24081436.580   126548810.56104  24081436.440    98609462.98043
  22622643.700   118882791.65506  22622642.140    92635931.18546
  23902366.340   125607829.28004  23902364.580    97876244.77844
  20655603.160   108545945.00008  20655599.920    84581250.14449
  21207084.380   111444029.73108  21207080.540    86839502.49748
  20451478.520   107473265.77308  20451479.380    83745419.70549
  22192590.100   116622883.90406  22192590.040    90874995.95047
 15 02 14 04 01 30.0000000  0 10G01G04G11G14G16G18G19G22G27G32
  23607584.140   124058692.80504  23607587.540    96669126.10445
  21325841.280   112068082.34607  21325841.060    87325798.18047
  22580255.860   118660060.25006  22580254.580    92462389.82346
  24068560.060   126481143.70604  24068559.840    98556735.55444
  22641219.620   118980408.52606  22641218.080    92711996.25946
  23918686.400   125693591.52004  23918684.600    97943072.43444
  20650129.740   108517181.80308  20650126.420    84558837.26349
  21215598.380   111488771.68407  21215594.640    86874366.35648
  20454878.640   107491133.05108  20454879.440    83759342.24749
  22173401.400   116522047.08906  22173401.360    90796421.84146
 15 02 14 04 02  0.0000000  0 10G01G04G11G14G16G18G19G22G27G32
  23593422.320   123984272.59304  23593425.760    96611136.35145
  21316003.840   112016386.07107  21316003.520    87285515.38747
  22565538.660   118582720.92406  22565537.260    92402125.42546
  24055719.460   126413665.33204  24055718.940    98504155.02641
  22659842.020   119078270.01406  22659840.580    92788251.94046
  23935040.180   125779530.74605  23935038.300    98010038.06544
  20644717.240   108488738.81008  20644713.880    84536673.89549
  21224196.160   111533953.34908  21224192.440    86909572.84748
  20458353.920   107509395.21308  20458354.620    83773572.49649
  22154273.080   116421527.37506  22154273.080    90718094.83246
 15 02 14 04 02 30.0000000  0 10G01G04G11G14G16G18G19G22G27G32
  23579288.440   123909999.13104  23579291.880    96553260.98945
  21306215.740   111964948.92707  21306215.260    87245434.50847
  22550848.480   118505523.51206  22550846.980    92341971.61946
  24042915.380   126346379.18304  24042914.780    98451724.30944
  22678510.560   119176374.06406  22678509.260    92864696.64047
  23951427.540   125865646.54705  23951425.500    98077141.36445
  20639366.040   108460618.19108  20639362.680    84514761.72349
  21232877.580   111579574.17008  21232873.800    86945121.54648
  20461904.600   107528053.88208  20461905.180    83788111.70549
  22135205.780   116321328.31606  22135205.820    90640017.68046
 15 02 14 04 03  0.0000000  0 10G01G04G11G14G16G18G19G22G27G32
  23565182.300   123835870.89104  23565185.740    96495498.73946
  21296476.600   111913769.20607  21296475.980    87205554.22547
  22536185.100   118428466.88306  22536183.540    92281927.52546
  24030148.140   126279286.85804  24030147.320    98399444.61645
  22697224.340   119274715.94906  22697223.160    92941326.66046
  23967847.720   125951935.12205  23967845.660    98144379.19043
  20634076.200   108432819.75708  20634072.800    84493100.60649
  21241641.840   111625630.43808  21241638.000    86981009.55448
  20465530.460   107547108.04908  20465531.020    83802959.09649
  22116199.680   116221450.90706  22116199.800    90562191.16947
 15 02 14 04 03 30.0000000  0 10G01G04G11G14G16G18G19G22G27G32
  23551104.020   123761888.98004  23551107.420    96437850.52746
  21286786.540   111862847.88407  21286785.920    87165875.28648
  22521548.840   118351552.87006  22521547.180    92221994.55046
  24017418.440   126212392.55004  24017417.820    98347319.18745
  22715983.040   119373294.31406  22715982.020    93018140.95147
  23984300.600   126038395.23305  23984298.520    98211750.68144
  20628848.140   108405345.91408  20628844.700    84471692.41549
  21250488.760   111672121.46107  21250484.920    87017236.33148
  20469231.840   107566559.42608  20469232.480    83818116.00549
  22097255.540   116121898.72106  22097255.700    90484618.07447
 15 02 14 04 04  0.0000000  0 10G01G04G11G14G16G18G19G22G27G32
  23537053.720   123688054.59405  23537057.360    96380317.30545
  21277145.880   111812186.29107  21277145.360    87126398.73948
  22506940.020   118274782.95306  22506938.360    92162173.84446
  24004727.120   126145699.79904  24004726.600    98295350.86141
  22734786.460   119472107.63906  22734785.540    93095138.32046
  24000785.800   126125026.06104  24000783.820    98279255.21844
  20623682.300   108378199.27908  20623678.840    84450539.18849
  21259418.260   111719046.58408  21259414.440    87053801.35848
  20473009.160   107586409.67408  20473009.860    83833583.72749
  22078373.940   116022675.51206  22078374.140    90407301.33047
 15 02 14 04 04 30.0000000  0 10G01G04G11G14G16G18G19G22G27G32
  23523031.320   123614366.07504  23523034.720    96322897.70045
  21267554.340   111761782.70307  21267553.940    87087123.22647
  22492358.500   118198156.59306  22492356.900    92102465.01246
  23992074.500   126079209.77404  23992073.880    98243540.45745
  22753633.820   119571151.50406  22753633.000    93172315.33846
  24017302.780   126211823.74204  24017300.940    98346889.75645
  20618578.580   108351379.13608  20618575.120    84429640.37849
  21268429.780   111766402.27008  21268425.840    87090701.90748
  20476862.240   107606657.78808  20476862.980    83849361.47049
  22059555.020   115923782.11306  22059555.300    90330241.58246
 15 02 14 04 05  0.0000000  0 10G01G04G11G14G16G18G19G22G27G32
  23509036.620   123540824.39404  23509040.120    96265592.51746
  21258012.100   111711637.99607  21258011.740    87048049.44647
  22477804.420   118121674.80606  22477802.960    92042868.84846
  23979461.360   126012926.50104  23979460.660    98191891.18444
  22772524.700   119670423.71506  22772523.940    93249670.28946
  24033851.280   126298787.00404  24033849.620    98414653.30845
  20613537.520   108324888.11008  20613534.020    84408998.01649
  21277523.080   111814187.50108  21277519.020    87127937.16248
  20480791.440   107627305.27408  20480792.120    83865450.40849
  22040799.580   115825222.08906  22040799.880    90253441.59046
 15 02 14 04 05 30.0000000  0 10G01G04G11G14G16G18G19G22G27G32
  23495069.640   123467427.91804  23495073.320    96208400.50746
  21248518.880   111661750.53807  21248518.460    87009176.12547
  22463277.740   118045336.79006  22463276.400    91983384.69846
  23966887.700   125946851.30404  23966886.900    98140404.04745
  22791458.200   119769919.74206  22791457.460    93327199.62246
  24050430.720   126385912.34404  24050429.000    98482543.17146
  20608559.020   108298725.84008  20608555.500    84388611.83049
  21286697.440   111862399.01708  21286693.380    87165504.58948
  20484796.440   107648350.96608  20484797.020    83881849.63849
  22022107.740   115726996.11706  22022108.020    90176901.91247
 15 02 14 04 06  0.0000000  0 10G01G04G11G14G16G18G19G22G27G32
  23481130.920   123394179.68705  23481134.640    96151323.99845
  21239075.220   111612123.48607  21239074.700    86970505.70447
  22448779.060   117969146.24106  22448777.800    91924015.45746
  23954354.640   125880989.94404  23954354.020    98089083.53645
  22810434.380   119869639.88406  22810433.620    93404903.60046
  24067040.980   126473200.28304  24067039.360    98550559.72344
  20603643.840   108272896.52908  20603640.380    84368485.09149
  21295953.080   111911038.04608  21295949.140    87203405.13348
  20488877.840   107669798.55508  20488878.400    83898562.03549
  22003480.660   115629109.79306  22003480.840    90100626.89047
 15 02 14 04 06 30.0000000  0 10G01G04G11G14G16G18G19G22G27G32
  23467219.760   123321075.95305  23467223.380    96094360.08646
  21229680.320   111562752.84607  21229679.720    86932035.09147
  22434307.900   117893099.80006  22434306.660    91864758.52946
  23941862.100   125815341.45104  23941861.480    98037928.89044
  22829451.900   119969577.43706  22829451.140    93482777.01247
  24083681.240   126560645.42204  24083679.640    98618698.76945
  20598791.500   108247397.54408  20598788.100    84348615.75149
  21305288.960   111960098.64208  21305285.140    87241634.16948
  20493034.980   107691644.65208  20493035.600    83915584.96549
  21984917.940   115531561.78906  21984918.000    90024615.49146
 15 02 14 04 07  0.0000000  0 10G01G04G11G14G16G18G19G22G27G32
  23453336.440   123248118.70805  23453340.060    96037510.33045
  21220334.560   111513640.47707  21220333.900    86893765.73147
  22419864.700   117817200.08806  22419863.300    91805615.90646
  23929411.000   125749910.92504  23929410.360    97986944.06945
  22848510.640   120069731.75506  22848509.820    93560819.31146
  24100351.400   126648247.32304  24100349.540    98686959.96844
  20594002.760   108222232.60608  20593999.400    84329006.71049
  21314705.160   112009580.94708  21314701.340    87280191.81548
  20497268.340   107713891.88908  20497269.120    83932920.46749
  21966420.520   115434356.78906  21966420.480    89948871.37647
 15 02 14 04 07 30.0000000  0 10G01G04G11G14G16G18G19G22G27G32
  23439481.340   123175309.64305  23439484.780    95980776.05146
  21211038.260   111464788.13807  21211037.620    86855698.98447
  22405449.760   117741449.36606  22405448.240    91746589.40146
  23917002.200   125684702.73804  23917001.640    97936132.50544
  22867610.460   120170101.48206  22867609.560    93639029.46346
  24117051.240   126736005.85504  24117049.400    98755343.22444
  20589278.160   108197404.75208  20589274.820    84309660.33449
  21324201.620   112059484.93408  21324197.720    87319078.05648
  20501578.460   107736542.40808  20501579.360    83950570.21249
  21947989.020   115337498.90206  21947988.980    89873397.72947
 15 02 14 04 08  0.0000000  0 10G01G04G11G14G16G18G19G22G27G32
  23425653.980   123102646.59605  23425657.300    95924155.52245
  21201791.000   111416193.80007  21201790.440    86817833.28548
  22391062.960   117665846.30306  22391061.380    91687677.93546
  23904635.820   125619717.57904  23904635.540    97885494.75444
  22886750.200   120270681.27906  22886749.220    93717403.31446
  24133780.180   126823916.38704  24133778.540    98823844.91745
  20584617.520   108172912.80008  20584614.160    84290575.70149
  21333777.500   112109806.35808  21333773.520    87358289.56348
  20505965.100   107759594.53108  20505966.020    83968532.89649
  21929623.580   115240988.25006  21929623.580    89798194.65647
 15 02 14 04 08 30.0000000  0 10G01G04G11G14G16G18G19G22G27G32
  23411854.560   123030130.08105  23411857.900    95867649.17946
  21192592.880   111367857.69307  21192592.380    86780168.79348
  22376704.500   117590391.92106  22376702.840    91628882.35246
  23892312.680   125554958.89404  23892312.340    97835033.46144
  22905929.560   120371469.34106  22905928.560    93795939.44246
  24150537.760   126911977.85404  24150536.100    98892464.25243
  20580021.140   108148758.67308  20580017.740    84271754.29949
  21343432.380   112160543.42307  21343428.440    87397824.95048
  20510428.500   107783049.28308  20510429.280    83986809.31249
  21911324.880   115144827.88806  21911324.840    89723264.53047
 15 02 14 04 09  0.0000000  0 10G01G04G11G14G16G18G19G22G27G32
  23398083.060   122957760.38105  23398086.400    95811257.24245
  21183444.000   111319780.15107  21183443.520    86742705.78648
  22362374.360   117515086.77206  22362372.800    91570203.03746
  23880033.180   125490429.57604  23880032.580    97784750.89045
  22925148.080   120472462.97506  22925146.940    93874635.73946
  24167323.660   127000188.12804  24167322.040    98961199.50143
  20575489.320   108124943.98508  20575485.900    84253197.40349
  21353166.140   112211695.19707  21353162.280    87437683.47848
  20514968.720   107806907.44408  20514969.360    84005400.07449
  21893093.420   115049020.59606  21893093.260    89648609.52647
 15 02 14 04 09 30.0000000  0 10G01G04G11G14G16G18G19G22G27G32
  23384339.680   122885538.97605  23384343.160    95754980.86146
  21174344.620   111271962.81707  21174344.140    86705445.54048
  22348073.140   117439933.32706  22348071.520    91511641.93846
  23867798.240   125426134.24804  23867797.640    97734650.63544
  22944405.400   120573660.62206  22944404.220    93953491.02846
  24184137.700   127088546.66004  24184136.380    99030050.29744
  20571022.620   108101471.54708  20571019.240    84234907.19149
  21362978.740   112263260.95007  21362974.920    87477864.58448
  20519586.020   107831170.92808  20519586.560    84024306.68149
  21874929.920   114953570.30706  21874929.620    89574232.71247
 15 02 14 04 10  0.0000000  0 10G01G04G11G14G16G18G19G22G27G32
  23370623.800   122813461.34805  23370627.160    95698816.51946
  21165293.820   111224400.75307  21165293.360    86668384.20648
  22333800.020   117364927.72006  22333798.380    91453196.03546
  23855607.460   125362070.91004  23855606.800    97684731.18543
  22963700.220   120675055.28906  22963699.040    94032499.84946
  24200978.900   127177047.01204  24200977.500    99099011.61645
  20566620.480   108078338.01908  20566617.100    84216881.06849
  21372868.880   112315234.06507  21372865.080    87518363.12248
  20524279.580   107855835.63408  20524280.140    84043525.92749
  21856833.920   114858474.89606  21856833.560    89500132.42747
 15 02 14 04 10 30.0000000  0 10G01G04G11G14G16G18G19G22G27G32
  23356936.040   122741531.20005  23356939.280    95642767.08846
  21156292.320   111177097.94507  21156291.960    86631524.89147
  22319555.860   117290074.23306  22319554.220    91394868.65646
  23843462.120   125298246.27604  23843461.260    97634997.73743
  22983032.600   120776647.30806  22983031.340    94111662.42946
  24217847.320   127265690.72604  24217845.700    99168084.58544
  20562283.800   108055548.42708  20562280.440    84199122.95149
  21382836.920   112367616.38007  21382833.120    87559180.51648
  20529050.140   107880905.76808  20529050.840    84063061.09249
  21838806.520   114763740.53206  21838806.180    89426313.47347
 15 02 14 04 11  0.0000000  0 10G01G04G11G14G16G18G19G22G27G32
  23343276.600   122669750.10105  23343279.780    95586833.78246
  21147340.460   111130055.68707  21147340.140    86594868.60548
  22305340.960   117215374.78106  22305339.380    91336661.32846
  23831362.940   125234664.63204  23831361.860    97585453.60344
  23002402.380   120878435.69006  23002401.120    94190978.03746
  24234742.820   127354477.21704  24234741.320    99237268.85844
  20558013.100   108033105.84208  20558009.780    84181635.22649
  21392882.660   112420407.41807  21392878.940    87600316.38948
  20533898.180   107906383.36308  20533899.040    84082913.76349
  21820848.600   114669371.24706  21820848.300    89352778.99546
 15 02 14 04 11 30.0000000  0  9G01G04G11G16G18G19G22G27G32
  23329644.340   122598111.68905  23329647.260    95531011.69446
  21138437.020   111083267.54507  21138436.700    86558410.32648
  22291154.280   117140824.14106  22291152.820    91278569.93546
  23021807.760   120980411.26906  23021806.480    94270439.50046
  24251663.880   127443398.31104  24251662.380    99306558.01444
  20553807.440   108011005.00008  20553804.140    84164413.79949
  21403004.640   112473598.96807  21403000.960    87641764.34948
  20538822.720   107932262.43108  20538823.620    84103079.26349
  21802959.400   114575362.95506  21802959.040    89279525.81447
 15 02 14 04 12  0.0000000  0  9G01G04G11G16G18G19G22G27G32
  23316040.840   122526624.53605  23316043.560    95475307.46646
  21129583.580   111036742.30107  21129583.240    86522156.90648
  22276997.800   117066431.52306  22276996.300    91220601.68046
  23041249.760   121082579.71306  23041248.540    94350051.25546
  24268611.760   127532460.45504  24268610.340    99375957.03244
  20549668.680   107989255.81908  20549665.400    84147466.38549
  21413204.160   112527197.70007  21413200.420    87683529.59848
  20543825.500   107958551.98608  20543826.340    84123564.62049
  21785141.020   114481726.73907  21785140.600    89206562.55347
 15 02 14 04 12 30.0000000  0 10G01G04G11G14G16G18G19G22G27G32
  23302466.080   122455289.01905  23302468.700    95419721.38646
  21120780.260   110990480.36307  21120779.880    86486108.65548
  22262871.560   116992197.51606  22262870.020    91162757.01146
  23795345.840   125045383.77704  23795344.840    97437961.64946
  23060727.960   121184938.45806  23060726.820    94429811.28346
  24285586.160   127621661.88404  24285584.640    99445464.63044
  20545597.160   107967859.90008  20545593.880    84130794.24649
  21423480.820   112581201.86807  21423477.040    87725610.77248
  20548906.640   107985252.88208  20548907.380    84144370.50349
  21767393.980   114388465.38007  21767393.500    89133891.39947
 15 02 14 04 13  0.0000000  0  9G01G04G11G16G18G19G22G27G32
  23288917.080   122384088.60605  23288919.520    95364240.58445
  21112023.780   110944464.82907  21112023.400    86450252.41648
  22248772.540   116918106.64706  22248771.040    91105023.89946
  23080238.720   121287467.99906  23080237.500    94509704.41346
  24302583.700   127710984.01304  24302582.000    99515066.27945
  20541589.940   107946802.03508  20541586.700    84114385.52249
  21433831.060   112635592.96707  21433827.300    87767993.44948
  20554062.960   108012348.87008  20554063.600    84165484.25549
  21749715.540   114295564.62506  21749715.040    89061501.22747
 15 02 14 04 13 30.0000000  0 10G01G04G11G14G16G18G19G22G27G32
  23275397.940   122313046.13905  23275400.640    95308882.86646
  21103318.600   110898718.87807  21103318.220    86414606.23248
  22234705.220   116844182.36606  22234703.740    91047420.57846
  23771573.420   124920460.37004  23771571.520    97340617.46744
  23099785.780   121390188.58705  23099784.580    94589746.40646
  24319608.180   127800447.99104  24319606.360    99584778.40744
  20537651.660   107926106.36208  20537648.440    84098259.02249
  21444258.980   112690391.95707  21444255.200    87810693.95648
  20559298.820   108039863.24508  20559299.420    84186924.02649
  21732110.520   114203049.86707  21732110.100    88989411.83447
 15 02 14 04 14  0.0000000  0 10G01G04G11G14G16G18G19G22G27G32
  23261906.200   122242147.02205  23261909.140    95253636.83946
  21094661.840   110853227.42407  21094661.460    86379158.35648
  22220666.980   116770410.56706  22220665.400    90989936.06747
  23759760.840   124858384.50704  23759759.120    97292246.67944
  23119365.740   121493082.86005  23119364.760    94669923.73046
  24336656.440   127890036.90804  24336654.580    99654587.92944
  20533779.840   107905759.85008  20533776.620    84082404.59749
  21454761.300   112745581.88107  21454757.520    87853699.08648
  20564611.480   108067781.73508  20564612.120    84208678.68849
  21714576.540   114110908.69807  21714576.180    88917613.53947
 15 02 14 04 14 30.0000000  0 10G01G04G11G14G16G18G19G22G27G32
  23248442.300   122171394.40905  23248445.200    95198504.97646
  21086054.180   110807993.89907  21086053.780    86343911.46448
  22206658.480   116696795.38206  22206656.780    90932573.60646
  23747997.760   124796569.00404  23747996.440    97244078.76944
  23138978.880   121596151.13405  23138978.060    94750236.64046
  24353728.680   127979751.97204  24353726.840    99724495.75545
  20529975.240   107885766.51108  20529972.020    84066825.36849
  21465338.320   112801164.49707  21465334.580    87897010.21348
  20570001.720   108096107.97908  20570002.460    84230751.08549
  21697114.760   114019146.79007  21697114.500    88846110.77647
 15 02 14 04 15  0.0000000  0 10G01G04G11G14G16G18G19G22G27G32
  23235006.600   122100789.67605  23235009.660    95143488.33846
  21077495.860   110763019.58507  21077495.400    86308866.56048
  22192680.100   116623338.73806  22192678.440    90875334.67546
  23736284.680   124735018.06404  23736283.980    97196117.02845
  23158624.880   121699391.36706  23158624.140    94830683.55846
  24370824.840   128069592.56004  24370822.820    99794501.36144
  20526238.380   107866129.01908  20526235.120    84051523.42649
  21475989.840   112857138.62507  21475986.120    87940626.42148
  20575469.880   108124843.58008  20575470.700    84253142.45449
  21679725.860   113927767.73507  21679725.640    88774906.34847
 15 02 14 04 15 30.0000000  0  9G01G04G11G14G16G19G22G27G32
  23221599.560   122030335.51005  23221602.620    95088589.02946
  21068987.360   110718307.20707  21068986.920    86274025.76348
  22178732.620   116550044.25206  22178730.940    90818222.09846
  23724623.200   124673737.36104  23724622.840    97148365.89945
  23178303.740   121802804.03805  23178302.940    94911264.81646
  20522570.100   107846851.91908  20522566.800    84036502.30849
  21486716.080   112913505.45507  21486712.420    87984548.62848
  20581016.540   108153991.72908  20581017.380    84275855.29049
  21662410.820   113836776.74607  21662410.600    88704004.30547
 15 02 14 04 16  0.0000000  0 10G01G04G11G14G16G18G19G22G27G32
  23208218.640   121960018.67605  23208221.760    95033796.73446
  21060526.100   110673843.49807  21060525.760    86239378.72748
  22164813.560   116476898.87206  22164811.840    90761225.71146
  23713011.160   124612715.94204  23713010.660    97100816.73345
  23198012.300   121906372.82805  23198011.460    94991967.75945
  24405086.560   128249593.81004  24405084.420    99934739.50144
  20518968.060   107827922.79808  20518964.720    84021752.33749
  21497514.020   112970249.28007  21497510.420    88028764.59448
  20586639.280   108183539.43308  20586640.080    84298879.46749
  21645167.540   113746162.82107  21645167.260    88633396.07147
 15 02 14 04 16 30.0000000  0 10G01G04G11G14G16G18G19G22G27G32
  23194867.100   121889855.40605  23194870.120    94979124.11146
  21052115.300   110629644.48007  21052114.940    86204937.95248
  22150926.120   116403919.85306  22150924.340    90704358.94946
  23701452.140   124551973.09704  23701451.460    97053484.68944
  23217753.000   122010110.90705  23217752.240    95072802.59746
  24422251.400   128339796.48604  24422249.140   100005027.30044
  20515435.560   107809359.17808  20515432.220    84007287.18049
  21508386.440   113027384.32007  21508382.840    88073285.40248
  20592341.220   108213503.24008  20592341.980    84322227.87449
  21627999.600   113655944.50607  21627999.200    88563096.10847
 15 02 14 04 17  0.0000000  0 10G01G04G11G14G16G18G19G22G27G32
  23181543.400   121819838.51405  23181546.280    94924565.51246
  21043753.540   110585703.14007  21043753.200    86170697.95948
  22137069.080   116331100.59306  22137067.280    90647616.67946
  23689945.280   124491504.45504  23689944.540    97006366.29544
  23237524.060   122114008.43105  23237523.360    95153761.65746
  24439438.440   128430115.29804  24439436.320   100075405.55444
  20511971.440   107791155.14108  20511968.140    83993102.21949
  21519331.620   113084901.44807  21519327.940    88118103.94548
  20598121.020   108243876.32308  20598121.760    84345895.20549
  21610906.000   113566116.99307  21610905.600    88493100.66947
 15 02 14 04 17 30.0000000  0 10G01G04G11G14G16G18G19G22G27G32
  23168247.100   121749966.06705  23168249.960    94870119.50346
  21035440.420   110542017.41507  21035440.100    86136657.15148
  22123242.240   116258440.16906  22123240.500    90590998.17847
  23678490.840   124431311.14804  23678490.200    96959462.43843
  23257324.720   122218061.12905  23257323.920    95234841.66146
  24456647.000   128520548.33904  24456645.740   100145875.27543
  20508575.620   107773310.05508  20508572.320    83979196.95749
  21530348.780   113142796.68007  21530345.020    88163217.11648
  20603978.380   108274657.07408  20603979.140    84369880.20149
  21593886.820   113476680.56107  21593886.420    88423409.96447
 15 02 14 04 18  0.0000000  0 10G01G04G11G14G16G18G19G22G27G32
  23154979.600   121680245.04405  23154982.360    94815791.47246
  21027177.300   110498594.37107  21027176.960    86102821.02948
  22109446.960   116185945.98206  22109445.380    90534509.21646
  23667090.600   124371402.37504  23667089.860    96912780.23045
  23277155.600   122322272.42605  23277154.680    95316045.23945
  24473877.640   128611096.49204  24473876.080   100216432.22044
  20505249.720   107755832.28008  20505246.400    83965577.90949
  21541438.820   113201075.15507  21541435.020    88208628.91848
  20609914.680   108305852.73508  20609915.520    84394188.50349
  21576943.900   113387644.61607  21576943.460    88354031.32247
 15 02 14 04 18 30.0000000  0 10G01G04G11G14G16G18G19G22G27G32
  23141739.900   121610670.90205  23141742.740    94761577.88046
  21018963.260   110455429.21807  21018962.860    86069185.85948
  22095682.620   116113614.32306  22095681.200    90478146.89946
  23655744.280   124311776.86104  23655743.320    96866318.88545
  23297015.200   122426635.26505  23297014.220    95397366.90145
  24491129.420   128701755.37504  24491127.940   100287075.56744
  20501993.060   107738718.24808  20501989.680    83952242.29849
  21552600.500   113259730.15307  21552596.680    88254334.11848
  20615929.160   108337459.02208  20615930.040    84418816.76849
  21560076.660   113299006.83007  21560076.240    88284962.95147
 15 02 14 04 19  0.0000000  0 10G01G04G11G14G16G18G19G22G27G32
  23128528.060   121541242.68005  23128531.000    94707478.01146
  21010798.160   110412520.99208  21010797.640    86035750.89448
  22081949.180   116041445.03006  22081947.860    90421911.10046
  23644452.080   124252436.11804  23644451.020    96820079.32845
  23316902.900   122531145.90305  23316902.000    95478803.73446
  24508401.760   128792522.23704  24508399.920   100357802.90244
  20498805.760   107721968.54008  20498802.300    83939190.57549
  21563833.220   113318758.68207  21563829.420    88300330.37048
  20622021.680   108369475.31508  20622022.540    84443764.52349
  21543285.400   113210768.44907  21543285.040    88216205.78847
 15 02 14 04 19 30.0000000  0 10G01G04G11G14G16G18G19G22G27G32
  23115344.360   121471961.92405  23115347.240    94653493.04746
  21002682.240   110369871.49708  21002681.660    86002517.53648
  22068247.060   115969440.20206  22068245.700    90365803.45947
  23633214.780   124193384.52804  23633213.800    96774065.13146
  23336818.420   122635802.91905  23336817.660    95560354.63046
  24525694.500   128883396.17004  24525692.520   100428613.77945
  20495688.280   107705585.94808  20495684.780    83926424.91949
  21575136.940   113378160.15207  21575133.140    88346617.22848
  20628192.480   108401903.40908  20628193.380    84469033.16149
  21526570.880   113122933.36407  21526570.580    88147762.88347
 15 02 14 04 20  0.0000000  0 10G01G04G11G14G16G18G19G22G27G32
  23102188.540   121402827.92005  23102191.300    94599622.42846
  20994615.380   110327479.73607  20994614.720    85969485.01148
  22054576.400   115897600.06606  22054574.880    90309824.14446
  23622033.000   124134624.24004  23622032.200    96728277.94444
  23356761.000   122740602.44405  23356760.420    95642016.55645
  24543007.160   128974374.75204  24543004.940   100499506.17745
  20492640.720   107689570.93308  20492637.220    83913945.68549
  21586511.080   113437931.78007  21586507.340    88393192.52448
  20634441.600   108434742.82708  20634442.540    84494622.31249
  21509933.440   113035503.14707  21509933.200    88079635.46447
 15 02 14 04 20 30.0000000  0 10G01G04G11G14G16G18G19G22G27G32
  23089060.440   121333839.32005  23089063.280    94545865.11946
  20986597.260   110285344.48607  20986596.620    85936652.36148
  22040936.960   115825924.03806  22040935.340    90253972.71647
  23610907.140   124076156.51505  23610906.200    96682718.67545
  23376730.140   122845540.88305  23376729.620    95723786.73646
  24560339.280   129065454.85904  24560337.080   100570477.60444
  20489663.040   107673923.13308  20489659.560    83901752.59749
  21597955.020   113498069.97707  21597951.260    88440053.45348
  20640768.840   108467992.44008  20640769.720    84520531.09349
  21493373.180   112948478.60907  21493372.960    88011824.16247
 15 02 14 04 21  0.0000000  0  9G01G04G11G14G16G19G22G27G32
  23075961.100   121265001.54805  23075964.000    94492225.32746
  20978628.940   110243470.89408  20978628.340    85904023.60948
  22027329.960   115754418.12407  22027328.180    90198253.83346
  23599838.540   124017989.55505  23599837.460    96637393.80745
  23396726.240   122950620.59305  23396725.620    95805666.99746
  20486756.600   107658649.50308  20486753.080    83889851.07249
  21609469.420   113558578.42107  21609465.640    88487202.89248
  20647175.220   108501657.92108  20647176.060    84546763.92549
  21476891.580   112861867.46307  21476891.340    87944334.97647
 15 02 14 04 21 30.0000000  0  9G01G04G11G14G16G19G22G27G32
  23062889.460   121196309.67905  23062892.260    94438699.23246
  20970709.520   110201854.16408  20970708.940    85871595.00248
  22013754.440   115683078.15607  22013752.640    90142664.26246
  23588826.600   123960121.16505  23588825.440    96592301.57245
  23416747.760   123055833.91305  23416747.100    95887651.37746
  20483920.720   107643746.50108  20483917.120    83878238.34749
  21621052.900   113619450.29007  21621049.160    88534635.51748
  20653659.820   108535734.56908  20653660.620    84573317.15349
  21460488.100   112775667.03807  21460487.920    87877165.83247
 15 02 14 04 22  0.0000000  0  9G01G04G11G14G16G19G22G27G32
  23049845.620   121127764.49405  23049848.460    94385287.43046
  20962839.060   110160494.93008  20962838.560    85839367.04648
  22000210.780   115611905.76907  22000209.000    90087205.28946
  23577872.160   123902554.96005  23577870.960    96547444.78944
  23436794.280   123161178.65305  23436793.540    95969738.15945
  20481155.640   107629215.87408  20481152.020    83866915.78249
  21632705.240   113680683.83407  21632701.500    88582349.96548
  20660222.840   108570223.36908  20660223.620    84600191.53749
  21444163.340   112689880.20807  21444163.180    87810318.97247
 15 02 14 04 22 30.0000000  0  9G01G04G11G14G16G19G22G27G32
  23036829.860   121059366.50805  23036832.700    94331990.34346
  20955017.740   110119393.88408  20955017.280    85807340.26348
  21986699.240   115540902.46007  21986697.480    90031878.05046
  23566975.660   123845294.07604  23566974.540    96502825.94044
  23456865.400   123266652.71905  23456864.540    96051925.70645
  20478461.760   107615059.62808  20478458.180    83855884.94649
  21644426.240   113742277.77907  21644422.400    88630345.24448
  20666864.420   108605125.05508  20666865.260    84627387.65249
  21427917.840   112604509.90207  21427917.760    87743796.68247
 15 02 14 04 23  0.0000000  0  9G01G04G11G14G16G19G22G27G32
  23023842.300   120991116.33005  23023845.080    94278808.43446
  20947245.660   110078551.49608  20947245.220    85775515.04448
  21973220.040   115470069.24507  21973218.320    89976683.36446
  23556137.860   123788341.98305  23556136.860    96458447.71545
  23476960.660   123372253.65505  23476959.680    96134212.11345
  20475839.460   107601279.35108  20475835.920    83845147.07049
  21656215.520   113804230.42507  21656211.620    88678620.03348
  20673584.720   108640440.36208  20673585.620    84654906.06749
  21411752.140   112519558.70707  21411752.080    87677600.96847
 15 02 14 04 23 30.0000000  0  9G01G04G11G14G16G19G22G27G32
  23010882.840   120923014.00805  23010885.660    94225741.72046
  20939522.880   110037967.79208  20939522.340    85743891.39748
  21959773.340   115399406.84306  21959771.700    89921621.77446
  23545359.320   123731701.10305  23545358.480    96414311.99945
  23497079.480   123477978.72305  23497078.380    96216595.23445
  20473288.880   107587876.06508  20473285.360    83834702.95549
  21668072.600   113866539.64607  21668068.720    88727172.66948
  20680383.780   108676169.58808  20680384.700    84682747.01549
  21395666.660   112435028.86307  21395666.580    87611733.58247
 15 02 14 04 24  0.0000000  0 10G01G04G11G14G16G18G19G22G27G32
  22997949.900   120855051.26005  22997952.880    94172783.77146
  20931847.740   109997634.60208  20931847.140    85712462.94948
  21946357.760   115328908.14106  21946356.200    89866687.73546
  23534639.120   123675366.03205  23534638.360    96370414.56044
  23517219.880   123583816.81405  23517218.720    96299066.44945
  24682184.460   129705755.66204  24682182.520   101069417.37843
  20470808.760   107574843.07508  20470805.240    83824547.38549
  21679995.600   113929195.19407  21679991.720    88775995.17448
  20687260.060   108712304.56708  20687260.960    84710904.13649
  21379660.200   112350914.31407  21379660.060    87546189.80247
 15 02 14 04 24 30.0000000  0 10G01G04G11G14G16G18G19G22G27G32
  22985046.140   120787241.84805  22985049.240    94119945.30346
  20924222.880   109957565.65308  20924222.260    85681240.40848
  21932976.160   115258587.69207  21932974.720    89811892.60747
  23523980.240   123619353.39805  23523979.600    96326768.38645
  23537383.900   123689778.80505  23537382.680    96381634.20745
  24699660.760   129797593.96004  24699658.780   101140979.65744
  20468402.000   107562195.64208  20468398.460    83814692.24249
  21691986.720   113992208.85507  21691982.820    88825096.72648
  20694216.180   108748859.18008  20694217.040    84739388.24449
  21363735.780   112267231.00307  21363735.600    87480982.04647
 15 02 14 04 25  0.0000000  0 10G01G04G11G14G16G18G19G22G27G32
  22972170.040   120719577.97505  22972173.280    94067220.22746
  20916646.760   109917752.99408  20916646.180    85650217.56748
  21919627.240   115188438.73906  21919625.860    89757231.11146
  23513381.820   123563658.43205  23513381.160    96283369.74045
  23557569.440   123795854.39005  23557568.260    96464290.48444
  24717153.260   129889516.49304  24717151.000   101212607.57641
  20466067.260   107549926.84208  20466063.740    83805132.13849
  21704044.080   114055570.89607  21704040.160    88874469.75448
  20701250.720   108785825.79508  20701251.560    84768193.39349
  21347892.340   112183973.17507  21347892.100    87416105.84047
 15 02 14 04 25 30.0000000  0 10G01G04G11G14G16G18G19G22G27G32
  22959322.440   120652063.97805  22959325.820    94014611.96546
  20909120.220   109878200.79608  20909119.660    85619397.68548
  21906311.840   115118465.87407  21906310.440    89702706.81946
  23502845.120   123508287.45605  23502844.380    96240223.54946
  23577776.860   123902044.90105  23577775.660    96547036.29745
  24734662.100   129981526.18704  24734660.100   101284303.38044
  20463805.660   107538042.16208  20463802.140    83795871.35049
  21716168.060   114119283.27807  21716164.180    88924115.76348
  20708364.460   108823208.86708  20708365.300    84797323.05149
  21332131.140   112101147.35707  21332130.820    87351566.25747
 15 02 14 04 26  0.0000000  0 10G01G04G11G14G16G18G19G22G27G32
  22946502.760   120584696.39105  22946506.120    93962117.78046
  20901642.660   109838905.86908  20901642.060    85588778.27848
  21893029.460   115048666.53807  21893028.060    89648317.74847
  23492369.880   123453239.77204  23492369.020    96197329.26644
  23598004.940   124008344.04505  23598003.620    96629866.77645
  24752186.300   130073617.24404  24752184.560   101356062.66443
  20461616.760   107526539.25408  20461613.240    83786908.04649
  21728357.640   114183340.36507  21728353.840    88974030.37048
  20715556.840   108861005.04508  20715557.700    84826774.61449
  21316451.880   112018752.15007  21316451.500    87287362.22247
 15 02 14 04 26 30.0000000  0 10G01G04G11G14G16G18G19G22G27G32
  22933711.000   120517475.05405  22933714.180    93909737.54747
  20894213.940   109799867.89808  20894213.340    85558359.09448
  21879780.200   114979041.33307  21879778.880    89594064.37347
  23481956.620   123398518.12005  23481955.840    96154689.02345
  23618253.100   124114748.90205  23618251.800    96712779.61045
  24769725.760   130165787.67804  24769723.880   101427883.73744
  20459500.740   107515419.25008  20459497.180    83778243.10549
  21740612.440   114247740.04707  21740608.720    89024211.93548
  20722827.800   108899214.23208  20722828.700    84856548.00049
  21300854.880   111936789.45707  21300854.520    87223495.20247
 15 02 14 04 27  0.0000000  0 10G01G04G11G14G16G18G19G22G27G32
  22920947.340   120450401.79205  22920950.460    93857472.70446
  20886834.460   109761088.65208  20886833.900    85528141.50848
  21866564.620   114909593.07007  21866563.320    89539948.86846
  23471606.280   123344126.71905  23471605.280    96112306.14744
  23638521.300   124221258.47305  23638519.960    96795774.05745
  24787280.240   130258037.71104  24787278.400   101499766.83843
  20457458.160   107504685.25108  20457454.580    83769878.95249
  21752932.540   114312482.26607  21752928.760    89074660.40248
  20730177.720   108937838.44808  20730178.680    84886644.78649
  21285340.880   111855263.28307  21285340.600    87159968.33847
 15 02 14 04 27 30.0000000  0 10G01G04G11G14G16G18G19G22G27G32
  22908211.480   120383474.56105  22908214.440    93805321.65646
  20879503.880   109722566.22908  20879503.340    85498124.04548
  21853382.420   114840320.35907  21853381.140    89485970.15347
  23461318.940   123290066.26405  23461317.920    96070181.12845
  23658808.520   124327868.01105  23658807.100    96878846.38546
  24804849.160   130350363.09004  24804847.560   101571708.68143
  20455488.780   107494336.15308  20455485.220    83761814.72049
  21765316.940   114377562.16707  21765313.060    89125372.01448
  20737606.280   108976875.58708  20737607.220    84917063.32949
  21269910.040   111774173.59607  21269909.700    87096781.59147
 15 02 14 04 28  0.0000000  0 10G01G04G11G14G16G18G19G22G27G32
  22895503.720   120316694.57705  22895506.540    93753285.33346
  20872222.380   109684301.64608  20872221.800    85468307.50648
  21840234.020   114771225.42107  21840232.780    89432129.97047
  23451095.280   123236340.79405  23451094.280    96028317.15045
  23679114.360   124434575.85205  23679112.900    96961995.34245
  24822432.380   130442763.77404  24822430.940   101643709.18443
  20453593.120   107484374.42108  20453589.580    83754052.32949
  21777765.440   114442979.16107  21777761.520    89176346.30148
  20745113.660   109016326.98308  20745114.560    84947804.66849
  21254562.900   111693523.68307  21254562.480    87033937.52247
