     2.11           OBSERVATION DATA    M                   RINEX VERSION / TYPE
SPIDER V4,0,0,3554                      2015 03 24 05:49    PGM / RUN BY / DATE 
CNAJ                                                        MARKER NAME         
CNAJ                                                        MARKER NUMBER       
                                                            OBSERVER / AGENCY   
496642              LEICA GRX1200+GNSS  8.10/4.007          REC # / TYPE / VERS 
10321018            LEIAR25         NONE                    ANT # / TYPE        
  5206098.7325   612081.0247  3621806.3029                  APPROX POSITION XYZ 
        0.0720        0.0000        0.0000                  ANTENNA: DELTA H/E/N
     1     1                                                WAVELENGTH FACT L1/2
     4    C1    L1    P2    L2                              # / TYPES OF OBSERV 
    30.000                                                  INTERVAL            
  2015    01    14    00    00    0.0000000     GPS         TIME OF FIRST OBS   
  2015    01    14    23    59   30.0000000     GPS         TIME OF LAST OBS    
    16                                                      LEAP SECONDS        
    54                                                      # OF SATELLITES     
   G 1   812   812   812   812                              PRN / # OF OBS      
   G 2   941   941   941   941                              PRN / # OF OBS      
   G 3   849   849   848   848                              PRN / # OF OBS      
   G 4   844   844   844   844                              PRN / # OF OBS      
   G 5   654   654   654   654                              PRN / # OF OBS      
   G 6   785   784   776   776                              PRN / # OF OBS      
   G 7   668   668   667   667                              PRN / # OF OBS      
   G 9   808   808   806   806                              PRN / # OF OBS      
   G10   761   761   761   761                              PRN / # OF OBS      
   G11   782   782   782   782                              PRN / # OF OBS      
   G12   841   841   840   840                              PRN / # OF OBS      
   G13   793   793   793   793                              PRN / # OF OBS      
   G14   949   949   948   948                              PRN / # OF OBS      
   G15   705   705   705   705                              PRN / # OF OBS      
   G16   665   665   664   664                              PRN / # OF OBS      
   G17   938   938   938   938                              PRN / # OF OBS      
   G18   905   903   901   900                              PRN / # OF OBS      
   G19   759   759   759   759                              PRN / # OF OBS      
   G20   848   848   847   847                              PRN / # OF OBS      
   G21   742   742   741   741                              PRN / # OF OBS      
   G22   656   656   655   655                              PRN / # OF OBS      
   G23   756   756   756   756                              PRN / # OF OBS      
   G24   838   838   838   838                              PRN / # OF OBS      
   G25   862   862   862   862                              PRN / # OF OBS      
   G27   804   804   804   804                              PRN / # OF OBS      
   G28   863   861   858   857                              PRN / # OF OBS      
   G29   784   783   779   779                              PRN / # OF OBS      
   G30   691   690   682   682                              PRN / # OF OBS      
   G31   846   846   841   841                              PRN / # OF OBS      
   G32   772   768   759   759                              PRN / # OF OBS      
   R 1   926   926   913   911                              PRN / # OF OBS      
   R 2   920   920   914   914                              PRN / # OF OBS      
   R 3   844   844   835   827                              PRN / # OF OBS      
   R 4   684   684   682   682                              PRN / # OF OBS      
   R 5   773   773   769   769                              PRN / # OF OBS      
   R 6   758   757   753   753                              PRN / # OF OBS      
   R 7   664   664   664   663                              PRN / # OF OBS      
   R 8   864   864   853   845                              PRN / # OF OBS      
   R 9   588   588   525   521                              PRN / # OF OBS      
   R10   663   663   614   614                              PRN / # OF OBS      
   R11   856   856   814   809                              PRN / # OF OBS      
   R12   884   884   884   884                              PRN / # OF OBS      
   R13   748   748   745   745                              PRN / # OF OBS      
   R14   790   790   755   752                              PRN / # OF OBS      
   R15   821   821   809   809                              PRN / # OF OBS      
   R16   765   765   754   754                              PRN / # OF OBS      
   R17   768   768   764   763                              PRN / # OF OBS      
   R18   673   673   673   672                              PRN / # OF OBS      
   R19   576   576   567   566                              PRN / # OF OBS      
   R20   776   776   764   763                              PRN / # OF OBS      
   R21   585   585   574   508                              PRN / # OF OBS      
   R22   914   914   907   902                              PRN / # OF OBS      
   R23   776   776   772   767                              PRN / # OF OBS      
   R24   878   878   865   864                              PRN / # OF OBS      
BIT 2 OF LLI FLAGS DATA COLLECTED UNDER A/S CONDITION       COMMENT             
SNR is mapped to RINEX snr flag value [2-9]                 COMMENT             
Lx:     = 25dBHz -> 1; 26-27dBHz -> 2; 28-31dBHz -> 3       COMMENT             
       32-35dBHz -> 4; 36-38dBHz -> 5; 39-41dBHz -> 6       COMMENT             
       42-44dBHz -> 7; 45-48dBHz -> 8; >=49dBHz -> 9        COMMENT             
                                                            END OF HEADER       
 15 01 14 00 00  0.0000000  0 14G02G12G14G21G24G25G29G31R11R12R13R21
                                R22R23
  23771299.440   124919038.39408  23771294.480    97339509.76245
  22703270.960   119306709.75109  22703269.320    92966357.82247
  22873287.100   120199937.70008  22873282.220    93662260.22344
  23802270.020   125081811.88307  23802266.820    97466328.40744
  24153875.800   126929557.49007  24153877.960    98906184.11444
  20760101.460   109095081.46909  20760100.180    85009189.20247
  20085358.840   105549388.37009  20085356.860    82246263.66348
  22115055.840   116215400.49009  22115050.520    90557454.26646
  21924942.440   117160289.79508  21924945.920    91124713.20205
  19220220.260   102670999.94206  19220225.460    79855236.85608
  21585897.060   115267489.46507  21585897.180    89652481.17506
  23610226.240   126343199.48307  23610227.380    98267004.66605
  19686012.460   105085388.27108  19686012.620    81733141.24707
  20169565.900   107893621.67108  20169567.300    83917234.54307
 15 01 14 00 00 30.0000000  0 13G02G12G14G21G24G25G29G31R11R12R13R22
                                R23
  23782886.200   124979927.93108  23782881.340    97386956.18045
  22714893.920   119367786.55809  22714891.960    93013950.12347
  22885023.080   120261609.89508  22885018.460    93710316.49844
  23784323.380   124987502.90407  23784320.100    97392841.01843
  24174181.540   127036266.33507  24174184.040    98989333.74244
  20762556.240   109107980.49009  20762555.080    85019240.39348
  20086352.540   105554609.04509  20086350.340    82250331.72848
  22101057.020   116141835.15909  22101051.660    90500130.65846
  21942466.800   117253934.73708  21942470.480    91197548.15105
  19219077.860   102664896.58906  19219082.920    79850489.81008
  21566662.180   115164775.87507  21566662.480    89572592.86406
  19698324.720   105151111.50809  19698324.780    81784259.32807
  20157848.220   107830941.65608  20157849.520    83868483.44307
 15 01 14 00 01  0.0000000  0 13G02G12G14G21G24G25G29G31R11R12R13R22
                                R23
  23794546.020   125041202.18807  23794541.560    97434702.39046
  22726541.320   119428992.37209  22726539.120    93061642.93247
  22896822.900   120323618.88508  22896819.040    93758635.17544
  23766394.400   124893286.66107  23766391.020    97319425.88042
  24194512.600   127143107.17908  24194515.020    99072586.23344
  20765053.300   109121102.36609  20765052.260    85029465.23147
  20087427.980   105560258.13509  20087425.540    82254733.61648
  22087119.340   116068591.13409  22087114.140    90443057.41346
  21960064.200   117347970.50808  21960068.040    91270687.07604
  19218051.960   102659415.88407  19218056.900    79846227.04308
  21547463.240   115062253.58407  21547463.560    89492853.31006
  19710737.340   105217370.36209  19710737.360    81835794.01107
  20146245.600   107768878.92108  20146247.100    83820212.45407
 15 01 14 00 01 30.0000000  0 13G02G12G14G21G24G25G29G31R11R12R13R22
                                R23
  23806278.720   125102859.74508  23806274.580    97482747.27046
  22738213.220   119490327.41409  22738210.780    93109436.44747
  22908686.100   120385962.07408  22908683.280    93807214.25745
  23748483.600   124799165.73007  23748480.480    97246085.01243
  24214868.560   127250078.23908  24214870.800    99155940.20244
  20767592.780   109134448.08009  20767591.920    85039864.47547
  20088584.960   105566335.38109  20088582.220    82259469.13248
  22073243.280   115995671.36609  22073238.340    90386236.83947
  21977734.600   117442396.61508  21977738.300    91344129.60304
  19217143.080   102654560.19307  19217147.840    79842450.38208
  21528300.840   114959926.14008  21528301.180    89413265.31006
  19723249.760   105284161.81509  19723249.840    81887742.92807
  20134758.780   107707434.75508  20134760.460    83772422.54707
 15 01 14 00 02  0.0000000  0 13G02G12G14G21G24G25G29G31R11R12R13R22
                                R23
  23818083.000   125164892.92408  23818078.940    97531084.84545
  22749908.600   119551786.48609  22749906.060    93157326.59447
  22920611.240   120448631.13608  22920609.400    93856047.25845
  23730590.480   124705136.69807  23730587.260    97172815.71643
  24235248.020   127357171.94408  24235249.980    99239389.76045
  20770173.680   109148012.04909  20770173.080    85050433.77948
  20089821.840   105572833.19309  20089818.740    82264532.36048
  22059428.080   115923071.94508  22059423.460    90329665.89847
  21995476.420   117537204.71308  21995479.820    91417869.20604
  19216350.380   102650324.93306  19216354.920    79839156.27708
  21509174.260   114857790.36208  21509174.520    89333826.38207
  19735860.080   105351475.83708  19735860.260    81940098.26507
  20123386.900   107646604.11408  20123388.800    83725109.84307
 15 01 14 00 02 30.0000000  0 13G02G12G14G21G24G25G29G31R11R12R13R22
                                R23
  23829959.600   125227305.96607  23829955.540    97579718.39245
  22761628.600   119613375.74609  22761626.020    93205318.20846
  22932598.820   120511628.52308  22932597.760    93905136.11445
  23712716.600   124611208.14907  23712713.360    97099624.76244
  24255651.580   127464392.11507  24255653.220    99322937.83944
  20772797.420   109161800.86309  20772796.980    85061178.29748
  20091139.400   105579756.06109  20091136.020    82269926.80348
  22045675.320   115850801.51808  22045671.100    90273351.31447
  22013290.680   117632399.51408  22013293.340    91491909.60503
  19215675.460   102646718.66507  19215679.760    79836351.41007
  21490085.380   114755856.45807  21490085.740    89254544.47806
  19748568.760   105419315.29509  19748569.100    81992862.27107
  20112131.380   107586394.70908  20112133.420    83678280.31608
 15 01 14 00 03  0.0000000  0 13G02G12G14G21G24G25G29G31R11R12R13R22
                                R23
  23841907.380   125290092.67607  23841903.220    97628643.10946
  22773372.460   119675090.71209  22773369.940    93253407.78446
  22944647.580   120574947.27308  22944647.080    93954475.37745
  23694861.420   124517378.09007  23694858.440    97026510.54944
  24276077.940   127571732.78007  24276079.380    99406579.79545
  20775463.180   109175810.60109  20775462.920    85072094.96347
  20092536.500   105587098.51009  20092533.100    82275648.19248
  22031984.680   115778858.13308  22031980.880    90217291.58746
  22031176.420   117727975.33108  22031178.300    91566246.36103
  19215117.840   102643738.50907  19215121.880    79834033.52107
  21471033.820   114654123.00707  21471034.340    89175418.49606
  19761374.320   105487671.78409  19761374.840    82046028.43207
  20100991.320   107526802.84708  20100993.500    83631931.11508
 15 01 14 00 03 30.0000000  0 13G02G12G14G21G24G25G29G31R11R12R13R22
                                R23
  23853926.420   125353252.98407  23853921.980    97677858.94245
  22785140.500   119736933.49308  22785138.080    93301596.95845
  22956757.320   120638586.15707  22956757.060    94004064.08946
  23677025.660   124423650.29207  23677022.880    96953475.99742
  24296526.900   127679192.52207  24296528.320    99490314.52444
  20778171.300   109190043.19209  20778171.300    85083185.28648
  20094013.400   105594860.67209  20094009.960    82281696.62848
  22018357.020   115707245.80708  22018353.500    90161489.80946
  22049133.400   117823931.61808  22049134.720    91640879.04603
  19214678.020   102641387.75007  19214681.860    79832205.15908
  21452020.480   114552595.20907  21452021.380    89096452.47406
  19774276.440   105556543.16809  19774277.120    82099595.06807
  20089967.120   107467830.70908  20089969.300    83586063.90708
 15 01 14 00 04  0.0000000  0 13G02G12G14G21G24G25G29G31R11R12R13R22
                                R23
  23866016.260   125416784.61808  23866011.620    97727364.11545
  22796932.720   119798903.99808  22796930.580    93349885.63945
  22968927.300   120702541.70207  22968927.120    94053899.52945
  23659209.900   124330027.27107  23659207.000    96880523.02243
  24316998.080   127786769.28107  24316999.520    99574140.46742
  20780921.720   109204498.89608  20780922.180    85094449.45848
  20095569.860   105603040.98709  20095566.400    82288070.88948
  22004792.760   115635966.13509  22004789.400    90105947.23346
  22067161.140   117920266.57108  22067162.120    91715806.24203
  19214356.180   102639667.94507  19214359.900    79830867.53307
  21433046.100   114451276.17007  21433047.200    89017648.78506
  19787274.240   105625925.61608  19787275.300    82153559.18007
  20079058.920   107409479.34908  20079061.000    83540679.53708
 15 01 14 00 04 30.0000000  0 13G02G12G14G21G24G25G29G31R11R12R13R22
                                R23
  23878176.660   125480686.56908  23878171.700    97777157.84845
  22808749.300   119861002.82008  22808747.260    93398274.32544
  22981157.260   120766812.24107  22981157.160    94103980.43745
  23641414.600   124236512.33807  23641412.120    96807654.34442
  24337491.300   127894461.92907  24337493.180    99658056.74243
  20783714.800   109219179.07408  20783715.800    85105888.55648
  20097205.760   105611638.95809  20097202.440    82294770.61548
  21991292.640   115565022.61809  21991289.300    90050666.61346
  22085259.520   118016979.35108  22085260.660    91791027.28903
  19214152.580   102638581.75807  19214156.560    79830022.71907
  21414111.760   114350170.26507  21414112.740    88939010.86305
  19800367.000   105695816.30708  19800368.740    82207918.58707
  20068266.920   107351750.07908  20068269.080    83495779.00608
 15 01 14 00 05  0.0000000  0 13G02G12G14G21G24G25G29G31R11R12R13R22
                                R23
  23890406.720   125544953.96308  23890401.360    97827236.33745
  22820589.620   119923227.15708  22820587.920    93446760.82744
  22993446.160   120831391.53007  22993445.940    94154301.95444
  23623639.500   124143104.37707  23623636.740    96734868.93643
  24358005.920   128002265.56608  24358007.480    99742059.47243
  20786550.180   109234081.01708  20786551.600    85117500.45848
  20098920.240   105620649.95108  20098917.140    82301792.15548
  21977856.540   115494414.62709  21977853.080    89995647.41346
  22103427.720   118114065.20508  22103428.940    91866538.48203
  19214067.020   102638127.39406  19214071.460    79829669.32407
  21395217.560   114249277.80707  21395218.080    88860538.93705
  19813553.400   105766208.49508  19813556.040    82262668.04007
  20057590.880   107294640.75808  20057593.360    83451360.66208
 15 01 14 00 05 30.0000000  0 13G02G12G14G21G24G25G29G31R11R12R13R22
                                R23
  23902706.700   125609588.71408  23902700.860    97877601.10445
  22832454.100   119985580.25707  22832452.800    93495347.62645
  23005794.060   120896280.55307  23005793.760    94204864.80244
  23605885.920   124049810.05607  23605883.280    96662172.14543
  24378542.020   128110181.62308  24378543.220    99826149.85144
  20789428.700   109249209.06908  20789430.520    85129288.53648
  20100713.920   105630076.74108  20100711.080    82309137.69648
  21964485.560   115424148.33609  21964481.880    89940894.48446
  22121666.200   118211526.09908  22121667.000    91942341.38903
  19214100.900   102638310.80507  19214105.800    79829811.97807
  21376364.800   114148605.89507  21376365.220    88782238.56105
  19826833.660   105837101.90208  19826837.060    82317807.32907
  20047031.720   107238156.19809  20047034.540    83407428.24508
 15 01 14 00 06  0.0000000  0 14G02G12G14G21G24G25G29G31R11R12R13R22
                                R23R24
  23915076.520   125674591.49508  23915070.380    97928252.64845
  22844343.780   120048065.91906  22844343.420    93544037.75845
  23018200.860   120961478.48507  23018200.540    94255668.37045
  23588154.740   123956633.78707  23588152.520    96589567.30243
  24399099.480   128218210.43108  24399100.540    99910328.00743
  20792351.000   109264566.00908  20792352.940    85141254.97848
  20102587.100   105639920.01409  20102584.400    82316807.77648
  21951180.500   115354228.19709  21951176.460    89886411.28846
  22139975.220   118309362.86108  22139975.580    92018436.67503
  19214255.180   102639135.79307  19214260.120    79830453.63507
  21357554.700   114048160.72208  21357555.120    88704114.53306
  19840207.860   105908495.42208  19840211.520    82373335.60407
  20036590.020   107182299.85509  20036593.180    83363984.46008
  23649709.920   126465614.08206                                
 15 01 14 00 06 30.0000000  0 14G02G12G14G21G24G25G29G31R11R12R13R22
                                R23R24
  23927515.500   125739958.40607  23927509.380    97979187.91345
  22856258.540   120110682.06007  22856259.320    93592829.49745
  23030665.580   121026980.52307  23030665.340    94306708.91545
  23570446.260   123863576.84907  23570444.620    96517055.48044
  24419677.580   128326348.31707  24419678.300    99994591.13544
  20795316.780   109280150.61808  20795318.580    85153398.81948
  20104539.180   105650176.80509  20104536.500    82324800.10648
  21937941.420   115284654.93309  21937937.020    89832198.36746
  22158353.860   118407571.91007  22158354.220    92094821.48503
  19214529.820   102640602.33907  19214534.520    79831594.28807
  21338787.520   113947943.81008  21338788.180    88626168.04006
  19853674.920   105980383.62208  19853678.180    82429248.64007
  20026265.520   107127070.45309  20026269.000    83321028.29608
  23627598.720   126347379.43106  23627598.520    98270209.94603
 15 01 14 00 07  0.0000000  0 14G02G12G14G21G24G25G29G31R11R12R13R22
                                R23R24
  23940023.000   125805684.93108  23940016.740    98030403.39445
  22868198.120   120173425.71507  22868199.440    93641720.61245
  23043186.980   121092781.34207  23043187.020    94357982.24844
  23552760.360   123770638.70407  23552759.180    96444636.24144
  24440275.460   128434590.26007  24440276.000   100078935.39044
  20798325.540   109295960.64409  20798327.080    85165718.30248
  20106569.120   105660842.76909  20106566.440    82333111.25148
  21924768.240   115215428.13809  21924763.320    89778255.42246
  22176801.340   118506148.77307  22176802.180    92171492.38303
  19214924.440   102642708.96107  19214928.780    79833232.76607
  21320063.320   113847955.62708  21320064.160    88548399.45606
  19867233.560   106052759.96808  19867235.940    82485541.34607
  20016057.980   107072466.33109  20016061.600    83278558.45008
  23605528.900   126229365.04105  23605528.420    98178421.11303
 15 01 14 00 07 30.0000000  0 14G02G12G14G21G24G25G29G31R11R12R13R22
                                R23R24
  23952599.460   125871773.34008  23952593.100    98081900.88045
  22880163.320   120236301.40507  22880164.700    93690714.64445
  23055765.200   121158881.86906  23055765.860    94409489.15245
  23535098.340   123677825.69607  23535097.640    96372314.52144
  24460893.320   128542938.28206  24460893.800   100163362.27544
  20801378.080   109312000.48908  20801379.340    85178216.87648
  20108677.420   105671920.95109  20108674.740    82341743.62548
  21911662.200   115146554.40909  21911656.620    89724587.58346
  22195317.840   118605095.76807  22195320.020    92248451.13303
  19215439.940   102645461.54207  19215443.980    79835373.66007
  21301383.440   113748204.04108  21301384.580    88470814.89907
  19880883.640   106125624.60608  19880885.000    82542213.83506
  20005968.200   107018491.69909  20005971.620    83236578.19808
  23583501.160   126111576.71904  23583501.660    98086808.18304
 15 01 14 00 08  0.0000000  0 14G02G12G14G21G24G25G29G31R11R12R13R22
                                R23R24
  23965243.240   125938216.13008  23965237.040    98133674.50345
  22892152.940   120299303.76008  22892153.920    93739807.34346
  23068398.600   121225273.35906  23068399.940    94461222.78045
  23517459.560   123585134.64007  23517459.120    96300087.81045
  24481529.640   128651384.79407  24481530.360   100247865.81143
  20804473.320   109328265.10008  20804474.400    85190890.57448
  20110862.440   105683403.77908  20110859.800    82350691.29648
  21898622.660   115078030.30409  21898616.460    89671192.17946
  22213902.020   118704405.35607  22213905.860    92325691.87704
  19216075.480   102648855.83707  19216079.400    79838013.64007
  21282747.420   113648686.95308  21282748.880    88393412.71907
  19894623.320   106198968.09808  19894624.080    82599258.77106
  19995995.140   106965141.63309  19995998.280    83195083.72508
  23561514.940   125994011.48304  23561517.160    97995368.77005
 15 01 14 00 08 30.0000000  0 13G02G12G14G21G24G25G29G31R11R12R13R22
                                R23
  23977954.840   126005016.25707  23977948.920    98185726.55245
  22904167.780   120362437.53808  22904168.160    93789002.47446
  23081087.820   121291958.38806  23081089.840    94513185.05244
  23499845.580   123492572.92607  23499845.200    96227961.88244
  24502185.520   128759932.48608  24502186.100   100332448.30544
  20807612.240   109344759.96008  20807613.240    85203743.70648
  20113124.920   105695295.10008  20113122.500    82359957.27048
  21885651.100   115009863.32709  21885644.480    89618075.03946
  22232554.760   118804080.93207  22232559.960    92403217.30404
  19216832.400   102652898.60607  19216836.240    79841158.00407
  21264156.760   113549412.86708  21264158.420    88316199.56407
  19908452.920   106272791.79908  19908453.360    82656677.21806
  19986139.880   106912422.12109  19986142.600    83154079.68908
 15 01 14 00 09  0.0000000  0 14G02G12G14G21G24G25G29G31R11R12R13R22
                                R23R24
  23990733.140   126072167.50707  23990727.680    98238052.20745
  22916206.960   120425698.91108  22916206.660    93838297.04846
  23093831.560   121358928.81706  23093833.940    94565369.79645
  23482255.920   123400138.58907  23482255.040    96155935.17244
  24522859.660   128868574.92408  24522859.640   100417104.66443
  20810794.180   109361481.12808  20810795.080    85216773.17348
  20115463.880   105707589.20008  20115461.800    82369537.08448
  21872746.960   114942051.00609  21872740.280    89565234.28246
  22251274.860   118904115.92207  22251280.920    92481022.26304
  19217710.160   102657586.77508  19217713.860    79844804.34507
  21245611.300   113450380.78008  21245613.180    88239174.63207
  19922371.060   106347087.52508  19922371.160    82714462.80606
  19976401.700   106860329.28009  19976404.020    83113563.06808
  23517670.000   125759550.21604  23517678.200    97813015.14805
 15 01 14 00 09 30.0000000  0 14G02G12G14G21G24G25G29G31R11R12R13R22
                                R23R24
  24003578.380   126139670.87607  24003573.500    98290652.23145
  22928270.760   120489090.90308  22928269.820    93887693.37146
  23106630.080   121426184.95206  23106632.400    94617777.12345
  23464691.540   123307836.97907  23464690.380    96084011.89744
  24543552.000   128977312.89808  24543551.440   100501835.45343
  20814019.860   109378432.08308  20814020.640    85229981.69347
  20117879.740   105720287.28408  20117878.020    82379431.68948
  21859911.220   114874598.55909  21859904.840    89512673.95646
  22270062.460   119004511.56407  22270068.740    92559107.75104
  19218709.760   102662924.76308  19218713.080    79848956.10507
  21227112.360   113351597.35207  21227114.580    88162343.11107
  19936377.560   106421854.33008  19936377.320    82772614.76106
  19966781.280   106808866.50909  19966783.340    83073536.48708
  23495815.320   125642677.87304  23495822.240    97722114.64705
 15 01 14 00 10  0.0000000  0 14G02G12G14G21G24G25G29G31R11R12R13R22
                                R23R24
  24016490.800   126207526.93608  24016486.460    98343527.09245
  22940359.740   120552615.99408  22940358.180    93937193.46146
  23119483.120   121493726.34406  23119485.160    94670406.82044
  23447153.340   123215673.25007  23447151.980    96012196.06544
  24564262.600   129086146.95008  24564262.280   100586641.05244
  20817289.820   109395615.83909  20817290.540    85243371.62148
  20120373.020   105733390.43908  20120371.320    82389641.92548
  21847144.780   114807511.01809  21847138.920    89460397.98746
  22288917.920   119105269.03007  22288924.220    92637474.61503
  19219831.800   102668916.63708  19219834.640    79853616.45007
  21208661.020   113253068.70408  21208663.720    88085709.74707
  19950472.220   106497091.21508  19950471.840    82831132.33606
  19957279.200   106758037.13409  19957281.180    83034002.56208
  23474005.420   125526044.29006  23474011.000    97631399.83606
 15 01 14 00 10 30.0000000  0 14G02G12G14G21G24G25G29G31R11R12R13R22
                                R23R24
  24029469.500   126275731.16707  24029465.600    98396673.25845
  22952473.320   120616272.20708  22952471.420    93986795.67546
  23132389.440   121561547.49607  23132390.920    94723254.43044
  23429641.220   123123647.27306  23429639.580    95940487.54744
  24584990.600   129195072.50808  24584990.740   100671517.94944
  20820603.740   109413030.48509  20820604.460    85256941.45847
  20122942.960   105746894.91808  20122940.980    82400164.89448
  21834447.680   114740788.26109  21834442.420    89408406.26947
  22307840.220   119206383.35307  22307846.160    92716119.07703
  19221075.980   102675561.01808  19221078.360    79858784.30807
  21190257.560   113154795.69508  21190260.620    88009275.22107
  19964653.720   106572791.91808  19964653.420    82890010.63606
  19947895.000   106707839.05109  19947897.100    82994959.65008
  23452239.660   125409649.62405  23452244.600    97540870.84405
 15 01 14 00 11  0.0000000  0 14G02G12G14G21G24G25G29G31R11R12R13R22
                                R23R24
  24042514.040   126344281.81207  24042510.600    98450089.34945
  22964611.780   120680059.31208  22964609.560    94036499.90946
  23145348.480   121629645.17507  23145349.220    94776317.51544
  23412155.520   123031761.61206  23412154.260    95868888.40244
  24605735.640   129304087.46508  24605736.060   100756464.44744
  20823961.800   109430676.38709  20823962.420    85270691.50648
  20125589.100   105760799.41408  20125586.820    82410999.54948
  21821820.420   114674432.59709  21821815.660    89356700.59246
  22326829.120   119307852.81307  22326834.240    92795039.76802
  19222442.480   102682859.60608  19222444.560    79864460.98307
  21171902.880   113056782.51908  21171906.020    87933042.75406
  19978921.220   106648952.60708  19978921.240    82949246.68606
  19938628.940   106658272.86709  19938631.140    82956408.20508
  23430518.160   125293495.85403  23430523.020    97450529.24005
 15 01 14 00 11 30.0000000  0 13G02G12G14G21G24G25G29G31R11R12R13R22
                                R23
  24055624.200   126413177.62607  24055621.200    98503774.43345
  22976775.080   120743978.17908  22976772.640    94086306.81746
  23158359.820   121698017.60307  23158359.820    94829594.71043
  23394696.900   122940018.93006  23394696.440    95797400.67144
  24626497.340   129413190.49807  24626497.700   100841479.61044
  20827364.160   109448554.78009  20827364.620    85284622.71348
  20128311.120   105775102.98408  20128308.600    82422145.18948
  21809263.660   114608447.02709  21809259.240    89305283.30846
  22345884.260   119409676.41106  22345888.340    92874235.91602
  19223931.720   102690814.30308  19223933.760    79870647.97807
  21153597.700   112959032.83008  21153600.360    87857015.20306
  19993274.100   106725570.22908  19993274.620    83008838.13206
  19929481.280   106609339.72309  19929483.320    82918349.13508
 15 01 14 00 12  0.0000000  0 14G02G12G14G21G24G25G29G31R11R12R13R22
                                R23R24
  24068798.560   126482411.22607  24068796.000    98557722.70945
  22988962.540   120808024.07908  22988959.960    94136212.71546
  23171421.900   121766656.11507  23171420.780    94883079.28344
  23377265.060   122848416.70907  23377265.340    95726022.36344
  24647274.440   129522374.37807  24647274.760   100926557.73844
  20830809.900   109466660.93309  20830810.140    85298731.40448
  20131107.580   105789798.73608  20131105.040    82433596.42248
  21796776.820   114542828.71809  21796772.480    89254152.18047
  22365004.060   119511846.76606  22365007.060    92953701.74402
  19225542.860   102699421.21808  19225545.160    79877342.23107
  21135341.640   112861545.23908  21135343.640    87781191.49805
  20007710.700   106802635.39808  20007711.600    83068777.68306
  19920451.100   106561034.85208  19920453.000    82880778.70908
  23387212.000   125061924.69705  23387215.920    97270408.37005
 15 01 14 00 12 30.0000000  0 14G02G12G14G21G24G25G29G31R11R12R13R22
                                R23R24
  24082038.040   126551986.73407  24082035.800    98611937.41645
  23001175.240   120872202.38508  23001172.520    94186221.77445
  23184535.280   121835563.64807  23184532.920    94936773.47444
  23359861.820   122756963.08807  23359862.520    95654759.85245
  24668067.780   129631642.76208  24668068.160   101011701.70245
  20834300.140   109485001.23809  20834300.240    85313022.53048
  20133979.380   105804891.19008  20133977.140    82445356.76748
  21784361.360   114477585.52209  21784356.920    89203313.34246
  22384189.260   119614367.88405  22384191.320    93033440.37903
  19227277.340   102708687.48708  19227279.920    79884549.31607
  21117136.280   112764329.26908  21117137.560    87705579.03605
  20022231.780   106880150.64608  20022232.760    83129067.28106
  19911539.520   106513364.62208  19911541.220    82843701.89207
  23365628.600   124946505.57406  23365631.840    97180638.10505
 15 01 14 00 13  0.0000000  0 14G02G12G14G21G24G25G29G31R11R12R13R22
                                R23R24
  24095341.440   126621898.05207  24095339.340    98666413.76545
  23013412.580   120936510.07208  23013409.680    94236331.66045
  23197698.420   121904733.06808  23197694.960    94990671.72244
  23342486.800   122665656.47807  23342487.240    95583611.86344
  24688876.180   129740989.18008  24688876.460   101096906.48045
  20837834.240   109503572.16309  20837834.320    85327493.37548
  20136925.600   105820374.93608  20136923.900    82457422.01848
  21772017.000   114412715.85609  21772012.200    89152765.56946
  22403438.800   119717233.78106  22403440.320    93113447.15202
  19229134.680   102718610.14908  19229137.520    79892266.92707
  21098981.540   112667384.28208  21098982.720    87630177.35506
  20036835.960   106958108.00808  20036836.660    83189700.76006
  19902745.900   106466325.33008  19902747.200    82807115.80107
  23344091.540   124831334.46807  23344094.220    97091060.72805
 15 01 14 00 13 30.0000000  0 14G02G12G14G21G24G25G29G31R11R12R13R22
                                R23R24
  24108709.020   126692145.83907  24108706.860    98721152.30345
  23025675.120   121000949.60308  23025672.180    94286544.27546
  23210911.200   121974164.17808  23210906.980    95044773.86744
  23325140.780   122574502.17307  23325140.900    95512582.60644
  24709699.640   129850414.65508  24709699.500   101182172.86444
  20841412.740   109522376.82209  20841412.900    85342146.35148
  20139946.520   105836250.91908  20139945.440    82469792.90348
  21759744.740   114348224.86009  21759739.500    89102512.84346
  22422753.140   119820445.35006  22422754.400    93193722.81502
  19231115.820   102729193.20608  19231118.800    79900498.17707
  21080878.720   112570716.66608  21080880.440    87554991.43507
  20051522.980   107036506.22109  20051523.200    83250677.11806
  19894070.660   106419919.93708  19894071.860    82771022.75707
  23322601.540   124716416.08207  23322603.700    97001679.91406
 15 01 14 00 14  0.0000000  0 14G02G12G14G21G24G25G29G31R11R12R13R22
                                R23R24
  24122140.000   126762725.57707  24122137.560    98776149.52045
  23037962.340   121065518.72308  23037959.560    94336857.84945
  23224172.620   122043851.62708  23224167.980    95099075.78344
  23307823.760   122483500.22507  23307823.460    95441672.03844
  24730537.180   129959914.38808  24730536.020   101267497.15644
  20845035.260   109541413.31109  20845035.600    85356979.96948
  20143041.380   105852515.23208  20143040.720    82482466.37448
  21747544.440   114284112.07909  21747538.880    89052554.84846
  22442131.140   119923998.17305  22442133.000    93274263.88903
  19233220.340   102740435.45708  19233223.660    79909242.14207
  21062828.080   112474327.84308  21062830.720    87480022.37307
  20066291.560   107115338.98409  20066291.220    83311991.47506
  19885513.620   106374146.31108  19885514.980    82735421.07307
  23301158.560   124601750.28407  23301160.380    96912495.55105
 15 01 14 00 14 30.0000000  0 14G02G12G14G21G24G25G29G31R11R12R13R22
                                R23R24
  24135634.620   126833639.01507  24135631.840    98831406.74645
  23050275.000   121130220.97908  23050272.320    94387275.21645
  23237482.580   122113795.27408  23237477.980    95153577.30644
  23290536.820   122392656.33007  23290536.320    95370884.64044
  24751389.040   130069489.85208  24751386.700   101352880.48343
  20848702.600   109560685.59909  20848703.100    85371997.33448
  20146210.520   105869169.75108  20146210.220    82495443.91548
  21735417.220   114220383.51209  21735411.480    89002896.23546
  22461573.140   120027893.43106  22461576.440    93355071.26003
  19235449.080   102752341.66208  19235452.720    79918502.51307
  21044830.820   112378224.56807  21044834.220    87405275.41507
  20081141.540   107194606.40709  20081140.500    83373643.91306
  19877075.520   106329008.12008  19877076.960    82700313.62908
  23279763.500   124487342.81507  23279765.240    96823512.13305
 15 01 14 00 15  0.0000000  0 14G02G12G14G21G24G25G29G31R11R12R13R22
                                R23R24
  24149192.120   126904882.63207  24149189.020    98886921.25745
  23062612.560   121195055.32308  23062610.220    94437795.47044
  23250840.480   122183991.39908  23250836.140    95208275.57744
  23273280.280   122301971.68007  23273279.300    95300221.31845
  24772254.580   130179137.94608  24772252.980   101438320.38643
  20852414.720   109580193.02709  20852415.300    85387197.91348
  20149453.360   105886212.00708  20149453.320    82508723.59348
  21723363.200   114157039.98009  21723357.260    88953537.64446
  22481079.360   120132128.44207  22481083.560    93436142.88904
  19237802.040   102764911.51608  19237806.000    79928279.05807
  21026887.520   112282409.63907  21026891.440    87330752.72407
  20096071.780   107274303.10209  20096070.200    83435630.22506
  19868756.020   106284504.78208  19868757.720    82665699.94808
  23258416.800   124373194.77506  23258418.380    96734730.40104
 15 01 14 00 15 30.0000000  0 14G02G12G14G21G24G25G29G31R11R12R13R22
                                R23R24
  24162812.220   126976455.77307  24162808.780    98942692.51345
  23074975.680   121260023.38208  23074973.180    94488419.93744
  23264245.960   122254438.15307  23264242.240    95263169.13744
  23256054.880   122211450.06807  23256053.680    95229685.05245
  24793133.640   130288857.66107  24793133.500   101523816.05344
  20856171.960   109599937.51709  20856172.580    85402583.22148
  20152769.840   105903641.49908  20152770.040    82522305.01348
  21711383.040   114094085.28309  21711377.000    88904482.05546
  22500649.220   120236702.32207  22500653.740    93517478.09003
  19240279.720   102778147.66608  19240283.860    79938573.83507
  21008999.180   112186887.96407  21009003.320    87256458.11908
  20111081.820   107354427.01808  20111080.280    83497948.82906
  19860555.100   106240637.64508  19860557.400    82631581.10308
  23237119.240   124259310.06506  23237120.320    96646153.54104
 15 01 14 00 16  0.0000000  0 13G02G12G14G21G25G29G31R11R12R13R22R23
                                R24
  24176495.120   127048359.06507  24176491.160    98998721.04045
  23087364.580   121325126.82408  23087361.600    94539149.91644
  23277698.740   122325134.76507  23277695.780    95318257.38245
  23238861.420   122121096.26008  23238860.080    95159279.52945
  20859974.780   109619921.84409  20859975.520    85418155.41248
  20156160.180   105921459.16708  20156160.540    82536188.90048
  21699477.600   114031523.98609  21699471.740    88855733.00046
  22520282.740   120341615.26608  22520286.820    93599077.03103
  19242882.920   102792053.84808  19242887.040    79949389.74607
  20991167.000   112091665.69208  20991171.220    87182396.39107
  20126171.220   107434976.46908  20126170.100    83560598.38306
  19852473.660   106197409.48208  19852476.460    82597959.22808
  23215871.960   124145693.26205  23215872.500    96557785.03304
 15 01 14 00 16 30.0000000  0 13G02G12G14G21G25G29G31R11R12R13R22R23
                                R24
  24190239.580   127120586.10707  24190235.160    99055001.83744
  23099778.600   121390362.30608  23099775.020    94589982.80443
  23291197.460   122396074.10206  23291195.680    95373534.76944
  23221699.620   122030908.41908  23221697.780    95089003.33245
  20863822.560   109640142.31409  20863823.320    85433911.61448
  20159623.500   105939659.57508  20159623.880    82550371.03248
  21687646.680   113969354.07609  21687641.220    88807288.91946
  22539978.680   120446861.09807  22539981.800    93680934.90702
  19245611.000   102806626.31608  19245614.900    79960723.87107
  20973390.960   111996742.21608  20973395.040    87108567.03507
  20141338.560   107515943.50408  20141337.880    83623572.70606
  19844511.240   106154816.01308  19844514.220    82564830.99508
  23194674.220   124032342.19805  23194674.760    96469623.20304
 15 01 14 00 17  0.0000000  0 13G02G12G14G21G25G29G31R11R12R13R22R23
                                R24
  24204045.900   127193138.33507  24204040.900    99111536.04544
  23112218.620   121455734.44308  23112214.200    94640922.14844
  23304742.000   122467256.90205  23304741.680    95429001.82745
  23204570.460   121940892.58108  23204568.380    95018861.15745
  20867716.100   109660603.05209  20867716.800    85449855.03248
  20163160.260   105958244.47808  20163160.400    82564852.75248
  21675891.580   113907581.31509  21675886.580    88759154.30246
  22559737.060   120552441.51507  22559739.400    93763053.01303
  19248464.800   102821869.91108  19248468.400    79972579.98007
  20955672.300   111902124.72208  20955676.020    87034975.66307
  20156583.920   107597328.04208  20156583.400    83686871.76505
  19836668.560   106112861.37208  19836671.420    82532199.61608
  23173527.340   123919263.03605  23173528.420    96381672.89105
 15 01 14 00 17 30.0000000  0 13G02G12G14G21G25G29G31R11R12R13R22R23
                                R24
  24217912.820   127266009.08907  24217907.580    99168318.43544
  23124683.360   121521237.48008  23124678.680    94691963.50044
  23318331.160   122538674.72105  23318332.380    95484651.98344
  23187473.400   121851046.11508  23187471.140    94948850.96944
  20871654.520   109681299.60409  20871655.040    85465982.21247
  20166769.120   105977207.23408  20166768.880    82579628.92248
  21664211.820   113846203.18909  21664207.380    88711327.20747
  22579556.640   120658349.54608  22579558.120    93845425.98402
  19251443.420   102837780.54208  19251446.920    79984954.90907
  20938010.700   111807811.73808  20938013.900    86961621.15407
  20171905.940   107679121.14508  20171905.220    83750488.60205
  19828944.400   106071540.13408  19828947.000    82500060.89408
  23152430.920   123806452.88005  23152432.640    96293931.80805
 15 01 14 00 18  0.0000000  0 13G02G12G14G21G25G29G31R11R12R13R22R23
                                R24
  24231839.900   127339195.28007  24231834.480    99225346.64444
  23137172.640   121586870.33208  23137168.420    94743105.98744
  23331965.100   122610323.66105  23331967.000    95540482.26945
  23170408.840   121761370.57908  23170406.200    94878973.94944
  20875637.660   109702231.53509  20875637.920    85482292.79347
  20170449.560   105996545.54708  20170448.860    82594697.72648
  21652607.560   113785220.82309  21652603.600    88663808.49047
  22599436.620   120764581.55707  22599437.600    93928050.86703
  19254546.700   102854358.24607  19254550.360    79997848.67107
  20920406.720   111713806.45808  20920409.200    86888505.94206
  20187303.840   107761317.93008  20187302.940    83814419.43205
  19821338.500   106030851.78308  19821340.920    82468414.41508
  23131385.080   123693912.67905  23131387.400    96206400.72405
 15 01 14 00 18 30.0000000  0 13G02G12G14G21G25G29G31R11R12R13R22R23
                                R24
  24245826.120   127412692.12507  24245820.720    99282616.89645
  23149686.200   121652631.28108  23149682.780    94794348.27845
  23345642.700   122682197.93707  23345644.200    95596488.14944
  23153376.620   121671865.86408  23153373.540    94809230.04344
  20879665.280   109723396.79209  20879665.260    85498785.19747
  20174200.660   106016254.91708  20174199.500    82610055.66548
  21641078.600   113724633.73509  21641074.960    88616597.78747
  22619376.040   120871133.54007  22619376.960    94010924.57002
  19257774.500   102871601.45607  19257778.460    80011260.04607
  20902860.580   111620109.90108  20902862.060    86815630.82805
  20202776.520   107843912.20508  20202775.600    83878659.43406
  19813850.180   105990793.77408  19813852.760    82437258.21808
  23110389.980   123581642.77506  23110392.500    96119079.83105
 15 01 14 00 19  0.0000000  0 13G02G12G14G21G25G29G31R11R12R13R22R23
                                R24
  24259872.900   127486507.23507  24259867.420    99340135.15644
  23162225.820   121718529.74108  23162222.800    94845697.72044
  23359364.800   122754304.32307  23359365.520    95652674.92745
  23136379.120   121582543.70608  23136375.720    94739628.36844
  20883739.280   109744805.47009  20883739.080    85515467.27047
  20178024.020   106036343.87509  20178022.420    82625709.39648
  21629627.100   113664453.86709  21629623.620    88569704.39448
  22639376.700   120978012.59607  22639377.320    94094052.73203
  19261128.820   102889520.62507  19261133.080    80025197.16907
  20885374.660   111526735.44708  20885375.040    86743006.21705
  20218324.880   107926909.84608  20218324.560    83943213.14906
  19806481.400   105951375.76008  19806484.140    82406599.79508
  23089447.780   123469654.65607  23089450.100    96031978.09604
 15 01 14 00 19 30.0000000  0 13G02G12G14G21G25G29G31R11R12R13R22R23
                                R24
  24273979.120   127560634.85508  24273973.800    99397896.92744
  23174790.980   121784562.10408  23174788.560    94897151.53045
  23373129.820   122826635.96407  23373129.780    95709037.23045
  23119416.000   121493402.87308  23119412.740    94670168.00544
  20887859.020   109766454.36109  20887858.760    85532336.52347
  20181918.540   106056806.80109  20181916.520    82641654.53248
  21618252.740   113604679.78809  21618249.300    88523127.20647
  22659437.800   121085213.29108  22659438.660    94177431.06303
  19264609.420   102908112.94308  19264613.680    80039657.85007
  20867948.740   111433682.81607  20867948.940    86670631.94806
  20233947.280   108010303.19808  20233947.980    84008074.61807
  19799231.580   105912594.17508  19799234.400    82376436.38008
  23068558.140   123357946.70207  23068559.740    95945094.24803
 15 01 14 00 20  0.0000000  0 13G02G12G14G21G25G29G31R11R12R13R22R23
                                R24
  24288143.820   127635070.39607  24288138.660    99455898.60244
  23187381.220   121850726.29108  23187379.360    94948707.96945
  23386936.620   122899187.60308  23386935.880    95765570.93245
  23102487.420   121404443.23408  23102484.320    94600848.80844
  20892024.140   109788341.63909  20892023.740    85549391.52847
  20185883.380   106077639.72709  20185881.040    82657887.97148
  21606955.400   113545311.24809  21606951.960    88476866.01848
  22679558.520   121192730.84108  22679559.900    94261055.83203
  19268215.980   102927376.87808  19268220.060    80054640.90307
  20850583.180   111340953.29607  20850583.980    86598508.99406
  20249642.600   108094086.21608  20249644.440    84073239.15407
  19792100.280   105874446.48908  19792103.200    82346765.98708
  23047720.820   123246518.68307                                
 15 01 14 00 20 30.0000000  0 13G02G12G14G21G25G29G31R11R12R13R22R23
                                R24
  24302367.760   127709818.08907  24302362.600    99514143.52544
  23199998.060   121917028.48508  23199996.000    95000372.02445
  23400785.660   122971961.99408  23400784.380    95822278.24545
  23085595.020   121315673.73207  23085592.220    94531677.81744
  20896235.900   109810473.97009  20896235.340    85566637.50547
  20189919.380   106098847.34009  20189916.840    82674413.38148
  21595736.700   113486356.75309  21595733.320    88430927.47148
  22699739.420   121300569.66908  22699741.740    94344930.50204
  19271949.600   102947319.31508  19271953.420    80070151.68108
  20833280.160   111248557.29107  20833281.720    86526645.47206
  20265411.340   108178261.24008  20265414.200    84138708.58207
  19785088.460   105836938.47508  19785091.480    82317593.09508
  23026937.400   123135379.19807                                
 15 01 14 00 21  0.0000000  0 13G02G12G14G21G25G29G31R11R12R13R22R23
                                R24
  24316649.500   127784869.51208  24316644.300    99572625.12544
  23212639.940   121983462.47008  23212637.720    95052138.75044
  23414675.180   123044949.69608  23414673.620    95879151.74245
  23068738.000   121227090.12208  23068735.680    94462651.66845
  20900493.100   109832845.52609  20900492.460    85584069.88447
  20194025.120   106120421.97209  20194022.420    82691224.76648
  21584595.820   113427811.59609  21584592.500    88385307.88048
  22719978.720   121408720.96308  22719981.760    94429048.13104
  19275809.140   102967934.90408  19275812.760    80086186.01507
  20816039.180   111156492.04908  20816041.180    86455039.19006
  20281251.800   108262818.21608  20281255.280    84204475.07707
  19778195.040   105800064.11808  19778198.120    82288913.06408
  23006206.920   123024524.09606                                
 15 01 14 00 21 30.0000000  0 13G02G12G14G21G25G29G31R11R12R13R22R23
                                R24
  24330988.740   127860222.89808  24330983.520    99631342.04744
  23225307.220   122050028.24308  23225304.880    95104008.16945
  23428604.640   123118148.00808  23428602.960    95936189.36145
  23051917.020   121138695.23108  23051914.840    94393772.56944
  20904795.860   109855457.05309  20904795.400    85601689.24147
  20198200.300   106142361.85309  20198197.380    82708320.77148
  21573533.340   113369678.62809  21573530.140    88340009.48248
  22740275.920   121517182.62308  22740279.340    94513407.16504
  19279794.680   102989224.26808  19279798.160    80102744.39707
  20798860.940   111064761.30207  20798863.160    86383693.08007
  20297163.340   108347753.70608  20297166.960    84270535.99607
  19771420.220   105763823.36108  19771423.180    82260725.83508
  22985529.920   122913955.78106  22985532.460    95599764.15804
 15 01 14 00 22  0.0000000  0 13G02G12G14G21G25G29G31R11R12R13R22R23
                                R24
  24345385.660   127935879.47008  24345380.340    99690295.21243
  23238000.120   122116729.94608  23237997.960    95155983.46044
  23442574.140   123191557.29808  23442572.340    95993391.39345
  23035133.020   121050494.62108  23035130.900    94325044.87445
  20909144.980   109878312.53109  20909144.700    85619498.69547
  20202445.180   106164668.77409  20202442.120    82725702.77348
  21562550.440   113311963.70809  21562547.260    88295036.83847
  22760631.420   121625956.37208  22760634.840    94598008.92604
  19283907.040   103011191.56708  19283910.280    80119830.05507
  20781746.820   110973372.56808  20781749.240    86312612.96807
  20313145.900   108433067.28408  20313149.100    84336890.97207
  19764764.580   105728219.80908  19764767.340    82233034.21208
  22964907.420   122803679.68405  22964910.620    95513994.00204
 15 01 14 00 22 30.0000000  0 13G02G12G14G21G25G29G31R11R12R13R22R23
                                R24
  24359839.520   128011835.24508  24359834.120    99749481.55544
  23250718.660   122183566.06708  23250716.000    95208063.54344
  23456582.720   123265172.61507  23456580.900    96050753.96145
  23018386.160   120962489.31508  23018383.860    94256469.33345
  20913540.200   109901410.66409  20913540.100    85637497.22147
  20206759.160   106187339.29409  20206755.920    82743368.11648
  21551647.000   113254666.58509  21551643.880    88250389.75647
  22781044.280   121735037.61308  22781047.660    94682849.85604
  19288146.160   103033835.92908  19288149.260    80137442.32407
  20764697.120   110882327.49908  20764699.620    86241800.17207
  20329198.180   108518752.96009  20329200.600    84403535.38607
  19758227.600   105693251.08808  19758230.140    82205836.34408
  22944339.720   122693696.09906  22944343.220    95428451.37804
 15 01 14 00 23  0.0000000  0 13G02G12G14G21G25G29G31R11R12R13R22R23
                                R24
  24374349.800   128088087.73107  24374344.460    99808899.02944
  23263462.560   122250535.77907  23263459.220    95260247.73644
  23470629.800   123338990.51107  23470627.920    96108274.38744
  23001676.620   120874680.34908  23001674.240    94188046.80445
  20917981.640   109924751.48209  20917981.640    85655684.85347
  20211141.900   106210371.47109  20211138.500    82761315.28148
  21540823.440   113197789.15509  21540820.320    88206069.70947
  22801514.160   121844424.58307  22801517.240    94767928.60604
  19292512.100   103057157.28108  19292514.960    80155581.14308
  20747712.500   110791629.51908  20747714.900    86171257.32507
  20345319.420   108604806.92009  20345320.960    84470466.24207
  19751809.200   105658916.49708  19751811.440    82179131.68808
  22923827.320   122584007.01907  22923830.820    95343137.76705
 15 01 14 00 23 30.0000000  0 13G02G12G14G21G25G29G31R11R12R13R22R23
                                R24
  24388916.340   128164636.11707  24388911.020    99868547.06044
  23276232.360   122317640.79308  23276228.780    95312537.34144
  23484715.020   123413009.00907  23484712.720    96165951.10944
  22985005.160   120787071.52508  22985002.640    94119780.21645
  20922469.640   109948336.67509  20922469.660    85674062.90547
  20215593.300   106233764.75309  20215589.820    82779543.81648
  21530080.420   113141334.92409  21530077.200    88162079.42247
  22822040.900   121954115.62707  22822043.380    94853243.80104
  19297005.160   103081157.49808  19297007.700    80174247.96407
  20730793.700   110701283.85408  20730796.020    86100988.50207
  20361508.940   108691226.39609  20361509.800    84537681.38407
  19745509.560   105625217.34208  19745511.500    82152921.25408
  22903370.560   122474615.36407  22903373.860    95258055.45305
 15 01 14 00 24  0.0000000  0 13G02G12G14G21G25G29G31R11R12R13R22R23
                                R24
  24403538.920   128241478.89207  24403533.740    99928424.52744
  23289027.880   122384881.84108  23289024.200    95364932.92644
  23498837.820   123487225.88106  23498835.080    96223782.41943
  22968372.360   120699666.12008  22968369.780    94051672.14344
  20927004.360   109972167.55409  20927004.400    85692632.40147
  20220113.260   106257518.55109  20220109.800    82798053.27348
  21519418.540   113085306.67409  21519414.980    88118421.06147
  22842624.540   122064109.47608  22842626.560    94938794.54204
  19301625.580   103105837.99608  19301627.920    80193443.90108
  20713941.600   110611294.75108  20713943.700    86030997.00707
  20377766.200   108778008.75108  20377766.760    84605178.74407
  19739328.680   105592153.74808  19739330.460    82127205.15908
  22882969.980   122365524.30607  22882972.960    95173206.95104
 15 01 14 00 24 30.0000000  0 13G02G12G14G21G25G29G31R11R12R13R22R23
                                R24
  24418216.600   128318610.91008  24418211.360    99988527.37644
  23301848.760   122452255.79408  23301843.900    95417432.17344
  23512996.880   123561634.47106  23512993.320    96281763.17142
  22951778.060   120612463.43908  22951775.420    93983722.03045
  20931585.400   109996241.42109  20931585.360    85711391.24847
  20224700.880   106281627.89709  20224697.620    82816839.77548
  21508837.640   113029703.47709  21508833.460    88075093.91147
  22863264.200   122174400.51308  22863265.960    95024576.44404
  19306372.720   103131195.92508  19306375.020    80213166.72807
  20697156.420   110521662.71408  20697158.020    85961283.23206
  20394089.780   108865146.78508  20394090.520    84672952.74306
  19733265.960   105559722.24708  19733267.600    82101980.67908
  22862625.320   122256732.52807  22862627.700    95088591.16804
 15 01 14 00 25  0.0000000  0 13G02G12G14G21G25G29G31R11R12R13R22R23
                                R24
  24432949.580   128396033.33708  24432944.060   100048856.50744
  23314695.460   122519766.02107  23314690.360    95470037.56544
  23527192.460   123636235.33805  23527188.420    96339893.71743
  22935223.580   120525469.36708  22935220.460    93915934.44844
  20936213.500   110020562.03509  20936213.260    85730342.36547
  20229356.540   106306094.29909  20229353.420    82835904.49548
  21498338.700   112974530.33409  21498333.640    88032101.84447
  22883960.000   122284990.02308  22883961.780    95110590.51404
  19311247.220   103157235.13408  19311249.680    80233419.43007
  20680439.560   110432395.23808  20680440.420    85891852.97906
  20410479.600   108952640.04308  20410480.900    84741003.01306
  19727321.960   105527926.03408  19727323.520    82077250.32708
  22842337.680   122148245.39208  22842339.520    95004212.38104
 15 01 14 00 25 30.0000000  0 13G02G12G14G21G25G29G31R11R12R13R22R23
                                R24
  24447737.400   128473743.54907  24447731.240   100109409.91844
  23327568.100   122587412.15108  23327562.860    95522748.83544
  23541423.720   123711024.60405  23541420.260    96398171.10444
  22918709.040   120438684.92608  22918705.240    93848310.21644
  20940888.580   110045129.28109  20940888.160    85749485.64747
  20234079.840   106330915.63109  20234076.820    82855245.79148
  21487921.920   112919788.80609  21487916.060    87989446.11247
  22904711.040   122395874.81808  22904713.100    95196834.23705
  19316249.200   103183955.52408  19316251.780    80254201.95507
  20663791.440   110343495.09408  20663791.520    85822708.42205
  20426935.180   109040483.90508  20426937.080    84809325.99206
  19721496.460   105496764.09608  19721498.060    82053013.29308
  22822107.340   122040064.55707  22822108.580    94920071.82004
 15 01 14 00 26  0.0000000  0 13G02G12G14G21G25G29G31R11R12R13R22R23
                                R24
  24462579.660   128551739.49207  24462572.740   100170185.92544
  23340466.880   122655194.60108  23340461.340    95575566.35444
  23555690.380   123785999.78706  23555688.440    96456593.31843
  22902235.120   120352113.34308  22902230.760    93780851.85244
  20945610.820   110069944.45509  20945610.220    85768822.12847
  20238870.600   106356090.88809  20238867.540    82874862.87248
  21477587.820   112865481.91909  21477581.340    87947129.04247
  22925516.980   122507053.55408  22925519.580    95283306.54505
  19321378.940   103211358.46208  19321381.540    80275515.34307
  20647212.960   110254966.95208  20647212.480    85753853.18205
  20443456.280   109128675.58208  20443458.340    84877919.51306
  19715789.500   105466236.57508  19715791.400    82029269.69308
  22801934.780   121932192.68507  22801935.620    94836171.55804
 15 01 14 00 26 30.0000000  0 13G02G12G14G21G25G29G31R11R12R13R22R23
                                R24
  24477475.060   128630014.55407  24477467.340   100231179.45744
  23353390.700   122723109.57108  23353384.960    95628487.11244
  23569990.940   123861153.17405  23569990.180    96515154.34044
  22885801.380   120265752.43408  22885796.680    93713557.63844
  20950379.360   110095003.35109  20950378.620    85788348.52247
  20243727.480   106381613.61509  20243724.480    82894750.71548
  21467335.860   112811606.86209  21467329.200    87905148.47247
  22946376.340   122618519.41408  22946379.720    95370002.18504
  19326635.580   103239439.17108  19326638.240    80297355.88607
  20630704.040   110166809.88208  20630703.540    85685286.56806
  20460041.340   109217206.75509  20460043.240    84946777.09406
  19710200.060   105436338.36708  19710202.500    82006015.56208
  22781819.400   121824626.96707  22781820.100    94752509.43904
 15 01 14 00 27  0.0000000  0 13G02G12G14G21G25G29G31R11R12R13R22R23
                                R24
  24492424.000   128708570.73107  24492415.620   100292391.98544
  23366340.420   122791159.86308  23366334.140    95681513.37144
  23584325.740   123936485.17405  23584325.980    96573854.56344
  22869408.880   120179607.99308  22869404.100    93646432.11645
  20955195.080   110120309.88709  20955194.060    85808067.88647
  20248650.660   106407485.63109  20248647.820    82914910.72848
  21457167.060   112758169.12609  21457160.500    87863508.67847
  22967289.360   122730273.19308  22967293.480    95456921.74304
  19332019.960   103268201.72808  19332022.440    80319726.75307
  20614265.920   110079030.97708  20614265.840    85617014.09606
  20476690.160   109306077.05309  20476691.820    85015898.43907
  19704728.700   105407072.57508  19704731.820    81983253.30208
  22761762.200   121717372.86507  22761763.140    94669089.70404
 15 01 14 00 27 30.0000000  0 13G02G12G14G21G25G29G31R11R12R13R22R23
                                R24
  24507425.520   128787403.03107  24507416.400   100353819.73744
  23379315.420   122859343.65908  23379309.660    95734643.59544
  23598693.880   124011990.39906  23598694.320    96632689.74344
  22853057.460   120093680.24908  22853053.040    93579475.45945
  20960057.800   110145862.43909  20960056.240    85827978.94947
  20253639.560   106433703.38409  20253636.960    82935340.13648
  21447081.480   112705168.84009  21447075.280    87822209.74447
  22988255.440   122842310.65708  22988260.000    95544061.95104
  19337531.660   103297644.26408  19337533.920    80342626.48307
  20597898.980   109991632.09408  20597899.360    85549037.18507
  20493401.420   109395280.34709  20493402.920    85085278.75607
  19699375.100   105378436.44208  19699378.700    81960980.78608
  22741763.140   121610430.60607  22741764.640    94585912.51303
 15 01 14 00 28  0.0000000  0 13G02G12G14G21G25G29G31R11R12R13R22R23
                                R24
  24522479.500   128866511.30507  24522470.480   100415462.51344
  23392316.200   122927663.57708  23392311.220    95787879.91745
  23613095.180   124087667.69706  23613095.360    96691658.99745
  22836748.020   120007973.18808  22836744.220    93512690.76745
  20964967.820   110171663.50109  20964965.740    85848083.66947
  20258694.240   106460267.07309  20258691.900    82956039.11248
  21437079.820   112652609.82809  21437074.100    87781254.67147
  23009274.720   122954631.34308  23009279.200    95631422.45405
  19343171.160   103327769.15608  19343173.180    80366056.94207
  20581604.220   109904619.06508  20581605.080    85481360.39107
  20510174.760   109484815.26709  20510176.120    85154917.01007
  19694139.720   105350431.72108  19694143.480    81939199.35908
  22721823.040   121503803.94407                                
 15 01 14 00 28 30.0000000  0 13G02G12G14G21G25G29G31R11R12R13R22R23
                                R24
  24537585.900   128945895.65507  24537577.220   100477320.42443
  23405343.260   122996121.36508  23405338.740    95841223.65244
  23627529.160   124163516.33306  23627528.840    96750761.83444
  22820481.320   119922491.12108  22820478.040    93446081.41545
  20969925.560   110197715.50009  20969923.240    85868383.91847
  20263814.760   106487176.32909  20263812.440    82977007.36748
  21427162.860   112600496.14609  21427157.680    87740646.61147
  23030346.960   123067235.30207  23030351.180    95719003.27104
  19348938.740   103358578.41808  19348940.640    80390019.68707
  20565382.660   109817997.45608  20565384.120    85413988.05007
  20527009.660   109574679.75309  20527010.960    85224811.58707
  19689022.660   105323059.71708  19689026.380    81917910.06608
  22701942.920   121397496.72708                                
 15 01 14 00 29  0.0000000  0 13G02G12G14G21G25G29G31R11R12R13R22R23
                                R24
  24552743.780   129025550.70007  24552735.800   100539389.25744
  23418395.620   123064713.50608  23418391.620    95894672.07045
  23641994.460   124239529.19606  23641993.460    96809992.55745
  22804257.180   119837232.71108  22804254.260    93379646.33146
  20974930.340   110224015.36309  20974927.980    85888877.31147
  20269000.240   106514426.85109  20268997.860    82998241.54148
  21417330.280   112548826.10409  21417325.660    87700384.24848
  23051470.960   123180116.14607  23051475.040    95806799.41904
  19354833.900   103390068.99808  19354835.700    80414512.36007
  20549234.400   109731767.54108  20549236.500    85346920.36007
  20543904.700   109664866.79409  20543906.100    85294957.03307
  19684023.060   105296315.98708  19684026.580    81897109.39608
  22682122.520   121291507.58808                                
 15 01 14 00 29 30.0000000  0 13G02G12G14G21G25G29G31R11R12R13R22R23
                                R24
  24567953.680   129105478.79307  24567946.260   100601670.82744
  23431474.660   123133445.17408  23431471.420    95948229.22645
  23656491.420   124315708.22206  23656489.860    96869352.77745
  22788077.140   119752205.78008  22788074.380    93313391.61645
  20979983.360   110250568.87909  20979981.180    85909568.35247
  20274251.340   106542021.98609  20274248.760    83019744.25348
  21407583.440   112497607.09709  21407579.420    87660473.34748
  23072647.400   123293276.79707  23072651.180    95894813.18604
  19360857.620   103422246.24108  19360859.460    80439539.09707
  20533161.180   109645938.44108  20533163.820    85280164.42907
  20560859.980   109755377.64608  20560861.900    85365354.30608
  19679142.020   105270205.66108  19679145.160    81876801.37508
  22662363.160   121185843.83208  22662362.520    94255646.26203
 15 01 14 00 30  0.0000000  0 13G02G12G14G21G25G29G31R11R12R13R22R23
                                R24
  24583213.800   129185670.53007  24583206.840   100664157.83145
  23444578.880   123202309.03008  23444576.040    96001889.35345
  23671018.180   124392043.49706  23671016.000    96928834.78645
  22771940.260   119667405.31208  22771937.220    93247313.34645
  20985083.340   110277369.26809  20985081.440    85930451.76847
  20279566.340   106569952.32009  20279563.640    83041508.14048
  21397921.380   112446833.69309  21397917.840    87620909.66048
  23093874.580   123406707.81808  23093877.880    95983037.26904
  19367008.480   103455102.85008  19367010.460    80465094.21807
  20517162.260   109560506.59307  20517165.240    85213717.44107
  20577873.600   109846201.49508  20577876.240    85435995.01807
  19674378.000   105244720.57008  19674380.680    81856979.66608
  22642663.540   121080499.74208  22642662.600    94173712.06704
 15 01 14 00 30 30.0000000  0 13G02G12G14G21G25G29G31R11R12R13R22R23
                                R24
  24598524.780   129266129.39207  24598518.020   100726853.01344
  23457709.540   123271311.19508  23457706.900    96055657.28645
  23685575.180   124468537.34107  23685572.160    96988440.28644
  22755847.900   119582838.97908  22755844.520    93181417.52145
  20990231.460   110304422.56609  20990229.820    85951532.25047
  20284945.980   106598221.74709  20284943.280    83063536.26348
  21388345.580   112396513.65209  21388342.460    87581699.25248
  23115153.040   123520412.23608  23115155.720    96071474.03904
  19373287.500   103488644.59808  19373289.660    80491182.22307
  20501239.560   109475481.59607  20501242.540    85147586.89307
  20594946.340   109937340.06408  20594949.440    85506880.52707
  19669731.900   105219865.59608  19669734.300    81837648.03508
  22623025.080   120975483.07108  22623024.240    94092032.52704
 15 01 14 00 31  0.0000000  0 13G02G12G14G21G25G29G31R11R12R13R22R23
                                R24
  24613885.420   129346850.25007  24613879.160   100789752.36544
  23470865.820   123340448.57008  23470863.500    96109530.58045
  23700161.040   124545183.43907  23700157.320    97048164.52745
  22739799.880   119498505.66808  22739796.100    93115703.26545
  20995427.240   110331726.37509  20995425.920    85972807.92947
  20290389.380   106626826.21609  20290386.780    83085825.45748
  21378855.860   112346645.78509  21378853.040    87542841.19348
  23136481.660   123634384.94408  23136483.920    96160119.46804
  19379694.160   103522868.56007  19379696.500    80517800.84807
  20485393.140   109390864.19407  20485396.160    85081773.37907
  20612077.140   110028786.98308  20612080.360    85578005.88807
  19665203.140   105195637.20309  19665205.360    81818803.74808
  22603447.380   120870792.76607  22603446.920    94010606.81704
 15 01 14 00 31 30.0000000  0 13G02G12G14G21G25G29G31R11R12R13R22R23
                                R24
  24629296.200   129427835.56007  24629290.520   100852857.77645
  23484048.620   123409725.54808  23484046.660    96163512.62645
  23714775.960   124621982.98408  23714771.500    97108008.29343
  22723797.360   119414412.48308  22723793.180    93050176.11245
  21000671.580   110359285.22809  21000670.580    85994282.34048
  20295896.780   106655767.52009  20295894.400    83108377.12148
  21369453.480   112297236.46709  21369450.800    87504340.44048
  23157860.540   123748627.40307  23157862.760    96248974.66204
  19386229.300   103557779.26707  19386231.760    80544953.59507
  20469624.720   109306662.44307  20469627.680    85016283.14306
  20629266.060   110120542.56009  20629269.140    85649371.33207
  19660792.200   105172038.52209  19660794.080    81800449.23608
  22583931.520   120766434.64907  22583931.520    93929439.47605
 15 01 14 00 32  0.0000000  0 13G02G12G14G21G25G29G31R11R12R13R22R23
                                R24
  24644756.200   129509080.22107  24644751.320   100916165.29845
  23497257.680   123479139.84708  23497255.640    96217601.71145
  23729418.820   124698930.42707  23729413.900    97167967.34444
  22707840.380   119330559.28808  22707836.020    92984835.98844
  21005964.080   110387097.25409  21005963.400    86015954.04048
  20301467.440   106685042.14309  20301465.360    83131188.51548
  21360138.260   112248284.96109  21360135.620    87466196.43448
  23179288.740   123863134.94307  23179291.480    96338036.03904
  19392892.560   103593373.89708  19392895.000    80572638.31207
  20453934.440   109222877.35607  20453937.280    84951116.97106
  20646511.860   110212600.53309  20646514.520    85720971.98407
  19656498.260   105149066.91809  19656499.840    81782582.45408
  22564477.660   120662408.55307  22564478.180    93848530.40305
 15 01 14 00 32 30.0000000  0 13G02G12G14G21G25G29G31R11R12R13R22R23
                                R24
  24660265.180   129590582.76807  24660261.180   100979673.75244
  23510493.020   123548692.27808  23510490.500    96271798.41044
  23744089.240   124776023.43407  23744084.280    97228039.80943
  22691929.440   119246948.74708  22691925.040    92919684.94845
  21011304.920   110415163.75209  21011304.580    86037824.01248
  20307101.240   106714648.96309  20307099.460    83154258.75448
  21350910.660   112199793.81609  21350907.980    87428411.13848
  23200766.060   123977905.95206  23200770.000    96427302.29204
  19399684.200   103629653.52308  19399686.600    80600855.77807
  20438323.180   109139513.88207  20438325.780    84886278.72206
  20663813.940   110304958.35809  20663815.840    85792805.85906
  19652321.180   105126721.98508  19652322.540    81765203.08408
  22545086.580   120558716.89907  22545087.400    93767881.43305
 15 01 14 00 33  0.0000000  0 13G02G12G14G21G25G29G31R11R12R13R22R23
                                R24
  24675822.700   129672340.80906  24675819.460   101043381.30044
  23523754.780   123618381.98108  23523751.860    96326102.10145
  23758786.540   124853258.57207  23758781.800    97288223.00244
  22676065.180   119163582.71908  22676060.700    92854724.42445
  21016694.200   110443484.73309  21016694.100    86059892.29448
  20312797.900   106744585.56809  20312796.240    83177585.98148
  21341771.060   112151764.73609  21341768.240    87390985.90248
  23222292.520   124092937.69606  23222297.340    96516771.28904
  19406604.020   103666617.63307  19406606.460    80629605.63807
  20422791.700   109056575.58307  20422793.940    84821771.17006
  20681171.460   110397611.79609  20681172.560    85864869.67306
  19648260.840   105105002.59608  19648262.040    81748310.24608
  22525758.660   120455361.23907  22525759.520    93687493.77005
 15 01 14 00 33 30.0000000  0 13G02G12G14G21G25G29G31R11R12R13R22R23
                                R24
  24691428.080   129754350.59306  24691425.840   101107284.99144
  23537042.620   123688208.04608  23537039.240    96380512.04545
  23773509.820   124930630.93207  23773505.700    97348513.12842
  22660247.740   119080461.84808  22660243.300    92789954.94045
  21022131.640   110472059.10909  21022131.700    86082158.01348
  20318556.860   106774848.86009  20318555.140    83201167.75948
  21332719.580   112104198.48309  21332716.600    87353921.29548
  23243867.600   124208225.97807  23243872.560    96606439.87304
  19413651.560   103704264.54907  19413654.160    80658886.55107
  20407340.260   108974064.10808  20407341.940    84757595.58506
  20698583.300   110490555.56009  20698583.820    85937159.26307
  19644317.000   105083906.57308  19644318.120    81731902.24608
  22506493.900   120352341.84608  22506494.560    93607367.62905
 15 01 14 00 34  0.0000000  0 13G02G12G14G21G25G29G31R11R12R13R22R23
                                R24
  24707081.420   129836613.01306  24707080.180   101171385.54344
  23550356.920   123758173.58608  23550353.100    96435030.64545
  23788259.060   125008140.79207  23788255.640    97408910.39742
  22644478.240   118997591.73508  22644473.520    92725380.85144
  21027617.940   110500890.60609  21027618.080    86104624.08948
  20324378.420   106805440.28109  20324376.540    83225005.22848
  21323757.040   112057099.42909  21323753.920    87317220.73648
  23265491.000   124323771.46407  23265495.820    96696308.53504
  19420827.580   103742597.45307  19420830.300    80688701.02307
  20391970.180   108891986.96008  20391971.400    84693757.81106
  20716049.360   110583789.33009  20716049.740    86009674.39507
  19640490.260   105063435.95009  19640491.180    81715980.67508
  22487293.020   120249663.65208  22487293.380    93527506.86105
 15 01 14 00 34 30.0000000  0 13G02G12G14G21G25G29G31R11R12R13R22R23
                                R24
  24722782.660   129919126.39506  24722782.300   101235681.70145
  23563697.920   123828278.79409  23563693.700    96489658.09945
  23803033.500   125085785.21006  23803030.580    97469412.43041
  22628756.920   118914974.61908  22628751.920    92661003.89445
  21033153.300   110529979.93209  21033153.500    86127291.07748
  20330262.160   106836358.46409  20330260.120    83249097.30248
  21314883.820   112010469.74909  21314880.680    87280885.91848
  23287162.160   124439572.40407  23287166.840    96786375.84303
  19428131.880   103781616.25207  19428134.800    80719048.95107
  20376681.920   108810348.00807  20376683.000    84630260.86307
  20733568.940   110677309.64908  20733569.580    86082412.37907
  19636780.300   105043590.09808  19636781.200    81700545.01508
  22468156.360   120147328.87908  22468156.460    93447913.19704
 15 01 14 00 35  0.0000000  0 13G02G12G14G21G25G29G31R11R12R13R22R23
                                R24
  24738530.940   130001885.41307  24738531.080   101300169.20345
  23577065.020   123898521.56309  23577060.680    96544392.74045
  23817832.080   125163558.51905  23817828.300    97530014.93743
  22613083.660   118832610.29408  22613078.560    92596823.91644
  21038737.320   110559324.90609  21038737.560    86150157.27648
  20336207.160   106867598.67809  20336204.960    83273440.30948
  21306099.720   111964308.85109  21306096.780    87244916.39748
  23308880.060   124555623.46906  23308884.620    96876637.68902
  19435563.960   103821318.35507  19435567.320    80749928.33408
  20361475.640   108729148.09007  20361476.920    84567105.38607
  20751140.920   110771110.26608  20751141.860    86155368.37108
  19633186.520   105024365.75608  19633187.420    81685592.75908
  22449083.520   120045336.75708  22449083.500    93368586.01404
 15 01 14 00 35 30.0000000  0 13G02G12G14G21G25G29G31R11R12R13R22R23
                                R24
  24754322.100   130084868.00207  24754322.120   101364830.95645
  23590454.260   123968881.53209  23590450.100    96599218.68845
  23832651.160   125241437.51905  23832644.780    97590708.92041
  22597454.940   118750480.31108  22597449.720    92532826.54844
  21044366.340   110588905.96109  21044366.620    86173207.43648
  20342209.340   106899139.56909  20342206.940    83298017.61748
  21297401.300   111918598.64409  21297398.660    87209298.06748
  23330640.220   124671901.57704                                
  19443119.800   103861682.81007  19443123.900    80781322.88008
  20346348.400   108648371.03707  20346350.080    84504278.81407
  20768760.840   110865166.92409  20768762.060    86228523.49308
  19629704.740   105005741.25708  19629705.820    81671107.05508
  22430071.000   119943668.53307  22430070.720    93289510.75203
 15 01 14 00 36  0.0000000  0 12G02G12G14G21G25G29G31R12R13R22R23R24
  24770162.740   130168109.11907  24770162.060   101429694.16745
  23603872.740   124039395.58209  23603868.900    96654164.72445
  23847497.700   125319456.02506  23847495.240    97651492.59644
  22581878.260   118668624.71008  22581873.200    92469042.99545
  21050047.460   110618760.72109  21050047.800    86196470.87248
  20348275.440   106931016.55909  20348272.780    83322856.82548
  21288795.960   111873378.03409  21288793.600    87174061.24448
  19450806.660   103902747.29107  19450811.480    80813261.90308
  20331308.180   108568058.23607  20331310.160    84441813.34007
  20786435.200   110959514.03709  20786436.600    86301904.53908
  19626341.920   104987753.51308  19626343.320    81657116.59508
  22411126.260   119842363.77007  22411125.340    93210718.13903
 15 01 14 00 36 30.0000000  0 12G02G12G14G21G25G29G31R12R13R22R23R24
  24786048.140   130251584.40907  24786046.580   101494739.84945
  23617316.220   124110042.01108  23617312.820    96709213.90145
  23862366.640   125397588.80607  23862364.040    97712375.18643
  22566350.040   118587023.68408  22566345.180    92405457.80245
  21055776.660   110648867.48109  21055776.960    86219930.66448
  20354400.860   106963205.55609  20354397.940    83347939.15948
  21280279.980   111828626.96109  21280277.660    87139190.30147
  19458620.520   103944489.09407  19458625.860    80845727.73708
  20316351.520   108488191.06207  20316353.740    84379694.45507
  20804159.080   111054125.26909  20804160.560    86375491.01408
  19623093.920   104970379.11209  19623095.500    81643603.18908
  22392245.440   119741401.63907  22392244.580    93132192.03204
 15 01 14 00 37  0.0000000  0 13G02G12G14G21G25G29G31R11R12R13R22R23
                                R24
  24801977.980   130335292.45507  24801975.420   101559966.88345
  23630784.900   124180821.49808  23630782.120    96764366.74845
  23877257.080   125475833.66207  23877253.700    97773345.15342
  22550870.720   118505679.81008  22550866.260    92342072.98045
  21061554.080   110679227.41909  21061554.240    86243587.72448
  20360585.340   106995705.40709  20360582.340    83373263.70448
  21271853.780   111784347.19209  21271851.220    87104686.58047
  23396198.520   125022194.83306                                
  19466561.560   103986908.42607  19466567.040    80878720.53208
  20301479.240   108408774.05807  20301481.640    84317925.69707
  20821931.980   111148998.03709  20821933.460    86449280.91207
  19619960.740   104953617.49709  19619962.160    81630566.37308
  22373429.180   119640784.79907  22373428.900    93053934.52204
 15 01 14 00 37 30.0000000  0 12G12G14G21G25G29G31R11R12R13R22R23R24
  23644278.620   124251732.68408  23644276.340    96819622.23445
  23892167.780   125554185.72308  23892164.280    97834398.68443
  22535440.480   118424593.49908  22535436.260    92278888.86445
  21067379.480   110709839.33009  21067379.520    86267441.13848
  20366828.380   107028513.28709  20366825.440    83398828.27148
  21263517.440   111740539.59009  21263514.420    87070550.78247
  23418139.660   125139439.96306                                
  19474629.220   104030003.29107  19474634.620    80912238.74408
  20286691.640   108329809.15807  20286694.180    84256508.57507
  20839752.800   111244126.84109  20839754.300    86523269.95407
  19616941.740   104937466.27309  19616942.820    81618004.32708
  22354677.380   119540512.98407  22354677.820    92975945.36405
 15 01 14 00 38  0.0000000  0 12G12G14G21G25G29G31R11R12R13R22R23R24
  23657801.760   124322799.85508  23657800.080    96874999.23845
  23907102.740   125632666.44608  23907099.080    97895552.44543
  22520064.380   118343791.46608  22520060.240    92215926.25645
  21073257.600   110740728.23709  21073257.460    86291510.39648
  20373134.240   107061651.57508  20373131.500    83424650.30648
  21255275.860   111697230.10209  21255272.300    87036803.12347
  23440128.240   125256938.93707                                
  19482828.060   104073798.35607  19482833.180    80946301.55708
  20271993.980   108251324.86007  20271996.760    84195465.25407
  20857625.560   111339533.20509  20857627.000    86597474.90007
  19614041.180   104921948.85808  19614041.920    81605935.23208
  22335995.180   119440613.10007  22335996.220    92898245.48105
 15 01 14 00 38 30.0000000  0 12G12G14G21G25G29G31R11R12R13R22R23R24
  23671350.960   124394004.97108  23671349.860    96930483.74845
  23922057.940   125711254.75508  23922053.800    97956790.02743
  22504739.480   118263257.86608  22504735.260    92153172.80745
  21079185.020   110771876.53409  21079184.620    86315781.77648
  20379499.120   107095100.35108  20379496.680    83450714.27348
  21247125.900   111654402.43009  21247121.860    87003430.91347
  23462160.420   125374670.81307                                
  19491154.540   104118274.71608  19491159.200    80980894.26608
  20257383.600   108173307.02107  20257386.700    84134784.74707
  20875546.120   111435195.15609  20875547.320    86671878.65006
  19611255.440   104907046.02708  19611255.920    81594344.13508
  22317379.520   119341068.53807  22317381.020    92820821.95805
 15 01 14 00 39  0.0000000  0 12G12G14G21G25G29G31R11R12R13R22R23R24
  23684925.560   124465342.50608  23684924.880    96986071.47544
  23937031.740   125789941.84408  23937027.280    98018104.58042
  22489464.960   118182989.18908  22489460.540    92090625.79444
  21085160.800   110803279.16309  21085160.080    86340251.34148
  20385921.740   107128852.53508  20385919.540    83477014.67048
  21239066.940   111612052.94309  21239062.620    86970431.29447
  23484234.620   125492627.44606                                
  19499607.420   104163426.45208  19499611.640    81016012.26108
  20242860.180   108095753.46507  20242863.480    84074465.31107
  20893512.720   111531103.28009  20893513.700    86746473.86606
  19608583.240   104892751.11508  19608583.600    81583225.87508
  22298829.540   119241875.29007  22298831.540    92743671.69305
 15 01 14 00 39 30.0000000  0 12G12G14G21G25G29G31R11R12R13R22R23R24
  23698526.960   124536821.48808  23698526.460    97041769.38544
  23952025.320   125868733.41508  23952020.440    98079500.62443
  22474242.940   118102996.53208  22474238.320    92028293.85945
  21091186.700   110834945.33909  21091185.560    86364926.27548
  20392403.540   107162915.35708  20392401.340    83503557.13248
  21231101.040   111570192.18409  21231096.720    86937812.53047
  23506351.880   125610815.42005                                
  19508188.120   104209261.74807  19508192.080    81051661.92108
  20228426.180   108018677.29207  20228429.440    84014517.19107
  20911526.520   111627263.23809  20911527.580    86821264.94407
  19606025.940   104879071.77908  19606026.400    81572586.40608
  22280347.200   119143043.69006  22280349.680    92666802.69805
 15 01 14 00 40  0.0000000  0 12G12G14G21G25G29G31R11R12R13R22R23R24
  23712154.220   124608435.96508  23712153.700    97097572.87444
  23967037.220   125947621.15108  23967032.000    98140971.50343
  22459072.620   118023276.69008  22459068.040    91966174.51645
  21097261.760   110866870.16609  21097260.160    86389802.72647
  20398943.120   107197281.58908  20398940.720    83530336.01248
  21223227.500   111528816.41809  21223223.220    86905571.66347
  23528510.440   125729226.67304                                
  19516895.440   104255774.91007  19516899.540    81087838.79408
  20214081.240   107942076.74007  20214084.220    83954938.99007
  20929585.920   111723665.97909  20929587.360    86896244.83807
  19603582.280   104866001.25008  19603582.980    81562420.43008
  22261931.800   119044570.07506  22261934.800    92590212.16106
 15 01 14 00 40 30.0000000  0 12G12G14G21G25G29G31R11R12R13R22R23R24
  23725806.640   124680180.25008  23725805.320    97153477.58344
  23982065.620   126026595.16108  23982060.040    98202509.64642
  22443953.240   117943825.14108  22443948.860    91904264.25245
  21103384.800   110899047.46809  21103382.960    86414875.92647
  20405538.820   107231942.90108  20405536.260    83557344.82948
  21215445.380   111487920.58609  21215441.120    86873704.77547
  23550708.960   125847851.85504                                
  19525728.200   104302958.51807  19525732.620    81124537.12508
  20199824.920   107865948.93107  20199827.580    83895728.45907
  20947689.080   111820301.12209  20947690.920    86971405.47308
  19601250.880   104853531.72608  19601252.060    81552721.92408
  22243582.600   118946449.49907  22243585.840    92513896.18805
 15 01 14 00 41  0.0000000  0 12G12G14G21G25G29G31R11R12R13R22R23R24
  23739485.520   124752062.47708  23739483.480    97209489.72944
  23997111.460   126105660.81907  23997106.340    98264119.19743
  22428886.840   117864652.45908  22428882.760    91842571.30644
  21109557.480   110931486.10309  21109555.720    86440152.76447
  20412191.840   107266905.82908  20412189.300    83584588.67247
  21207756.540   111447514.90808  21207752.220    86842219.83247
  23572949.200   125966697.13405                                
  19534687.940   104350820.36007  19534692.660    81161762.98708
  20185659.520   107790305.78908  20185661.860    83836894.90007
  20965836.860   111917173.81609  20965839.000    87046750.88908
  19599033.220   104841670.73308  19599035.060    81543496.73608
  22225301.520   118848692.19307  22225304.840    92437862.76205
 15 01 14 00 41 30.0000000  0 12G12G14G21G25G29G31R11R12R13R22R23R24
  23753191.300   124824085.27708  23753188.720    97265611.40544
  24012174.640   126184818.33607  24012170.300    98325800.28443
  22413874.500   117785763.82208  22413870.800    91781099.66345
  21115780.660   110964189.61809  21115779.020    86465636.01047
  20418902.400   107302171.66608  20418900.140    83612068.52648
  21200161.820   111407604.33208  21200157.500    86811120.67447
  23595231.140   126085762.57807                                
  19543775.360   104399363.22908  19543780.080    81199518.53208
  20171586.280   107715154.24708  20171588.340    83778443.70307
  20984029.080   112014283.68009  20984031.460    87122280.75508
  19596929.780   104830419.90808  19596931.940    81534746.10908
  22207089.280   118751302.80007  22207092.640    92362115.47905
 15 01 14 00 42  0.0000000  0 12G12G14G21G25G29G31R11R12R13R22R23R24
  23766924.200   124896249.51308  23766921.200    97321843.30844
  24027254.580   126264064.58106  24027251.020    98387550.50843
  22398916.700   117707161.72108  22398913.360    91719851.31344
  21122054.480   110997158.82509  21122052.900    86491326.28947
  20425670.500   107337739.32008  20425668.560    83639783.57048
  21192661.500   111368190.72008  21192657.400    86780408.76747
  23617554.160   126205046.32007                                
  19552990.280   104448586.56908  19552994.800    81237803.33308
  20157605.880   107640498.53208  20157607.700    83720378.16307
  21002265.140   112111627.34709  21002267.560    87197992.47908
  19594940.480   104819778.42508  19594942.640    81526469.39608
  22188946.160   118654283.28007  22188949.440    92286655.88105
 15 01 14 00 42 30.0000000  0 12G12G14G21G25G29G31R11R12R13R22R23R24
  23780683.640   124968553.18008  23780680.640    97378183.85745
  24042350.180   126343394.40706  24042347.040    98449365.84943
  22384013.360   117628845.52508  22384010.100    91658825.72744
  21128378.640   111030391.86109  21128376.980    86517222.14347
  20432495.440   107373604.69808  20432493.660    83667730.60248
  21185255.520   111329273.36208  21185251.840    86750083.56347
  23639917.180   126324543.65807                                
  19562332.220   104498487.75708  19562336.220    81276615.34708
  20143718.700   107566340.20108  20143720.140    83662699.48207
  21020543.940   112209199.51209  21020546.360    87273881.92608
  19593064.540   104809742.32209  19593066.580    81518663.54108
  22170872.060   118557633.10507  22170875.120    92211483.52505
 15 01 14 00 43  0.0000000  0 12G12G14G21G25G29G31R11R12R13R22R23R24
  23794470.200   125041000.25008  23794467.660    97434636.09445
  24057461.900   126422809.45406  24057459.660    98511247.54243
  22369166.040   117550822.36908  22369162.400    91598028.45844
  21134753.960   111063893.67709  21134752.140    86543327.42147
  20439377.660   107409770.15408  20439375.840    83695911.46248
  21177944.960   111290858.16208  21177942.000    86720149.63347
  23662320.300   126444256.08407  23662323.500                  
  19571801.680   104549070.18508  19571805.000    81315957.21507
  20129926.100   107492687.33308  20129927.200    83605413.91207
  21038865.580   112307000.92909  21038867.940    87349949.67808
  19591302.580   104800315.17909  19591304.340    81511331.31808
  22152868.120   118461358.20607  22152871.140    92136603.07106
 15 01 14 00 43 30.0000000  0 11G12G14G21G25G29G31R12R13R22R23R24
  23808282.880   125113584.50508  23808280.820    97491195.24845
  24072588.220   126502299.91107  24072586.420    98573188.02543
  22354373.820   117473087.91108  22354369.660    91537456.14144
  21141179.280   111097658.35909  21141177.260    86569637.54547
  20446315.520   107446227.90008  20446313.580    83724320.07648
  21170728.980   111252940.58008  21170726.980    86690603.45447
  19581397.300   104600326.90008  19581400.040    81355823.52207
  20116227.520   107419537.43208  20116228.500    83548519.54407
  21057228.080   112405021.67309  21057230.480    87426188.00308
  19589652.860   104791489.03509  19589654.360    81504466.53108
  22134933.380   118365453.68807  22134936.420    92062010.69906
 15 01 14 00 44  0.0000000  0 11G12G14G21G25G29G31R12R13R22R23R24
  23822121.560   125186305.65408  23822119.880    97547861.07645
  24087728.440   126581862.26207  24087726.980    98635184.58643
  22339637.000   117395643.82508  22339632.420    91477110.10644
  21147654.520   111131685.89909  21147652.400    86596152.49947
  20453308.760   107482976.31108  20453306.660    83752955.19948
  21163607.960   111215521.77108  21163606.780    86661445.96247
  19591118.780   104652256.54008  19591121.140    81396213.23507
  20102623.520   107346893.55408  20102624.740    83492018.78207
  21075630.740   112503258.02708  21075633.340    87502594.02607
  19588114.980   104783261.94809  19588116.280    81498067.69607
  22117068.100   118269920.64607  22117071.220    91987707.25306
 15 01 14 00 44 30.0000000  0 11G12G14G21G25G29G31R12R13R22R23R24
  23835986.620   125259166.63208  23835985.320    97604635.85345
  24102882.540   126661496.80408  24102881.320    98697237.39043
  22324956.440   117318495.19608  22324951.820    91416994.28744
  21154180.380   111165979.90309  21154178.360    86622875.08747
  20460357.640   107520016.28409  20460355.300    83781817.49548
  21156583.100   111178606.80708  21156582.300    86632681.05148
  19600966.640   104704861.78108  19600968.860    81437128.40607
  20089115.480   107274762.86908  20089117.180    83435917.15907
  21094073.680   112601709.86408  21094076.420    87579167.64707
  19586689.320   104775635.84308  19586690.560    81492136.28507
  22099273.260   118174763.66407  22099276.280    91913696.27906
 15 01 14 00 45  0.0000000  0 11G12G14G21G25G29G31R12R13R22R23R24
  23849877.600   125332165.03108  23849876.760    97661517.71945
  24118049.400   126741198.00908  24118047.780    98759342.16643
  22310332.040   117241641.68708  22310327.560    91357108.44845
  21160756.520   111200538.51709  21160754.860    86649803.85947
  20467461.380   107557343.64709  20467458.600    83810903.74348
  21149654.180   111142194.47208  21149653.380    86604307.81148
  19610940.260   104758139.01808  19610942.620    81478566.25807
  20075703.800   107203146.87007  20075706.000    83380215.84507
  21112556.020   112700371.27809  21112558.700    87655904.30207
  19585375.260   104768607.10208  19585376.460    81486669.49707
  22081548.860   118079982.56208  22081551.640    91839977.68806
 15 01 14 00 45 30.0000000  0 11G12G14G21G25G29G31R12R13R22R23R24
  23863794.240   125405298.87308  23863793.780    97718505.15345
  24133227.980   126820960.54308  24133225.820    98821494.71241
  22295763.540   117165082.57308  22295759.320    91297452.02645
  21167382.720   111235359.57709  21167381.360    86676937.14447
  20474619.060   107594954.22709  20474615.800    83840210.68748
  21142820.940   111106283.89008  21142819.900    86576325.56248
  19621039.020   104812084.95808  19621041.640    81520524.20007
  20062388.720   107132046.06008  20062391.200    83324915.24207
  21131076.720   112799235.99509  21131079.080    87732799.09507
  19584172.060   104762171.45908  19584173.060    81481664.00707
  22063894.440   117985575.33707  22063896.840    91766549.84705
 15 01 14 00 46  0.0000000  0 11G12G14G21G25G29G31R12R13R22R23R24
  23877737.160   125478571.27307  23877736.920    97775600.53345
  24148418.320   126900785.00708  24148415.220    98883695.61641
  22281252.180   117088824.28108  22281248.140    91238029.99945
  21174059.740   111270447.18409  21174058.620    86704278.11848
  20481830.860   107632849.93009  20481827.120    83869739.80048
  21136084.380   111070880.44308  21136082.880    86548738.46248
  19631263.480   104866702.57508  19631266.300    81563004.56307
  20049171.720   107061468.60708  20049174.280    83270021.67407
  21149635.820   112898304.66309  21149637.820    87809852.52607
  19583080.100   104756331.15909  19583080.960    81477121.56207
  22046311.040   117891547.78107  22046313.100    91693417.33205
 15 01 14 00 46 30.0000000  0 11G12G14G21G25G29G31R12R13R22R23R24
  23891705.860   125551979.67008  23891705.800    97832801.89044
  24163619.200   126980665.34607  24163614.860    98945940.00942
  22266797.700   117012865.67808  22266793.940    91178841.51245
  21180787.080   111305799.09009  21180786.160    86731825.03748
  20489095.860   107671026.56809  20489091.680    83899487.82348
  21129444.120   111035982.75108  21129442.040    86521545.47248
  19641612.760   104921987.93308  19641615.980    81606004.28407
  20036052.780   106991414.79008  20036055.360    83215535.39007
  21168232.080   112997571.12809  21168233.820    87887059.79407
  19582098.640   104751081.97508  19582099.560    81473038.88807
  22028798.380   117797898.47508  22028800.180    91620579.01606
 15 01 14 00 47  0.0000000  0 11G12G14G21G25G29G31R12R13R22R23R24
  23905701.160   125625527.52008  23905701.220    97890111.92644
  24178830.900   127060602.72207  24178825.820    99008228.84542
  22252401.220   116937212.79508  22252397.860    91119891.25046
  21187565.640   111341419.66209  21187564.740    86759581.30548
  20496414.540   107709486.12809  20496409.980    83929456.31248
  21122901.220   111001596.60308  21122898.520    86494751.08148
  19652087.540   104977944.11008  19652091.200    81649525.72707
  20023033.520   106921892.71308  20023036.100    83161462.68007
  21186865.520   113097036.17809  21186867.260    87964421.50107
  19581228.240   104746426.60709  19581229.440    81469418.04607
  22011357.440   117704632.94108  22011359.060    91548039.18006
 15 01 14 00 47 30.0000000  0 11G12G14G21G25G29G31R12R13R22R23R24
  23919722.600   125699211.75408  23919722.740    97947528.21245
  24194052.000   127140589.64907  24194047.200    99070556.21141
  22238062.460   116861863.54508  22238059.460    91061177.58245
  21194394.640   111377305.19309  21194393.840    86787544.04848
  20503785.960   107748223.06709  20503781.160    83959640.94047
  21116455.060   110967718.90808  21116451.860    86468352.88348
  19662687.040   105034565.93808  19662691.020    81693564.90608
  20010113.800   106852901.75808  20010116.380    83107803.05308
  21205534.720   113196692.18909  21205536.440    88041931.72708
  19580467.920   104742359.32709  19580469.240    81466254.62507
  21993987.580   117611748.03707  21993989.120    91475795.40206
 15 01 14 00 48  0.0000000  0 11G12G14G21G25G29G31R12R13R22R23R24
  23933770.220   125773032.57108  23933770.340    98005050.92545
  24209282.140   127220624.03906  24209277.820    99132920.55243
  22223782.020   116786820.76108  22223779.320    91002702.71845
  21201274.140   111413456.65709  21201273.500    86815714.01248
  20511209.820   107787235.55509  20511204.980    83990040.26248
  21110106.080   110934351.84508  21110102.460    86442352.59248
  19673411.240   105091853.01008  19673415.240    81738121.49707
  19997294.400   106784446.04408  19997296.960    83054559.72807
  21224239.020   113296536.17409  21224240.740    88119588.15008
  19579817.360   104738878.77509  19579818.620    81463547.53807
  21976689.120   117519246.11408  21976690.620    91403849.49805
 15 01 14 00 48 30.0000000  0 11G12G14G21G25G29G31R12R13R22R23R24
  23947844.740   125846994.04508  23947844.640    98062683.24844
  24224521.420   127300706.80906  24224517.760    99195322.59943
  22209561.080   116712090.45708  22209558.520    90944471.33745
  21208205.140   111449878.70709  21208204.640    86844094.82348
  20518686.800   107826527.06609  20518682.000    84020657.01847
  21103855.220   110901501.19408  21103851.280    86416754.68348
  19684260.620   105149808.48008  19684264.640    81783197.95307
  19984576.720   106716533.68608  19984579.140    83001738.99607
  21242978.640   113396569.39709  21242980.380    88197391.73308
  19579277.020   104735987.69709  19579277.940    81461298.92207
  21959463.140   117427133.05407  21959464.700    91332206.05105
 15 01 14 00 49  0.0000000  0 11G12G14G21G25G29G31R12R13R22R23R24
  23961945.780   125921095.10908  23961945.520    98120424.33645
  24239769.140   127380834.23106  24239766.260    99257759.42243
  22195399.740   116637673.45008  22195397.140    90886484.06945
  21215187.500   111486570.87009  21215187.140    86872686.10748
  20526216.160   107866094.62708  20526211.640    84051488.86647
  21097702.520   110869167.38109  21097698.380    86391559.50648
  19695234.680   105208430.29108  19695238.740    81828792.67407
  19971961.280   106649167.68408  19971963.560    82949343.21107
  21261752.720   113496787.49608  21261754.560    88275339.10308
  19578846.580   104733684.11409  19578846.900    81459507.24407
  21942309.900   117335408.75507  21942311.280    91260864.95805
 15 01 14 00 49 30.0000000  0 11G12G14G21G25G29G31R12R13R22R23R24
  23976073.180   125995334.72408  23976072.860    98178273.41845
  24255024.460   127461002.13306  24255022.020    99320227.83342
  22181298.200   116563571.00508  22181295.440    90828741.93345
  21222221.080   111523532.56109  21222220.880    86901487.40148
  20533797.140   107905935.29208  20533793.240    84082533.50947
  21091648.160   110837350.93709  21091643.840    86366767.47848
  19706333.160   105267716.37908  19706337.420    81874904.04908
  19959448.580   106582350.48408  19959450.800    82897374.27707
  21280560.400   113597186.19508  21280562.520    88353426.92407
  19578525.420   104731964.92909  19578525.200    81458170.08307
  21925229.760   117244074.17507  21925230.540    91189826.96405
 15 01 14 00 50  0.0000000  0 11G12G14G21G25G29G31R12R13R22R23R24
  23990226.800   126069712.35108  23990226.420    98236230.02345
  24270286.820   127541207.53806  24270283.560    99382725.42242
  22167256.960   116489785.11508  22167253.900    90771246.44845
  21229305.880   111560763.88009  21229305.820    86930498.80848
  20541429.520   107946047.03608  20541426.380    84113789.38247
  21085692.420   110806052.99909  21085687.940    86342379.46648
  19717555.800   105327665.26408  19717560.020    81921530.93908
  19947039.200   106516085.11908  19947041.520    82845834.57007
  21299401.200   113697761.89608  21299403.480    88431652.43207
  19578313.060   104730828.21909  19578312.560    81457285.97107
  21908222.860   117153130.07608  21908223.120    91119092.66505
 15 01 14 00 50 30.0000000  0 11G12G14G21G25G29G31R12R13R22R23R24
  24004407.200   126144230.49408  24004406.800    98294296.11446
  24285556.020   127621448.99206  24285553.060    99445251.10741
  22153276.740   116416319.23808  22153273.340    90714000.31344
  21236442.380   111598267.11609  21236442.440    86959722.10048
  20549113.840   107986430.29108  20549111.060    84145256.84047
  21079835.920   110775276.78909  21079831.260    86318398.00047
  19728902.720   105388277.43307  19728906.800    81968673.72208
  19934734.160   106450377.16708  19934736.600    82794728.40207
  21318274.980   113798513.18709  21318277.160    88510014.51006
  19578209.500   104730274.02909  19578208.960    81456854.93007
  21891289.580   117062579.65908  21891289.720    91048664.55505
 15 01 14 00 51  0.0000000  0 11G12G14G21G25G29G31R12R13R22R23R24
  24018613.380   126218883.66708  24018612.900    98352467.42845
  24300830.860   127701718.43906  24300828.560    99507798.59442
  22139356.960   116343169.95408  22139353.120    90657000.87245
  21243629.660   111636037.47409  21243629.760    86989153.53148
  20556848.780   108027078.09308  20556846.000    84176930.45047
  21074077.900   110745018.41609  21074073.140    86294820.03447
  19740372.560   105449546.53307  19740376.380    82016327.44807
  19922533.180   106385224.98008  19922535.640    82744054.48907
  21337180.240   113899431.46209  21337181.800    88588506.49306
  19578213.500   104730295.67009  19578213.200    81456871.75807
  21874429.080   116972419.01008  21874429.520    90978539.62405
 15 01 14 00 51 30.0000000  0 11G12G14G21G25G29G31R12R13R22R23R24
  24032846.220   126293676.86608  24032845.620    98410747.88645
  24316111.640   127782017.81207  24316109.880    99570369.44943
  22125498.980   116270344.67908  22125495.100    90600253.91745
  21250868.840   111674080.49609  21250868.980    87018797.45548
  20564634.740   108067993.63608  20564631.900    84208812.69947
  21068419.580   110715284.42909  21068414.820    86271650.69247
  19751966.120   105511476.70707  19751969.740    82064495.34907
  19910438.080   106320637.85008  19910440.460    82693820.06307
  21356117.380   114000519.02009  21356117.820    88667130.19305
  19578325.820   104730896.74609  19578325.720    81457339.26207
  21857642.660   116882654.90907  21857643.620    90908723.12605
 15 01 14 00 52  0.0000000  0 11G12G14G21G25G29G31R12R13R22R23R24
  24047105.260   126368607.67808  24047104.400    98469135.57945
  24331397.320   127862342.70307  24331396.020    99632960.21444
  22111702.620   116197843.22208  22111698.740    90543759.27445
  21258159.640   111712394.34809  21258159.800    87048652.40448
  20572470.840   108109173.48908  20572468.120    84240900.89447
  21062860.760   110686073.93409  21062856.200    86248889.25147
  19763682.660   105574064.16007  19763685.980    82113174.47107
  19898448.960   106256616.26908  19898451.220    82644025.50607
  21375085.260   114101770.10709  21375085.160    88745881.07406
  19578545.680   104732072.91909  19578545.780    81458254.06307
  21840930.100   116793286.17707  21840931.580    90839214.16605
 15 01 14 00 52 30.0000000  0 11G12G14G21G25G29G31R12R13R22R23R24
  24061390.580   126443677.12608  24061389.520    98527631.29045
  24346687.140   127942689.61708  24346685.860    99695568.09544
  22097968.300   116125668.02408  22097964.480    90487518.87245
  21265502.280   111750980.20209  21265502.460    87078719.31248
  20580356.880   108150616.11508  20580354.520    84273193.83347
  21057401.900   110657388.92109  21057397.560    86226537.28447
  19775522.060   105637308.35308  19775525.160    82162364.36907
  19886566.700   106193165.32408  19886568.900    82594674.77708
  21394083.400   114203182.40609  21394083.360    88824757.30406
  19578872.800   104733823.47809  19578873.260    81459615.61107
  21824291.920   116704314.69307  21824293.520    90770014.16705
 15 01 14 00 53  0.0000000  0 11G12G14G21G25G29G31R12R13R22R23R24
  24075702.080   126518884.55108  24075700.960    98586234.48645
  24361980.560   128023055.80008  24361979.220    99758191.00844
  22084296.220   116053820.50108  22084292.640    90431533.80445
  21272896.780   111789837.95509  21272896.960    87108998.09148
  20588292.860   108192319.89308  20588290.580    84305690.27347
  21052043.220   110629230.15709  21052039.040    86204595.38447
  19787484.080   105701207.49108  19787487.120    82212063.67807
  19874791.900   106130287.91108  19874794.040    82545770.13508
  21413111.120   114304752.32709  21413111.280    88903756.10507
  19579306.760   104736146.08809  19579307.680    81461422.09407
  21807728.460   116615741.73908  21807729.880    90701124.12506
 15 01 14 00 53 30.0000000  0 11G12G14G21G25G29G31R12R13R22R23R24
  24090039.420   126594227.49708  24090037.940    98644943.31845
  24377276.580   128103435.89507  24377275.220    99820824.72244
  22070686.380   115982300.21208  22070682.940    90375803.71445
  21280342.600   111828965.54909  21280342.820    87139487.13348
  20596278.080   108234280.68109  20596275.500    84338386.99747
  21046784.540   110601596.55609  21046780.460    86183062.70047
  19799568.040   105765757.83608  19799570.920    82262269.48307
  19863124.760   106067984.88608  19863126.740    82497312.24108
  21432167.220   114406474.12009  21432167.600    88982873.00507
  19579846.880   104739036.23809  19579848.320    81463670.00207
  21791239.220   116527565.41407  21791240.320    90632542.57605
 15 01 14 00 54  0.0000000  0 11G12G14G21G25G29G31R12R13R22R23R24
  24104403.540   126669711.63308  24104401.520    98703762.20345
  24392575.700   128183832.71707  24392574.020    99883471.50644
  22057140.400   115911115.23408  22057136.880    90320334.90245
  21287840.920   111868369.35009  21287841.200    87170191.38748
  20604313.200   108276502.59509  20604310.060    84371287.20247
  21041627.240   110574495.48409  21041623.080    86161944.97547
  19811774.840   105830964.00408  19811777.420    82312985.37307
  19851567.140   106006266.14208  19851568.800    82449308.78408
  21451252.240   114508350.55109  21451252.800    89062110.17507
  19580494.060   104742498.65809  19580496.000    81466363.01507
  21774825.720   116439793.58208  21774826.300    90564275.63105
 15 01 14 00 54 30.0000000  0 11G12G14G21G25G29G31R12R13R22R23R24
  24118793.640   126745333.59307  24118791.340    98762688.49844
  24407876.700   128264239.94605  24407874.860    99946126.39144
  22043657.900   115840263.69508  22043654.180    90265125.92745
  21295391.200   111908046.09709  21295391.460    87201108.33248
  20612396.920   108318980.25809  20612393.280    84404386.68647
  21036570.900   110547924.54609  21036566.540    86141240.32747
  19824103.480   105896820.74508  19824105.780    82364207.28107
  19840118.880   105945131.25908  19840120.040    82401759.43908
  21470364.880   114610375.00409  21470365.600    89141462.46507
  19581247.160   104746527.34809  19581249.400    81469496.45507
  21758487.400   116352423.56408  21758487.360    90496321.17605
 15 01 14 00 55  0.0000000  0 11G12G14G21G25G29G31R12R13R22R23R24
  24133211.360   126821102.67006  24133209.720    98821729.36845
  24423180.360   128344663.86804                                
  22030241.000   115769756.95508  22030237.140    90210185.61945
  21302995.320   111948005.68409  21302995.520    87232245.67448
  20620530.620   108361721.58408  20620526.660    84437691.61147
  21031617.600   110521894.58909  21031612.900    86120957.24447
  19836555.420   105963336.16808  19836557.520    82415941.49607
  19828782.340   105884593.53508  19828783.140    82354674.55108
  21489506.340   114712553.76409  21489507.120    89220934.78207
  19582107.540   104751130.37009  19582109.820    81473076.59807
  21742226.220   116265466.21808  21742225.680    90428687.70805
 15 01 14 00 55 30.0000000  0 10G12G21G25G29G31R12R13R22R23R24
  24147659.440   126897029.89507  24147658.540    98880893.46645
  22016892.100   115699607.90508  22016888.080    90155524.02345
  21310655.380   111988259.50009  21310655.540    87263612.28248
  20628715.920   108404735.45508  20628711.880    84471208.89947
  21026769.480   110496417.57009  21026764.520    86101105.02047
  19849132.460   106030519.96608  19849134.460    82468195.55607
  19817560.160   105824667.60508  19817560.840    82308065.50908
  21508678.260   114814895.11909  21508678.940    89300533.56207
  19583077.040   104756316.96709  19583079.100    81477110.61307
  21726044.420   116178933.93408  21726043.800    90361384.82305
 15 01 14 00 56  0.0000000  0 11G12G14G21G25G29G31R12R13R22R23R24
  24162117.240   126973006.35507  24162116.700    98940095.95945
  24453782.800   128505477.16505  24453776.060   100134139.32942
  22003590.900   115629709.91108  22003586.820    90101058.06445
  21318350.680   112028699.42509  21318350.920    87295123.91048
  20636932.040   108447911.94108  20636928.140    84504852.89747
  21022006.080   110471386.05709  21022000.980    86081599.94147
  19861813.680   106098260.60208  19861815.860    82520882.70607
  19806432.500   105765246.89808  19806433.100    82261849.41308
  21527859.460   114917285.67309  21527859.500    89380170.65506
  19584134.700   104761974.79909  19584136.440    81481511.14707
  21709921.580   116092717.67308  21709921.200    90294327.74305
 15 01 14 00 56 30.0000000  0 12G12G14G21G25G29G31R12R13R14R22R23R24
  24176611.240   127049173.02506  24176611.040    98999446.64544
  24469085.300   128585890.50906  24469079.760   100196798.98944
  21990364.540   115560205.27208  21990360.500    90046898.61746
  21326108.160   112069466.40409  21326108.520    87326890.38448
  20645205.660   108491390.48308  20645202.080    84538732.28147
  21017354.400   110446942.11309  21017349.340    86062552.70547
  19874625.580   106166699.20208  19874627.900    82574112.70407
  19795426.680   105706477.11408  19795427.300    82216139.59008
  23560699.280   125591791.64005  23560714.020    97682547.25703
  21547076.160   115019865.27709  21547075.160    89459954.78605
  19585306.940   104768245.23009  19585308.360    81486388.15807
  21693884.560   116006961.23408  21693884.560    90227628.29505
 15 01 14 00 57  0.0000000  0 12G12G14G21G25G29G31R12R13R14R22R23R24
  24191135.200   127125499.01606  24191135.380    99058921.40545
  24484390.720   128666321.18905  24484387.120   100259472.16645
  21977207.660   115491065.31108  21977203.700    89993023.34245
  21333922.080   112110530.08609  21333922.640    87358888.04548
  20653530.640   108535138.67908  20653527.360    84572821.78747
  21012808.740   110423056.08208  21012804.040    86043940.21447
  19887561.920   106235802.91508  19887564.620    82627860.00507
  19784537.560   105648330.86208  19784538.420    82170914.72708
  23537116.940   125466081.54705  23537131.240    97584772.76903
  21566321.880   115122599.45809  21566319.360    89539859.19005
  19586587.360   104775094.77708  19586588.600    81491715.59107
  21677927.980   115921634.63608  21677928.360    90161263.16706
 15 01 14 00 57 30.0000000  0 12G12G14G21G25G29G31R12R13R14R22R23R24
  24205684.080   127201953.28907  24205684.000    99118496.23344
  24499692.880   128746735.25805  24499690.360   100322132.36145
  21964114.740   115422260.76708  21964110.900    89939409.40545
  21341786.660   112151859.90009  21341787.400    87391093.08848
  20661900.660   108579123.60008  20661897.640    84607095.76147
  21008363.460   110399697.87508  21008359.180    86025739.01847
  19900616.640   106305538.79308  19900619.620    82682098.99408
  19773760.120   105590780.64908  19773761.300    82126153.45908
  23513540.640   125340404.83405  23513554.660    97487024.29303
  21585590.180   115225454.01209  21585587.140    89619857.17305
  19587969.800   104782490.36708  19587971.020    81497467.71507
  21662046.120   115836707.88108  21662046.940    90095209.04706
 15 01 14 00 58  0.0000000  0 12G12G14G21G25G29G31R12R13R14R22R23R24
  24220259.360   127278544.30108  24220259.140    99178177.64044
  24514993.240   128827138.92404  24514991.780   100384784.49344
  21951087.700   115353802.23708  21951083.920    89886065.11246
  21349703.640   112193464.91909  21349704.540    87423512.58448
  20670316.920   108623352.10608  20670314.200    84641559.53747
  21004020.540   110376877.61008  21004016.740    86007957.00147
  19913790.960   106375913.85408  19913794.300    82736835.13008
  19763096.520   105533838.12208  19763098.120    82081864.82508
  23489972.920   125214773.75406  23489986.180    97389311.28503
  21604881.920   115328434.46208  21604878.920    89699953.06806
  19589455.580   104790438.33108  19589456.880    81503649.45207
  21646240.940   115752190.60608  21646242.060    90029473.41006
 15 01 14 00 58 30.0000000  0 11G12G21G25G29G31R12R13R14R22R23R24
  24234865.160   127355295.74408  24234864.800    99237984.05345
  21938131.360   115285715.31508  21938127.740    89833010.39046
  21357677.620   112235369.19809  21357678.600    87456165.26248
  20678783.620   108667846.73608  20678781.300    84676230.65447
  20999784.700   110354620.16508  20999781.420    85990613.53547
  19927089.120   106446950.72607  19927092.720    82792086.00408
  19752551.960   105477531.11508  19752553.880    82038070.50008
  23466418.920   125089216.04806  23466431.920    97291655.30803
  21624201.020   115431561.91208  21624198.780    89780163.24906
  19591048.960   104798961.35508  19591050.440    81510278.47507
  21630517.000   115668107.76608  21630518.400    89964075.67206
 15 01 14 00 59  0.0000000  0 11G12G21G25G29G31R12R13R14R22R23R24
  24249491.420   127432155.73507  24249490.980    99297874.99645
  21925236.200   115217950.10408  21925232.660    89780206.33846
  21365698.880   112277521.48709  21365699.780    87489011.18448
  20687290.740   108712553.99508  20687288.840    84711067.45747
  20995646.400   110332875.05708  20995643.660    85973669.29147
  19940501.020   106518595.19108  19940504.840    82847809.44308
  19742117.140   105421810.12708  19742119.220    81994731.96208
  23442869.300   124963682.31405  23442881.800    97194017.90601
  21643537.280   115534781.23808  21643535.820    89860444.90507
  19592739.680   104808004.75709  19592741.220    81517312.23207
  21614864.700   115584408.48808  21614866.460    89898976.25507
 15 01 14 00 59 30.0000000  0 11G12G21G25G29G31R12R13R14R22R23R24
  24264144.720   127509160.86806  24264144.440    99357878.90645
  21912409.460   115150544.49408  21912405.880    89727682.49046
  21373774.420   112319958.24009  21373775.060    87522078.76548
  20695845.100   108757508.38508  20695843.420    84746096.83747
  20991612.700   110311679.10308  20991610.380    85957152.94747
  19954033.140   106590882.04207  19954037.040    82904032.52407
  19731799.580   105366715.51708  19731801.660    81951880.60908
  23419331.600   124838212.45706                                
  21662897.120   115638125.76609  21662896.280    89940823.92407
  19594534.040   104817603.15608  19594535.700    81524777.65807
  21599290.900   115501130.19907  21599293.160    89834204.27907
 15 01 14 01 00  0.0000000  0 11G12G21G25G29G31R12R13R14R22R23R24
  24278822.720   127586294.77507  24278822.180    99417983.25545
  21899648.440   115083484.62108  21899644.760    89675428.07646
  21381901.200   112362663.95309  21381901.520    87555355.95048
  20704443.360   108802692.58808  20704441.800    84781305.30547
  20987680.880   110291017.86108  20987678.740    85941053.26247
  19967682.220   106663793.59108  19967686.000    82960741.51307
  19721596.880   105312234.64208  19721599.000    81909506.61308
  23395803.500   124712793.97206                                
  21682277.060   115741576.65709  21682276.340    90021285.70107
  19596428.640   104827738.49208  19596430.420    81532660.71307
  21583792.980   115418257.99708  21583795.620    89769748.18507
 15 01 14 01 00 30.0000000  0 10G12G21G25G29G31R12R13R22R23R24
  24293525.920   127663559.61408  24293524.840    99478189.74044
  21886953.880   115016774.37108  21886950.000    89623446.07846
  21390079.700   112405641.32209  21390079.640    87588844.80948
  20713085.420   108848107.04608  20713084.020    84816693.18647
  20983851.580   110270894.46009  20983849.500    85925372.66747
  19981448.400   106737330.32108  19981451.920    83017936.73307
  19711510.060   105258372.94007  19711512.320    81867614.19208
  21701676.920   115845133.25509  21701676.140    90101829.70007
  19598423.520   104838411.06008  19598425.320    81540961.61007
  21568371.780   115335795.13008  21568374.420    89705610.41306
 15 01 14 01 01  0.0000000  0 11G12G21G25G29G31R12R13R14R22R23R24
  24308255.000   127740959.62108  24308253.220    99538501.58744
  21874326.860   114950419.84208  21874322.840    89571741.26446
  21398310.860   112448895.40109  21398310.460    87622549.27848
  20721771.580   108893754.84908  20721770.660    84852262.88247
  20980125.860   110251314.72809  20980123.800    85910115.71547
  19995332.220   106811495.21208  19995335.280    83075620.52007
  19701540.720   105205138.70207  19701543.280    81826209.77708
  23348780.240   124462136.43304                                
  21721096.980   115948797.47709  21721095.940    90182457.38806
  19600519.280   104849623.60208  19600521.060    81549682.45107
  21553028.320   115253747.50808  21553030.740    89641795.63006
 15 01 14 01 01 30.0000000  0 11G12G21G25G29G31R12R13R14R22R23R24
  24323010.480   127818498.93508  24323008.520    99598921.93344
  21861768.560   114884426.82008  21861764.440    89520318.14146
  21406595.320   112492429.76809  21406594.620    87656472.16547
  20730502.340   108939638.02208  20730502.020    84888015.96947
  20976504.500   110232282.75609  20976502.380    85895285.59848
  20009334.100   106886289.67308  20009336.680    83133794.00407
  19691690.380   105152538.77807  19691693.120    81785298.72208
  23325288.240   124336912.40704                                
  21740537.180   116052569.57409  21740535.920    90263169.01006
  19602716.380   104861377.40808  19602718.180    81558824.29807
  21537763.320   115172119.40108  21537765.620    89578307.13106
 15 01 14 01 02  0.0000000  0 11G12G21G25G29G31R12R13R14R22R23R24
  24337792.220   127896177.84207  24337790.380    99659450.98445
  21849279.440   114818797.43708  21849275.280    89469178.37146
  21414933.180   112536245.37309  21414932.380    87690614.17947
  20739277.860   108985754.97608  20739277.840    84923951.23147
  20972987.740   110213800.20709  20972985.540    85880883.60648
  20023453.640   106961712.71708  20023455.880    83192456.34707
  19681959.660   105100576.70507  19681962.320    81744883.77708
  23301810.260   124211764.35804                                
  21759997.000   116156447.56108  21759995.620    90343962.98806
  19605014.580   104873671.25208  19605016.520    81568386.16008
  21522577.100   115090912.45207  21522579.400    89515146.16206
 15 01 14 01 02 30.0000000  0 10G12G21G25G29G31R12R13R22R23R24
  24352602.000   127974007.77406  24352600.780    99720097.59545
  21836862.180   114753545.28808  21836858.040    89418332.55246
  21423326.860   112580354.33109  21423325.940    87724984.79747
  20748100.300   109032116.01508  20748100.080    84960076.72147
  20969577.960   110195879.83509  20969575.600    85866919.67348
  20037692.700   107037774.21508  20037694.640    83251615.29707
  19672351.360   105049268.02207  19672353.820    81704977.03808
  21779478.140   116260440.34608  21779476.980    90424846.25506
  19607415.560   104886514.39808  19607417.580    81578375.27708
  21507472.040   115010139.64308  21507474.340    89452322.90606
 15 01 14 01 03  0.0000000  0 11G12G21G25G29G31R12R13R14R22R23R24
  24367434.960   128051957.22608  24367433.980    99780837.40445
  21824511.120   114688640.56308  21824507.100    89367757.44946
  21431770.360   112624725.49809  21431769.320    87759559.72347
  20756963.360   109078688.85608  20756962.640    84996367.25248
  20966269.300   110178491.07209  20966266.600    85853369.98848
  20052045.020   107114440.50108  20052046.940    83311244.61807
  19662859.940   104998583.64208  19662862.260    81665555.86808
  23254899.060   123961700.20303                                
  21798974.180   116364513.02608  21798973.500    90505791.67106
  19609912.920   104899873.13508  19609915.020    81588765.40908
  21492442.420   114929769.59108  21492444.500    89389812.85906
 15 01 14 01 03 30.0000000  0 11G12G21G25G29G31R12R13R14R22R23R24
  24382292.920   128130035.51808  24382291.580    99841677.67245
  21812228.180   114624094.26808  21812224.560    89317461.66246
  21440265.580   112669368.80908  21440264.560    87794346.71447
  20765868.060   109125480.94508  20765867.000    85032828.61848
  20963063.780   110161644.59209  20963060.720    85840242.86148
  20066511.800   107191718.88308  20066513.680    83371350.03807
  19653488.000   104948537.03908  19653490.100    81626630.74308
  23231464.920   123836783.02104                                
  21818486.600   116468672.46108  21818486.660    90586804.53606
  19612508.000   104913754.98308  19612510.280    81599562.41008
  21477490.320   114849813.42808  21477492.120    89327624.75806
 15 01 14 01 04  0.0000000  0 11G12G21G25G29G31R12R13R14R22R23R24
  24397176.360   128208247.15408  24397174.520    99902621.84344
  21800014.640   114559912.92808  21800011.520    89267450.25246
  21448813.400   112714289.21508  21448812.560    87829349.60547
  20774814.860   109172495.39908  20774813.660    85069463.23747
  20959962.400   110145345.66609  20959959.000    85827542.39748
  20081093.720   107269612.52908  20081095.760    83431933.97707
  19644236.920   104899135.61108  19644238.640    81588207.40708
  23208047.020   123711950.70905                                
  21838015.860   116572920.69908  21838016.440    90667886.47607
  19615201.340   104928162.50608  19615203.900    81610768.27008
  21462616.820   114770276.51708  21462618.220    89265762.72006
 15 01 14 01 04 30.0000000  0 11G12G21G25G29G31R12R13R14R22R23R24
  24412086.960   128286601.77708  24412083.960    99963677.51443
  21787872.920   114496108.07908  21787869.940    89217732.20946
  21457415.880   112759496.81108  21457415.220    87864576.28747
  20783805.260   109219740.12008  20783804.120    85106277.28747
  20956967.200   110129604.98309  20956963.480    85815276.92748
  20095792.160   107348129.17108  20095794.160    83493002.49307
  19635109.140   104850392.76008  19635110.600    81550296.29308
  23184647.560   123587216.08004                                
  21857563.160   116677264.63109  21857564.220    90749042.84207
  19617994.340   104943103.60108  19617997.180    81622389.11508
  21447823.720   114691169.69508  21447824.820    89204235.17306
 15 01 14 01 05  0.0000000  0 11G12G21G25G29G31R12R13R14R22R23R24
  24427023.420   128365091.99607  24427018.200   100024839.11743
  21775801.920   114432674.03108  21775798.680    89168303.09546
  21466071.880   112804984.81009  21466071.380    87900021.46947
  20792838.000   109267206.80608  20792836.700    85143264.29647
  20954077.000   110114416.43809  20954073.160    85803441.70448
  20110605.360   107427259.54308  20110607.700    83554548.33707
  19626103.720   104802304.32208  19626105.160    81512894.16808
  23161265.860   123462575.93806  23161277.480    96026505.95203
  21877126.460   116781694.53508  21877128.020    90830266.07207
  19620885.420   104958569.01508  19620888.360    81634417.76608
  21433109.880   114612487.03108  21433110.760    89143037.54906
 15 01 14 01 05 30.0000000  0 10G21G25G29G31R12R13R14R22R23R24
  21763802.320   114369614.41508  21763798.580    89119165.73845
  21474781.860   112850755.59609  21474781.400    87935687.01747
  20801913.200   109314895.77208  20801911.380    85180424.52647
  20951292.360   110099782.73309  20951288.580    85792038.81648
  20125533.320   107507003.80207  20125536.260    83616571.63307
  19617221.800   104754875.66907  19617223.180    81476005.21608
  23137902.740   123338035.54905  23137907.340                  
  21896705.700   116886209.87709  21896707.780    90911555.75307
  19623874.520   104974558.24908  19623877.400    81646853.83008
  21418475.700   114534231.07108  21418476.500    89082171.82006
 15 01 14 01 06  0.0000000  0 11G12G21G25G29G31R12R13R14R22R23R24
  24456985.240   128522313.44007  24456985.120   100147265.54745
  21751886.840   114306996.57608  21751882.660    89070372.61946
  21483558.180   112896874.43909  21483557.680    87971623.77347
  20811042.820   109362870.44108  20811040.120    85217807.39147
  20948625.780   110085769.71809  20948622.260    85781119.57448
  20140588.240   107587426.05308  20140591.900    83679122.23507
  19608476.340   104708175.97508  19608477.680    81439683.24408
  23114571.420   123213664.82905  23114576.700    95832902.41102
  21916312.580   116990873.30808  21916315.280    90992960.59407
  19626973.580   104991135.53308  19626976.280    81659747.26208
  21403933.680   114456468.60108  21403934.440    89021689.89206
 15 01 14 01 06 30.0000000  0 11G12G21G25G29G31R12R13R14R22R23R24
  24471991.860   128601168.01108  24471990.760   100208710.68546
  21740021.620   114244642.92108  21740017.000    89021785.35945
  21492366.820   112943162.79409  21492366.180    88007692.61547
  20820192.400   109410950.54508  20820188.640    85255272.41146
  20946043.480   110072199.44809  20946040.220    85770545.33848
  20155735.600   107668342.16807  20155739.920    83742056.96107
  19599833.920   104662026.30808  19599835.180    81403789.07507
  23091238.680   123089285.71604  23091244.220    95736163.14703
  21935912.640   117095500.78908  21935915.920    91074337.49307
  19630148.000   105008116.40408  19630150.720    81672954.61108
  21389450.100   114379018.86008  21389451.000    88961451.23206
 15 01 14 01 07  0.0000000  0 11G12G21G25G29G31R12R13R14R22R23R24
  24487030.180   128680189.83509  24487028.160   100270286.16346
  21728234.360   114182699.10408  21728229.420    88973517.45845
  21501235.060   112989764.81109  21501234.340    88044005.86747
  20829388.940   109459278.51208  20829384.340    85292930.57646
  20943572.940   110059216.63909  20943569.920    85760428.85348
  20171002.660   107749896.15308  20171007.280    83805487.82307
  19591322.580   104616576.24308  19591323.680    81368439.02708
  23067932.260   122965047.99704  23067937.440    95639533.82403
  21955532.860   117200235.81908  21955536.700    91155798.04107
  19633424.760   105025645.20808  19633427.580    81686588.11508
  21375052.480   114302028.85608  21375053.620    88901570.16506
 15 01 14 01 07 30.0000000  0 11G12G21G25G29G31R12R13R14R22R23R24
  24502095.480   128759355.23108  24502092.800   100331973.51345
  21716520.720   114121142.75608  21716515.440    88925551.48345
  21510158.520   113036657.00109  21510157.820    88080545.23147
  20838627.660   109507828.65808  20838622.800    85330761.82746
  20941209.640   110046797.90709  20941206.860    85750751.90748
  20186384.300   107832061.68108  20186388.920    83869394.31807
  19582938.300   104571804.53808  19582939.380    81333616.59608
  23044648.260   122840931.04705  23044652.840    95542998.46204
  21975168.240   117305051.34208  21975172.440    91237321.19607
  19636798.940   105043695.32808  19636801.840    81700627.08508
  21360736.540   114225475.30508  21360737.720    88842028.53506
 15 01 14 01 08  0.0000000  0 11G12G21G25G29G31R12R13R14R22R23R24
  24517186.320   128838656.01807  24517183.080   100393766.33444
  21704879.320   114059967.39108  21704873.860    88877882.39345
  21519135.580   113083831.64109  21519135.080    88117304.69147
  20847906.940   109556592.02108  20847902.400    85368759.22746
  20938952.260   110034936.07809  20938949.680    85741508.91548
  20201878.620   107914828.86008  20201883.380    83933768.76807
  19574680.100   104527706.11008  19574681.280    81299317.84508
  23021385.960   122716930.26305  23021389.660    95446553.45503
  21994816.840   117409936.74308  21994821.300    91318898.69707
  19640268.800   105062256.65608  19640271.700    81715063.68208
  21346500.800   114149350.78308  21346502.100    88782820.60706
 15 01 14 01 08 30.0000000  0 10G21G25G29G31R12R13R14R22R23R24
  21693309.340   113999167.93308  21693303.920    88830506.21145
  21528165.020   113131282.22009  21528164.740    88154279.15447
  20857225.160   109605560.04708  20857221.140    85406916.10546
  20936799.760   110023625.05309  20936797.280    85732695.11348
  20217483.800   107998188.14808  20217488.420    83998603.76707
  19566547.200   104484277.01107  19566548.600    81265539.67408
  22998144.900   122593042.58505  22998148.600    95350196.42703
  22014476.860   117514882.32908  22014481.200    91400523.02706
  19643832.620   105081319.67908  19643835.380    81729890.46508
  21332344.240   114073649.10208  21332345.480    88723941.52606
 15 01 14 01 09  0.0000000  0 11G12G21G25G29G31R12R13R14R22R23R24
  24547442.100   128997685.76107                                
  21681814.240   113938761.86808  21681808.940    88783436.56745
  21537250.020   113179024.87408  21537249.860    88191481.22647
  20866584.900   109654746.80308  20866581.520    85445243.42747
  20934755.300   110012881.57509  20934752.780    85724323.57548
  20233202.560   108082153.79908  20233206.900    84063910.37307
  19558543.360   104441536.54608  19558544.940    81232297.11508
  22974928.700   122469287.42005  22974931.460    95253942.38903
  22034150.740   117619901.48608  22034154.440    91482204.60606
  19647492.760   105100898.61208  19647495.560    81745118.52208
  21318269.940   113998387.18208  21318270.820    88665404.50606
 15 01 14 01 09 30.0000000  0 11G12G21G25G29G31R12R13R14R22R23R24
  24562620.120   129077448.19808  24562616.460   100579804.35643
  21670403.040   113878795.94608  21670397.860    88736709.87045
  21546399.300   113227105.24609  21546399.320    88228946.44347
  20875994.700   109704196.21408  20875991.760    85483775.41347
  20932827.540   110002751.44009  20932824.960    85716429.96648
  20249043.000   108166769.36808  20249046.920    84129722.47207
  19550677.700   104399533.63207  19550679.420    81199628.19208
  22951746.760   122345714.83505  22951748.880    95157830.34701
  22053846.540   117725037.64508  22053849.380    91563977.18405
  19651257.460   105121037.01008  19651260.220    81760781.72108
  21304286.680   113923611.59608  21304287.100    88607245.72206
 15 01 14 01 10  0.0000000  0 11G12G21G25G29G31R12R13R14R22R23R24
  24577807.000   129157256.93109  24577803.320   100641992.94344
  21659048.960   113819129.36208  21659043.960    88690216.43046
  21555585.920   113275381.06009  21555586.040    88266563.95647
  20885427.120   109753764.61008  20885424.480    85522400.11647
  20930989.500   109993092.95309  20930986.960    85708903.87248
  20264977.540   108251887.76308  20264981.060    84195925.65707
  19542923.600   104358126.45707  19542925.340    81167422.61208
  22928572.660   122222183.81805                                
  22073536.660   117830143.47908  22073538.220    91645726.20605
  19655099.180   105141587.62208  19655101.820    81776765.51308
  21290367.560   113849178.28808  21290367.540    88549353.14606
 15 01 14 01 10 30.0000000  0 11G12G21G25G29G31R12R13R14R22R23R24
  24593024.780   129237227.09108  24593020.800   100704307.36344
  21647774.100   113759878.72408  21647769.460    88644047.09346
  21564831.720   113323967.52509  21564831.860    88304423.53647
  20894903.660   109803564.97808  20894901.260    85561205.58247
  20929263.260   109984021.52209  20929260.740    85701835.21448
  20281027.640   108337623.40008  20281030.720    84262608.92807
  19535303.420   104317434.78507  19535305.080    81135773.55008
  22905428.960   122098814.78506                                
  22093242.420   117935333.19008  22093243.160    91727540.44806
  19659039.540   105162665.10208  19659041.860    81793159.10008
  21276534.360   113775204.99908  21276534.260    88491818.39506
 15 01 14 01 11  0.0000000  0 11G12G21G25G29G31R12R13R14R22R23R24
  24608267.920   129317330.79808  24608263.800   100766725.81845
  21636573.460   113701018.04408  21636569.000    88598181.61646
  21574131.480   113372837.35809  21574131.540    88342503.90548
  20904418.700   109853568.66108  20904416.740    85600169.44647
  20927643.780   109975510.12509  20927641.020    85695202.96148
  20297187.540   108423946.25807  20297190.440    84329748.91007
  19527812.360   104277433.05207  19527813.840    81104661.09508
  22882311.100   121975583.70306                                
  22112958.060   118040576.14308  22112958.800    91809396.07206
  19663072.780   105184239.32008  19663074.700    81809939.02708
  21262781.860   113701664.18808  21262781.840    88434620.02206
 15 01 14 01 11 30.0000000  0 11G12G21G25G29G31R12R13R14R22R23R24
  24623537.040   129397570.87507  24623532.800   100829250.53744
  21625447.820   113642551.64708  21625443.520    88552623.38246
  21583485.880   113421993.83009  21583485.700    88380807.62847
  20913972.720   109903776.60208  20913971.200    85639292.49247
  20926131.680   109967562.48309  20926128.600    85689009.99748
  20313457.220   108510856.52707  20313459.980    84397345.75907
  19520451.640   104238127.79207  19520452.960    81074090.33507
  22859220.400   121852496.84605                                
  22132683.720   118145872.79908  22132684.960    91891293.46106
  19667198.940   105206310.80608  19667200.640    81827105.72608
  21249111.020   113628560.04708  21249111.120    88377761.25806
 15 01 14 01 12  0.0000000  0 11G12G21G25G29G31R12R13R14R22R23R24
  24638833.340   129477957.57306  24638829.580   100891889.38143
  21614399.360   113584491.08008  21614395.140    88507381.38246
  21592896.820   113471447.19809  21592896.440    88419342.70647
  20923567.560   109954197.93408  20923566.320    85678581.81547
  20924728.840   109960189.40509  20924725.600    85683264.73647
  20329838.540   108598362.60308  20329841.140    84465406.02207
  19513223.520   104199531.59107  19513224.860    81044071.07007
  22836159.300   121729568.44905                                
  22152420.820   118251230.86208  22152422.820    91973238.59007
  19671419.480   105228887.26108  19671421.120    81844665.17608
  21235523.700   113555902.74408  21235524.080    88321250.02606
 15 01 14 01 12 30.0000000  0 11G12G21G25G29G31R12R13R14R22R23R24
  24654154.440   129558474.16007  24654151.140   100954629.48044
  21603425.260   113526821.62408  21603421.000    88462444.17146
  21602361.220   113521181.33709  21602360.640    88458096.57847
  20933199.680   110004813.91008  20933198.480    85718022.83648
  20923432.080   109953374.73309  20923428.720    85677954.59947
  20346327.680   108686445.26507  20346330.460    84533914.72307
  19506125.660   104161630.80807  19506127.000    81014592.69807
  22813125.580   121606785.96505  22813128.960    94583081.63603
  22172165.860   118356631.27208  22172168.560    92055216.68007
  19675730.840   105251949.92108  19675732.600    81862602.79908
  21222016.900   113483676.73907  21222017.640    88265074.26006
 15 01 14 01 13  0.0000000  0 11G12G21G25G29G31R12R13R14R22R23R24
  24669497.100   129639100.67108  24669492.760   101017455.41141
  21592522.180   113469525.43708  21592517.880    88417797.80946
  21611875.300   113571177.27709  21611874.700    88497054.44148
  20942865.260   110055605.33908  20942863.920    85757600.56647
  20922237.920   109947099.75009  20922234.420    85673065.00047
  20362920.780   108775082.40808  20362923.340    84602854.73607
  19499155.000   104124408.71107  19499156.360    80985642.19307
  22790116.180   121484133.41605  22790119.700    94487685.20904
  22191914.620   118462051.67508  22191917.700    92137210.31907
  19680128.800   105275476.77708  19680130.900    81880901.47308
  21208587.080   113411862.82807  21208588.140    88209219.03106
 15 01 14 01 13 30.0000000  0 11G12G21G25G29G31R12R13R14R22R23R24
  24684866.620   129719866.78008  24684862.140   101080390.19941
  21581695.860   113412632.95108  21581691.620    88373466.02346
  21621444.720   113621464.60009  21621444.180    88536239.34847
  20952569.400   110106599.56208  20952567.820    85797336.30847
  20921152.120   109941394.28509  20921148.420    85668619.17547
  20379622.680   108864301.50207  20379625.140    84672247.34807
  19492317.600   104087897.67807  19492318.960    80957244.74707
  22767137.240   121361644.20704  22767141.080    94392415.82604
  22211672.280   118567519.61408  22211675.540    92219240.91807
  19684618.580   105299495.21708  19684621.000    81899582.49408
  21195240.000   113340491.57008  21195241.260    88153708.07106
 15 01 14 01 14  0.0000000  0 11G12G21G25G29G31R12R13R14R22R23R24
  24700261.500   129800765.88908  24700258.060   101143428.57843
  21570945.540   113356139.95608  21570941.520    88329445.52046
  21631068.400   113672037.51109  21631067.900    88575646.79547
  20962310.520   110157788.87308  20962308.760    85837224.05447
  20920173.700   109936252.97909  20920169.760    85664612.94047
  20396431.960   108954093.83507  20396434.620    84742085.81707
  19485612.780   104052094.56207  19485614.080    80929397.88107
  22744188.720   121239316.41405  22744192.820    94297272.01904
  22231437.260   118673026.71908  22231440.540    92301301.97807
  19689198.840   105323996.86808  19689201.480    81918639.34008
  21181974.760   113269557.35708  21181975.960    88098537.03306
 15 01 14 01 14 30.0000000  0 11G12G21G25G29G31R12R13R14R22R23R24
  24715681.580   129881797.90508  24715678.820   101206570.38844
  21560271.400   113300047.92808  21560267.700    88285737.48146
  21640746.340   113722896.02009  21640745.920    88615276.78447
  20972088.300   110209171.35908  20972086.340    85877262.33847
  20919302.620   109931675.93209  20919298.440    85661046.40247
  20413347.840   109044456.93807  20413350.940    84812368.20807
  19479041.020   104017002.10407  19479042.320    80902103.74307
  22721271.460   121117153.58205  22721275.240    94202256.47204
  22251209.020   118778569.78808  22251212.180    92383391.01607
  19693869.180   105348979.17108  19693871.820    81938070.02608
  21168791.540   113199060.63508  21168792.460    88043706.24106
 15 01 14 01 15  0.0000000  0 11G12G21G25G29G31R12R13R14R22R23R24
  24731126.360   129962960.09407  24731123.880   101269813.62444
  21549673.180   113244355.28308  21549669.880    88242340.62946
  21650478.240   113774037.77609  21650477.820    88655127.48847
  20981902.100   110260743.50008  20981899.980    85917448.39347
  20918538.580   109927660.93509  20918534.140    85657917.82347
  20430369.700   109135385.75208  20430373.100    84883090.60807
  19472602.240   103982619.67407  19472603.600    80875361.84707
  22698385.620   120995156.89505  22698388.900    94107370.15804
  22270986.740   118884144.14208  22270989.640    92465504.39506
  19698628.460   105374436.91408  19698630.960    81957870.47708
  21155689.900   113128999.32608  21155690.420    87989214.10205
 15 01 14 01 15 30.0000000  0 11G12G21G25G29G31R12R13R14R22R23R24
  24746596.620   130044257.77306  24746594.520   101333162.37545
  21539152.240   113189069.09908  21539149.440    88199260.51046
  21660265.180   113825468.53809  21660264.520    88695203.40047
  20991752.640   110312508.73408  20991750.320    85957784.92946
  20917882.820   109924214.08409  20917877.960    85655231.96547
  20447498.140   109226883.15107  20447501.660    84954255.24507
  19466298.020   103948956.09707  19466299.500    80849179.05507
  22675532.840   120873336.05006  22675535.600    94012620.58003
  22290771.000   118989753.19808  22290773.640    92547644.78106
  19703477.300   105400373.45708  19703479.360    81978043.33508
  21142670.920   113059379.58608  21142671.120    87935065.40806
 15 01 14 01 16  0.0000000  0 10G21G25G29G31R12R13R14R22R23R24
  21528702.060   113134155.84708  21528699.820    88156470.99746
  21670100.520   113877153.39609  21670099.560    88735477.29947
  21001633.040   110364431.13508  21001630.660    85998243.93546
  20917328.660   109921300.44809  20917323.320    85652961.58747
  20464725.900   109318910.65607  20464729.400    85025832.17506
  19460122.300   103915977.91308  19460123.880    80823529.34107
  22652706.980   120751658.92206  22652709.280    93917982.77103
  22310554.560   119095358.20808  22310556.820    92629782.01906
  19708408.580   105426750.70909  19708409.880    81998558.96708
  21129727.920   112990166.03207  21129727.980    87881232.65306
 15 01 14 01 16 30.0000000  0 10G21G25G29G31R12R13R14R22R23R24
  21518473.600   113080407.57208  21518471.700    88114589.25446
  21680134.720   113929883.03409  21680133.560    88776565.32247
  21011693.480   110417300.06108  21011691.300    86039440.48246
  20917026.580   109919711.25409  20917020.800    85651723.26447
  20482202.940   109412269.64007  20482206.140    85098444.71806
  19454225.920   103884491.23107  19454227.640    80799039.70807
  22630059.140   120630931.43906                                
  22330487.340   119201760.23408  22330489.520    92712539.14206
  19713572.140   105454370.87208  19713572.680    82020041.32008
  21117011.200   112922163.40008  21117011.380    87828341.74006
 15 01 14 01 17 30.0000000  0 10G21G25G29G31R12R13R14R22R23R24
  21497814.220   112971775.64508  21497811.260    88029945.76545
  21699930.760   114033906.03809  21699929.560    88857583.82647
  21031484.120   110521196.97307  21031483.420    86120407.16946
  20916309.460   109915948.32009  20916303.760    85648765.58947
  20517034.240   109598313.67807  20517036.380    85243144.11006
  19442404.020   103821352.84408  19442406.380    80749949.91807
  22584431.600   120387729.03806                                
  22369930.440   119412207.34308  22369931.880    92876167.07106
  19723725.260   105508630.83108  19723725.180    82062267.23508
  21091388.900   112785134.13508  21091389.680    87721773.65406
 15 01 14 01 18  0.0000000  0 10G21G25G29G31R12R13R14R22R23R24
  21487678.080   112918509.28108  21487674.580    87988439.51845
  21709986.660   114086750.73209  21709985.540    88898761.50247
  21041508.400   110573875.54507  21041507.840    86161455.38146
  20916188.520   109915313.20709  20916183.120    85648270.67547
  20534681.300   109692580.95307  20534683.140    85316463.10506
  19436773.560   103791286.67008  19436775.960    80726565.11007
  22561747.200   120266810.50005  22561747.960    93540862.51803
  22389733.520   119517917.66208  22389735.080    92958386.17706
  19729007.920   105536890.31609  19729008.040    82084246.81708
  21078777.320   112717694.49408  21078778.120    87669320.61606
 15 01 14 01 18 30.0000000  0 10G21G25G29G31R12R13R14R22R23R24
  21477645.200   112865785.13708  21477640.980    87947355.77745
  21720122.020   114140013.08409  21720121.040    88940264.61847
  21051592.300   110626866.52907  21051591.760    86202747.03447
  20916200.200   109915375.67909  20916195.320    85648319.34047
  20552456.220   109787530.61308  20552457.500    85390312.85306
  19431304.860   103762084.01508  19431307.180    80703851.94307
  22539124.140   120146220.33305  22539126.720    93447070.13004
  22409564.620   119623777.88208  22409566.380    93040721.90006
  19734401.720   105565743.84909  19734402.020    82106688.45408
  21066272.940   112650828.74608  21066273.800    87617313.94806
 15 01 14 01 19  0.0000000  0 10G21G25G29G31R12R13R14R22R23R24
  21467678.400   112813407.69708  21467673.460    87906542.19845
  21730299.460   114193496.38309  21730298.580    88981939.91347
  21061698.180   110679971.88408  21061697.480    86244127.83647
  20916307.180   109915938.97409  20916302.840    85648758.26747
  20570321.020   109882960.22008  20570321.840    85464535.90406
  19425960.860   103733547.24708  19425963.040    80681656.69107
  22516525.960   120025762.93605  22516530.480    93353381.04204
  22429385.800   119729585.64008  22429387.820    93123016.78706
  19739868.820   105594988.46009  19739869.120    82129434.26008
  21053838.480   112584337.07608  21053839.340    87565598.23406
 15 01 14 01 19 30.0000000  0 10G21G25G29G31R12R13R14R22R23R24
  21457455.340   112759683.50108  21457449.900    87864679.18445
  21740196.500   114245506.26809  21740195.820    89022467.08347
  21071503.200   110731495.76508  21071502.340    86284276.30047
  20916187.040   109915308.62209  20916183.120    85648267.08447
  20587952.780   109977144.28208  20587953.400    85537790.20206
  19420419.520   103703956.78408  19420421.480    80658641.89507
  22493630.980   119903723.74105  22493636.920    93258461.62905
  22448874.280   119833617.22508  22448876.540    93203930.20306
  19745086.080   105622896.62008  19745086.160    82151140.61507
  21041151.540   112516495.48308  21041152.380    87512832.57106
 15 01 14 01 20  0.0000000  0 10G21G25G29G31R12R13R14R22R23R24
  21448975.060   112715118.36208  21448969.380    87829953.11845
  21751812.080   114306547.03109  21751811.560    89070031.30447
  21083005.820   110791940.92508  21083004.940    86331376.42547
  20917838.760   109923989.22109  20917835.120    85655031.16848
  20607349.660   110080757.72608  20607350.340    85618378.43806
  19416680.240   103683989.01608  19416682.000    80643111.42507
  22472438.820   119790761.22005  22472445.920    93170601.88205
  22470028.560   119946540.60608  22470030.860    93291759.47206
  19752051.720   105660158.68808  19752051.880    82180122.22807
  21030211.200   112457993.25308  21030212.020    87467330.85306
 15 01 14 01 20 30.0000000  0 10G21G25G29G31R12R13R14R22R23R24
  21436465.840   112649381.27908  21436460.060    87778729.40745
  21759374.200   114346286.65309  21759373.800    89100997.22647
  21090433.780   110830974.03808  21090432.900    86361791.81147
  20915490.380   109911648.85509  20915486.780    85645415.28747
  20622739.100   110162964.98908  20622740.180    85682317.41406
  19408971.540   103642823.78708  19408973.220    80611094.02808
  22447178.300   119656111.57105  22447186.640    93065874.37505
  22487076.260   120037541.99908  22487078.320    93362538.31506
  19754993.100   105675895.56108  19754993.740    82192362.01407
  21015245.400   112377964.88408  21015246.240    87405086.59306
 15 01 14 01 21  0.0000000  0 10G21G25G29G31R12R13R14R22R23R24
  21425548.480   112592009.71008  21425542.680    87734024.27645
  21768503.500   114394261.59309  21768503.120    89138380.28047
  21099407.460   110878129.89908  21099406.460    86398536.60847
  20914762.420   109907823.61809  20914758.820    85642434.57047
  20639741.040   110253786.97407  20639742.680    85752956.70507
  19402914.380   103610476.94108  19402916.060    80585935.35608
  22423470.880   119529739.77605  22423479.760    92967585.15205
  22505637.440   120136622.32108  22505638.900    93439600.76206
  19759530.520   105700171.04008  19759531.680    82211242.93907
  21001874.940   112306466.98308  21001875.820    87349477.10806
 15 01 14 01 21 30.0000000  0 10G21G25G29G31R12R13R14R22R23R24
  21420251.840   112564175.52108  21420246.320    87712335.32045
  21783228.580   114471642.63609  21783228.160    89198677.19947
  21113955.340   110954577.85108  21113954.000    86458106.44047
  20919683.540   109933684.54309  20919679.940    85662585.94947
  20662383.740   110374741.54108  20662385.920    85847032.46207
  19402537.660   103608463.59008  19402539.380    80584369.43108
  22405345.920   119433124.74005  22405355.180    92892440.11305
  22529740.260   120265284.19208  22529741.320    93539671.10006
  19769692.540   105754533.51908  19769694.000    82253524.88507
  20994128.600   112265042.50008  20994129.200    87317258.08606
 15 01 14 01 22  0.0000000  0 10G21G25G29G31R12R13R14R22R23R24
  21409227.000   112506240.08508  21409221.800    87667190.82845
  21792200.440   114518789.91309  21792200.000    89235415.32147
  21122727.880   111000676.03308  21122726.120    86494027.08847
  20918904.640   109929591.95309  20918901.000    85659396.90547
  20679317.740   110465200.79207  20679320.320    85917389.64107
  19396492.520   103576182.22808  19396494.380    80559261.70908
  22381454.820   119305772.93704  22381464.300    92793388.67805
  22548035.240   120362943.39708  22548035.780    93615628.30505
  19774129.660   105778270.10108  19774131.080    82271986.65807
  20980657.200   112193002.84908  20980657.160    87261227.25606
 15 01 14 01 22 30.0000000  0 10G21G25G29G31R12R13R14R22R23R24
  21400086.620   112458208.99808  21400081.860    87629764.02745
  21803031.700   114575707.89609  21803031.160    89279766.97147
  21133337.340   111056427.88408  21133335.200    86537470.07647
  20920038.280   109935549.89709  20920034.460    85664039.44647
  20698155.180   110565826.99108  20698158.040    85995654.44207
  19392391.900   103554285.87008  19392394.060    80542231.20808
  22359410.980   119188267.98204  22359420.400    92701995.92504
  22568134.480   120470234.22708  22568135.000    93699076.72906
  19780453.900   105812100.20708  19780455.160    82298298.95307
  20969073.040   112131056.29508  20969072.380    87213046.62405
 15 01 14 01 23  0.0000000  0 10G21G25G29G31R12R13R14R22R23R24
  21393019.700   112421074.20008  21393015.360    87600827.83646
  21815911.040   114643387.86609  21815910.280    89332504.61647
  21145972.100   111122823.82308  21145969.880    86589207.16347
  20923273.260   109952549.88909  20923269.240    85677286.18647
  20719084.000   110677624.76708  20719086.940    86082608.25407
  19390424.860   103543783.91608  19390427.380    80534063.03908
  22339404.000   119081619.61705  22339413.160    92619047.16304
  22590226.040   120588161.10208  22590226.920    93790797.61506
  19788853.280   105857030.31508  19788854.380    82333244.58507
  20959564.660   112080211.69008  20959563.560    87173500.85905
 15 01 14 01 23 30.0000000  0 10G21G25G29G31R12R13R14R22R23R24
  21382053.780   112363449.46008  21382049.920    87555925.46546
  21824865.380   114690441.95809  21824864.320    89369170.12847
  21154658.880   111168474.06908  21154656.840    86624778.76747
  20922636.520   109949203.81109  20922632.580    85674678.84848
  20736130.760   110768684.73208  20736133.600    86153432.67007
  19384619.060   103512783.32908  19384621.780    80509951.47307
  22315461.680   118953992.56505  22315470.140    92519781.66404
  22608336.700   120684838.02008  22608338.020    93865990.75806
  19793354.180   105881106.96608  19793355.500    82351970.85808
  20946159.200   112008529.09107  20946157.940    87117747.74505
 15 01 14 01 24  0.0000000  0 10G21G25G29G31R12R13R14R22R23R24
  21368306.180   112291205.93608  21368302.820    87499631.84146
  21831011.860   114722740.54609  21831010.540    89394337.85547
  21160514.720   111199247.59608  21160512.920    86648758.12247
  20919245.100   109931381.93109  20919241.440    85660791.67748
  20750411.960   110844971.66108  20750414.520    86212766.95806
  19376092.220   103467251.35008  19376094.940    80474537.70507
  22288701.940   118811345.36105  22288709.280    92408833.78003
  22623583.240   120766225.96408  22623584.800    93929292.48406
  19795073.240   105890303.34508  19795075.060    82359123.59708
  20929974.080   111921982.49907  20929972.960    87050433.74405
 15 01 14 01 24 30.0000000  0 10G21G25G29G31R12R13R14R22R23R24
  21362570.520   112261063.77008  21362567.240    87476144.44546
  21845143.640   114797002.50009  21845142.180    89452204.28047
  21174332.720   111271861.90808  21174330.980    86705340.65547
  20923892.260   109955803.11909  20923888.980    85679821.13348
  20772720.140   110964137.82608  20772722.500    86305451.71606
  19375637.980   103464825.31708  19375640.520    80472650.76407
  22269918.760   118711216.32205  22269924.940    92330955.55304
  22646758.680   120889937.77808  22646760.320    94025512.73206
  19804803.300   105942353.03308  19804805.580    82399606.66408
  20921802.780   111878288.24108  20921801.980    87016449.32505
 15 01 14 01 25  0.0000000  0 10G21G25G29G31R12R13R14R22R23R24
  21355425.500   112223514.32908  21355422.180    87446885.17546
  21857839.300   114863718.56009  21857837.940    89504190.80147
  21186691.300   111336806.10308  21186689.380    86755946.50647
  20927156.700   109972957.81209  20927153.780    85693188.41848
  20793633.460   111075853.22808  20793635.560    86392341.47506
  19373835.240   103455197.65408  19373837.500    80465162.57907
  22249691.600   118603388.77106  22249696.840    92247089.64404
  22668441.160   121005679.62608  22668442.680    94115534.16806
  19813122.760   105986856.01308  19813125.140    82434220.11207
  20912224.100   111827066.57408  20912223.660    86976610.28205
 15 01 14 01 25 30.0000000  0 10G21G25G29G31R12R13R14R22R23R24
  21344144.120   112164227.28208  21344140.440    87400687.50546
  21866371.740   114908557.04709  21866370.580    89539129.87447
  21194862.940   111379747.43108  21194860.640    86789407.26247
  20926311.140   109968514.28509  20926308.560    85689725.91548
  20810424.200   111165546.81507  20810426.340    86462103.14506
  19367956.940   103423807.12308  19367959.100    80440747.72407
  22225293.560   118473328.59806  22225297.820    92145931.66504
  22685903.160   121098891.43108  22685904.500    94188032.19906
  19817303.880   106009220.65009  19817306.040    82451614.84208
  20898510.680   111753733.46108  20898510.420    86919573.45806
 15 01 14 01 26  0.0000000  0 10G21G25G29G31R12R13R14R22R23R24
  21337080.740   112127105.66908  21337076.400    87371761.59146
  21879095.220   114975419.86409  21879094.340    89591230.75047
  21207201.520   111444586.37608  21207198.860    86839931.10347
  20929709.800   109986374.45909  20929707.500    85703642.91948
  20831446.020   111277842.28207  20831448.220    86549444.07106
  19366357.780   103415267.19608  19366359.880    80434105.57107
  22205079.720   118365573.36806  22205083.500    92062122.01605
  22707498.420   121214166.35908  22707499.300    94277690.49006
  19825700.240   106054134.11608  19825702.140    82486547.55608
  20889016.720   111702963.36408  20889016.460    86880085.64406
 15 01 14 01 26 30.0000000  0 10G21G25G29G31R12R13R14R22R23R24
  21327107.660   112074693.46709  21327102.480    87330920.91846
  21888881.980   115026850.15009  21888881.320    89631306.27747
  21216579.020   111493864.90608  21216576.040    86878329.94647
  20930224.940   109989081.10709  20930222.740    85705751.96548
  20849570.480   111374661.27507  20849572.980    86624747.70906
  19361910.160   103391517.11908  19361912.200    80415633.28207
  22181922.820   118242131.36506  22181926.340    91966111.50805
  22726098.640   121313453.63508  22726099.100    94354913.91306
  19831183.400   106083464.54908  19831185.200    82509360.09508
  20876614.340   111636640.69808  20876613.840    86828501.36706
 15 01 14 01 27  0.0000000  0 10G21G25G29G31R12R13R14R22R23R24
  21317784.640   112025698.45308  21317778.560    87292742.98446
  21899291.860   115081554.80109  21899291.360    89673933.25847
  21226554.900   111546288.15508  21226551.880    86919179.21047
  20931416.300   109995340.91809  20931414.040    85710629.70548
  20868356.860   111475016.37207  20868359.700    86702801.65506
  19358174.380   103371568.34208  19358176.360    80400117.54607
  22159383.460   118121982.45406  22159387.000    91872662.31705
  22745263.100   121415753.85708  22745263.220    94434480.74006
  19837312.680   106116252.13908  19837314.580    82534861.53508
  20864863.280   111573801.36808  20864862.280    86779626.32706
 15 01 14 01 28  0.0000000  0 10G21G25G29G31R12R13R14R22R23R24
  21301683.960   111941105.96108  21301676.580    87226804.03246
  21922575.500   115203911.56309  21922575.060    89769279.69447
  21248895.440   111663699.36008  21248893.320    87010664.16347
  20936422.140   110021639.52009  20936419.440    85731136.74248
  20908507.440   111689495.15307  20908510.840    86869621.74306
  19353434.260   103346257.70908  19353435.600    80380430.09907
  22116754.720   117894750.65306  22116759.500    91695934.60905
  22785877.640   121632563.56608  22785878.080    94603104.79506
  19852102.660   106195362.18808  19852104.440    82596401.18808
  20843910.040   111461753.24508  20843908.340    86692466.19506
 15 01 14 01 28 30.0000000  0 10G21G25G29G31R12R13R14R22R23R24
  21293232.900   111896695.90408  21293225.620    87192198.79246
  21933775.160   115262766.33909  21933774.780    89815140.55647
  21259585.500   111719876.77408  21259583.640    87054438.76147
  20938562.120   110032884.47809  20938559.300    85739899.03848
  20928197.120   111794673.90507  20928200.420    86951427.45006
  19350756.560   103331958.20608  19350757.760    80369308.25907
  22094993.240   117778752.20105  22094998.580    91605713.59805
  22805653.200   121738127.43608  22805653.740    94685210.03706
  19859088.400   106232730.88108  19859090.080    82625465.73808
  20833033.540   111403591.23608  20833032.060    86647229.10406
 15 01 14 01 29  0.0000000  0 10G21G25G29G31R12R13R14R22R23R24
  21284863.860   111852717.15308  21284856.680    87157929.63046
  21945028.880   115321905.38909  21945028.680    89861222.91847
  21270304.060   111776204.26708  21270302.520    87098330.29247
  20940809.140   110044691.78609  20940806.140    85749099.52148
  20947977.580   111900337.08307  20947980.780    87033609.91206
  19348223.040   103318428.29808  19348224.040    80358784.98507
  22073283.760   117663030.40405  22073289.440    91515707.74805
  22825422.640   121843658.90108  22825423.540    94767290.04006
  19866149.440   106270502.49108  19866151.100    82654843.64008
  20822239.580   111345870.07808  20822238.340    86602334.89506
 15 01 14 01 29 30.0000000  0 10G21G25G29G31R12R13R14R22R23R24
  21276577.460   111809172.98008  21276570.660    87123999.11245
  21956337.120   115381330.94809  21956337.100    89907528.52747
  21281051.400   111832682.62708  21281050.160    87142339.39947
  20943163.460   110057063.04609  20943160.320    85758739.44848
  20967848.660   112006484.01707  20967851.680    87116168.63306
  19345834.360   103305672.21008  19345835.260    80348863.59007
  22051627.760   117547591.76706  22051633.520    91425922.16905
  22845185.980   121949157.83508  22845187.260    94849344.74606
  19873285.820   106308676.78008  19873287.340    82684534.74307
  20811528.340   111288591.80708  20811527.340    86557785.16406
 15 01 14 01 30  0.0000000  0 10G21G25G29G31R12R13R14R22R23R24
  21268373.520   111766061.92308  21268366.880    87090406.07445
  21967699.480   115441040.75309  21967699.560    89954055.63147
  21291826.760   111889308.05708  21291825.660    87186463.11147
  20945624.540   110069995.93009  20945621.340    85768816.99748
  20987809.220   112113109.23507  20987812.060    87199099.35705
  19343590.380   103293688.99908  19343591.160    80339543.31207
  22030025.580   117432438.33106  22030031.000    91336358.34205
  22864942.640   122054620.34008  22864944.180    94931371.15606
  19880496.480   106347248.79408  19880497.960    82714535.19007
  20800899.380   111231754.24308  20800898.580    86513578.21306
 15 01 14 01 30 30.0000000  0 10G21G25G29G31R12R13R14R22R23R24
  21260251.360   111723380.75608  21260244.720    87057148.03045
  21979115.200   115501030.71409  21979115.380    90000801.03947
  21302629.020   111946075.33307  21302628.120    87230697.33847
  20948191.600   110083486.08209  20948188.420    85779328.78948
  21007858.000   112220205.55407  21007860.440    87282396.49205
  19341490.540   103282476.35008  19341491.340    80330822.36707
  22008476.960   117317569.90706  22008481.700    91247016.20504
  22884691.340   122160040.29008  22884692.860    95013364.44806
  19887780.000   106386211.81108  19887781.700    82744839.75307
  20790351.940   111175353.27208  20790351.180    86469710.82906
 15 01 14 01 31  0.0000000  0 10G21G25G29G31R12R13R14R22R23R24
  21252211.460   111681132.13408  21252204.940    87024227.02345
  21990584.640   115561302.65509  21990584.800    90047766.17947
  21313458.140   112002985.69107  21313457.820    87275043.04847
  20950864.960   110097534.97809  20950861.840    85790275.96848
  21027994.620   112327771.25407  21027996.980    87366058.68205
  19339535.560   103272037.42308  19339536.500    80322703.20007
  21986982.940   117202992.44206  21986986.920    91157900.31304
  22904432.100   122265417.72508  22904433.520    95095324.63706
  19895136.260   106425565.38308  19895138.500    82775448.06508
  20779886.440   111119390.65808  20779885.380    86426184.35305
 15 01 14 01 31 30.0000000  0 10G21G25G29G31R12R13R14R22R23R24
  21244253.300   111639313.57308  21244246.880    86991641.13445
  22002107.140   115621852.93609  22002107.120    90094948.20747
  21324313.180   112060033.90407  21324313.660    87319496.15247
  20953643.860   110112138.44809  20953640.760    85801655.27348
  21048218.000   112435799.87007  21048220.500    87450080.93305
  19337725.180   103262370.32808  19337726.260    80315184.34107
  21965543.480   117088706.91206  21965547.160    91069011.52704
  22924163.800   122370746.79608  22924164.960    95177247.21606
  19902564.320   106465302.73108  19902567.180    82806354.87308
  20769502.140   111063862.58808  20769500.640    86382995.86505
 15 01 14 01 32  0.0000000  0 10G21G25G29G31R12R13R14R22R23R24
  21236380.160   111597942.14008  21236373.840    86959403.66045
  22013685.580   115682697.49509  22013685.420    90142359.53947
  21335197.560   112117234.62607  21335198.560    87364068.11746
  20956531.320   110127312.21609  20956528.200    85813478.97448
  21068530.520   112544304.49608  21068533.320    87534473.41306
  19336062.520   103253492.15808  19336063.660    80308279.09207
  21944162.460   116974733.44406  21944165.920    90980365.46905
  22943889.160   122476042.03008  22943889.960    95259143.51906
  19910066.960   106505437.87908  19910070.300    82837571.10408
  20759202.260   111008785.64308  20759200.460    86340158.23705
 15 01 14 01 32 30.0000000  0 10G21G25G29G31R12R13R14R22R23R24
  21228591.300   111557013.71608  21228585.500    86927511.39846
  22025319.120   115743831.56109  22025318.840    90189996.46547
  21346110.340   112174581.56408  21346111.340    87408754.03347
  20959526.380   110143051.19409  20959523.180    85825743.09348
  21088930.600   112653277.11108  21088933.740    87619229.88106
  19334547.100   103245400.27108  19334548.400    80301985.39807
  21922839.720   116861071.58206  21922843.160    90891961.76805
  22963606.800   122581296.74307  22963607.440    95341008.25206
  19917642.860   106545963.42709  19917646.320    82869090.97008
  20748985.720   110954154.27908  20748983.880    86297667.19205
 15 01 14 01 33  0.0000000  0 10G21G25G29G31R12R13R14R22R23R24
  21220887.920   111516533.57408  21220882.660    86895968.43646
  22037008.540   115805259.62009  22037008.000    90237862.47147
  21357052.200   112232078.76208  21357052.680    87453557.04647
  20962629.740   110159359.56409  20962626.440    85838450.89048
  21109418.540   112762719.09308  21109421.980    87704351.41906
  19333180.040   103238100.65808  19333181.640    80296307.91308
  21901577.020   116747730.18606  21901580.860    90803807.32605
  22983317.400   122686513.87507  22983317.760    95422843.76406
  19925292.220   106586881.06609  19925295.520    82900915.78408
  20738853.200   110899973.25808  20738851.800    86255526.45305
 15 01 14 01 33 30.0000000  0 10G21G25G29G31R12R13R14R22R23R24
  21213269.500   111476498.06508  21213264.640    86864771.94446
  22048752.940   115866976.79609  22048752.140    90285953.78347
  21368021.460   112289719.85708  21368021.380    87498472.17647
  20965840.320   110176231.85909  20965836.800    85851598.11747
  21129992.800   112872622.44808  21129996.380    87789831.79106
  19331960.720   103231589.67408  19331962.600    80291243.81008
  21880374.140   116634708.56505  21880378.620    90715901.61805
  23003019.560   122791686.70207  23003020.000    95504644.78706
  19933013.480   106628183.48508  19933016.660    82933039.89008
  20728803.940   110846237.73907  20728803.080    86213732.19305
 15 01 14 01 34  0.0000000  0 10G21G25G29G31R12R13R14R22R23R24
  21205736.020   111436907.32208  21205731.400    86833922.01846
  22060552.140   115928982.37509  22060551.180    90334269.81147
  21379017.700   112347503.31208  21379017.120    87543498.23947
  20969157.940   110193667.00009  20969154.220    85865183.92347
  21150652.640   112982983.16708  21150656.440    87875667.87306
  19330889.160   103225867.74008  19330891.180    80286793.41508
  21859231.780   116522010.41805  21859237.020    90628247.54206
  23022712.980   122896812.51407  23022713.240    95586409.29906
  19940806.000   106669867.18608  19940809.160    82965460.54108
  20718838.020   110792946.76208  20718837.480    86172283.68005
 15 01 14 01 34 30.0000000  0 10G21G25G29G31R12R13R14R22R23R24
  21198287.180   111397760.43408  21198282.740    86803417.95647
  22072405.820   115991274.73809  22072404.920    90382809.30047
  21390040.360   112405426.27608  21390039.280    87588632.99847
  20972582.200   110211662.94009  20972578.500    85879206.70247
  21171397.260   113093796.57008  21171401.020    87961856.05706
  19329965.360   103220934.64308  19329967.300    80282956.56607
  21838150.580   116409637.98205  21838156.500    90540846.76406
  23042397.020   123001887.91008  23042396.920    95668134.58606
  19948668.980   106711928.31608  19948672.220    82998174.74708
  20708955.240   110740098.69508  20708954.540    86131179.64905
 15 01 14 01 35  0.0000000  0 10G21G25G29G31R12R13R14R22R23R24
  21190921.460   111359050.13209  21190917.060    86773254.08447
  22084312.480   116053845.61308  22084311.760    90431565.80147
  21401087.460   112463478.91508  21401086.100    87633868.79847
  20976111.520   110230210.98908  20976107.920    85893659.71247
  21192224.440   113205050.82608  21192228.040    88048387.13606
  19329188.040   103216783.20008  19329189.700    80279727.67007
  21817129.980   116297587.58205  21817136.300    90453696.48805
  23062069.760   123106903.01007  23062069.480    95749812.97105
  19956600.300   106754355.87208  19956603.760    83031173.95808
  20699153.880   110687684.65608  20699152.840    86090413.21005
 15 01 14 01 35 30.0000000  0 11G16G21G25G29G31R12R13R14R22R23R24
  24564093.660   129085177.12507  24564090.460   100585848.10044
  21183639.600   111320780.99609  21183635.160    86743433.98047
  22096272.920   116116698.71109  22096272.200    90480542.22947
  21412159.900   112521664.70408  21412158.320    87679208.34247
  20979746.480   110249314.27308  20979743.060    85908545.38347
  21213134.180   113316746.97608  21213137.620    88135261.89105
  19328558.180   103213419.05608  19328559.660    80277111.11807
  21796171.560   116185867.12406  21796177.900    90366802.80105
  23081731.480   123211859.92507  23081731.620    95831446.10606
  19964600.180   106797151.08508  19964603.740    83064459.11108
  20689434.320   110635708.80908  20689433.200    86049987.58605
 15 01 14 01 36  0.0000000  0 11G16G21G25G29G31R12R13R14R22R23R24
  24547118.120   128995971.47907  24547115.640   100516337.22344
  21176421.600   111282848.37109  21176417.180    86713876.09747
  22108267.180   116179728.77609  22108266.440    90529656.55147
  21423237.460   112579877.12308  21423235.600    87724568.63947
  20983467.100   110268867.24808  20983463.780    85923781.44947
  21234105.920   113428774.41807  21234109.100    88222394.33305
  19328055.780   103210735.67308  19328057.240    80275024.04808
  21775256.020   116074374.35907  21775262.000    90280086.20405
  23101362.020   123316649.95308  23101362.940    95912949.43006
  19972648.240   106840204.33608  19972651.840    83097944.95007
  20679776.180   110584063.67207  20679775.380    86009819.14205
 15 01 14 01 36 30.0000000  0 11G16G21G25G29G31R12R13R14R22R23R24
  24530157.240   128906841.87907  24530155.360   100446885.59544
  21169307.520   111245462.54309  21169303.120    86684744.29147
  22120335.160   116243145.64809  22120334.340    90579072.28147
  21434359.820   112638324.84408  21434357.680    87770112.29847
  20987313.200   110289079.12908  20987309.700    85939530.95746
  21255178.960   113541343.48307  21255181.780    88309948.03604
  19327721.000   103208947.99307  19327722.600    80273633.63308
  21754424.060   115963326.54906  21754429.400    90193715.63704
  23121001.020   123421484.80808  23121002.680    95994487.61106
  19980784.200   106883726.46808  19980787.520    83131795.49507
  20670219.460   110532962.58207  20670219.160    85970073.85805
 15 01 14 01 37  0.0000000  0 11G16G21G25G29G31R12R13R14R22R23R24
  24513191.080   128817684.57208  24513189.240   100377412.37344
  21162277.860   111208520.89709  21162273.500    86655958.60547
  22132456.760   116306844.59208  22132455.920    90628707.82247
  21445506.820   112696902.11308  21445504.440    87815756.89647
  20991264.760   110309844.55408  20991260.780    85955711.80146
  21276332.720   113654344.62907  21276335.120    88397837.80804
  19327534.080   103207951.02007  19327536.160    80272858.19508
  21733656.380   115852621.73706  21733661.180    90107611.83704
  23140628.360   123526256.29507  23140630.360    96075976.51006
  19988987.760   106927608.80608  19988990.720    83165926.19008
  20660744.700   110482299.11407  20660744.740    85930668.96805
 15 01 14 01 37 30.0000000  0 11G16G21G25G29G31R12R13R14R22R23R24
  24496219.760   128728499.92708  24496217.240   100307917.80443
  21155332.400   111172022.38709  21155328.220    86627518.21847
  22144631.660   116370824.59608  22144631.000    90678562.36447
  21456678.160   112755606.92008  21456675.540    87861500.88747
  20995321.440   110331162.00508  20995316.960    85972322.79146
  21297566.520   113767773.27307  21297568.640    88486060.08404
  19327494.940   103207744.14807  19327497.600    80272697.29408
  21712953.520   115742263.33506  21712958.280    90021777.46704
  23160243.500   123630962.18207  23160245.740    96157414.38106
  19997257.900   106971847.32808  19997260.740    83200333.92308
  20651351.800   110432071.65508  20651351.980    85891603.18706
 15 01 14 01 38  0.0000000  0 11G16G21G25G29G31R12R13R14R22R23R24
  24479244.080   128639292.58908  24479241.020   100238405.64344
  21148472.040   111135971.34409  21148467.980    86599426.50847
  22156860.580   116435089.06408  22156860.320    90728638.55847
  21467874.100   112814441.57208  21467871.360    87907346.04847
  20999483.880   110353034.54508  20999478.980    85989366.33146
  21318880.720   113881629.82108  21318882.900    88574615.18305
  19327604.840   103208332.51407  19327607.800    80273154.90408
  21692316.920   115632259.22506  21692322.300    89936218.72605
  23179846.580   123735603.95907  23179848.960    96238802.38406
  20005594.780   107016443.48208  20005597.840    83235019.79008
  20642041.380   110382284.12008  20642041.620    85852879.58906
 15 01 14 01 38 30.0000000  0 11G16G21G25G29G31R12R13R14R22R23R24
  24462263.920   128550061.41407  24462260.200   100168874.76144
  21141696.520   111100366.37908  21141692.500    86571682.38247
  22169143.140   116499635.76808  22169143.240    90778934.67347
  21479093.980   112873402.60508  21479091.200    87953289.69647
  21003751.440   110375459.35508  21003746.160    86006840.19146
  21340274.140   113995908.87508  21340276.480    88663498.89405
  19327863.720   103209714.93207  19327866.520    80274230.10908
  21671746.900   115522611.39405  21671753.220    89850937.08005
  23199436.840   123840178.04407  23199439.500    96320137.74806
  20013997.560   107061392.33408  20014000.960    83269979.98008
  20632812.780   110332933.52908  20632812.980    85814495.81806
 15 01 14 01 39  0.0000000  0 11G16G21G25G29G31R12R13R14R22R23R24
  24445280.340   128460812.02008  24445276.380   100099329.81044
  21135006.900   111065213.04008  21135002.900    86544290.17847
  22181480.380   116564469.37708  22181480.740    90829454.36246
  21490338.780   112932494.66508  21490335.680    87999335.44246
  21008124.940   110398440.74709  21008119.220    86024747.75546
  21361747.140   114110611.96008  21361749.680    88752712.41505
  19328272.480   103211897.16407  19328274.980    80275927.40507
  21651245.480   115413329.53105  21651252.520    89765940.07506
  23219015.020   123944687.72808  23219017.960    96401423.01006
  20022466.900   107106696.12909  20022470.240    83305216.25708
  20623666.760   110284024.68408  20623667.000    85776455.61206
 15 01 14 01 39 30.0000000  0 11G16G21G25G29G31R12R13R14R22R23R24
  24428291.240   128371533.68108  24428287.160   100029762.30045
  21128401.040   111030500.56208  21128397.120    86517241.50047
  22193870.160   116629578.20508  22193870.560    90880188.51646
  21501606.140   112991704.85208  21501602.520    88045473.25046
  21012601.900   110421966.09309  21012596.000    86043079.17146
  21383296.580   114225724.18808  21383299.360    88842244.12906
  19328828.900   103214868.18407  19328831.160    80278238.20007
  21630811.260   115304405.77405  21630819.020    89681221.60806
  23238578.580   124049119.43807  23238581.720    96482647.59906
  20030999.920   107152340.76108  20031003.120    83340717.62708
  20614600.920   110235545.53408  20614601.300    85738749.65406
 15 01 14 01 40  0.0000000  0 11G16G21G25G29G31R12R13R14R22R23R24
  24411299.060   128282239.05208  24411295.040    99960182.11044
  21121881.040   110996240.10808  21121877.240    86490545.05747
  22206314.380   116694973.06408  22206314.760    90931145.54947
  21512897.860   113051042.86808  21512893.640    88091710.65946
  21017184.300   110446045.76909  21017178.480    86061842.54046
  21404923.980   114341253.19008  21404927.040    88932099.99106
  19329535.320   103218640.36607  19329537.400    80281172.14007
  21610447.360   115195855.63206  21610455.400    89596793.76006
  23258129.240   124153483.15006  23258132.620    96563819.26006
  20039598.020   107198334.74008  20039601.120    83376490.70707
  20605617.340   110187507.02508  20605617.840    85701386.39406
 15 01 14 01 40 30.0000000  0 11G16G21G25G29G31R12R13R14R22R23R24
  24394303.080   128192924.23307  24394299.020    99890586.12445
  21115446.260   110962427.56308  21115442.760    86464197.62347
  22218812.080   116760648.95508  22218812.520    90982321.56246
  21524212.800   113110502.54008  21524207.980    88138042.88846
  21021871.040   110470673.64009  21021865.280    86081033.06947
  21426627.860   114457190.51608  21426631.000    89022273.45206
  19330390.900   103223209.09107  19330393.000    80284725.59107
  21590153.680   115087678.82306  21590161.720    89512656.24906
  23277665.900   124257771.99507  23277669.540    96644932.71506
  20048259.740   107244670.27808  20048262.920    83412529.45307
  20596715.020   110139903.47408  20596715.640    85664361.41206
 15 01 14 01 41  0.0000000  0 11G16G21G25G29G31R12R13R14R22R23R24
  24377303.980   128103593.56407  24377300.020    99820977.87745
  21109097.500   110929067.03108  21109094.260    86438202.41847
  22231363.840   116826609.01208  22231364.380    91033718.99546
  21535551.320   113170085.97508  21535546.020    88184471.54046
  21026662.680   110495852.96909  21026656.820    86100653.31546
  21448408.120   114573536.33107  21448411.600    89112764.59506
  19331396.480   103228578.80807  19331398.660    80288902.01707
  21569931.600   114979882.52806  21569939.240    89428814.69706
  23297189.080   124361987.97007  23297192.580    96725989.53705
  20056985.460   107291348.37609  20056988.640    83448834.63607
  20587894.660   110092738.35008  20587895.400    85627677.45805
 15 01 14 01 41 30.0000000  0 11G16G21G25G29G31R12R13R14R22R23R24
  24360301.280   128014244.30907  24360297.500    99751355.12945
  21102834.240   110896155.54308  21102831.220    86412557.12147
  22243968.960   116892849.29108  22243969.520    91085334.78647
  21546912.560   113229789.08108  21546906.800    88230993.47045
  21031558.360   110521579.08509  21031552.260    86120699.62847
  21470263.440   114690283.28707  21470267.280    89203567.76706
  19332551.460   103234745.99807  19332553.640    80293698.72007
  21549781.180   114872467.50006  21549787.980    89345269.68505
  23316697.660   124466125.65007  23316700.880    96806985.49705
  20065774.200   107338362.40709  20065777.180    83485401.11107
  20579155.600   110046007.16608  20579156.280    85591331.04005
 15 01 14 01 42  0.0000000  0 11G16G21G25G29G31R12R13R14R22R23R24
  24343295.500   127924878.71307  24343291.720    99681719.66144
  21096656.760   110863694.56108  21096653.940    86387262.86546
  22256627.660   116959370.80708  22256628.220    91137169.72147
  21558296.440   113289611.90608  21558290.560    88277608.65646
  21036558.080   110547852.16509  21036551.680    86141172.13046
  21492193.280   114807429.18608  21492197.580    89294681.21106
  19333856.160   103241712.88207  19333858.340    80299117.39507
  21529703.300   114765439.44607  21529709.100    89262025.64505
  23336191.480   124570184.63807  23336194.540    96887920.22805
  20074625.680   107385711.33209  20074628.320    83522228.06307
  20570498.000   109999710.75408  20570498.540    85555322.72805
 15 01 14 01 42 30.0000000  0 11G16G21G25G29G31R12R13R14R22R23R24
  24326287.100   127835499.71907  24326283.140    99612073.73544
  21090565.540   110831686.56608  21090562.880    86362321.57646
  22269340.200   117026175.03308  22269340.760    91189224.96247
  21569703.220   113349555.03408  21569697.460    88324317.58146
  21041661.900   110574672.74409  21041655.320    86162071.27646
  21514197.640   114924972.43208  21514202.260    89386103.72505
  19335311.120   103249481.82207  19335313.120    80305159.88807
  21509699.060   114658804.13506  21509703.760    89179087.06604
  23355670.560   124674165.23607  23355673.500    96968793.97305
  20083539.600   107433394.04209  20083542.040    83559314.60107
  20561922.040   109953850.41008  20561922.360    85519653.59405
 15 01 14 01 43  0.0000000  0 11G16G21G25G29G31R12R13R14R22R23R24
  24309275.700   127746105.47506  24309271.760    99542415.89544
  21084560.200   110800128.94008  21084557.360    86337731.21346
  22282105.940   117093259.01808  22282106.400    91241498.18347
  21581132.260   113409614.44008  21581126.780    88371117.11846
  21046869.220   110602037.42709  21046862.620    86183394.39447
  21536275.240   115042906.72208  21536279.860    89477830.39705
  19336915.840   103258050.79607  19336917.800    80311824.62507
  21489768.720   114552563.09306  21489772.520    89096455.14304
  23375134.260   124778063.13707  23375137.000    97049603.39005
  20092514.820   107481405.32909  20092517.240    83596656.70407
  20553427.180   109908422.95808  20553426.980    85484321.15305
 15 01 14 01 43 30.0000000  0 11G16G21G25G29G31R12R13R14R22R23R24
  24292262.280   127656701.14106  24292258.620    99472750.26044
  21078641.640   110769026.22908  21078638.460    86313495.33246
  22294925.500   117160626.40308  22294925.920    91293992.22846
  21592584.100   113469793.45108  21592579.000    88418009.82546
  21052180.600   110629949.41109  21052174.160    86205143.97546
  21558426.140   115161232.57108  21558430.580    89569861.63405
  19338671.160   103267423.77007  19338673.140    80319114.70108
  21469913.680   114446724.87506  21469917.260    89014136.54004
  23394583.100   124881880.74608  23394585.580    97130350.36506
  20101551.700   107529746.48709  20101554.140    83634255.37507
  20545014.020   109863432.06208  20545013.100    85449328.25205
 15 01 14 01 44  0.0000000  0 11G16G21G25G29G31R12R13R14R22R23R24
  24275246.640   127567284.56107  24275243.300    99403075.06243
  21072809.180   110738375.21808  21072805.460    86289611.42946
  22307798.300   117228273.49908  22307798.580    91346704.25047
  21604057.780   113530087.29508  21604053.100    88464992.01546
  21057595.340   110658404.15409  21057588.840    86227316.52146
  21580648.980   115279943.03408  21580653.020    89662192.02505
  19340576.620   103277598.12607  19340578.620    80327028.08308
  21450134.280   114341290.11806  21450137.900    88932131.74604
  23414016.100   124985613.00908  23414018.260    97211030.93906
  20110649.080   107578411.16208  20110651.460    83672105.67507
  20536681.520   109818873.40508  20536679.980    85414671.56505
 15 01 14 01 44 30.0000000  0 11G16G21G25G29G31R12R13R14R22R23R24
  24258228.320   127477852.73308  24258224.600    99333387.91544
  21067062.200   110708172.67708  21067057.860    86266076.97846
  22320723.520   117296195.91308  22320723.640    91399630.80846
  21615552.080   113590490.58608  21615547.820    88512059.48146
  21063112.260   110687395.98509  21063105.780    86249907.57847
  21602942.360   115399030.50307  21602946.280    89754815.60406
  19342631.440   103288569.65608  19342633.340    80335561.49108
  21430430.640   114236259.14106  21430434.360    88850441.00104
  23433431.980   125089254.23008  23433433.840    97291640.73805
  20119805.760   107627393.08608  20119807.940    83710202.72307
  20528428.740   109774742.02808  20528426.840    85380347.16905
 15 01 14 01 45  0.0000000  0 11G16G21G25G29G31R12R13R14R22R23R24
  24241207.340   127388405.41608  24241203.080    99263688.73644
  21061400.260   110678416.97408  21061395.480    86242890.71146
  22333700.920   117364392.12708  22333700.840    91452770.72546
  21627066.640   113651001.32308  21627062.940    88559210.65846
  21068731.040   110716923.03409  21068724.760    86272915.68247
  21625305.440   115518489.97708  21625309.180    89847728.51706
  19344835.420   103300337.69108  19344837.120    80344714.40708
  21410803.260   114131634.47506  21410807.300    88769066.26505
  23452830.220   125192801.87308  23452832.060    97372177.79805
  20129020.900   107676688.03708  20129023.000    83748543.23707
  20520255.640   109731036.70408  20520253.620    85346354.16105
 15 01 14 01 45 30.0000000  0 11G16G21G25G29G31R12R13R14R22R23R24
  24224184.580   127298947.69408  24224179.540    99193981.37943
  21055824.160   110649113.54608  21055819.420    86220056.85946
  22346731.220   117432865.74808  22346730.820    91506126.80246
  21638602.020   113711622.28308  21638598.980    88606447.73047
  21074452.180   110746988.33709  21074446.320    86296343.18947
  21647738.220   115638322.01107  21647741.980    89940931.16906
  19347189.340   103312906.50008  19347190.960    80354490.13708
  21391253.760   114027424.60806  21391258.060    88688014.16605
  23472211.260   125296258.32708  23472213.480    97452643.88905
  20138294.820   107726297.53408  20138297.080    83787128.37807
  20512162.760   109687760.48308  20512160.980    85312694.89906
 15 01 14 01 46  0.0000000  0 11G16G21G25G29G31R12R13R14R22R23R24
  24207160.540   127209483.00308  24207154.860    99124268.61343
  21050334.380   110620264.61808  21050329.980    86197577.18746
  22359814.700   117501618.77308  22359814.140    91559700.60647
  21650158.620   113772354.99308  21650156.280    88653771.87147
  21080275.940   110777592.91709  21080270.500    86320190.91847
  21670240.560   115758525.47707  21670244.320    90034422.72106
  19349693.620   103326278.89508  19349695.320    80364890.87808
  21371783.320   113923636.12106  21371787.820    88607289.80805
  23491575.100   125399624.43407  23491578.080    97533039.75205
  20147627.480   107776221.12708  20147630.020    83825957.83307
  20504150.560   109644915.31708  20504149.000    85279370.89406
 15 01 14 01 46 30.0000000  0 11G16G21G25G29G31R12R13R14R22R23R24
  24190135.940   127120015.50708  24190129.580    99054553.68944
  21044931.700   110591873.52908  21044927.660    86175454.26946
  22372951.740   117570653.86108  22372951.220    91613494.19146
  21661737.040   113833201.14608  21661735.080    88701184.44047
  21086202.720   110808738.87709  21086197.660    86344460.49547
  21692812.260   115879099.93107  21692815.920    90128202.82206
  19352348.720   103340457.90207  19352350.680    80375918.98008
  21352393.340   113820276.52007  21352398.100    88526899.03506
  23510921.980   125502902.03807  23510926.300    97613366.78004
  20157018.980   107826459.45108  20157021.980    83865032.07607
  20496219.420   109602503.58708  20496218.100    85246383.99006
 15 01 14 01 47  0.0000000  0 11G16G21G25G29G31R12R13R14R22R23R24
  24173110.340   127030543.45708  24173103.560    98984835.20644
  21039615.660   110563937.40108  21039611.840    86153685.86547
  22386141.780   117639968.04908  22386141.300    91667505.24746
  21673336.620   113894157.06708  21673334.600    88748682.53347
  21092231.800   110840422.18209  21092227.100    86369148.76847
  21715452.360   116000038.97707  21715455.860    90222266.52205
  19355154.180   103355440.75707  19355156.500    80387572.30008
  21333084.100   113717347.41307  21333089.020    88446843.07705
  23530251.600   125606086.66108  23530256.920    97693621.51005
  20166468.260   107877007.13608  20166471.760    83904346.92607
  20488368.720   109560521.97308  20488367.500    85213731.64306
 15 01 14 01 47 30.0000000  0 11G16G21G25G29G31R12R13R14R22R23R24
  24156084.860   126941073.10208  24156077.960    98915118.07944
  21034387.240   110536461.98108  21034383.440    86132276.46247
  22399385.660   117709565.83108  22399385.460    91721737.28947
  21684958.060   113955226.75108  21684955.840    88796269.28547
  21098363.880   110872646.57409  21098359.400    86394258.68747
  21738160.760   116121343.92407  21738164.080    90316614.80004
  19358111.160   103371232.92108  19358113.900    80399855.07508
  21313857.280   113614857.44907  21313862.220    88367128.67705
  23549564.840   125709181.90708  23549570.400    97773806.70905
  20175975.680   107927866.31308  20175979.580    83943904.06407
  20480599.340   109518974.78308  20480598.020    85181417.16406
 15 01 14 01 48  0.0000000  0 12G16G18G21G25G29G31R12R13R14R22R23R24
  24139058.840   126851601.06007  24139052.340    98845399.57845
  24489062.640   128690909.91505  24489062.540   100278616.03044
  21029245.680   110509443.52908  21029241.760    86111223.13547
  22412682.460   117779442.62608  22412682.700    91776186.72547
  21696600.220   114016404.76508  21696597.520    88843940.43746
  21104597.940   110905406.76009  21104593.580    86419786.10247
  21760936.100   116243006.88607  21760939.280    90411241.56505
  19361219.040   103387830.14108  19361222.040    80412763.99908
  21294712.980   113512807.17306  21294717.800    88287756.25305
  23568860.480   125812182.07508  23568865.720    97853917.95506
  20185540.160   107979030.42808  20185544.140    83983698.34407
  20472910.360   109477856.98708  20472908.940    85149436.66706
 15 01 14 01 48 30.0000000  0 12G16G18G21G25G29G31R12R13R14R22R23R24
  24122028.360   126762106.99108  24122022.540    98775664.01244
  24474481.900   128614290.25006  24474479.380   100218912.49343
  21024186.880   110482859.93608  21024182.760    86090508.65546
  22426028.000   117849576.23008  22426028.780    91830836.28546
  21708258.720   114077668.73008  21708255.480    88891678.57946
  21110929.560   110938679.51309  21110925.360    86445712.91247
  21783773.320   116365002.15606  21783776.960    90506126.75004
  19364473.680   103405210.09408  19364476.760    80426281.72808
  21275647.800   113411178.47807  21275652.440    88208711.75005
  23588134.000   125915063.75308  23588138.660    97933937.03806
  20195156.960   108030474.39308  20195160.800    84023710.30206
  20465297.340   109437145.92508  20465295.920    85117772.52506
 15 01 14 01 49  0.0000000  0 12G16G18G21G25G29G31R12R13R14R22R23R24
  24105002.120   126672635.93707  24104997.020    98705946.32445
  24459892.180   128537622.87707  24459888.260   100159171.82243
  21019219.320   110456755.34508  21019215.000    86070167.41547
  22439430.460   117920010.16108  22439431.980    91885719.85747
  21719941.660   114139061.45708  21719938.000    88939517.04946
  21117366.820   110972507.52509  21117362.840    86472072.38948
  21806680.380   116487370.78806  21806684.700    90601302.32605
  19367883.400   103423417.19208  19367886.460    80440442.79208
  21256670.960   113310020.35207  21256675.160    88130033.23505
  23607393.260   126017869.92308  23607397.500    98013897.36906
  20204833.860   108082240.09908  20204837.360    84063972.50106
  20457768.420   109396885.59808  20457767.320    85086458.93406
 15 01 14 01 49 30.0000000  0 11G16G18G21G25G29G31R12R13R14R23R24
  24087974.460   126583157.88107  24087970.240    98636223.19845
  24445288.140   128460878.71506  24445283.220   100099371.22543
  21014337.080   110431099.03708  21014332.660    86050175.48747
  22452884.160   117990712.67008  22452886.320    91940812.70747
  21731642.700   114200550.30708  21731638.680    88987430.41646
  21123903.500   111006858.24409  21123899.760    86498839.16948
  21829651.060   116610077.11707  21829655.760    90696740.57505
  19371442.240   103442420.11308  19371445.200    80455222.83308
  21237777.140   113209305.06807  21237780.760    88051699.14904
  20214564.520   108134293.14908  20214567.420    84104458.20305
  20450317.420   109357042.99408  20450316.900    85055470.24206
 15 01 14 01 50  0.0000000  0 11G16G18G21G25G29G31R12R13R14R23R24
  24070947.180   126493680.96207  24070943.980    98566500.95845
  24430671.420   128384067.55306  24430665.920   100039518.53843
  21009541.580   110405898.59408  21009537.260    86030538.78647
  22466390.600   118061690.91208  22466392.980    91996120.41847
  21743363.200   114262141.97408  21743358.700    89035423.90645
  21130540.740   111041738.00009  21130537.440    86526018.19448
  21852686.120   116733125.49007  21852690.880    90792444.85505
  19375151.280   103462225.99808  19375154.160    80470627.38708
  21218968.640   113109044.47307  21218971.420    87973718.72204
  20224350.100   108186639.18108  20224352.220    84145171.78605
  20442945.860   109317625.42308  20442945.920    85024812.15406
 15 01 14 01 50 30.0000000  0 11G16G18G21G25G29G31R12R13R14R23R24
  24053920.620   126404206.95708  24053918.080    98496781.02845
  24416042.580   128307192.40406  24416037.020    99979615.92042
  21004832.880   110381153.85308  21004828.620    86011257.17247
  22479949.840   118132944.37408  22479952.020    92051642.59046
  21755103.060   114323835.51008  21755098.220    89083496.77345
  21137278.340   111077145.37809  21137275.560    86553608.33648
  21875784.720   116856511.92607  21875789.260    90888412.07505
  19379010.600   103482834.79408  19379013.220    80486656.43407
  21200246.280   113009242.94307  21200248.100    87896095.32404
  20234190.100   108239274.78109  20234191.060    84186110.59205
  20435653.720   109278632.00108  20435654.120    84994483.96806
 15 01 14 01 51  0.0000000  0 11G16G18G21G25G29G31R12R13R14R23R24
  24036895.020   126314737.06708  24036892.880    98427064.22245
  24401401.820   128230255.55805  24401395.260    99919665.17043
  21000211.200   110356865.77808  21000206.960    85992331.40447
  22493561.780   118204472.90108  22493563.460    92107379.11846
  21766862.120   114385630.24708  21766856.840    89131648.50645
  21144116.140   111113079.46108  21144113.840    86581608.91248
  21898946.160   116980233.11008  21898950.200    90984639.65605
  19383020.220   103504246.26408  19383022.540    80503309.77307
  21181610.800   112909904.96407  21181612.280    87818832.45404
  20244084.080   108292198.00309  20244083.900    84227273.11005
  20428440.780   109240061.92308  20428441.400    84964485.00406
 15 01 14 01 51 30.0000000  0 11G16G18G21G25G29G31R12R13R14R23R24
  24019870.220   126225270.94207  24019868.340    98357350.36746
  24386749.620   128153258.08707  24386741.680    99859667.23143
  20995676.060   110333032.71608  20995672.000    85973760.18447
  22507225.880   118276274.47608  22507226.900    92163328.40247
  21778639.880   114447523.59508  21778634.420    89179877.07445
  21151053.620   111149537.18608  21151051.660    86610017.50048
  21922169.080   117104283.91308  21922172.660    91081123.58305
  19387179.820   103526458.68108  19387182.020    80520586.07807
  21163062.640   112811032.88507  21163064.200    87741931.96204
  20254031.040   108345404.81209  20254030.120    84268656.15005
  20421306.660   109201912.89608  20421307.560    84934813.53406
 15 01 14 01 52  0.0000000  0 11G16G18G21G25G29G31R12R13R14R23R24
  24002846.900   126135812.20308  24002844.980    98287642.30245
  24372086.580   128076204.53706  24372078.320    99799625.48344
  20991227.880   110309656.99708  20991224.080    85955545.36047
  22520942.340   118348351.19209  22520942.740    92219492.09947
  21790436.620   114509516.99108  21790431.200    89228183.60046
  21158091.040   111186519.61908  21158089.160    86638834.97048
  21945453.400   117228662.96307  21945456.540    91177862.86705
  19391489.960   103549474.52708  19391492.200    80538487.28707
  21144603.160   112712633.82107  21144605.300    87665399.38605
  20264030.680   108398894.87008  20264029.720    84310259.51205
  20414251.640   109164186.94008  20414252.740    84905471.13406
 15 01 14 01 52 30.0000000  0 11G16G18G21G25G29G31R12R13R14R23R24
  23985825.280   126046362.31907  23985823.300    98217941.11245
  24357413.140   127999097.90906  24357405.400    99739542.49941
  20986866.720   110286739.07208  20986863.140    85937687.23647
  22534710.920   118420702.61809  22534710.920    92275869.83847
  21802252.360   114571609.36208  21802246.940    89276567.26346
  21165227.980   111224025.39608  21165226.120    86668060.20847
  21968798.340   117353366.98807  21968801.100    91274854.85505
  19395950.620   103573293.54808  19395952.820    80557013.16607
  21126233.080   112614711.81507  21126235.980    87589237.84905
  20274082.460   108452665.70108  20274082.140    84352081.26305
  20407275.480   109126883.23408  20407276.760    84876457.15306
 15 01 14 01 53  0.0000000  0 11G16G18G21G25G29G31R12R13R14R23R24
  23968806.220   125956926.02408  23968804.140    98148250.49044
  24342730.340   127921944.30906  24342724.340    99679422.83144
  20982593.260   110264282.85308  20982589.940    85920188.89747
  22548532.260   118493331.87409  22548531.980    92332464.06847
  21814087.500   114633803.51908  21814082.640    89325030.21546
  21172464.980   111262056.69508  21172463.020    86697694.96847
  21992203.900   117478395.70006  21992206.300    91372099.41504
  19400562.280   103597918.70108  19400564.380    80576166.05007
  21107953.960   112517274.97707  21107957.780    87513453.67405
  20284186.700   108506718.47808  20284187.500    84394122.33305
  20400378.860   109090004.68008  20400380.300    84847773.86506
 15 01 14 01 53 30.0000000  0 11G16G18G21G25G29G31R12R13R14R23R24
  23951789.360   125867501.95007  23951787.220    98078569.40045
  24328038.240   127844742.99506  24328032.980    99619266.04143
  20978407.100   110242285.56108  20978404.040    85903048.15247
  22562405.760   118566235.69109  22562405.160    92389272.24347
  21825941.380   114696095.84008  21825937.020    89373569.67646
  21179801.260   111300609.27208  21179799.220    86727735.91248
  22015668.920   117603742.76307  22015670.660    91469591.55804
  19405324.300   103623346.83908  19405326.180    80595943.48107
  21089765.960   112420324.35207  21089770.800    87438047.67006
  20294342.440   108561047.60208  20294344.560    84436378.33106
  20393561.160   109053547.46308  20393562.460    84819418.26206
 15 01 14 01 54  0.0000000  0 11G16G18G21G25G29G31R12R13R14R23R24
  23934774.200   125778087.18507  23934771.800    98008895.57845
  24313337.000   127767492.68106  24313332.100    99559070.99344
  20974307.600   110220742.93408  20974304.600    85886261.70647
  22576330.520   118639409.72109  22576329.740    92446290.97247
  21837813.020   114758481.76608  21837809.080    89422182.07147
  21187235.760   111339677.94808  21187233.640    86758179.01747
  22039191.960   117729400.41207  22039193.300    91567325.26304
  19410235.820   103649573.65808  19410237.560    80616342.11107
  21071669.300   112323860.35607  21071675.020    87363020.17206
  20304548.740   108615646.80308  20304551.880    84478844.38006
  20386821.280   109017506.71008  20386822.420    84791386.55306
 15 01 14 01 54 30.0000000  0 11G16G18G21G25G29G31R12R13R14R23R24
  23917761.180   125688684.50407  23917758.540    97939231.13244
  24298627.600   127690197.49106  24298622.160    99498840.94041
  20970294.960   110199656.46608  20970291.940    85869830.70447
  22590306.700   118712854.92708  22590305.760    92503520.99246
  21849702.520   114820961.64708  21849698.940    89470867.66647
  21194768.540   111379262.59908  21194766.220    86789024.18247
  22062772.880   117855366.56007  22062773.860    91665298.95004
  19415297.020   103676600.06108  19415298.840    80637362.63407
  21053665.100   112227888.65206  21053671.540    87288375.55006
  20314805.600   108670514.86108  20314809.260    84521519.50906
  20380159.520   108981883.32008  20380160.440    84763679.46306
 15 01 14 01 55  0.0000000  0 11G16G18G21G25G29G31R12R13R14R23R24
  23900750.380   125599293.90507  23900747.520    97869576.11843
  24283910.240   127612858.38007  24283904.880    99438576.77443
  20966368.920   110179025.06508  20966365.820    85853754.31547
  22604333.900   118786569.30908  22604332.900    92560960.77446
  21861609.400   114883532.64208  21861606.140    89519624.26347
  21202399.020   111419360.19808  21202396.540    86820269.05347
  22086410.720   117981635.88807  22086412.180    91763508.42804
  19420507.400   103704423.76208  19420509.360    80659003.28307
  21035753.860   112132412.25606  21035760.640    87214116.17806
  20325112.240   108725648.02808  20325116.140    84564400.84706
  20373575.420   108946674.68108  20373576.220    84736294.98306
 15 01 14 01 55 30.0000000  0 11G16G18G21G25G29G31R12R13R14R23R24
  23883742.380   125509917.83307  23883739.580    97799932.46843
  24269185.400   127535478.65306  24269180.300    99378280.91943
  20962529.580   110158849.61508  20962526.460    85838033.20147
  22618412.220   118860553.43008  22618411.440    92618610.72446
  21873533.720   114946195.34608  21873530.660    89568452.33647
  21210127.100   111459970.33008  21210124.500    86851913.30347
  22110104.920   118108205.87007  22110106.960    91861951.75505
  19425867.160   103733045.81308  19425869.340    80681264.87507
  21017936.580   112037436.14307  21017943.560    87140245.90605
  20335468.320   108781044.30308  20335472.000    84607486.81606
  20367068.940   108911880.86808  20367069.720    84709233.14106
 15 01 14 01 56  0.0000000  0 11G16G18G21G25G29G31R12R13R14R23R24
  23866738.440   125420562.58407  23866735.380    97730304.92844
  24254453.960   127458066.39505  24254450.540    99317959.78544
  20958778.080   110139135.73108  20958774.980    85822671.75147
  22632542.780   118934812.20208  22632542.280    92676474.69246
  21885476.380   115008954.53408  21885473.400    89617355.56747
  21217953.440   111501096.87308  21217950.780    86883959.95447
  22133855.940   118235078.37008  22133858.640    91960630.34705
  19431377.260   103762470.67008  19431379.620    80704150.85707
  21000215.120   111942969.85407  21000221.960    87066772.14205
  20345874.260   108836706.98408  20345877.600    84650779.97506
  20360640.920   108877506.75208  20360641.860    84682497.71107
 15 01 14 01 56 30.0000000  0 11G16G18G21G25G29G31R12R13R14R23R24
  23849738.340   125331227.51907  23849736.060    97660693.21643
  24239716.000   127380622.08005  24239714.120    99257613.67144
  20955114.040   110119881.17808  20955110.880    85807668.20847
  22646725.160   119009343.15308  22646724.880    92734550.75646
  21897436.780   115071807.09708  21897434.020    89666331.55947
  21225877.300   111542736.28708  21225874.560    86916406.24047
  22157662.480   118362247.42608  22157665.560    92059539.58606
  19437037.300   103792695.38708  19437039.740    80727658.96208
  20982589.800   111849015.90007  20982596.340    86993696.85705
  20356329.100   108892631.66708  20356332.020    84694276.91906
  20354290.540   108843549.34108  20354291.980    84656086.39607
 15 01 14 01 57  0.0000000  0 11G16G18G21G25G29G31R12R13R14R23R24
  23832741.260   125241907.82607  23832739.640    97591093.44144
  24224971.580   127303141.95806  24224970.360    99197239.61544
  20951536.260   110101079.73608  20951533.040    85793017.73347
  22660958.040   119084139.36108  22660958.060    92792833.51346
  21909413.480   115134745.72108  21909410.800    89715374.60247
  21233897.180   111584880.66208  21233894.440    86949246.01747
  22181522.640   118489703.05807  22181525.780    92158671.74206
  19442845.940   103823712.94708  19442848.400    80751783.72207
  20965060.100   111755571.75707  20965066.460    86921018.08505
  20366831.020   108948809.10908  20366833.520    84737970.46606
  20348016.360   108810001.20107  20348018.620    84629993.42707
 15 01 14 01 57 30.0000000  0 11G16G18G21G25G29G31R12R13R14R23R24
  23815747.880   125152608.20206  23815746.960    97521509.33445
  24210222.040   127225632.07207  24210220.800    99136842.37043
  20948045.340   110082734.63608  20948042.060    85778722.85447
  22675242.020   119159203.61708  22675242.140    92851325.14146
  21921407.140   115197772.99308  21921404.240    89764486.73747
  21242013.380   111627531.86808  21242010.720    86982480.70647
  22205436.220   118617445.01707  22205439.420    92258026.56205
  19448803.580   103855526.30508  19448806.020    80776527.45007
  20947627.200   111662645.02507  20947633.680    86848741.75405
  20377379.940   109005240.48308  20377382.300    84781861.51206
  20341819.220   108776865.08307  20341822.200    84604220.87607
 15 01 14 01 58  0.0000000  0 11G16G18G21G25G29G31R12R13R14R23R24
  23798758.340   125063329.01207  23798758.020    97451941.27744
  24195467.320   127148093.65806  24195466.140    99076422.87643
  20944641.100   110064844.69808  20944637.820    85764782.64947
  22689576.860   119234534.41408  22689577.020    92910024.47046
  21933417.320   115260887.02808  21933414.200    89813666.47046
  21250225.400   111670687.00408  21250222.800    87016108.08647
  22229402.160   118745468.26706  22229405.500    92357600.17805
  19454909.780   103888133.70508  19454912.220    80801888.76107
  20930291.780   111570239.14707  20930298.520    86776870.53105
  20387975.360   109061922.27808  20387977.720    84825947.35906
  20335698.780   108744138.49208  20335702.260    84578766.89007
 15 01 14 01 58 30.0000000  0 11G16G18G21G25G29G31R12R13R14R23R24
  23781773.340   124974073.34306  23781773.480    97382391.41845
  24180708.000   127070531.14206  24180706.740    99015984.61844
  20941323.880   110047412.21108  20941320.640    85751198.90747
  22703962.740   119310133.06508  22703962.880    92968932.50746
  21945444.140   115324088.61408  21945440.760    89862914.40646
  21258533.460   111714346.60608  21258530.480    87050128.55346
  22253420.200   118873771.17106  22253424.020    92457391.25205
  19461164.780   103921535.92408  19461167.200    80827868.25607
  20913055.080   111478360.03506  20913062.080    86705409.01205
  20398617.540   109118853.35708  20398620.060    84870227.09106
  20329655.600   108711822.76808  20329658.840    84553632.47906
 15 01 14 01 59  0.0000000  0 11G16G18G21G25G29G31R12R13R14R23R24
  23764793.020   124884841.19607  23764793.260    97312859.91245
  24165944.220   126992945.77807  24165942.820    98955528.57844
  20938093.280   110030434.80208  20938089.940    85737969.76147
  22718399.340   119385997.58708  22718399.360    93028047.73246
  21957487.280   115387375.62408  21957483.340    89912228.91046
  21266937.000   111758507.26009  21266933.060    87084539.45446
  22277489.760   119002348.72907  22277494.000    92557395.98205
  19467568.340   103955730.58508  19467570.560    80854464.07907
  20895917.720   111387010.32906  20895924.900    86634359.25205
  20409305.940   109176030.40807  20409308.700    84914698.11405
  20323688.940   108679915.42708  20323691.660    84528815.67206
 15 01 14 01 59 30.0000000  0 11G16G18G21G25G29G31R12R13R14R23R24
  23747817.800   124795635.02707  23747817.840    97243348.65245
  24151176.660   126915341.20607  24151175.000    98895057.57144
  20934949.560   110013914.06308  20934946.180    85725096.48347
  22732886.660   119462128.46508  22732886.700    93087370.50446
  21969546.940   115450748.86308  21969542.120    89961610.64445
  21275435.980   111803168.44309  21275430.700    87119340.40646
  22301610.380   119131198.21807  22301614.940    92657612.24304
  19474120.540   103990717.63608  19474122.360    80881676.22107
  20878880.720   111296195.32306  20878888.120    86563725.38805
  20420040.280   109233452.02507  20420043.260    84959359.35806
  20317798.600   108648416.70708  20317800.920    84504316.68106
 15 01 14 02 00  0.0000000  0 11G16G18G21G25G29G31R12R13R14R23R24
  23730847.900   124706456.63908  23730847.620    97173859.06745
  24136405.880   126837720.19907  24136404.120    98834573.72943
  20931892.740   109997850.34708  20931889.400    85712579.32447
  22747424.580   119538525.54008  22747424.780    93146900.69946
  21981622.960   115514207.63608  21981617.100    90011059.00845
  21284030.140   111848329.14309  21284023.800    87154530.58946
  22325781.560   119260316.44307  22325785.980    92758037.52804
  19480821.300   104026496.80808  19480822.520    80909504.46607
  20861944.900   111205919.22606  20861952.380    86493510.69605
  20430820.080   109291116.06308  20430823.420    85004209.13006
  20311984.720   108617325.85308  20311986.480    84480134.90806
 15 01 14 02 00 30.0000000  0 11G16G18G21G25G29G31R12R13R14R23R24
  23713884.220   124617310.44607  23713883.560    97104394.50345
  24121633.020   126760088.34307  24121630.900    98774081.40643
  20928923.260   109982245.89008  20928919.980    85700420.00947
  22762013.700   119615191.27108  22762014.020    93206640.22346
  21993715.780   115577754.08408  21993709.000    90060575.71745
  21292719.620   111893990.65309  21292712.740    87190110.98446
  22350002.940   119389702.40007  22350006.620    92858671.05204
  19487670.700   104063070.44308  19487671.560    80937950.62007
  20845111.740   111116189.62606  20845119.100    86423721.03805
  20441645.520   109349023.16108  20441649.020    85049247.95006
  20306247.580   108586645.02808  20306248.860    84456272.07106
 15 01 14 02 01  0.0000000  0 11G16G18G21G25G29G31R12R13R14R23R24
  23696925.260   124528189.57407  23696924.160    97034949.69245
  24106857.120   126682440.28808  24106854.660    98713576.47844
  20926039.820   109967093.14508  20926036.540    85688612.68647
  22776652.340   119692117.05008  22776652.760    93266582.38046
  22005823.700   115641379.26308  22005816.180    90110153.79745
  21301502.460   111940143.08109  21301495.420    87226073.89946
  22374272.400   119519344.54307  22374275.100    92959503.84204
  19494666.900   104100428.85608  19494667.680    80967007.15907
  20828380.500   111027002.53406  20828387.660    86354353.35405
  20452514.680   109407162.35308  20452517.900    85094467.30106
  20300585.420   108556365.01008  20300586.300    84432720.97706
 15 01 14 02 01 30.0000000  0 11G16G18G21G25G29G31R12R13R14R23R24
  23679972.300   124439100.30407  23679971.020    96965529.47545
  24092079.520   126604782.88508  24092076.940    98653064.25044
  20923243.220   109952396.14508  20923239.700    85677160.48647
  22791341.140   119769306.59508  22791341.660    93326730.08646
  22017947.260   115705086.78609  22017939.840    90159796.01645
  21310379.020   111986788.90209  21310372.020    87262421.29146
  22398590.080   119649243.36807  22398592.080    93060536.29504
  19501810.640   104138575.82108  19501811.620    80996677.01307
  20811752.820   110938366.31306  20811759.560    86285414.13305
  20463427.880   109465535.97408  20463430.820    85139869.00406
  20294998.760   108526489.21608  20294999.400    84409484.26406
 15 01 14 02 02  0.0000000  0 11G16G18G21G25G29G31R12R13R14R23R24
  23663025.800   124350045.28507  23663024.660    96896135.98945
  24077300.980   126527120.42408  24077298.580    98592548.08144
  20920533.660   109938156.07708  20920529.720    85666064.32747
  22806080.260   119846760.97008  22806080.860    93387084.13246
  22030086.620   115768877.60409  22030079.800    90209503.13346
  21319349.380   112033928.31209  21319342.500    87299153.28746
  22422955.440   119779396.96707  22422957.640    93161766.87004
  19509102.040   104177511.61508  19509103.240    81026960.39007
  20795229.760   110850286.91507  20795235.780    86216907.97205
  20474384.700   109524143.46208  20474387.540    85185452.59706
  20289487.640   108497018.36708  20289488.260    84386562.47706
 15 01 14 02 02 30.0000000  0 11G16G18G21G25G29G31R12R13R14R23R24
  23646085.760   124261024.23807  23646084.480    96826768.92345
  24062521.680   126449453.60608  24062519.240    98532028.53844
  20917910.680   109924371.02308  20917906.340    85655322.73147
  22820869.300   119924477.64808  22820869.820    93447642.57446
  22042241.220   115832748.85809  22042234.860    90259272.93746
  21328412.840   112081557.33109  21328406.060    87336266.81946
  22447367.480   119909799.62507  22447370.300    93263191.15105
  19516540.540   104217232.85708  19516541.900    81057854.70107
  20778811.540   110762766.38807  20778816.760    86148836.48805
  20485384.060   109582980.36608  20485387.160    85231214.62606
  20284051.600   108467949.38808  20284052.220    84363953.27606
 15 01 14 02 03  0.0000000  0 11G16G18G21G25G29G31R12R13R14R23R24
  23629152.300   124172038.03507  23629151.140    96757429.06345
  24047741.960   126371784.32108  24047739.340    98471507.03844
  20915373.980   109911039.97808  20915369.420    85644934.90547
  22835708.080   120002455.39308  22835708.260    93508404.44946
  22054410.760   115896699.32908  22054404.760    90309104.44646
  21337569.000   112129673.58109  21337562.360    87373759.99547
  22471825.300   120040446.98907  22471828.680    93364805.74005
  19524125.920   104257738.03708  19524127.420    81089358.72407
  20762498.740   110675808.28207  20762502.920    86081202.42804
  20496425.340   109642043.25808  20496428.700    85277152.42006
  20278690.460   108439280.54108  20278691.000    84341655.28406
 15 01 14 02 03 30.0000000  0 11G16G18G21G25G29G31R12R13R14R23R24
  23612225.880   124083089.29408  23612224.920    96688118.36745
  24032962.420   126294116.18708  24032959.480    98410986.43544
  20912923.820   109898164.02208  20912919.140    85634901.70347
  22850596.680   120080694.73108  22850596.280    93569370.16146
  22066595.440   115960729.65808  22066589.720    90358998.17646
  21346817.800   112178276.63509  21346811.480    87411632.49547
  22496328.360   120171336.62606  22496332.120    93466608.75205
  19531858.140   104299027.25808  19531859.660    81121472.55407
  20746292.320   110589417.58906  20746295.740    86014009.65304
  20507508.660   109701331.59508  20507511.980    85323265.55606
  20273404.160   108411012.01508  20273404.820    84319668.64506
 15 01 14 02 04  0.0000000  0 11G16G18G21G25G29G31R12R13R14R23R24
  23595307.160   123994181.27508  23595306.440    96618839.39344
  24018183.960   126216454.31908  24018180.800    98350470.73544
  20910560.600   109885744.93008  20910555.800    85625224.48948
  22865535.380   120159197.02808  22865534.480    93630540.80545
  22078795.400   116024840.96708  22078790.040    90408955.01647
  21356159.200   112227366.55608  21356153.300    87449884.38547
  22520876.040   120302466.68406  22520880.200    93568598.75005
  19539737.180   104341100.75508  19539738.640    81154196.38308
  20730193.440   110503600.53507  20730196.200    85947263.05704
  20518633.920   109760844.73108  20518636.960    85369553.54706
  20268192.860   108383144.86508  20268193.600    84297994.21006
 15 01 14 02 04 30.0000000  0 11G16G18G21G25G29G31R12R13R14R23R24
  23578396.100   123905313.43107  23578395.660    96549591.72645
  24003406.540   126138798.83107  24003403.520    98289960.02644
  20908283.840   109873779.97708  20908278.920    85615901.15347
  22880523.500   120237959.26608  22880522.060    93691913.99345
  22091010.020   116089030.09608  22091005.040    90458972.48046
  21365592.300   112276939.17908  21365587.040    87488512.39447
  22545467.160   120433831.09206  22545471.840    93670771.02105
  19547762.440   104383955.04708  19547763.800    81187527.48608
  20714202.240   110418358.66206  20714204.960    85880963.83104
  20529800.200   109820577.95808  20529803.100    85416012.71306
  20263055.940   108355675.48008  20263056.720    84276629.13306
 15 01 14 02 05  0.0000000  0 12G16G18G21G25G27G29G31R12R13R14R23R24
  23561492.660   123816485.58308  23561492.400    96480375.25844
  23988630.480   126061150.48508  23988627.400    98229454.88744
  20906093.160   109862267.44208  20906088.260    85606930.34647
  22895560.640   120316979.28208  22895558.640    93753488.05045
  24622920.780   129394334.58208  24622924.640   100826754.94945
  22103238.880   116153294.85208  22103234.220    90509048.88346
  21375116.580   112326990.99108  21375112.000    87527513.79147
  22570101.140   120565424.63106  22570106.280    93773121.53105
  19555933.340   104427587.05308  19555934.720    81221463.48308
  20698319.320   110333694.90106  20698322.360    85815114.25404
  20541006.960   109880526.99308  20541009.680    85462639.71906
  20257993.080   108328601.30109  20257993.780    84255571.44206
 15 01 14 02 05 30.0000000  0 12G16G18G21G25G27G29G31R12R13R14R23R24
  23544597.960   123727703.94707  23544597.720    96411194.75645
  23973857.220   125983516.80808  23973853.720    98168961.09443
  20903989.360   109851211.39908  20903984.520    85598315.24048
  22910647.500   120396261.23708  22910645.180    93815266.19145
  24608546.180   129318795.71006  24608549.360   100767893.46546
  22115482.720   116217639.25908  22115478.620    90559187.31846
  21384732.600   112377524.92508  21384728.740    87566890.87347
  22594778.220   120697248.04206  22594783.580    93875650.84205
  19564250.520   104472000.44708  19564252.060    81256007.22408
  20682546.140   110249617.42006  20682549.800    85749720.68405
  20552254.740   109940694.60108  20552257.200    85509436.70406
  20253004.960   108301925.96609  20253005.240    84234823.98506
 15 01 14 02 06  0.0000000  0 12G16G18G21G25G27G29G31R12R13R14R23R24
  23527710.980   123638963.17707  23527710.340    96342046.13544
  23959085.980   125905893.64108  23959081.920    98108475.53243
  20901971.160   109840605.02708  20901966.320    85590050.53047
  22925782.760   120475797.51008  22925780.260    93877242.53844
  24594188.840   129243345.60007  24594190.880   100709101.11546
  22127740.120   116282055.88807  22127736.740    90609382.03346
  21394438.740   112428532.27508  21394435.480    87606636.84048
  22619496.820   120829291.08806  22619502.220    93978350.99305
  19572712.240   104517186.30508  19572714.060    81291151.76108
  20666882.340   110166123.88306  20666886.820    85684781.29605
  20563541.840   110001071.85708  20563544.060    85556396.77106
  20248089.960   108275641.64609  20248089.860    84214380.62206
 15 01 14 02 06 30.0000000  0 12G16G18G21G25G27G29G31R12R13R14R23R24
  23510833.080   123550270.55707  23510832.140    96272935.00344
  23944318.120   125828289.28007  23944314.520    98048004.60744
  20900039.600   109830454.08808  20900034.700    85582140.71248
  22940967.280   120555593.46108  22940964.660    93939421.21745
  24579849.420   129167989.86008  24579851.040   100650382.46346
  22140012.340   116346550.05608  22140009.500    90659637.16946
  21404235.920   112480016.94609  21404232.980    87646754.74848
  22644257.060   120961555.83806  22644262.660    94081223.55105
  19581319.440   104563149.76508  19581321.620    81326901.10208
  20651330.000   110083224.29706  20651335.220    85620303.85805
  20574868.760   110061662.11508  20574870.940    85603522.48607
  20243248.820   108249752.93509  20243248.540    84194244.96006
 15 01 14 02 07  0.0000000  0 12G16G18G21G25G27G29G31R12R13R14R23R24
  23493964.040   123461624.63007  23493962.520    96203860.26743
  23929553.560   125750702.94607  23929550.980    97987547.77543
  20898193.900   109820754.74308  20898188.960    85574582.78047
  22956200.360   120635644.90608  22956197.580    94001798.96944
  24565527.260   129092725.23508  24565527.920   100591734.74845
  22152298.860   116411117.32108  22152296.200    90709949.29146
  21414123.140   112531973.79909  21414120.240    87687240.58148
  22669057.540   121094035.19006  22669063.380    94184262.98106
  19590071.400   104609885.73408  19590073.800    81363251.28808
  20635889.360   110000918.53706  20635895.120    85556288.29505
  20586234.380   110122459.39208  20586236.520    85650809.23007
  20238480.660   108224255.46708  20238480.400    84174413.59706
 15 01 14 02 07 30.0000000  0 12G16G18G21G25G27G29G31R12R13R14R23R24
  23477104.020   123373025.47607  23477101.860    96134821.99145
  23914792.960   125673136.20008  23914791.020    97927106.21043
  20896433.600   109811505.10008  20896428.720    85567375.26847
  22971481.580   120715949.84608  22971478.800    94064374.27444
  24551222.000   129017550.28708  24551222.300   100533156.93845
  22164599.200   116475755.81808  22164596.300    90760316.92046
  21424099.600   112584399.39409  21424096.580    87728091.66248
  22693897.220   121226723.86606  22693903.200    94287465.22206
  19598967.580   104657390.76908  19598970.060    81400199.64208
  20620561.020   109919210.11006  20620567.100    85492737.32705
  20597638.040   110183460.59608  20597640.220    85698254.58207
  20233785.080   108199146.71408  20233784.960    84154884.58306
 15 01 14 02 08  0.0000000  0 12G16G18G21G25G27G29G31R12R13R14R23R24
  23460253.600   123284476.13907  23460250.420    96065822.51843
  23900037.160   125595593.10108  23900035.320    97866683.02243
  20894758.940   109802706.22608  20894754.220    85560519.00947
  22986811.160   120796508.90608  22986808.400    94127147.57444
  24536934.000   128942466.47907  24536933.860   100474650.03645
  22176913.460   116540466.31908  22176910.180    90810740.66146
  21434165.040   112637293.12609  21434161.940    87769307.53848
  22718775.840   121359619.82707  22718781.860    94390828.71406
  19608007.800   104705664.86608  19608010.360    81437746.14108
  20605345.860   109838103.69807  20605351.780    85429654.58905
  20609079.260   110244664.27008  20609081.760    85745857.42007
  20229162.260   108174426.84309  20229162.160    84135658.02906
 15 01 14 02 08 30.0000000  0 13G16G18G21G25G27G29G31R08R12R13R14R23
                                R24
  23443413.040   123195977.96507  23443408.860    95996862.92345
  23885286.520   125518076.38608  23885284.280    97806280.36443
  20893169.860   109794357.21008  20893165.260    85554013.27847
  23002188.880   120877321.50408  23002186.740    94190118.41245
  24522663.180   128867473.66307  24522662.860   100416214.13245
  22189241.460   116605248.31008  22189237.740    90861220.12046
  21444319.160   112690652.96909  21444316.080    87810886.61448
  23609472.760   126427651.06706  23609473.320    98332618.28004
  22743692.720   121492719.15907  22743698.520    94494350.36106
  19617191.600   104754706.61708  19617194.580    81475889.69508
  20590244.720   109757603.78707  20590250.160    85367043.57605
  20620557.640   110306068.13108  20620560.740    85793615.94207
  20224612.060   108150094.89408  20224611.780    84116733.19506
 15 01 14 02 09  0.0000000  0 13G16G18G21G25G27G29G31R08R12R13R14R23
                                R24
  23426583.700   123107538.35408  23426578.920    95927948.96443
  23870542.360   125440593.90708  23870539.920    97745904.42343
  20891667.780   109786464.62008  20891663.080    85547863.21847
  23017615.900   120958392.69608  23017614.600    94253290.77445
  24508410.700   128792577.87807  24508410.540   100357853.87045
  22201584.040   116670106.76208  22201579.920    90911759.17346
  21454562.840   112744482.89609  21454559.740    87852831.99348
  23594304.900   126346428.20304  23594306.140    98269444.83505
  22768648.160   121626024.46307  22768653.700    94598032.26205
  19626519.880   104804519.95608  19626523.340    81514633.37508
  20575259.240   109677719.79007  20575264.080    85304911.60505
  20632074.260   110367676.67108  20632078.120    85841533.68007
  20220135.200   108126155.52908  20220134.720    84098113.70706
 15 01 14 02 09 30.0000000  0 12G16G18G21G25G27G29G31R12R13R14R23R24
  23409764.260   123019150.89608  23409759.140    95859075.65543
  23855803.680   125363140.75908  23855801.520    97685551.35143
  20890250.940   109779019.29308  20890245.960    85542061.65747
  23033090.580   121039713.76308  23033090.060    94316657.83645
  24494175.020   128717770.90007  24494174.860   100299562.65345
  22213939.600   116735033.11708  22213934.940    90962351.14646
  21464894.120   112798772.78309  21464890.960    87895135.79348
  22793639.800   121759523.19207  22793645.100    94701864.60305
  19635991.120   104855095.57408  19635994.740    81553969.95708
  20560388.560   109598447.68007  20560392.900    85243255.55905
  20643627.160   110429478.69808  20643631.620    85889601.89907
  20215729.800   108102599.28708  20215729.200    84079792.19806
 15 01 14 02 10  0.0000000  0 13G16G18G21G25G27G29G31R08R12R13R14R23
                                R24
  23392956.100   122930822.27108  23392950.620    95790248.19444
  23841072.100   125285724.69808  23841069.680    97625227.15043
  20888920.260   109772026.14208  20888914.780    85536612.44047
  23048613.640   121121288.98208  23048613.820    94380222.90845
  24479957.260   128643057.83307  24479957.300   100241344.72046
  22226308.760   116800031.74108  22226303.900    91012999.44346
  21475313.500   112853525.84109  21475310.240    87937800.50148
  23564146.200   126184927.48206  23564145.620    98143834.87005
  22818667.740   121893217.08206  22818673.100    94805848.68905
  19645605.700   104906436.22208  19645609.420    81593901.54508
  20545634.200   109519796.42407  20545638.180    85182082.38305
  20655216.860   110491477.52008  20655221.820    85937823.18607
  20211396.840   108079430.27008  20211396.140    84061771.87305
 15 01 14 02 10 30.0000000  0 13G16G18G21G25G27G29G31R08R12R13R14R23
                                R24
  23376158.780   122842550.25008  23376153.080    95721464.82044
  23826347.360   125208344.75808  23826344.660    97564931.05843
  20887674.880   109765480.77408  20887668.940    85531512.15547
  23064184.460   121203113.92808  23064185.120    94443982.60445
  24465756.760   128568434.78906  24465756.740   100183196.94745
  22238690.680   116865098.35008  22238686.000    91063700.69146
  21485819.840   112908736.20309  21485816.480    87980821.56448
  23549154.620   126104647.98907  23549153.920    98081395.17304
  22843730.740   122027098.82805  22843736.100    94909978.96705
  19655362.480   104958536.33008  19655366.180    81634423.84108
  20530996.100   109441766.30107  20530999.880    85121392.33305
  20666842.180   110553666.79008  20666847.360    85986192.60207
  20207135.540   108056643.54008  20207134.680    84044048.88505
 15 01 14 02 11  0.0000000  0 13G16G18G21G25G27G29G31R08R12R13R14R23
                                R24
  23359373.280   122754340.25708  23359367.700    95652729.79544
  23811630.400   125131006.65307  23811627.800    97504667.64543
  20886515.160   109759385.84008  20886508.940    85526762.86047
  23079803.520   121285191.28108  23079804.220    94507938.97345
  24451574.180   128493905.22807  24451574.500   100125122.03445
  22251086.020   116930235.91308  22251081.600    91114457.24646
  21496413.320   112964405.12109  21496409.880    88024199.95547
  23534223.700   126024694.05908  23534222.740    98019208.66304
  22868828.420   122161167.99905  22868834.140    95014254.87305
  19665261.780   105011397.68208  19665265.440    81675538.20708
  20516475.560   109364364.43006  20516479.320    85061190.89804
  20678503.540   110616047.90608  20678508.520    86034711.23306
  20202946.240   108034241.50208  20202945.160    84026625.09705
 15 01 14 02 11 30.0000000  0 13G16G18G21G25G27G29G31R08R12R13R14R23
                                R24
  23342599.260   122666191.19708  23342594.180    95584042.25144
  23796921.160   125053710.99307  23796918.880    97444437.31243
  20885440.640   109753738.84408  20885434.320    85522362.60247
  23095470.020   121367518.14908  23095470.680    94572089.76345
  24437409.220   128419467.09608  24437409.180   100067118.34245
  22263494.180   116995441.49408  22263490.180    91165266.77946
  21507093.120   113020528.47409  21507089.560    88067932.43047
  23519354.080   125945068.20608  23519352.840    97957277.33904
  22893960.160   122295418.72305  22893966.060    95118672.08605
  19675302.840   105065016.32608  19675306.420    81717241.55908
  20502072.920   109287592.43406  20502076.940    85001479.36904
  20690200.180   110678616.25708  20690204.360    86083375.50006
  20198828.300   108012220.52608  20198826.900    84009497.67905
 15 01 14 02 12  0.0000000  0 13G16G18G21G25G27G29G31R08R12R13R14R23
                                R24
  23325837.180   122578105.31508  23325832.600    95515403.90544
  23782220.360   124976460.47207  23782218.480    97384242.12543
  20884451.300   109748539.57508  20884444.960    85518311.21747
  23111183.860   121450093.60908  23111184.100    94636434.27145
  24423261.800   128345120.16807  24423261.400   100009185.61546
  22275915.000   117060714.60708  22275911.700    91216128.91547
  21517858.780   113077103.99408  21517855.120    88112017.23647
  23504546.460   125865774.55807  23504545.180    97895604.43704
  22919125.280   122429847.27606  22919131.140    95223227.53806
  19685485.440   105119390.22308  19685488.780    81759532.34108
  20487789.180   109211454.34906  20487793.560    84942260.84404
  20701931.600   110741370.10308  20701934.800    86132184.04306
  20194781.320   107990579.50308  20194779.660    83992665.77405
 15 01 14 02 12 30.0000000  0 13G16G18G21G25G27G29G31R08R12R13R14R23
                                R24
  23309086.880   122490081.66008  23309082.720    95446814.06544
  23767528.460   124899255.56908  23767526.900    97324082.44843
  20883546.700   109743785.23408  20883540.420    85514606.52847
  23126944.420   121532914.76008  23126944.240    94700970.24145
  24409131.400   128270862.15208  24409130.840    99951322.28246
  22288347.960   117126051.80808  22288345.500    91267040.99147
  21528709.460   113134127.55408  21528705.660    88156451.17846
  23489801.320   125786814.96006  23489800.080    97834191.44105
  22944322.800   122564447.36006  22944328.360    95327916.44606
  19695808.680   105174514.71008  19695811.600    81802406.92707
  20473624.520   109135951.34706  20473629.480    84883536.30104
  20713696.800   110804304.92808  20713699.260    86181133.32606
  20190804.560   107969314.83808  20190802.740    83976126.60905
 15 01 14 02 13  0.0000000  0 13G16G18G21G25G27G29G31R08R12R13R14R23
                                R24
  23292349.500   122402126.06908  23292345.940    95378277.29244
  23752846.800   124822103.19608  23752845.240    97263963.76542
  20882727.420   109739479.16908  20882721.260    85511251.15247
  23142752.280   121615984.91308  23142751.680    94765700.19545
  24395018.780   128196697.25608  24395018.040    99893531.46245
  22300794.000   117191457.39108  22300792.180    91318006.33947
  21539645.740   113191600.96708  21539641.880    88201235.65246
  23475120.020   125708198.14306  23475119.060    97773045.16405
  22969552.540   122699219.70706  22969557.980    95432739.33306
  19706273.060   105230392.75408  19706275.440    81845867.63007
  20459580.620   109061091.81406  20459586.160    84825312.23804
  20725496.140   110867422.24808  20725498.160    86230224.55806
  20186898.740   107948429.29708  20186896.900    83959882.31405
 15 01 14 02 13 30.0000000  0 13G16G18G21G25G27G29G31R08R12R13R14R23
                                R24
  23275624.780   122314237.56907  23275621.680    95309792.76744
  23738175.340   124745003.49607  23738173.640    97203886.10144
  20881992.860   109735618.54608  20881986.820    85508242.86747
  23158607.020   121699300.85408  23158605.940    94830621.70045
  24380923.260   128122622.86708  24380922.500    99835811.12646
  22313252.520   117256928.25408  22313251.140    91369022.55547
  21550667.040   113249519.79809  21550663.180    88246367.19247
  23460502.980   125629925.69307  23460502.320    97712166.62505
  22994813.380   122834158.00306  22994818.720    95537691.27906
  19716877.480   105287019.10508  19716879.340    81889910.35007
  20445657.940   108986876.74006  20445663.820    84767589.41905
  20737328.700   110930717.57708  20737330.560    86279454.24406
  20183063.300   107927919.53508  20183061.540    83943930.31405
 15 01 14 02 14  0.0000000  0 13G16G18G21G25G27G29G31R08R12R13R14R23
                                R24
  23258913.560   122226420.72907  23258910.940    95241364.10745
  23723514.960   124667961.16307  23723513.100    97143853.15344
  20881343.460   109732205.28808  20881337.540    85505583.18547
  23174508.900   121782864.33708  23174507.440    94895736.11045
  24366845.320   128048641.62908  24366844.360    99778163.36346
  22325723.980   117322466.13508  22325722.820    91420091.01747
  21561773.520   113307884.21909  21561769.660    88291845.95047
  23445951.600   125552004.90808  23445951.060    97651561.63005
  23020105.240   122969261.28406  23020110.360    95642771.57305
  19727622.100   105344394.61708  19727623.480    81934535.76207
  20431857.520   108913312.55707  20431863.300    84710372.85105
  20749194.600   110994191.79108  20749196.480    86328823.07306
  20179298.440   107907786.65508  20179296.860    83928271.42406
 15 01 14 02 14 30.0000000  0 13G16G18G21G25G27G29G31R08R12R13R14R23
                                R24
  23242215.660   122138674.75107  23242213.640    95172990.67545
  23708865.740   124590977.24807  23708863.960    97083865.73643
  20880778.620   109729236.65808  20880772.800    85503269.96047
  23190457.240   121866672.27008  23190455.700    94961040.98145
  24352784.520   127974750.98308  24352783.400    99720586.26946
  22338207.820   117388068.47608  22338206.680    91471209.71647
  21572964.200   113366689.97809  21572960.320    88337668.61547
  23431466.220   125474437.29808  23431466.140    97591231.25904
  23045426.780   123104523.47606  23045431.620    95747975.46105
  19738506.100   105402514.74808  19738506.920    81979740.32806
  20418179.580   108840400.67807  20418185.000    84653663.60605
  20761092.980   111057839.90008  20761094.900    86378327.15106
  20175603.320   107888027.02208  20175601.960    83912902.81905
 15 01 14 02 15  0.0000000  0 14G16G18G21G25G27G29G31R08R12R13R14R17
                                R23R24
  23225532.160   122051005.14907  23225530.880    95104676.78644
  23694228.780   124514058.54707  23694227.420    97023929.09943
  20880298.960   109726715.93608  20880293.220    85501305.75347
  23206452.580   121950727.81808  23206451.080    95026538.79445
  24338741.600   127900955.09007  24338740.700    99663082.99046
  22350704.600   117453738.67308  22350703.360    91522381.30246
  21584239.300   113425938.85109  21584235.280    88383836.55147
  23417048.380   125397231.29007  23417049.260    97531182.10804
  23070778.260   123239945.10106  23070782.600    95853303.35205
  19749529.820   105461381.39308  19749530.460    82025525.49906
  20404625.620   108768149.02007  20404630.580    84597467.88105
  23581662.680   126190245.81207  23581661.380    98147958.93005
  20773024.180   111121664.12808  20773026.160    86427968.21706
  20171978.520   107868643.65208  20171977.300    83897826.86006
 15 01 14 02 15 30.0000000  0 14G16G18G21G25G27G29G31R08R12R13R14R17
                                R23R24
  23208862.380   121963408.07407  23208861.900    95036419.35844
  23679603.400   124437201.51507  23679602.660    96964040.55744
  20879903.220   109724636.58908  20879897.580    85499685.48547
  23222493.720   122035024.20008  23222492.120    95092224.32944
  24324715.440   127827247.96308  24324714.940    99605648.89145
  22363213.000   117519469.91508  22363211.540    91573600.45846
  21595597.200   113485622.57209  21595592.900    88430343.33147
  23402697.600   125320385.12107  23402699.660    97471412.88804
  23096157.520   123375515.98306  23096161.340    95958747.34605
  19760691.640   105520986.27308  19760692.200    82071884.85506
  20391194.920   108696555.14107  20391199.560    84541783.76305
  23566254.720   126107794.50508  23566254.400    98083830.22305
  20784986.700   111185655.96108  20784988.820    86477739.64707
  20168422.700   107849629.17808  20168421.540    83883037.81206
 15 01 14 02 16  0.0000000  0 14G16G18G21G25G27G29G31R08R12R13R14R17
                                R23R24
  23192207.440   121875888.39907  23192207.560    94968222.28244
  23664990.900   124360411.98608  23664990.320    96904204.58543
  20879591.900   109723001.54008  20879586.460    85498411.42147
  23238581.100   122119564.03908  23238579.680    95158099.52944
  24310706.720   127753633.01607  24310706.740    99548286.53446
  22375733.560   117585265.18508  22375731.620    91624869.52045
  21607038.020   113545742.52109  21607033.460    88477190.03047
  23388415.460   125243906.62907  23388417.860    97411929.61704
  23121564.480   123511235.99606  23121568.100    96064307.29405
  19771991.740   105581330.58708  19771992.580    82118819.32606
  20377888.720   108625625.96007  20377893.340    84486616.62805
  23550888.460   126025565.10707  23550888.700    98019873.99305
  20796980.820   111249817.46608  20796983.220    86527643.02007
  20164936.180   107830985.78208  20164935.100    83868537.40406
 15 01 14 02 16 30.0000000  0 14G16G18G21G25G27G29G31R08R12R13R14R17
                                R23R24
  23175567.460   121788445.88007  23175567.660    94900085.28944
  23650391.440   124283691.00908  23650391.040    96844422.05943
  20879364.480   109721808.04308  20879359.340    85497481.42747
  23254714.160   122204344.46708  23254713.220    95224162.20445
  24296714.780   127680108.00507  24296715.760    99490994.36846
  22388265.760   117651122.15408  22388263.460    91676186.64745
  21618560.940   113606294.24609  21618556.200    88524373.18647
  23374202.720   125167798.06708  23374204.240    97352734.05204
  23146998.220   123647099.62905  23147001.880    96169978.94605
  19783429.360   105642410.39907  19783430.840    82166325.83007
  20364707.380   108555363.23907  20364712.220    84431967.84505
  23535563.260   125943555.75508  23535564.380    97956088.98406
  20809005.620   111314144.06808  20809008.540    86577674.80807
  20161518.320   107812710.14108  20161517.340    83854322.99306
 15 01 14 02 17  0.0000000  0 14G16G18G21G25G27G29G31R08R12R13R14R17
                                R23R24
  23158943.040   121701083.54108  23158942.880    94832010.78043
  23635805.940   124207042.63508  23635805.860    96784696.06243
  20879221.200   109721056.46508  20879216.280    85496895.79447
  23270893.100   122289366.05608  23270892.440    95290412.80145
  24282740.120   127606674.36206  24282742.000    99433773.33046
  22400809.780   117717041.40508  22400806.980    91727552.30445
  21630165.860   113667277.10109  21630160.960    88571892.27547
  23360060.380   125092065.14608  23360061.320    97293830.63704
  23172458.340   123783104.42806  23172462.340    96275760.35505
  19795004.440   105704224.47207  19795006.800    82214403.42707
  20351651.800   108485771.93006  20351657.320    84377841.29005
  23520279.460   125861768.51607  23520280.600    97892476.65207
  20821061.200   111378635.17508  20821064.540    86627834.51007
  20158169.220   107794802.41808  20158168.440    83840394.77906
 15 01 14 02 17 30.0000000  0 14G16G18G21G25G27G29G31R08R12R13R14R17
                                R23R24
  23142334.180   121613801.81308  23142333.480    94763999.07943
  23621234.540   124130468.20308  23621234.020    96725027.63041
  20879161.880   109720745.56608  20879157.060    85496653.54447
  23287117.420   122374626.57608  23287116.800    95356849.58644
  24268782.500   127533330.72805  24268785.220    99376622.48946
  22413365.360   117783021.48408  22413361.600    91778965.37244
  21641852.080   113728687.58709  21641847.000    88619744.60947
  23345988.900   125016710.61808  23345989.780    97235221.54804
  23197944.400   123919245.47006  23197948.400    96381647.76305
  19806716.520   105766769.01107  19806719.720    82263049.14907
  20338722.720   108416854.61206  20338729.040    84324238.96705
  23505036.800   125780201.87808  23505038.320    97829036.06006
  20833147.180   111443287.28308  20833150.520    86678119.45407
  20154888.560   107777259.99308  20154887.960    83826750.68906
 15 01 14 02 18  0.0000000  0 14G16G18G21G25G27G29G31R08R12R13R14R17
                                R23R24
  23125741.460   121526604.20308  23125739.660    94696052.89144
  23606677.860   124053971.74507  23606675.460    96665419.91843
  20879186.520   109720875.47308  20879181.700    85496754.77447
  23303387.360   122460126.57608  23303386.940    95423472.97344
  24254842.280   127460078.36106  24254845.900    99319542.81946
  22425932.600   117849063.35708  22425927.760    91830426.61944
  21653619.340   113790524.45909  21653614.080    88667929.18647
  23331989.040   124941740.27908  23331990.320    97176911.28804
  23223455.760   124055520.45007  23223459.540    96487639.35405
  19818565.620   105830043.28107  19818569.520    82312262.45207
  20325921.160   108348616.11406  20325928.040    84271164.59605
  23489835.640   125698857.54207  23489837.540    97765768.27406
  20845263.320   111508099.81008  20845266.440    86728529.16207
  20151676.300   107760082.91608  20151675.840    83813390.78406
 15 01 14 02 18 30.0000000  0 14G16G18G21G25G27G29G31R08R12R13R14R17
                                R23R24
  23109164.740   121439490.91008  23109161.680    94628172.41143
  23592136.120   123977554.64008  23592132.620    96605874.16742
  20879294.800   109721444.58608  20879289.900    85497198.23847
  23319702.520   122545863.84608  23319702.160    95490281.23645
  24240919.420   127386916.09906  24240923.720    99262533.24246
  22438511.180   117915164.65108  22438505.900    91881934.12545
  21665467.040   113852784.27809  21665461.600    88716443.33047
  23318061.120   124867156.60307  23318063.060    97118901.75004
  23248991.380   124191924.06907  23248994.740    96593731.01405
  19830551.140   105894043.66308  19830555.300    82362040.49108
  20313247.500   108281058.24707  20313254.440    84218619.61105
  23474675.800   125617734.56708  23474677.940    97702672.65207
  20857408.860   111573069.39208  20857411.700    86779061.01207
  20148531.860   107743268.48908  20148531.520    83800312.92206
 15 01 14 02 19  0.0000000  0 14G16G18G21G25G27G29G31R08R12R13R14R17
                                R23R24
  23092603.520   121352459.46108  23092599.500    94560355.75744
  23577609.220   123901215.90407  23577605.500    96546389.40142
  20879485.740   109722447.64108  20879480.620    85497979.83647
  23336061.920   122631833.60708  23336061.680    95557270.68244
  24227013.440   127313839.73605  24227017.920    99205590.63545
  22451100.240   117981321.49308  22451095.060    91933484.90345
  21677393.900   113915460.83309  21677388.320    88765282.20747
  23304205.220   124792960.01707  23304207.740    97061193.33004
  23274549.720   124328449.03807  23274552.640    96699917.07005
  19842671.680   105958763.39208  19842675.600    82412378.05008
  20300701.620   108214181.00407  20300708.240    84166603.99905
  23459556.580   125536828.87708  23459558.960    97639746.07107
  20869582.600   111638189.97608  20869585.040    86829710.31507
  20145454.240   107726811.20608  20145454.140    83787512.85606
 15 01 14 02 19 30.0000000  0 14G16G18G21G25G27G29G31R08R12R13R14R17
                                R23R24
  23076059.500   121265518.83008  23076054.840    94492609.82144
  23563098.900   123824964.88707  23563095.500    96486973.05343
  20879760.580   109723891.18608  20879755.160    85499104.67247
  23352466.680   122718041.72808  23352466.460    95624445.81545
  24213125.500   127240856.12507  24213129.540    99148720.30346
  22463700.900   118047539.96607  22463696.280    91985083.67246
  21689400.860   113978558.52509  21689395.240    88814449.23647
  23290423.780   124719161.80308  23290426.740    97003794.73304
  23300131.200   124465098.29807  23300133.960    96806199.76705
  19854927.900   106024206.92608  19854931.300    82463278.56608
  20288285.420   108147994.63507  20288291.680    84115125.71705
  23444479.400   125456147.50707  23444481.720    97576993.90007
  20881785.500   111703466.30708  20881787.480    86880480.76807
  20142444.600   107710717.12608  20142444.920    83774995.27006
 15 01 14 02 20  0.0000000  0 14G16G18G21G25G27G29G31R08R12R13R14R17
                                R23R24
  23059532.280   121178666.55508  23059527.060    94424932.74644
  23548605.060   123748799.79308  23548601.820    96427623.62542
  20880118.260   109725769.91908  20880112.480    85500568.62247
  23368915.900   122804483.06208  23368915.540    95691802.69244
  24199254.520   127167960.91906  24199257.940    99091918.80345
  22476312.420   118113815.34108  22476308.280    92036726.78145
  21701486.740   114042071.27509  21701481.160    88863939.68046
  23276716.920   124645761.81508  23276719.820    96946705.84405
  23325734.280   124601863.78206  23325736.980    96912572.84505
  19867318.380   106090367.47808  19867321.140    82514736.75508
  20275998.780   108082498.21807  20276004.540    84064184.07505
  23429443.480   125375686.61107  23429445.600    97514413.24907
  20894016.580   111768892.25709  20894017.940    86931367.60906
  20139501.760   107694980.16008  20139502.440    83762755.43906
 15 01 14 02 20 30.0000000  0 14G16G18G21G25G27G29G31R08R12R13R14R17
                                R23R24
  23043022.260   121091904.77908  23043016.700    94357326.19844
  23534128.400   123672724.08408  23534124.880    96368343.85043
  20880558.720   109728083.98208  20880552.660    85502371.79447
  23385409.520   122891157.39708  23385408.700    95759341.14144
  24185400.360   127095154.66207  24185403.120    99035186.72046
  22488935.020   118180147.90108  22488930.980    92088414.46146
  21713651.000   114105996.73809  21713645.580    88913751.72046
  23263085.440   124572764.92408  23263087.640    96889930.49905
  23351358.520   124738742.79406  23351361.160    97019034.25305
  19879842.720   106157243.08908  19879844.900    82566751.12308
  20263842.440   108017696.07107  20263847.660    84013782.41305
  23414448.780   125295447.05007  23414450.600    97452004.77208
  20906275.420   111834466.65109  20906276.160    86982369.91506
  20136625.620   107679600.03008  20136626.400    83750793.12906
 15 01 14 02 21  0.0000000  0 14G16G18G21G25G27G29G31R08R12R13R14R17
                                R23R24
  23026530.100   121005237.23608  23026524.340    94289793.07544
  23519669.640   123596742.24908  23519666.200    96309137.22343
  20881082.040   109730834.28608  20881075.880    85504514.88647
  23401947.600   122978065.52008  23401946.240    95827061.75744
  24171563.360   127022439.26507  24171565.500    98978525.32146
  22501568.860   118246538.93408  22501564.820    92140147.70346
  21725893.700   114170334.66809  21725888.420    88963885.15646
  23249530.280   124500176.74507  23249531.540    96833473.01505
  23377003.480   124875733.33505  23377006.200    97125582.32905
  19892500.720   106224833.18808  19892502.500    82619321.19908
  20251817.280   107953593.32507  20251822.060    83963924.72105
  23399495.640   125215430.63907  23399497.480    97389769.84807
  20918561.800   111900188.87309  20918562.000    87033487.18906
  20133816.240   107664576.84108  20133816.800    83739108.43106
 15 01 14 02 21 30.0000000  0 14G16G18G21G25G27G29G31R08R12R13R14R17
                                R23R24
  23010056.100   120918665.51608  23010050.580    94222334.63344
  23505229.240   123520857.15608  23505225.680    96250005.98844
  20881688.200   109734020.30108  20881682.120    85506997.50546
  23418529.920   123065206.33908  23418528.120    95894963.68444
  24157743.480   126949814.24107  24157745.080    98921934.37546
  22514213.820   118312987.66508  22514209.700    92191925.91046
  21738214.500   114235082.24609  21738209.240    89014337.81046
  23236052.140   124428001.39807  23236052.920    96777336.67404
  23402668.420   125012831.25206  23402671.280    97232213.94405
  19905291.720   106293134.72108  19905293.320    82672444.62908
  20239923.820   107890193.03508  20239928.180    83914613.39105
  23384584.060   125135637.30307  23384586.260    97327708.42607
  20930875.280   111966057.09409  20930874.740    87084718.04405
  20131073.460   107649909.29008  20131073.480    83727700.38406
 15 01 14 02 22  0.0000000  0 14G16G18G21G25G27G29G31R08R12R13R14R17
                                R23R24
  22993600.640   120832191.50908  22993595.360    94154952.31644
  23490807.500   123445071.28907  23490803.460    96190952.02344
  20882376.900   109737640.40008  20882371.080    85509818.35847
  23435156.360   123152578.82908  23435154.300    95963046.12144
  24143940.640   126877279.52807  24143942.060    98865413.84345
  22526869.680   118379493.55208  22526865.260    92243748.65946
  21750612.980   114300237.02709  21750607.580    89065107.76946
  23222651.820   124356242.97907  23222652.380    96721524.60604
  23428352.760   125150033.03206  23428355.680    97338926.35305
  19918215.220   106362145.25008  19918216.860    82726119.48708
  20228162.640   107827498.76507  20228167.000    83865851.17905
  23369713.840   125056066.84506  23369716.040    97265820.30807
  20943215.480   112032068.92608  20943214.340    87136060.59906
  20128396.940   107635595.55308  20128396.220    83716567.50006
 15 01 14 02 22 30.0000000  0 14G16G18G21G25G27G29G31R08R12R13R14R17
                                R23R24
  22977163.900   120745816.29908  22977158.840    94087646.98444
  23476404.700   123369386.33507  23476400.820    96131976.74243
  20883147.920   109741693.27508  20883142.360    85512976.44447
  23451826.640   123240181.26908  23451824.200    96031307.79744
  24130154.740   126804834.34207  24130155.780    98808963.02745
  22539536.160   118446055.53408  22539531.460    92295615.12046
  21763088.600   114365796.07709  21763083.180    89116192.74846
  23209329.840   124284904.81008  23209330.420    96666039.32104
  23454055.760   125287334.27707  23454058.660    97445716.12505
  19931270.480   106431861.01208  19931272.520    82780342.84608
  20216534.160   107765512.87608  20216538.640    83817639.95706
  23354884.960   124976718.95707  23354887.480    97204105.39906
  20955582.020   112098222.32208  20955580.760    87187513.25106
  20125786.300   107621633.98508  20125785.040    83705708.53206
 15 01 14 02 23  0.0000000  0 14G16G18G21G25G27G29G31R08R12R13R14R17
                                R23R24
  22960746.420   120659542.19508  22960741.520    94020420.43044
  23462021.640   123293805.92107  23462018.460    96073082.93544
  20884001.340   109746178.93208  20883995.880    85516471.76947
  23468540.700   123328013.50908  23468538.100    96099748.50344
  24116386.060   126732479.33508  24116386.960    98752582.49045
  22552213.400   118512674.04408  22552208.400    92347525.61846
  21775640.840   114431757.60009  21775635.540    89167591.32547
  23196087.300   124213991.96307  23196087.940    96610884.84504
  23479776.860   125424731.99306  23479779.640    97552580.93405
  19944457.080   106502280.35107  19944459.760    82835113.43607
  20205039.320   107704239.43307  20205043.980    83769982.85306
  23340097.800   124897594.29206  23340100.480    97142564.05505
  20967974.600   112164515.49708  20967973.660    87239074.60206
  20123241.360   107608023.81008  20123239.720    83695122.86706
 15 01 14 02 23 30.0000000  0 14G16G18G21G25G27G29G31R08R12R13R14R17
                                R23R24
  22944349.060   120573374.23008  22944344.620    93953276.57644
  23447659.120   123218335.43706  23447657.420    96014274.80145
  20884937.720   109751099.68108  20884932.180    85520306.12947
  23485298.940   123416077.57208  23485296.540    96168369.85544
  24102635.180   126660217.49707  24102635.840    98696274.55446
  22564901.860   118579351.47408  22564896.380    92399482.04946
  21788269.800   114498122.20009  21788264.620    89219303.99447
  23182925.280   124143511.46706  23182926.540    96556066.73005
  23505515.820   125562225.54706  23505518.460    97659520.29005
  19957775.220   106573403.24707  19957778.540    82890431.23707
  20193679.260   107643684.89107  20193684.160    83722884.89306
  23325353.220   124818696.53106  23325360.820    97081182.14005
  20980393.580   112230949.63608  20980393.280    87290745.59407
  20120762.320   107594766.55508  20120760.420    83684811.71506
 15 01 14 02 24  0.0000000  0 14G16G18G21G25G27G29G31R08R12R13R14R17
                                R23R24
  22927970.580   120487305.72208  22927966.360    93886210.24745
  23433316.660   123142969.53706  23433315.860    95955548.13444
  20885955.260   109756446.12808  20885949.640    85524472.19447
  23502099.540   123504364.08808  23502097.340    96237164.54944
  24088900.480   126588040.35808  24088901.160    98640032.62346
  22577599.880   118646079.07108  22577593.940    92451477.56545
  21800973.400   114564879.06809  21800968.340    89271322.32047
  23169843.280   124073458.95507  23169845.140    96501581.50705
  23531270.500   125699802.73206  23531272.980    97766524.69204
  19971222.820   106645218.32807  19971226.740    82946287.39207
  20182453.180   107583844.01507  20182458.180    83676342.02906
  23310649.760   124740016.59305  23310654.920    97019986.63905
  20992836.900   112297514.61508  20992837.440    87342518.34107
  20118347.380   107581852.35208  20118345.300    83674767.37206
 15 01 14 02 24 30.0000000  0 14G16G18G21G25G27G29G31R08R12R13R14R17
                                R23R24
  22911612.320   120401343.72308  22911608.380    93819226.89144
  23418995.880   123067716.11506  23418995.720    95896909.11244
  20887054.620   109762222.39708  20887048.980    85528973.18747
  23518943.180   123592877.18608  23518941.040    96306135.79544
  24075182.800   126515952.85807  24075183.460    98583860.57846
  22590308.280   118712861.64608  22590301.820    92503515.94144
  21813752.120   114632031.02709  21813747.160    89323648.50847
  23156842.980   124003843.48207  23156845.280    96447436.18105
  23557041.120   125837465.30805  23557043.500    97873595.48604
  19984800.680   106717727.90807  19984804.920    83002683.71207
  20171362.700   107524725.22307  20171367.580    83630360.76206
  23295988.560   124661560.02507  23295990.500    96958964.98903
  21005305.120   112364213.37308  21005306.460    87394395.13107
  20115997.140   107569284.94508  20115994.880    83664992.76406
 15 01 14 02 25  0.0000000  0 13G16G18G21G25G27G29G31R08R13R14R17R23
                                R24
  22895275.000   120315491.50208  22895271.440    93752329.07944
  23404697.860   122992579.01707  23404697.720    95838360.75044
  20888235.780   109768428.75508  20888230.260    85533809.32247
  23535829.880   123681617.20708  23535827.700    96375283.86944
  24061482.360   126443956.38208  24061483.080    98527759.44846
  22603027.280   118779700.05608  22603020.640    92555597.78844
  21826605.700   114699576.73609  21826600.720    89376281.50347
  23143925.360   123934670.77307  23143928.080    96393635.23704
  19998508.860   106790930.95307  19998513.000    83059619.41307
  20160408.500   107466332.91907  20160413.300    83584944.55706
  23281369.740   124583328.14406  23281363.900    96898106.87604
  21017798.240   112431045.70608  21017800.360    87446375.78707
  20113711.640   107557064.65708  20113709.240    83655488.12006
 15 01 14 02 25 30.0000000  0 13G16G18G21G25G27G29G31R08R13R14R17R23
                                R24
  22878958.440   120229747.84508  22878954.980    93685515.87044
  23390422.440   122917558.34607  23390421.800    95779903.06844
  20889498.040   109775061.60208  20889492.700    85538977.78547
  23552758.960   123770580.28308  23552756.860    96444605.76144
  24047798.460   126372047.86107  24047799.380    98471726.87146
  22615756.020   118846591.01607  22615749.540    92607720.58844
  21839533.140   114767510.83409  21839528.100    89429217.16047
  23131090.500   123865941.68507  23131093.840    96340179.31704
  20012346.340   106864821.42907  20012350.020    83117089.78007
  20149590.620   107408667.37207  20149595.480    83540093.57206
  23266792.500   124505318.18207  23266802.740    96837413.56303
  21030315.560   112498006.36108  21030318.220    87498456.26507
  20111490.080   107545186.73408  20111487.800    83646249.75406
 15 01 14 02 26  0.0000000  0 13G16G18G21G25G27G29G31R08R13R14R17R23
                                R24
  22862663.380   120144116.60808  22862659.940    93618790.27344
  23376170.120   122842658.38307  23376168.620    95721539.46144
  20890841.500   109782121.70608  20890836.400    85544479.18547
  23569730.600   123859767.08208  23569728.820    96514101.97644
  24034131.520   126300229.04907  24034133.000    98415764.18747
  22628494.680   118913535.91907  22628488.740    92659885.43744
  21852534.220   114835832.31509  21852529.200    89482454.67347
  23118339.700   123797662.04607  23118343.140    96287072.90003
  20026312.480   106939397.99308  20026315.700    83175093.78807
  20138909.960   107351733.29207  20138915.140    83495811.52806
  23252257.400   124427525.73808  23252247.160                  
  21042857.020   112565095.49108  21042860.160    87550636.68508
  20109332.820   107533651.76908  20109330.820    83637278.13606
 15 01 14 02 26 30.0000000  0 13G16G18G21G25G27G29G31R08R13R14R17R23
                                R24
  22846389.540   120058596.55008  22846385.980    93552151.28444
  23361940.600   122767878.60507  23361938.660    95663269.48844
  20892265.500   109789605.67008  20892260.720    85550310.85147
  23586743.980   123949173.58908  23586742.920    96583769.36745
  24020480.940   126228496.66707  24020482.600    98359868.87146
  22641242.520   118980530.95807  22641237.580    92712089.33144
  21865607.940   114904535.99909  21865603.180    89535989.99447
  23105673.000   123729832.86807  23105676.040    96234316.87703
  20040406.020   107014654.60608  20040409.080    83233626.71207
  20128366.580   107295531.05308  20128372.080    83452098.68206
  23237762.580   124349959.95607  23237765.820    96716643.03404
  21055421.840   112632308.26209  21055425.200    87602913.25608
  20107239.000   107522455.03108  20107237.340    83628569.59306
 15 01 14 02 27  0.0000000  0 13G16G18G21G25G27G29G31R08R13R14R17R23
                                R24
  22830138.120   119973194.23108  22830134.360    93485604.08044
  23347735.440   122693226.98308  23347733.460    95605099.38644
  20893770.760   109797517.01008  20893766.220    85556475.54447
  23603800.000   124038803.89908  23603799.360    96653611.15544
  24006847.860   126156855.88507  24006849.940    98304044.89846
  22654000.740   119047581.14806  22653996.740    92764336.23944
  21878754.840   114973624.32409  21878750.520    89589825.03346
  23093092.080   123662463.28507  23093094.900    96181918.37503
  20054627.420   107090593.94708  20054630.440    83292690.65007
  20117961.980   107240068.51208  20117967.720    83408961.16506
  23223310.020   124272619.86306  23223313.480    96656489.69404
  21068010.560   112699647.83209  21068013.960    87655288.47008
  20105209.320   107511600.73008  20105207.980    83620127.38206
 15 01 14 02 27 30.0000000  0 13G16G18G21G25G27G29G31R08R13R14R17R23
                                R24
  22813908.440   119887906.32108  22813904.540    93419146.02445
  23333554.120   122618700.54008  23333552.100    95547026.81945
  20895356.220   109805849.20508  20895351.700    85562968.16447
  23620897.400   124128651.11108  23620896.900    96723621.96244
  23993231.280   126085300.75508  23993233.540    98248287.70146
  22666768.340   119114680.52107  22666765.520    92816621.39044
  21891973.420   115043089.15808  21891969.560    89643953.46346
  23080596.720   123595551.31507  23080600.420    96129875.86003
  20068974.920   107167206.54108  20068977.880    83352278.23107
  20107695.720   107185343.14808  20107701.380    83366397.00306
  23208898.440   124195499.62106  23208900.880    96596507.25104
  21080621.620   112767106.76109  21080625.020    87707756.50908
  20103242.260   107501081.08608  20103241.140    83611945.46606
 15 01 14 02 28  0.0000000  0 13G16G18G21G25G27G29G31R08R13R14R17R23
                                R24
  22797701.440   119802737.63008  22797697.220    93352780.85345
  23319397.460   122544304.61908  23319395.420    95489055.97645
  20897022.240   109814604.27308  20897017.540    85569790.29447
  23638036.540   124218717.37208  23638036.100    96793803.48443
  23979631.840   126013834.43208  23979634.120    98192599.67846
  22679546.280   119181831.70207  22679544.200    92868946.98044
  21905263.740   115112930.99208  21905260.240    89698375.64746
  23068188.400   123529104.30707  23068194.920    96078195.00203
  20083448.620   107244492.58708  20083451.560    83412389.59608
  20097568.960   107131361.24308  20097574.300    83324411.07706
  23194528.020   124118602.56706  23194529.820    96536698.58805
  21093255.140   112834685.94009  21093258.500    87760318.08507
  20101338.080   107490898.26408  20101337.180    83604025.50806
 15 01 14 02 28 30.0000000  0 13G16G18G21G25G27G29G31R08R13R14R17R23
                                R24
  22781517.520   119717690.40408  22781513.160    93286510.35145
  23305265.920   122470042.28108  23305264.040    95431189.23145
  20898768.540   109823780.93608  20898763.680    85576940.96047
  23655217.160   124309001.65608  23655216.800    96864154.88044
  23966049.520   125942456.78308  23966051.440    98136980.81046
  22692334.300   119249034.31507  22692333.120    92921312.60745
  21918625.400   115183147.43608  21918622.180    89753089.74246
  23055867.640   123463126.13407  23055876.620    96026878.83303
  20098047.900   107322449.14008  20098050.880    83473022.46408
  20087582.240   107078125.53708  20087587.020    83283005.53606
  23180198.600   124041928.53606  23180201.360    96477063.30506
  21105910.820   112902384.18909  21105914.100    87812972.27507
  20099496.560   107481050.30508  20099495.820    83596366.00506
 15 01 14 02 29  0.0000000  0 13G16G18G21G25G27G29G31R08R13R14R17R23
                                R24
  22765356.700   119632764.47808  22765352.060    93220334.36045
  23291160.000   122395914.67208  23291158.120    95373427.45645
  20900594.640   109833377.05208  20900589.840    85584418.46247
  23672438.660   124399501.18107  23672438.140    96934673.97444
  23952483.800   125871166.05008  23952485.700    98081429.61447
  22705132.120   119316286.43007  22705131.340    92973716.82845
  21932057.580   115253733.93108  21932054.480    89808092.19846
  23043634.880   123397618.83207  23043643.860    95975928.79303
  20112771.960   107401071.81608  20112774.740    83534173.42908
  20077735.680   107025637.20708  20077739.800    83242181.28005
  23165910.640   123965475.88907  23165913.940    96417600.25106
  21118587.860   112970197.61508  21118591.000    87865716.04007
  20097717.120   107471534.43408  20097716.660    83588964.80706
 15 01 14 02 29 30.0000000  0 13G16G18G21G25G27G29G31R08R13R14R17R23
                                R24
  22749219.940   119547964.73808  22749214.880    93154256.68344
  23277080.560   122321927.22008  23277078.660    95315774.91645
  20902500.880   109843394.25008  20902496.180    85592224.08047
  23689701.300   124490217.76807  23689700.860    97005362.19143
  23938935.100   125799965.02808  23938936.800    98025948.33547
  22717939.980   119383590.55707  22717939.580    93026161.57445
  21945560.300   115324690.71808  21945557.240    89863383.19346
  23031491.460   123332589.54107  23031498.900    95925350.51304
  20127620.540   107480359.91408  20127622.960    83595841.91608
  20068030.340   106973902.14508  20068033.800    83201942.89805
  23151665.420   123889247.41207  23151668.920    96358311.48406
  21131286.480   113038127.26308  21131289.440    87918550.23006
  20096000.020   107462352.22908  20095999.800    83581823.11306
 15 01 14 02 30  0.0000000  0 13G16G18G21G25G27G29G31R08R13R14R17R23
                                R24
  22733106.980   119463290.22508  22733101.560    93088276.60945
  23263027.780   122248080.02008  23263025.480    95258231.63745
  20904486.540   109853828.76708  20904481.840    85600354.87247
  23707004.520   124581147.62508  23707004.060    97076216.58644
  23925402.880   125728850.83708  23925404.180    97970534.74746
  22730757.240   119450943.32708  22730757.060    93078644.20545
  21959132.560   115396012.72609  21959129.420    89918958.77846
  23019437.380   123268039.27207  23019442.800    95875144.80004
  20142592.360   107560307.06008  20142594.320    83658023.00008
  20058466.260   106922920.31808  20058469.240    83162290.36605
  23137462.220   123813240.26807  23137464.920    96299194.86006
  21144005.960   113106168.98008  21144008.720    87971471.56706
  20094344.300   107453499.31608  20094344.340    83574937.51806
 15 01 14 02 30 30.0000000  0 13G16G18G21G25G27G29G31R08R13R14R17R23
                                R24
  22717018.440   119378744.75808  22717012.900    93022397.05944
  23249002.640   122174377.24108  23248999.720    95200800.89245
  20906551.840   109864681.81808  20906547.080    85608811.80147
  23724348.680   124672291.32008  23724347.720    97147237.71343
  23911887.440   125657825.24908  23911888.300    97915190.17246
  22743584.060   119518346.47507  22743583.820    93131166.12645
  21972774.100   115467699.26909  21972770.800    89974818.41746
  23007473.700   123203973.70307  23007478.120    95825316.04103
  20157687.260   107640912.67108  20157688.860    83720716.22907
  20049044.240   106872696.62507  20049047.180    83123227.48905
  23123301.000   123737456.39008  23123302.840    96240251.88605
  21156746.300   113174322.54808  21156748.760    88024479.91406
  20092750.160   107444975.94908  20092750.240    83568308.22806
 15 01 14 02 31  0.0000000  0 13G16G18G21G25G27G29G31R08R13R14R17R23
                                R24
  22700954.820   119294330.60808  22700949.220    92956619.84745
  23235005.540   122100821.70808  23235002.000    95143484.87045
  20908696.380   109875951.45508  20908691.420    85617593.32847
  23741733.300   124763647.81008  23741731.920    97218424.61543
  23898388.700   125586888.09509  23898389.100    97859914.50146
  22756420.340   119585799.45308  22756419.980    93183726.85945
  21986484.340   115539747.45009  21986480.860    90030959.85146
  22995601.020   123140396.61107  22995605.240    95775867.13804
  20172904.520   107722173.19708  20172905.700    83783918.82907
  20039764.780   106823233.68607  20039768.040    83084756.31005
  23109181.360   123661895.49208  23109182.200    96181482.27906
  21169507.140   113242585.95108  21169509.680    88077573.68007
  20091217.400   107436780.67808  20091217.420    83561934.13306
 15 01 14 02 31 30.0000000  0 13G16G18G21G25G27G29G31R08R13R14R17R23
                                R24
  22684916.360   119210048.94608  22684910.820    92890945.88044
  23221036.920   122027415.73608  23221032.720    95086285.42544
  20910919.980   109887636.72508  20910914.720    85626698.73747
  23759158.040   124855215.58108  23759156.480    97289776.15843
  23884906.580   125516038.83509  23884906.260    97804707.33245
  22769265.980   119653301.47208  22769265.560    93236325.83145
  22000262.780   115612154.27408  22000259.040    90087380.76145
  22983820.200   123077311.58107  22983824.100    95726801.01405
  20188243.400   107804084.98308  20188244.280    83847627.99207
  20030628.460   106774533.50807  20030632.100    83046878.39605
  23095103.140   123586557.27508  23095103.740    96122885.91406
  21182288.380   113310957.33608  21182291.180    88130751.42007
  20089745.780   107428911.91708  20089745.640    83555813.99406
 15 01 14 02 32  0.0000000  0 13G16G18G21G25G27G29G31R08R13R14R17R23
                                R24
  22668903.380   119125900.61008  22668897.860    92825375.78644
  23207097.000   121954160.65508  23207092.200    95029203.53245
  20913222.240   109899735.30908  20913216.700    85636126.20347
  23776622.580   124946992.23208  23776620.960    97361290.42944
  23871440.920   125445276.14809  23871439.640    97749567.56045
  22782120.540   119720851.05308  22782120.120    93288961.84445
  22014108.640   115684915.76108  22014104.620    90144078.02345
  22972131.700   123014720.80707  22972135.220    95678119.34206
  20203703.200   107886643.52708  20203704.160    83911840.18406
  20021635.700   106726598.14807  20021639.820    83009595.33206
  23081066.000   123511440.17908  23081066.460    96064461.48605
  21195089.400   113379433.63709  21195092.400    88184010.75507
  20088334.620   107421366.57008  20088334.380    83549945.41306
 15 01 14 02 32 30.0000000  0 13G16G18G21G25G27G29G31R08R13R14R17R23
                                R24
  22652916.500   119041889.02808  22652910.860    92759912.26944
  23193186.580   121881060.84408  23193181.420    94972242.65044
  20915603.180   109912247.44108  20915597.460    85645875.92747
  23794126.980   125038978.10708  23794125.300    97432967.74143
  23857991.980   125374601.43409  23857990.060    97694496.40345
  22794984.460   119788449.38908  22794983.760    93341635.85946
  22028021.700   115758030.80308  22028017.380    90201050.78645
  22960536.500   122952629.62106  22960539.560    95629826.26405
  20219283.900   107969847.01308  20219285.180    83976554.00507
  20012787.200   106679431.49507  20012791.780    82972910.16206
  23067070.180   123436545.49408  23067070.940    96006210.08206
  21207910.140   113448014.73909  21207913.160    88237351.58708
  20086983.980   107414144.66008  20086983.620    83544328.37806
 15 01 14 02 33  0.0000000  0 13G16G18G21G25G27G29G31R08R13R14R17R23
                                R24
  22636956.020   118958016.43408  22636950.280    92694557.01544
  23179305.920   121808119.29608  23179300.940    94915405.07444
  20918062.620   109925172.26908  20918056.860    85655947.22147
  23811671.000   125131172.56008  23811669.240    97504807.59244
  23844559.900   125304015.05109  23844557.680    97639494.03945
  22807857.640   119856096.76908  22807856.860    93394348.07145
  22042001.500   115831497.26308  22041997.080    90258297.35145
  22949035.500   122891042.64207  22949037.580    95581925.24904
  20234985.020   108053692.23308  20234986.860    84041766.95107
  20004083.600   106633036.77807  20004088.500    82936825.38806
  23053115.800   123361873.74308  23053116.920    95948132.05706
  21220750.320   113516699.43109  21220753.220    88290772.99408
  20085693.740   107407245.51708  20085693.340    83538962.37206
 15 01 14 02 33 30.0000000  0 13G16G18G21G25G27G29G31R08R13R14R17R23
                                R24
  22621022.200   118874283.98408  22621016.480    92629310.99344
  23165455.360   121735337.35208  23165451.060    94858691.92244
  20920600.200   109938507.58608  20920594.400    85666338.39847
  23829254.100   125223573.22307  23829252.620    97576808.11744
  23831144.380   125233515.61908  23831142.280    97584559.41445
  22820739.780   119923791.29008  22820738.700    93447097.05245
  22056047.360   115905311.13408  22056043.040    90315814.63945
  22937629.180   122829962.19807  22937629.760    95534418.14404
  20250805.700   108138174.43308  20250808.060    84107475.31407
  19995525.200   106587415.24407  19995530.180    82901341.98106
  23039202.720   123287423.50008  23039203.760    95890226.32106
  21233609.360   113585484.60209  21233611.900    88344272.56708
  20084463.340   107400665.85808  20084462.900    83533844.88006
 15 01 14 02 34  0.0000000  0 13G16G18G21G25G27G29G31R08R13R14R17R23
                                R24
  22605115.780   118790695.50508  22605109.980    92564177.15144
  23151636.120   121662719.77408  23151632.480    94802106.78745
  20923216.060   109952254.11208  20923210.280    85677049.97947
  23846876.640   125316181.01007  23846875.800    97648970.02144
  23817745.720   125163105.23008  23817744.100    97529694.17646
  22833631.180   119991535.16608  22833629.720    93499884.46145
  22070159.520   115979472.04208  22070155.200    90373602.33645
  22926318.520   122769394.22906  22926318.720    95487309.73005
  20266745.760   108223292.84708  20266748.080    84173678.49607
  19987112.860   106542571.61107  19987117.740    82866463.60206
  23025331.220   123213196.92608  23025332.420    95832494.60206
  21246487.340   113654370.83609  21246489.480    88397850.73008
  20083292.740   107394406.99208  20083292.480    83528976.86306
 15 01 14 02 34 30.0000000  0 13G16G18G21G25G27G29G31R08R13R14R17R23
                                R24
  22589237.300   118707253.76408  22589231.540    92499157.67144
  23137849.020   121590270.05308  23137845.920    94745652.48545
  20925910.140   109966411.89008  20925904.600    85688082.03247
  23864538.500   125408995.51207  23864538.360    97721292.99744
  23804364.000   125092784.47308  23804362.980    97474898.82145
  22846531.820   120059328.62608  22846530.020    93552710.51844
  22084337.720   116053978.04708  22084333.300    90431658.96245
  22915104.440   122709343.39607  22915104.520    95440603.58104
  20282804.600   108309044.81708  20282806.420    84240374.47306
  19978847.000   106498509.26507  19978851.880    82832192.89706
  23011501.520   123139194.43908  23011502.940    95774937.15606
  21259383.940   113723357.18109  21259385.780    88451506.78308
  20082181.860   107388468.05008  20082181.960    83524357.69206
 15 01 14 02 35  0.0000000  0 13G16G18G21G25G27G29G31R08R13R14R17R23
                                R24
  22573386.000   118623954.04508  22573380.200    92434248.84444
  23124093.560   121517984.43108  23124090.760    94689326.02145
  20928680.960   109980973.10208  20928675.860    85699428.43547
  23882238.180   125502009.08807  23882238.640    97793771.05745
  23790997.960   125022546.78108  23790997.800    97420168.18645
  22859440.680   120127164.89408  22859438.440    93605569.93144
  22098580.060   116128819.81108  22098575.480    90489977.22745
  22903986.380   122649806.42207  22903986.420    95394297.03504
  20298980.320   108395420.31508  20298981.400    84307555.41206
  19970726.840   106455223.95007  19970731.980    82798526.55106
  22997712.440   123065409.37707  22997714.200    95717548.80106
  21272297.600   113792435.38309  21272299.400    88505234.25408
  20081129.240   107382840.64308  20081129.640    83519980.80106
 15 01 14 02 35 30.0000000  0 13G16G18G21G25G27G29G31R08R13R14R17R23
                                R24
  22557563.460   118540805.02409  22557557.620    92369457.44544
  23110371.420   121445872.30708  23110368.740    94633134.76145
  20931529.580   109995943.30808  20931525.120    85711093.52547
  23899976.840   125595227.12707  23899977.480    97866408.46244
  23777648.860   124952398.66008  23777649.520    97365507.34145
  22872358.700   120195050.08008  22872355.880    93658467.47744
  22112887.140   116204001.21209  22112882.680    90548560.13446
  22892966.200   122590793.91206  22892966.480    95348398.40304
  20315273.420   108482422.33308  20315273.940    84375223.66506
  19962754.260   106412724.87107  19962759.680    82765471.73007
  22983965.420   122991848.26007  22983967.340    95660334.63406
  21285229.280   113861610.48809  21285231.000    88559037.11608
  20080136.040   107377530.26008  20080136.520    83515850.50706
 15 01 14 02 36  0.0000000  0 14G16G18G21G25G27G29G31R08R13R14R15R17
                                R23R24
  22541768.960   118457803.04709  22541762.980    92304780.61544
  23096681.640   121373930.25708  23096678.960    94577076.02646
  20934454.720   110011315.38008  20934450.880    85723071.76647
  23917753.200   125688642.49507  23917753.920    97939199.65143
  23764315.620   124882334.03908  23764316.700    97310911.59246
  22885284.940   120262978.44008  22885281.860    93711398.67844
  22127257.180   116279513.67309  22127253.040    90607401.01047
  22882043.200   122532303.44106  22882044.320    95302905.81404
  20331682.040   108570041.53708  20331682.500    84443371.93806
  19954928.620   106371008.50807  19954934.080    82733025.67206
  23464330.940   125386265.90605  23464342.200    97522680.10405
  22970259.100   122918504.75007  22970261.020    95603289.70507
  21298177.500   113930874.90009  21298179.260    88612909.41708
  20079200.620   107372529.18908  20079201.240    83511960.79206
 15 01 14 02 36 30.0000000  0 14G16G18G21G25G27G29G31R08R13R14R15R17
                                R23R24
  22526003.780   118374955.44309  22525997.760    92240224.07445
  23083025.760   121302166.51208  23083022.800    94521156.23845
  20937457.240   110027093.59808  20937453.780    85735366.48447
  23935568.100   125782259.67307  23935568.380    98012148.07944
  23750999.420   124812358.53908  23751000.300    97256385.26946
  22898220.460   120330955.01208  22898217.560    93764367.42745
  22141690.560   116355360.02309  22141686.920    90666502.06047
  22871219.460   122474344.47806  22871221.740    95257826.65705
  20348206.460   108658280.09108  20348207.300    84512001.91707
  19947251.220   106330082.83007  19947256.660    82701194.60607
  23442140.740   125267683.95404  23442151.040    97430449.62305
  22956594.520   122845384.57506  22956597.140    95546418.46807
  21311142.980   114000232.70608  21311144.860    88666854.36307
  20078323.920   107367841.85808  20078324.600    83508315.09006
 15 01 14 02 37  0.0000000  0 14G16G18G21G25G27G29G31R08R13R14R15R17
                                R23R24
  22510267.120   118292258.05309  22510261.100    92175784.58345
  23069403.000   121230577.18808  23069399.580    94465372.33845
  20940535.520   110043269.92108  20940532.340    85747971.40148
  23953419.940   125876070.79007  23953419.800    98085247.63243
  23737699.100   124742465.30108  23737699.940    97201923.01846
  22911163.920   120398973.17708  22911161.240    93817368.56844
  22156185.500   116431531.04709  22156182.400    90725856.08947
  22860494.520   122416913.70907  22860497.720    95213158.29705
  20364844.620   108747127.33307  20364846.080    84581105.28907
  19939721.280   106289943.43507  19939726.580    82669975.08706
  23420003.120   125149383.69605  23420013.100    97338438.27505
  22942970.420   122772480.71107  22942973.380    95489715.51907
  21324124.260   114069675.55508  21324126.300    88720865.44307
  20077504.520   107363459.81308  20077505.220    83504906.83306
 15 01 14 02 37 30.0000000  0 14G16G18G21G25G27G29G31R08R13R14R15R17
                                R23R24
  22494560.160   118209717.43208  22494554.080    92111467.24645
  23055814.800   121159169.89508  23055811.040    94409730.31545
  20943690.220   110059848.56508  20943687.260    85760889.82947
  23971309.360   125970079.61408  23971308.560    98158501.28644
  23724415.640   124672659.34108  23724415.980    97147528.81746
  22924116.240   120467037.33408  22924113.540    93870405.58844
  22170742.420   116508028.89509  22170739.920    90785464.78147
  22849869.960   122360020.04806  22849873.580    95168907.68205
  20381596.920   108836585.07907  20381599.020    84650683.49907
  19932340.220   106250597.81507  19932345.300    82639372.95506
  23397920.060   125031375.45905  23397929.380    97246654.03105
  22929387.940   122699797.93507  22929390.880    95433184.49607
  21337122.020   114139207.09108  21337124.340    88774945.52007
  20076743.020   107359386.73308  20076743.740    83501738.89606
 15 01 14 02 38  0.0000000  0 14G16G18G21G25G27G29G31R08R13R14R15R17
                                R23R24
  22478882.680   118127332.68209  22478876.680    92047271.38145
  23042261.120   121087944.08508  23042256.840    94354229.66745
  20946920.560   110076824.84108  20946917.660    85774118.09647
  23989235.520   126064281.77208  23989233.720    98231905.62443
  23711148.280   124602937.27508  23711148.320    97093199.97546
  22937076.640   120535144.03408  22937074.320    93923475.71945
  22185360.220   116584847.50009  22185358.300    90845323.40647
  22839345.840   122303663.82807  22839349.160    95125075.07705
  20398462.320   108926646.35407  20398464.780    84720731.11407
  19925107.920   106212045.44007  19925112.840    82609387.78906
  23375891.280   124913658.26505  23375900.120    97155096.15205
  22915846.520   122627332.95307  22915849.380    95376822.88907
  21350135.380   114208822.27708  21350138.000    88829090.65007
  20076038.500   107355617.89308  20076039.220    83498807.57806
 15 01 14 02 38 30.0000000  0 14G16G18G21G25G27G29G31R08R13R14R15R17
                                R23R24
  22463236.100   118045110.76308  22463230.180    91983202.37145
  23028743.480   121016907.60608  23028738.560    94298876.55445
  20950227.380   110094202.63408  20950224.300    85787659.22547
  24007199.100   126158681.18508  24007197.020    98305463.68643
  23697897.920   124533304.20308  23697897.580    97038940.44546
  22950046.080   120603298.35708  22950043.880    93976582.97045
  22200039.620   116661989.35609  22200038.120    90905433.91447
  22828923.720   122247853.56007  22828926.420    95081667.15505
  20415441.240   109017313.04008  20415443.720    84791249.62007
  19918025.620   106174293.02207  19918030.540    82580024.79906
  23353918.960   124796242.87106  23353927.420    97063773.01305
  22902346.720   122555090.71707  22902349.260    95320634.51607
  21363165.280   114278525.05808  21363168.060    88883303.92007
  20075391.660   107352157.27308  20075392.260    83496115.98706
 15 01 14 02 39  0.0000000  0 14G16G18G21G25G27G29G31R08R13R14R15R17
                                R23R24
  22447620.480   117963051.75308  22447614.600    91919260.32045
  23015261.960   120946060.75708  23015256.480    94243671.21245
  20953610.020   110111978.29608  20953606.600    85801510.38447
  24025199.480   126253274.32708  24025198.260    98379172.64044
  23684664.020   124463757.74208  23684663.100    96984748.43246
  22963024.280   120671497.92908  22963022.040    94029725.47745
  22214779.760   116739449.41409  22214778.320    90965792.38047
  22818603.680   122192590.61006  22818605.940    95038684.91606
  20432532.540   109108578.93708  20432534.860    84862234.18207
  19911093.320   106137340.51107  19911098.280    82551283.95306
  23332003.280   124679130.51106  23332011.380    96972685.54904
  22888887.920   122483068.71507  22888890.140    95264617.43707
  21376210.900   114348311.48909  21376213.920    88937582.27207
  20074801.700   107349000.79908  20074802.080    83493660.96406
 15 01 14 02 39 30.0000000  0 14G16G18G21G25G27G29G31R08R13R14R15R17
                                R23R24
  22432036.480   117881159.01908  22432030.720    91855447.82745
  23001817.180   120875407.61508  23001811.640    94188616.82345
  20957068.480   110130152.19207  20957064.780    85815671.86847
  24043236.740   126348061.38308  24043236.200    98453032.67444
  23671446.740   124394299.25808  23671445.560    96930624.95046
  22976011.260   120739743.62408  22976008.960    94082903.94145
  22229580.380   116817226.48509  22229578.580    91026397.86547
  22808386.820   122137879.84807  22808388.340    94996132.11505
  20449735.820   109200442.18908  20449737.960    84933683.35707
  19904311.720   106101192.02506  19904316.780    82523168.45806
  23310145.460   124562327.97304  23310153.760    96881839.04904
  22875470.340   122411268.01307  22875472.160    95208772.44407
  21389272.160   114418181.26808  21389275.600    88991925.43107
  20074268.520   107346148.31208  20074268.720    83491442.37306
 15 01 14 02 40  0.0000000  0 14G16G18G21G25G27G29G31R08R13R14R15R17
                                R23R24
  22416484.440   117799433.91408  22416478.960    91791765.96145
  22988409.580   120804950.25608  22988404.180    94133714.99345
  20960602.280   110148722.30808  20960598.360    85830142.08247
  24061310.520   126443040.43707  24061310.480    98527042.32444
  23658245.920   124324927.93708  23658244.040    96876569.39645
  22989006.800   120808034.31108  22989004.360    94136117.44845
  22244440.680   116895316.98809  22244438.280    91087247.59346
  22798273.920   122083724.29207  22798274.380    94954011.11105
  20467050.040   109292897.90908  20467051.980    85005593.35107
  19897681.300   106065848.93906  19897686.320    82495679.38506
  23288345.820   124445837.74204  23288354.640    96791235.43203
  22862093.660   122339687.82507  22862095.400    95153099.03606
  21402348.740   114488132.28408  21402352.360    89046331.77107
  20073791.740   107343597.83808  20073791.760    83489458.68406
 15 01 14 02 40 30.0000000  0 14G16G18G21G25G27G29G31R08R13R14R15R17
                                R23R24
  22400964.340   117717876.63808  22400959.160    91728214.85645
  22975039.340   120734689.43908  22975034.160    94078966.30945
  20964210.860   110167685.29008  20964206.780    85844918.42947
  24079420.260   126538208.33807  24079420.480    98601199.11444
  23645061.120   124255641.78408  23645058.760    96822580.21945
  23002010.480   120876368.44808  23002007.960    94189364.81645
  22259359.660   116973716.22609  22259356.660    91148337.88846
  22788265.160   122030125.38207  22788265.220    94912323.08205
  20484474.300   109385940.83208  20484475.780    85077960.06506
  19891202.020   106031310.72807  19891206.740    82468816.32906
  23266604.980   124329662.45204  23266615.040    96700876.79603
  22848757.940   122268326.05807  22848759.460    95097595.37406
  21415440.000   114558161.39809  21415443.720    89100798.86007
  20073370.740   107341345.94908  20073370.540    83487707.21906
 15 01 14 02 41  0.0000000  0 14G16G18G21G25G27G29G31R08R13R14R15R17
                                R23R24
  22385476.980   117636491.57008  22385472.020    91664797.94644
  22961707.220   120664630.18908  22961702.680    94024374.70845
  20967894.600   110187042.87508  20967890.320    85860002.26247
  24097566.180   126633566.33807  24097566.460    98675504.07144
  23631892.900   124186443.23508  23631890.100    96768659.25945
  23015022.860   120944748.29908  23015020.320    94242647.80845
  22274337.260   117052423.72209  22274333.820    91209668.39747
  22778361.360   121977088.99308  22778361.160    94871072.62805
  20502008.240   109479569.59308  20502009.260    85150782.45106
  19884874.760   105997582.51507  19884879.120    82442583.27006
  23244923.840   124213807.50905  23244935.720    96610767.36904
  22835463.440   122197184.70907  22835464.800    95042263.24906
  21428546.040   114628269.26809  21428549.800    89155327.21107
  20073005.680   107339393.53409  20073005.200    83486188.68006
 15 01 14 02 41 30.0000000  0 14G16G18G21G25G27G29G31R08R13R14R15R17
                                R23R24
  22370022.400   117555278.32908  22370017.580    91601514.91944
  22948413.440   120594772.45608  22948409.700    93969940.11545
  20971652.600   110206790.29708  20971648.100    85875389.87447
  24115747.300   126729110.35006  24115747.600    98749953.93945
  23618740.760   124117329.38208  23618737.520    96714804.33945
  23028043.260   121013170.53708  23028040.840    94295963.79946
  22289372.460   117131434.40509  22289368.860    91271235.15046
  22768562.660   121924615.87908  22768561.960    94830260.20404
  20519650.680   109573777.44908  20519651.560    85224055.24106
  19878699.200   105964663.23006  19878703.380    82416979.37806
  23223303.420   124098275.14906  23223316.140    96520908.81103
  22822209.660   122126260.63207  22822211.300    94987100.08506
  21441666.100   114698451.70409  21441669.800    89209913.55908
  20072695.640   107337736.25808  20072694.880    83484899.69206
 15 01 14 02 42  0.0000000  0 14G16G18G21G25G27G29G31R08R13R14R15R17
                                R23R24
  22354601.580   117474242.26108  22354596.760    91538369.95044
  22935159.080   120525122.18708  22935156.060    93915667.18645
  20975485.300   110226930.23908  20975480.700    85891083.33747
  24133964.300   126824842.62907  24133964.440    98824550.48143
  23605605.360   124048303.67908  23605602.020    96661018.07544
  23041072.280   121081638.62007  23041069.860    94349315.53645
  22304465.420   117210748.65209  22304461.740    91333038.42946
  22758870.160   121872712.72707  22758869.880    94789891.05205
  20537401.580   109668564.57008  20537402.460    85297778.56307
  19872676.380   105932558.42906  19872680.440    82392008.99006
  23201744.960   123983072.72506  23201757.940    96431306.80703
  22808997.140   122055557.37807  22808999.020    94932108.66306
  21454800.680   114768711.00509  21454804.260    89264559.67308
  20072441.100   107336376.35908  20072440.020    83483841.99705
 15 01 14 02 42 30.0000000  0 15G16G18G21G22G25G27G29G31R08R13R14R15
                                R17R23R24
  22339213.860   117393379.80908  22339209.140    91475360.26544
  22921943.720   120455676.21608  22921941.240    93861553.45745
  20979391.200   110247455.37008  20979386.680    85907076.94547
  24555545.460   129040262.89907                                
  24152215.920   126920756.08407  24152215.860    98899288.25844
  23592485.560   123979360.19108  23592482.360    96607295.89145
  23054108.580   121150146.41607  23054106.340    94402698.20345
  22319614.520   117290357.72909  22319610.860    91395071.46346
  22749283.400   121821377.23208  22749284.060    94749963.51605
  20555259.040   109763921.37408  20555259.920    85371944.95606
  19866805.680   105901264.24406  19866809.580    82367669.06606
  23180248.300   123868199.91306  23180260.240    96341961.31203
  22795824.640   121985068.44707  22795826.920    94877283.95406
  21467948.240   114839039.54509  21467951.680    89319259.63208
  20072240.800   107335306.19508  20072239.260    83483009.64105
 15 01 14 02 43  0.0000000  0 15G16G18G21G22G25G27G29G31R08R13R14R15
                                R17R23R24
  22323863.820   117312715.33008  22323859.540    91412504.83745
  22908772.220   120386459.28508  22908769.900    93807618.19445
  20983374.240   110268386.68307  20983370.000    85923387.05647
  24537823.280   128947131.86507  24537832.140   100478300.23541
  24170506.040   127016871.71507  24170506.000    98974183.59044
  23579385.660   123910521.12908  23579383.060    96553655.07844
  23067156.320   121218715.82407  23067154.260    94456128.86544
  22334823.440   117370281.18709  22334819.840    91457349.46946
  22739807.560   121770635.51908  22739808.620    94710497.74604
  20573226.180   109859866.23907  20573227.440    85446568.71106
  19861091.720   105870804.94706  19861095.440    82343978.50006
  23158818.200   123753681.83506  23158827.880    96252891.64302
  22782696.480   121914816.43607  22782698.860    94822643.48806
  21481112.660   114909458.83808  21481116.140    89374030.16508
  20072098.840   107334547.35708  20072096.920    83482419.43805
 15 01 14 02 43 30.0000000  0 15G16G18G21G22G25G27G29G31R08R13R14R15
                                R17R23R24
  22308546.600   117232222.92108  22308542.960    91349783.51145
  22895639.640   120317446.70908  22895637.280    93753842.19045
  20987428.900   110289694.56707  20987424.920    85939990.59547
  24520083.060   128853906.92407  24520092.560   100405657.55142
  24188829.200   127113160.33707  24188829.460    99049213.66644
  23566300.440   123841758.49908  23566298.420    96500073.81645
  23080210.140   121287318.89606  23080208.280    94509585.76644
  22350086.420   117450488.46509  22350082.800    91519848.60946
  22730437.860   121720462.23008  22730438.700    94671474.07604
  20591297.180   109956367.23907  20591298.880    85521625.00207
  19855529.400   105841154.31306  19855533.000    82320916.90206
  23137449.680   123639493.70007                                
  22769607.180   121844772.84107  22769609.680    94768165.15106
  21494288.340   114979938.77808  21494291.860    89428847.85108
  20072009.520   107334069.73608  20072007.480    83482047.95105
 15 01 14 02 44  0.0000000  0 16G16G18G21G22G25G27G29G31R01R08R13R14
                                R15R17R23R24
  22293262.700   117151905.09608  22293259.460    91287198.23745
  22882546.520   120248641.13508  22882543.840    93700227.46445
  20991555.240   110311378.60707  20991551.340    85956887.25647
  24502325.480   128760590.61307  24502335.240   100332943.68641
  24207185.080   127209620.76707  24207185.740    99124377.62144
  23553229.980   123773072.49408  23553228.580    96446552.25045
  23093270.620   121355955.90207  23093269.040    94563069.12344
  22365402.900   117530976.55609  22365399.000    91582566.59946
  23635012.640   126342685.17706  23635015.320    98266547.59004
  22721175.160   121670861.13808  22721175.820    94632895.47205
  20609471.580   110053420.62107  20609473.760    85597110.93306
  19850118.980   105812313.79106  19850122.560    82298485.37906
  23116143.960   123525641.13106                                
  22756556.800   121774937.18306  22756558.960    94713848.51906
  21507475.120   115050478.54108  21507478.720    89483712.07208
  20071972.500   107333872.10008  20071970.540    83481894.22905
 15 01 14 02 44 30.0000000  0 16G16G18G21G22G25G27G29G31R01R08R13R14
                                R15R17R23R24
  22278014.180   117071772.55208  22278011.080    91224757.32145
  22869494.900   120180053.63608  22869491.980    93646782.65644
  20995754.600   110333445.71708  20995750.660    85974082.40947
  24484552.620   128667194.33407  24484561.880   100260167.51041
  24225575.180   127306260.38308  24225576.160    99199681.21644
  23540175.760   123704471.55608  23540174.880    96393096.99446
  23106339.540   121424635.25607  23106337.640    94616585.49044
  22380774.020   117611751.60909  22380769.600    91645508.18246
  23615044.520   126235942.62706  23615047.160    98183525.60803
  22712021.800   121621844.32308  22712021.800    94594771.31605
  20627750.700   110151031.36708  20627752.940    85673030.38606
  19844862.420   105784294.39506  19844866.020    82276692.50405
  23094903.320   123412137.15005  23094897.580    95987204.86003
  22743546.640   121705318.08206  22743548.500    94659700.29706
  21520674.440   115121085.40909  21520678.020    89538628.49208
  20071989.280   107333961.75308  20071987.400    83481963.94505
 15 01 14 02 45  0.0000000  0 16G16G18G21G22G25G27G29G31R01R08R13R14
                                R15R17R23R24
  22262800.400   116991822.18308  22262797.180    91162458.36945
  22856484.140   120111681.60708  22856480.880    93593505.76544
  21000025.540   110355889.12208  21000021.500    85991570.79147
  24466764.160   128573715.38307  24466770.840   100187326.93043
  24243998.180   127403072.70908  24243999.080    99275119.40244
  23527136.720   123635950.47608  23527136.280    96339703.97546
  23119415.940   121493351.68907  23119413.480    94670130.75944
  22396198.140   117692805.54409  22396193.140    91708667.09645
  23595085.180   126129246.46806  23595087.260    98100539.61202
  22702977.080   121573409.47608  22702975.960    94557099.79304
  20646132.700   110249190.27008  20646134.680    85749376.18606
  19839759.180   105757092.61106  19839762.620    82255535.55905
  23073727.280   123298979.74806  23073722.480    95899193.55103
  22730575.760   121635909.88806  22730577.940    94605716.24606
  21533884.980   115191752.36309  21533888.420    89593591.66008
  20072058.520   107334331.83908  20072056.740    83482251.79005
 15 01 14 02 45 30.0000000  0 16G16G18G21G22G25G27G29G31R01R08R13R14
                                R15R17R23R24
  22247622.000   116912057.55709  22247618.420    91100304.12945
  22843515.100   120043528.91008  22843511.340    93540399.77644
  21004368.060   110378709.01907  21004363.980    86009352.53947
  24448960.640   128480157.18307  24448963.200   100114424.63943
  24262454.100   127500057.86408  24262454.660    99350692.25544
  23514113.040   123567510.53608  23514113.040    96286374.16646
  23132499.860   121562106.25807  23132497.140    94723705.71744
  22411675.020   117774136.72209  22411669.440    91772042.03445
  23575135.060   126022602.07906  23575137.500    98017593.92802
  22694042.000   121525561.28108  22694040.040    94519884.50705
  20664617.040   110347895.05108  20664618.740    85826146.55306
  19834809.620   105730711.47405  19834813.180    82235016.88705
  23052617.040   123186175.10206  23052614.980    95811456.59004
  22717644.480   121566713.79007  22717646.540    94551897.01206
  21547106.800   115262479.77309  21547110.000    89648601.85907
  20072180.240   107334982.25408  20072178.700    83482757.65606
 15 01 14 02 46  0.0000000  0 16G16G18G21G22G25G27G29G31R01R08R13R14
                                R15R17R23R24
  22232480.260   116832485.69709  22232476.240    91038300.09945
  22830589.300   119975602.96008  22830584.720    93487470.43344
  21008782.860   110401909.25507  21008778.760    86027430.65047
  24431143.580   128386527.34307  24431142.100   100041466.41142
  24280943.500   127597219.32108  24280943.920    99426402.48744
  23501105.720   123499156.61908  23501106.020    96233111.39446
  23145592.040   121630903.73008  23145588.320    94777314.13043
  22427205.000   117855747.33109  22427199.080    91835634.72045
  23555196.080   125916019.05706  23555199.540    97934696.04903
  22685217.940   121478308.16008  22685216.200    94483132.11505
  20683203.700   110447146.47108  20683205.240    85903342.09406
  19830014.640   105705156.91904  19830019.040    82215141.10705
  23031574.480   123073732.26406  23031575.440    95724001.02804
  22704753.720   121497734.32107  22704755.520    94498246.32706
  21560340.540   115333271.21909  21560343.300    89703661.87107
  20072355.060   107335916.53108  20072353.800    83483484.32006
 15 01 14 02 46 30.0000000  0 16G16G18G21G22G25G27G29G31R01R08R13R14
                                R15R17R23R24
  22217375.080   116753106.35308  22217370.700    90976446.09945
  22817706.660   119907904.55108  22817701.540    93434718.43043
  21013269.240   110425485.89807  21013265.020    86045802.04647
  24413312.780   128292825.98007  24413308.480    99968452.42542
  24299465.760   127694553.57408  24299465.780    99502247.34843
  23488114.260   123430886.39008  23488114.780    96179913.84646
  23158691.980   121699741.64908  23158687.480    94830954.03943
  22442787.180   117937632.42609  22442781.180    91899441.28045
  23535269.120   125809499.33707  23535273.380    97851847.32803
  22676504.900   121431650.91208  22676503.340    94446843.19004
  20701891.680   110546938.79008  20701893.260    85980958.32306
  19825374.580   105680428.68405  19825380.040    82195908.01305
  23010600.060   122961652.70206  23010604.100    95636828.00604
  22691903.300   121428968.90006  22691905.020    94444762.10906
  21573585.560   115404123.31909  21573587.780    89758769.06307
  20072582.240   107337130.99108  20072581.360    83484428.90306
 15 01 14 02 47  0.0000000  0 16G16G18G21G22G25G27G29G31R01R08R13R14
                                R15R17R23R24
  22202307.360   116673924.51408  22202302.900    90914746.00245
  22804868.200   119840439.22608  22804862.820    93382148.04744
  21017827.360   110449440.03907  21017823.160    86064467.60947
  24395469.300   128199058.38007  24395463.600    99895386.88843
  24318021.220   127792062.37107  24318020.560    99578228.30443
  23475139.220   123362702.84708  23475139.980    96126783.80246
  23171800.140   121768622.94108  23171794.520    94884627.78142
  22458421.660   118019792.04209  22458415.920    91963461.74746
  23515355.660   125703050.84207  23515360.400    97769054.02103
  22667904.020   121385595.65207  22667903.240    94411022.45105
  20720680.600   110647270.56208  20720682.440    86058994.12306
  19820890.660   105656531.54705  19820897.000    82177321.35105
  22989695.400   122849944.43506  22989701.720    95549943.71404
  22679093.540   121360420.28908  22679094.900    94391446.54106
  21586842.260   115475037.76209  21586843.960    89813924.74807
  20072862.100   107338627.37808  20072861.540    83485592.74806
 15 01 14 02 47 30.0000000  0 16G16G18G21G22G25G27G29G31R01R08R13R14
                                R15R17R23R24
  22187277.820   116594943.83508  22187273.460    90853202.67145
  22792074.780   119773210.55808  22792069.460    93329762.04344
  21022457.180   110473771.29407  21022453.060    86083427.02147
  24377613.880   128105228.29807  24377607.300    99822272.61043
  24336609.500   127889745.02506  24336607.760    99654344.75843
  23462180.740   123294606.52008  23462181.740    96073721.75246
  23184916.460   121837547.98608  23184909.320    94938335.59241
  22474108.100   118102223.95709  22474102.760    92027694.39446
  23495456.380   125596678.23506  23495461.460    97686319.75004
  22659416.240   121340146.42807  22659416.580    94375673.15706
  20739569.980   110748138.86608  20739572.140    86137447.22406
  19816563.720   105633467.59705  19816570.300    82159382.68305
  22968861.200   122738612.02307  22968868.620    95463351.73004
  22666324.540   121292088.81408  22666325.800    94338299.85006
  21600110.440   115546013.92309  21600111.940    89869128.45607
  20073194.440   107340404.42108  20073193.940    83486974.89706
 15 01 14 02 48  0.0000000  0 16G16G18G21G22G25G27G29G31R01R08R13R14
                                R15R17R23R24
  22172286.640   116516165.14608  22172282.520    90791816.71645
  22779326.640   119706219.86808  22779321.820    93277561.51444
  21027158.460   110498477.89907  21027154.360    86102678.92647
  24359746.800   128011336.85507  24359739.860    99749110.48543
  24355230.160   127987599.14307  24355228.480    99730594.66544
  23449238.680   123226596.49508  23449239.680    96020726.94946
  23198040.960   121906515.83908  23198031.720    94992076.75741
  22489845.700   118184924.51809  22489840.680    92092136.39446
  23475571.780   125490384.74005  23475577.420    97603647.11904
  22651042.260   121295305.22108  22651043.380    94340796.75706
  20758559.040   110849539.02208  20758561.340    86216313.98606
  19812393.660   105611237.09006  19812400.060    82142092.27205
  22948097.740   122627657.49107                                
  22653595.780   121223972.85207  22653597.060    94285320.77406
  21613389.560   115617048.98109  21613391.280    89924377.93707
  20073578.840   107342460.04808  20073578.240    83488573.70306
 15 01 14 02 48 30.0000000  0 16G16G18G21G22G25G27G29G31R01R08R13R14
                                R15R17R23R24
  22157333.780   116437587.84908  22157329.780    90730587.69745
  22766623.820   119639466.79508  22766619.640    93225546.12045
  21031930.320   110523555.32007  21031926.140    86122219.77647
  24341867.980   127917383.88407  24341860.400    99675900.43941
  24373882.800   128085620.73907  24373881.760    99806975.12344
  23436312.480   123158669.90908  23436313.800    95967797.15946
  23211173.060   121975524.10508  23211159.360    95045849.39641
  22505633.280   118267887.88409  22505628.560    92156783.16046
  23455702.740   125384172.30207  23455708.500    97521037.48904
  22642782.040   121251072.38908  22642783.640    94306393.46106
  20777646.480   110951463.54608  20777648.440    86295588.61406
  19808380.040   105589838.70806  19808385.800    82125449.07605
  22927405.480   122517083.05306                                
  22640906.460   121156069.60708  22640908.140    94232507.19407
  21626679.100   115688139.67608  21626681.180    89979670.68107
  20074014.480   107344789.93908  20074013.740    83490385.84706
