     2.11           OBSERVATION DATA    G                   RINEX VERSION / TYPE
SPIDER V4,0,0,3554                      2015 03 18 00:41    PGM / RUN BY / DATE 
CKTS                                                        MARKER NAME         
CKTS                                                        MARKER NUMBER       
                                                            OBSERVER / AGENCY   
496659              LEICA GRX1200+GNSS  8.10/4.007          REC # / TYPE / VERS 
10321004            LEIAR25         NONE                    ANT # / TYPE        
  5190783.6897   517202.7561  3658836.0979                  APPROX POSITION XYZ 
        0.0720        0.0000        0.0000                  ANTENNA: DELTA H/E/N
     1     1                                                WAVELENGTH FACT L1/2
     4    C1    L1    P2    L2                              # / TYPES OF OBSERV 
    30.000                                                  INTERVAL            
  2015    02    17    00    00    0.0000000     GPS         TIME OF FIRST OBS   
  2015    02    17    23    59   30.0000000     GPS         TIME OF LAST OBS    
    16                                                      LEAP SECONDS        
    30                                                      # OF SATELLITES     
   G 1   802   802   802   802                              PRN / # OF OBS      
   G 2   758   758   757   757                              PRN / # OF OBS      
   G 3   852   851   851   851                              PRN / # OF OBS      
   G 4   841   841   841   841                              PRN / # OF OBS      
   G 5   485   485   485   485                              PRN / # OF OBS      
   G 6   632   632   632   632                              PRN / # OF OBS      
   G 7   665   665   665   665                              PRN / # OF OBS      
   G 9   806   806   806   806                              PRN / # OF OBS      
   G10   651   651   650   650                              PRN / # OF OBS      
   G11   780   779   780   779                              PRN / # OF OBS      
   G12   772   772   772   772                              PRN / # OF OBS      
   G13   790   790   790   790                              PRN / # OF OBS      
   G14   769   769   769   769                              PRN / # OF OBS      
   G15   574   574   574   574                              PRN / # OF OBS      
   G16   546   545   545   545                              PRN / # OF OBS      
   G17   773   773   772   772                              PRN / # OF OBS      
   G18   726   726   726   726                              PRN / # OF OBS      
   G19   662   662   662   662                              PRN / # OF OBS      
   G20   800   800   800   800                              PRN / # OF OBS      
   G21   733   733   732   732                              PRN / # OF OBS      
   G22   650   650   650   650                              PRN / # OF OBS      
   G23   750   750   750   750                              PRN / # OF OBS      
   G24   830   830   830   830                              PRN / # OF OBS      
   G25   840   839   839   839                              PRN / # OF OBS      
   G27   814   814   814   814                              PRN / # OF OBS      
   G28   605   605   603   603                              PRN / # OF OBS      
   G29   738   737   737   737                              PRN / # OF OBS      
   G30   709   709   709   709                              PRN / # OF OBS      
   G31   692   692   692   692                              PRN / # OF OBS      
   G32   766   766   766   766                              PRN / # OF OBS      
BIT 2 OF LLI FLAGS DATA COLLECTED UNDER A/S CONDITION       COMMENT             
SNR is mapped to RINEX snr flag value [2-9]                 COMMENT             
Lx:     = 25dBHz -> 1; 26-27dBHz -> 2; 28-31dBHz -> 3       COMMENT             
       32-35dBHz -> 4; 36-38dBHz -> 5; 39-41dBHz -> 6       COMMENT             
       42-44dBHz -> 7; 45-48dBHz -> 8; >=49dBHz -> 9        COMMENT             
                                                            END OF HEADER       
 15 02 17 00 00  0.0000000  0  6G18G21G25G27G29G31
  23683801.860   124459265.58508  23683799.900    96981266.37945
  20907210.180   109868134.32908  20907206.280    85611519.93948
  23352350.980   122717427.09408  23352351.760    95623965.91346
  24149013.700   126903928.82908  24149014.300    98886187.25446
  22628344.960   118912751.17709  22628343.120    92659273.30747
  21641768.980   113728257.10809  21641765.740    88619405.16348
 15 02 17 00 00 30.0000000  0  6G18G21G25G27G29G31
  23669207.740   124382572.36808  23669205.880    96921505.48545
  20907794.920   109871206.84908  20907790.940    85613914.11948
  23368729.280   122803496.22408  23368730.180    95691032.74746
  24135030.660   126830447.52109  24135031.060    98828929.09446
  22641505.360   118981909.10209  22641503.380    92713162.56847
  21653754.220   113791239.62509  21653750.800    88668482.42948
 15 02 17 00 01  0.0000000  0  6G18G21G25G27G29G31
  23654627.560   124305952.54508  23654625.740    96861801.80745
  20908463.340   109874719.42508  20908459.380    85616651.20148
  23385151.840   122889797.15708  23385152.600    95758280.20346
  24121066.320   126757064.09608  24121066.560    98771747.22946
  22654675.580   119051118.04009  22654673.660    92767091.59447
  21665819.680   113854643.73009  21665816.120    88717888.20948
 15 02 17 00 01 30.0000000  0  6G18G21G25G27G29G31
  23640062.180   124229410.78308  23640060.420    96802158.95445
  20909215.660   109878672.80409  20909211.740    85619731.76248
  23401618.820   122976330.61508  23401619.080    95825708.86346
  24107120.700   126683780.03607  24107121.000    98714642.81346
  22667855.560   119120379.21509  22667853.500    92821061.30947
  21677965.100   113918468.69509  21677961.640    88767621.94148
 15 02 17 00 02  0.0000000  0  6G18G21G25G27G29G31
  23625511.980   124152948.98408  23625510.260    96742578.40144
  20910051.400   109883064.59208  20910047.540    85623153.92948
  23418129.600   123063094.46108  23418129.600    95893317.02846
  24093193.580   126610594.10808  24093194.360    98657614.88946
  22681045.140   119189690.62109  22681043.160    92875070.15847
  21690189.860   113982710.70209  21690186.600    88817680.60948
 15 02 17 00 02 30.0000000  0  6G18G21G25G27G29G31
  23610976.940   124076567.19908  23610975.020    96683060.18445
  20910970.220   109887892.93408  20910966.320    85626916.28848
  23434683.480   123150085.70408  23434683.560    95961102.36946
  24079284.920   126537504.25008  24079285.740    98600661.81046
  22694244.060   119259050.07609  22694241.680    92929116.46848
  21702493.280   114047365.41109  21702490.080    88868060.88248
 15 02 17 00 03  0.0000000  0  6G18G21G25G27G29G31
  23596458.040   124000270.67908  23596455.920    96623608.40944
  20911972.160   109893158.35908  20911968.260    85631019.22248
  23451280.920   123237305.96608  23451281.100    96029066.17546
  24065395.000   126464512.82708  24065396.020    98543785.45946
  22707452.280   119328459.26509  22707449.680    92983201.52247
  21714875.360   114112433.31809  21714872.180    88918763.11848
 15 02 17 00 03 30.0000000  0  6G18G21G25G27G29G31
  23581955.680   123924061.05908  23581953.400    96564224.33345
  20913056.980   109898859.36508  20913053.060    85635461.57348
  23467921.640   123324753.00108  23467922.000    96097206.70946
  24051523.680   126391618.60608  24051524.920    98486984.84947
  22720669.260   119397916.72709  22720666.560    93037324.18047
  21727335.340   114177910.62109  21727332.140    88969784.36748
 15 02 17 00 04  0.0000000  0  6G18G21G25G27G29G31
  23567470.320   123847940.53808  23567468.080    96504909.71145
  20914224.480   109904994.78008  20914220.540    85640242.42248
  23484605.240   123412425.36208  23484605.640    96165522.82046
  24037670.800   126318820.98608  24037672.000    98430259.53346
  22733895.480   119467421.36109  22733892.540    93091483.66647
  21739872.580   114243794.11709  21739869.300    89021122.14448
 15 02 17 00 04 30.0000000  0  6G18G21G25G27G29G31
  23553002.680   123771912.80308  23553000.660    96445667.36545
  20915474.660   109911564.65108  20915470.700    85645361.81048
  23501331.560   123500323.32308  23501332.060    96234014.70646
  24023836.300   126246121.02808  24023837.340    98373610.26645
  22747131.020   119536973.79409  22747127.880    93145680.33047
  21752486.980   114310082.85309  21752483.680    89072775.66948
 15 02 17 00 05  0.0000000  0  6G18G21G25G27G29G31
  23538553.580   123695982.61908  23538551.760    96386501.04545
  20916807.800   109918570.05509  20916803.780    85650820.57548
  23518101.020   123588448.11108  23518101.780    96302683.35746
  24010020.640   126173520.90808  24010021.280    98317038.76345
  22760375.860   119606575.85908  22760372.760    93199915.67247
  21765178.440   114376776.43709  21765175.180    89124744.68348
 15 02 17 00 05 30.0000000  0  6G18G21G25G27G29G31
  23524122.180   123620145.39708  23524120.420    96327407.18045
  20918222.280   109926002.82408  20918218.160    85656612.34548
  23534912.120   123676791.36608  23534912.980    96371522.22046
  23996222.740   126101013.24208  23996223.440    98260539.35546
  22773628.880   119676219.88209  22773626.120    93254183.70247
  21777944.980   114443865.05709  21777941.800    89177021.49848
 15 02 17 00 06  0.0000000  0  6G18G21G25G27G29G31
  23509709.460   123544406.22408  23509707.640    96268389.68345
  20919718.360   109933864.59908  20919714.120    85662738.41448
  23551765.180   123765354.44008  23551765.880    96440532.39546
  23982443.020   126028600.22308  23982443.780    98204113.69746
  22786890.220   119745907.57008  22786887.280    93308485.75747
  21790786.640   114511348.62509  21790783.520    89229606.06348
 15 02 17 00 06 30.0000000  0  6G18G21G25G27G29G31
  23495317.300   123468774.63908  23495315.080    96209456.04245
  20921297.080   109942160.71308  20921292.840    85669202.92648
  23568661.220   123854143.28208  23568661.920    96509718.46346
  23968682.640   125956288.79808  23968683.580    98147767.21646
  22800160.740   119815645.70008  22800157.720    93362827.17047
  21803704.380   114579231.76209  21803701.300    89282501.98848
 15 02 17 00 07  0.0000000  0  6G18G21G25G27G29G31
  23480944.540   123393245.03908  23480942.080    96150601.84945
  20922956.660   109950882.07808  20922952.500    85675998.79948
  23585598.340   123943148.40108  23585598.920    96579073.06146
  23954940.040   125884070.31508  23954940.780    98091493.11846
  22813439.220   119885424.87008  22813436.820    93417200.51647
  21816696.080   114647503.46209  21816693.060    89335700.69048
 15 02 17 00 07 30.0000000  0  6G18G21G25G27G29G31
  23466592.660   123317825.37208  23466590.160    96091833.32845
  20924698.120   109960033.85608  20924694.120    85683130.06748
  23602577.560   124032374.51808  23602578.140    96648599.89346
  23941216.080   125811950.45808  23941216.560    98035295.87846
  22826726.780   119955250.68309  22826724.320    93471610.20847
  21829762.300   114716166.77809  21829759.200    89389204.55248
 15 02 17 00 08  0.0000000  0  6G18G21G25G27G29G31
  23452262.340   123242519.40208  23452259.880    96033153.40645
  20926521.500   109969615.47009  20926517.440    85690596.25948
  23619598.740   124121821.39908  23619599.340    96718298.73046
  23927510.940   125739929.97108  23927511.380    97979176.04946
  22840022.960   120025123.36908  22840021.120    93526056.41847
  21842902.760   114785219.98509  21842899.440    89443012.22848
 15 02 17 00 08 30.0000000  0  6G18G21G25G27G29G31
  23437953.240   123167325.19208  23437950.920    95974560.56345
  20928425.580   109979621.23608  20928421.480    85698392.96948
  23636660.900   124211483.30608  23636661.520    96788165.13746
  23913823.820   125668004.03508  23913824.240    97923129.90646
  22853327.200   120095037.90909  22853325.740    93580535.23947
  21856116.140   114854655.91209  21856112.700    89497118.12048
 15 02 17 00 09  0.0000000  0  6G18G21G25G27G29G31
  23423665.840   123092244.98108  23423663.580    95916056.55944
  20930410.000   109990049.71708  20930405.960    85706519.05648
  23653763.740   124301358.90308  23653764.440    96858198.02346
  23900154.800   125596172.25108  23900155.220    97867157.15947
  22866639.140   120164993.42409  22866637.780    93635046.01247
  21869401.720   114924471.62009  21869398.340    89551519.94248
 15 02 17 00 09 30.0000000  0  6G18G21G25G27G29G31
  23409401.280   123017284.57008  23409399.000    95857645.88545
  20932475.180   110000902.85808  20932471.260    85714976.06148
  23670907.520   124391450.15408  23670908.240    96928398.96046
  23886504.280   125524437.60308  23886504.860    97811260.06247
  22879959.480   120234992.81409  22879958.140    93689590.96647
  21882759.560   114994667.67209  21882756.340    89606218.13148
 15 02 17 00 10  0.0000000  0  6G18G21G25G27G29G31
  23395159.700   122942444.90908  23395157.280    95799329.31345
  20934620.760   110012178.23309  20934616.880    85723762.06348
  23688091.760   124481754.31808  23688092.560    96998765.81046
  23872871.840   125452798.25108  23872872.540    97755437.25747
  22893287.800   120305033.24308  22893286.160    93744167.93847
  21896188.940   115065239.93409  21896185.880    89661209.47048
 15 02 17 00 10 30.0000000  0  6G18G21G25G27G29G31
  23380942.580   122867733.59108  23380940.040    95741112.74745
  20936847.460   110023879.54708  20936843.500    85732879.98948
  23705317.320   124572275.13608  23705318.240    97069301.49746
  23859258.260   125381258.91508  23859259.080    97699692.37947
  22906624.940   120375120.02409  22906623.520    93798780.94347
  21909690.280   115136190.48009  21909687.320    89716495.59748
 15 02 17 00 11  0.0000000  0  6G18G21G25G27G29G31
  23366749.420   122793148.32608  23366746.940    95682994.41245
  20939154.000   110036000.68608  20939150.080    85742325.02848
  23722583.060   124663006.76808  23722583.900    97140001.43746
  23845662.680   125309814.78408  23845663.620    97644021.69646
  22919969.660   120445247.46409  22919967.960    93853425.67646
  21923262.180   115207512.19209  21923259.320    89772070.92848
 15 02 17 00 11 30.0000000  0  6G18G21G25G27G29G31
  23352579.980   122718687.72108  23352577.680    95624973.19445
  20941539.580   110048536.77008  20941535.640    85752093.41548
  23739888.040   124753944.26608  23739888.820    97210861.78646
  23832084.760   125238461.94208  23832085.260    97588422.12346
  22933321.780   120515412.02509  22933319.760    93908099.35647
  21936903.420   115279198.30909  21936900.640    89827930.21648
 15 02 17 00 12  0.0000000  0  6G18G21G25G27G29G31
  23338436.400   122644362.80408  23338434.160    95567057.72145
  20944005.540   110061495.30908  20944001.580    85762190.97648
  23757233.540   124845095.01608  23757234.020    97281888.30646
  23818525.640   125167208.63708  23818525.940    97532900.08246
  22946682.360   120585621.12209  22946680.360    93962807.76047
  21950615.180   115351254.72009  21950612.480    89884078.03748
 15 02 17 00 12 30.0000000  0  6G18G21G25G27G29G31
  23324318.700   122570173.28008  23324316.340    95509247.72745
  20946550.860   110074870.97409  20946546.840    85772613.58348
  23774618.460   124936454.16808  23774618.920    97353077.23145
  23804984.840   125096051.14008  23804985.060    97477452.73546
  22960050.460   120655870.81509  22960048.680    94017547.72947
  21964396.260   115423675.08309  21964393.700    89940509.45748
 15 02 17 00 13  0.0000000  0  6G18G21G25G27G29G31
  23310227.380   122496122.28908  23310224.820    95451545.70245
  20949175.600   110088663.98908  20949171.500    85783361.39148
  23792043.000   125028021.60508  23792043.460    97424428.41946
  23791462.260   125024990.30608  23791462.860    97422080.72946
  22973426.340   120726161.42008  22973424.920    94072319.59247
  21978246.420   115496457.82909  21978243.880    89997223.25048
 15 02 17 00 13 30.0000000  0  6G18G21G25G27G29G31
  23296163.060   122422213.42408  23296160.340    95393954.41045
  20951879.760   110102874.43008  20951875.620    85794434.47648
  23809507.360   125119797.19208  23809507.960    97495941.84746
  23777958.140   124954027.03808  23777958.820    97366784.70045
  22986810.120   120796494.09809  22986808.600    94127124.22947
  21992165.320   115569601.24909  21992162.680    90054218.09848
 15 02 17 00 14  0.0000000  0  6G18G21G25G27G29G31
  23282124.720   122348441.70108  23282121.980    95336469.98845
  20954661.580   110117493.23508  20954657.540    85805825.75248
  23827009.680   125211771.90308  23827010.420    97567610.43246
  23764471.280   124883153.32608  23764472.100    97311558.47646
  23000200.780   120866860.24209  23000198.760    94181954.99547
  22006150.840   115643094.89609  22006148.040    90111485.86148
 15 02 17 00 14 30.0000000  0  6G18G21G25G27G29G31
  23268114.360   122274817.45408  23268111.540    95279100.49046
  20957522.240   110132526.39909  20957518.320    85817539.89448
  23844550.980   125303952.19608  23844552.020    97639439.20146
  23751002.980   124812376.64508  23751003.480    97256407.87345
  23013599.100   120937267.16008  23013596.580    94236817.50447
  22020203.860   115716943.57809  22020200.960    90169030.25648
 15 02 17 00 15  0.0000000  0  6G18G21G25G27G29G31
  23254132.980   122201345.12608  23254130.200    95221849.36745
  20960461.940   110147974.92408  20960458.080    85829577.70548
  23862131.520   125396339.15908  23862132.740    97711429.00046
  23737553.500   124741699.23008  23737553.360    97201334.59345
  23027005.220   121007716.84809  23027002.760    94291713.29147
  22034324.300   115791146.95409  22034321.440    90226851.04448
 15 02 17 00 15 30.0000000  0  6G18G21G25G27G29G31
  23240179.760   122128020.03208  23240176.960    95164712.95446
  20963479.200   110163830.70308  20963475.360    85841932.87848
  23879749.900   125488924.36808  23879750.980    97783573.28646
  23724121.340   124671113.53308  23724120.940    97146332.78246
  23040417.940   121078201.44108  23040415.280    94346636.34046
  22048510.280   115865694.83209  22048507.520    90284940.26948
 15 02 17 00 16  0.0000000  0  6G18G21G25G27G29G31
  23226256.080   122054849.99309  23226253.200    95107697.36045
  20966574.560   110180097.05008  20966570.740    85854607.95248
  23897406.800   125581711.32608  23897407.580    97855874.78545
  23710707.620   124600624.27908  23710707.460    97091406.14446
  23053837.900   121148725.49608  23053834.720    94401590.15347
  22062762.300   115940589.37709  22062759.540    90343299.61348
 15 02 17 00 16 30.0000000  0  7G16G18G21G25G27G29G31
  22558269.200                                                  
  23212362.240   121981837.45008  23212359.400    95050804.50245
  20969747.820   110196772.81208  20969744.060    85867602.05548
  23915101.880   125674698.81108  23915102.680    97928332.52846
  23697312.120   124530231.20308  23697312.600    97036554.47046
  23067265.280   121219288.49408  23067262.760    94456574.24247
  22077079.800   116015827.92209  22077076.960    90401927.02648
 15 02 17 00 17  0.0000000  0  7G16G18G21G25G27G29G31
  22542496.260   118461609.64805  22542491.400    92307739.11944
  23198498.460   121908983.82708  23198495.860    94994035.49445
  20972998.560   110213855.53008  20972994.760    85880913.27748
  23932834.460   125767884.61507  23932835.580    98000944.81146
  23683934.680   124459933.23208  23683935.620    96981776.87746
  23080700.260   121289888.99409  23080698.240    94511587.65847
  22091462.040   116091406.44909  22091459.120    90460819.36248
 15 02 17 00 17 30.0000000  0  7G16G18G21G25G27G29G31
  22526752.520   118378875.65706  22526748.780    92243271.06644
  23184665.420   121836291.72808  23184663.020    94937392.32846
  20976326.360   110231343.56808  20976322.600    85894540.32048
  23950604.480   125861267.31808  23950605.860    98073710.50846
  23670575.440   124389729.97108  23670576.000    96927073.06246
  23094141.820   121360526.80808  23094140.320    94566630.02647
  22105908.440   116167322.28409  22105905.500    90519974.51748
 15 02 17 00 18  0.0000000  0  7G16G18G21G25G27G29G31
  22511037.660   118296293.15607  22511033.920    92178921.07144
  23170863.740   121763763.75908  23170861.280    94880877.06146
  20979731.140   110249235.90208  20979727.380    85908482.39048
  23968411.820   125954845.74208  23968413.020    98146628.71346
  23657234.280   124319621.39408  23657234.720    96872443.02147
  23107590.440   121431201.33608  23107589.320    94621701.10747
  22120418.440   116243572.40709  22120415.400    90579390.15948
 15 02 17 00 18 30.0000000  0  7G16G18G21G25G27G29G31
  22495351.900   118213863.69108  22495348.220    92114690.32845
  23157093.740   121691402.21308  23157091.180    94824491.46346
  20983212.540   110267531.07708  20983208.840    85922738.37948
  23986256.260   126048618.35008  23986257.240    98219698.24146
  23643911.000   124249607.05108  23643911.660    96817886.41646
  23121046.480   121501912.09708  23121044.760    94676800.34946
  22134991.560   116320153.98409  22134988.280    90639064.09848
 15 02 17 00 19  0.0000000  0  7G16G18G21G25G27G29G31
  22479695.700   118131589.55008  22479692.000    92050580.60545
  23143356.000   121619210.15108  23143353.340    94768237.92345
  20986770.360   110286227.85708  20986766.700    85937307.30548
  24004137.480   126142584.29408  24004138.160    98292918.43945
  23630605.860   124179687.17508  23630606.480    96763403.43747
  23134508.900   121572658.78208  23134507.740    94731927.54547
  22149627.280   116397064.66709  22149623.860    90698994.47048
 15 02 17 00 19 30.0000000  0  7G16G18G21G25G27G29G31
  22464069.200   118049471.59609  22464065.520    91986592.61046
  23129650.740   121547188.83108  23129648.100    94712117.44946
  20990404.220   110305323.87008  20990400.580    85952187.32348
  24022055.000   126236741.10308  24022055.740    98366287.32145
  23617318.460   124109860.47608  23617318.960    96708993.06147
  23147978.200   121643440.23708  23147976.880    94787081.91446
  22164324.760   116474300.13609  22164321.240    90759177.92048
 15 02 17 00 20  0.0000000  0  7G16G18G21G25G27G29G31
  22448472.960   117967512.87009  22448469.340    91922728.67847
  23115978.760   121475342.17508  23115976.140    94656133.07446
  20994113.960   110324818.89608  20994110.360    85967378.24448
  24040008.800   126331088.68808  24040009.740    98439804.87545
  23604048.900   124040127.90808  23604049.420    96654656.03447
  23161454.740   121714257.31809  23161452.900    94842264.10647
  22179083.680   116551858.91509  22179080.160    90819613.30848
 15 02 17 00 20 30.0000000  0  7G16G18G21G25G27G29G31
  22432908.020   117885718.71609  22432904.480    91858992.99047
  23102341.200   121403676.07708  23102338.620    94600289.38846
  20997900.040   110344715.04108  20997896.520    85982881.74048
  24057999.340   126425629.30908  24058000.120    98513472.84245
  23590797.720   123970492.91008  23590798.200    96600395.02747
  23174938.360   121785113.24208  23174937.240    94897476.41047
  22193904.260   116629741.80409  22193900.800    90880301.23248
 15 02 17 00 21  0.0000000  0  7G16G18G21G25G27G29G31
  22417374.300   117804088.80009  22417370.880    91795385.27348
  23088738.040   121332190.80009  23088735.440    94544586.60946
  21001761.740   110365008.47708  21001758.260    85998694.80348
  24076025.880   126520359.09008  24076026.580    98587288.23446
  23577564.360   123900952.64708  23577564.620    96546207.86746
  23188428.780   121856004.84208  23188427.460    94952716.60847
  22208785.500   116707943.41109  22208782.160    90941237.51948
 15 02 17 00 21 30.0000000  0  7G16G18G21G25G27G29G31
  22401872.120   117722624.42109  22401868.740    91731906.55948
  23075169.600   121260888.31908  23075166.920    94489026.25346
  21005698.760   110385697.61708  21005695.220    86014816.20948
  24094088.020   126615276.47308  24094088.840    98661249.78245
  23564349.060   123831506.78608  23564349.320    96492094.24446
  23201925.940   121926931.45408  23201923.460    95007984.08347
  22223726.780   116786460.39909  22223723.580    91002419.54048
 15 02 17 00 22  0.0000000  0  7G16G18G21G25G27G29G31
  22386401.340   117641325.33608  22386398.040    91668556.67147
  23061635.920   121189768.86508  23061633.240    94433608.52246
  21009710.320   110406778.40208  21009706.720    86031242.80148
  24112185.180   126710377.58908  24112186.160    98735354.51645
  23551151.520   123762152.65408  23551151.780    96438052.07547
  23215428.960   121997890.42208  23215426.380    95063276.75246
  22238727.160   116865287.43709  22238724.000    91063843.17748
 15 02 17 00 22 30.0000000  0  7G16G18G21G25G27G29G31
  22370963.220   117560197.79909  22370959.900    91605340.43946
  23048138.480   121118839.75508  23048135.860    94378339.11546
  21013796.960   110428254.02208  21013793.340    86047977.04548
  24130318.040   126805665.71708  24130319.080    98809604.96345
  23537972.180   123692894.56608  23537972.620    96384084.79547
  23228938.760   122068885.99808  23228936.500    95118597.97247
  22253786.940   116944426.33509  22253783.680    91125509.82448
 15 02 17 00 23  0.0000000  0  7G16G18G21G25G27G29G31
  22355557.680   117479241.29509  22355554.260    91542257.41647
  23034677.220   121048100.63708  23034674.600    94323217.75646
  21017958.020   110450120.14808  21017954.320    86065015.60248
  24148485.800   126901136.83708  24148486.840    98883997.99245
  23524810.600   123623729.73108  23524811.000    96330190.20047
  23242454.900   122139915.31509  23242453.540    95173945.40447
  22268904.860   117023871.38309  22268901.540    91187415.03048
 15 02 17 00 23 30.0000000  0  7G16G18G21G25G27G29G31
  22340185.580   117398460.56909  22340182.040    91479311.40647
  23021253.180   120977556.92008  23021250.600    94268248.66246
  21022193.740   110472378.37608  21022189.980    86082359.69048
  24166688.640   126996792.30908  24166689.480    98958534.70746
  23511667.040   123554660.70308  23511667.620    96276370.25847
  23255978.220   122210980.54408  23255976.680    95229320.93246
  22284080.980   117103622.65809  22284077.680    91249558.86648
 15 02 17 00 24  0.0000000  0  7G16G18G21G25G27G29G31
  22324846.640   117317853.37509  22324843.040    91416500.63547
  23007865.960   120907206.42608  23007863.440    94213430.13446
  21026502.820   110495022.64208  21026499.080    86100004.54648
  24184925.320   127092626.29608  24184925.960    99033210.49345
  23498541.020   123485682.79208  23498541.240    96222621.23546
  23269507.300   122282076.98608  23269505.480    95284720.73446
  22299313.820   117183672.51009  22299310.720    91311935.33348
 15 02 17 00 24 30.0000000  0  7G16G18G21G25G27G29G31
  22309541.620   117237424.51309  22309538.060    91353828.79047
  22994516.780   120837055.52809  22994514.080    94158767.13846
  21030885.660   110518055.17408  21030882.040    86117951.99348
  24203196.200   127188641.16008  24203196.980    99108027.21445
  23485433.000   123416799.52708  23485433.100    96168946.03946
  23283043.120   122353207.92409  23283041.580    95340147.38246
  22314603.560   117264021.76109  22314600.780    91374545.10048
 15 02 17 00 25  0.0000000  0  7G16G18G21G25G27G29G31
  22294270.780   117157176.24808  22294267.460    91291297.68947
  22981206.080   120767106.71009  22981203.020    94104261.58645
  21035342.040   110541474.08908  21035338.500    86136200.49548
  24221501.220   127284835.37208  24221502.140    99182983.69645
  23472342.700   123348010.64508  23472342.580    96115344.36246
  23296585.820   122424372.98309  23296583.960    95395600.69146
  22329949.800   117344667.57709  22329947.280    91437385.96348
 15 02 17 00 25 30.0000000  0  8G16G18G21G22G25G27G29G31
  22279034.980   117077112.30409  22279031.780    91228910.25647
  22967934.640   120697364.28308  22967931.360    94049916.86446
  21039872.100   110565279.84408  21039868.600    86154750.42648
  24545001.720   128984854.31508  24544999.200   100507677.52644
  24239840.560   127381209.42007  24239841.640    99258080.33045
  23459270.620   123279317.78808  23459270.740    96061817.51047
  23310134.920   122495573.80608  23310133.220    95451081.81847
  22345352.380   117425608.71809  22345349.900    91500456.94948
 15 02 17 00 26  0.0000000  0  8G16G18G21G22G25G27G29G31
  22263834.640   116997233.72109  22263831.320    91166667.20047
  22954702.640   120627829.63508  22954699.440    93995734.04446
  21044475.460   110589470.34108  21044471.920    86173600.16448
  24527318.120   128891927.04808  24527315.720   100435266.90244
  24258213.780   127477760.67508  24258214.580    99333315.05045
  23446216.780   123210719.61108  23446217.360    96008364.42247
  23323690.340   122566808.65208  23323688.700    95506589.50547
  22360810.440   117506841.11709  22360807.880    91563754.90448
 15 02 17 00 26 30.0000000  0  8G16G18G21G22G25G27G29G31
  22248667.420   116917528.78509  22248664.020    91104559.48647
  22941507.900   120558491.30008  22941504.960    93941704.20346
  21049149.040   110614029.73608  21049145.420    86192737.35748
  24509616.420   128798904.84608  24509614.220   100362782.30745
  24276617.660   127574474.18507  24276618.540    99408676.19045
  23433178.540   123142202.30708  23433179.060    95954974.34946
  23337249.680   122638063.80108  23337248.680    95562112.92247
  22376320.740   117588348.13009  22376318.200    91627266.83247
 15 02 17 00 27  0.0000000  0  8G16G18G21G22G25G27G29G31
  22233538.060   116838022.58409  22233534.360    91042606.61447
  22928355.340   120489375.03208  22928352.560    93887847.39246
  21053896.920   110638979.71408  21053893.160    86212178.91248
  24491901.500   128705813.20908  24491899.480   100290243.60445
  24295056.480   127671371.58707  24295057.680    99484180.58945
  23420159.860   123073788.72408  23420159.740    95901665.10346
  23350817.400   122709361.74109  23350815.700    95617669.76346
  22391887.060   117670149.88809  22391884.640    91691008.42948
 15 02 17 00 27 30.0000000  0  8G16G18G21G22G25G27G29G31
  22218445.300   116758710.21809  22218441.600    90980804.79147
  22915244.420   120420476.92709  22915241.640    93834160.58546
  21058717.520   110664312.00408  21058713.620    86231918.34548
  24474172.380   128612647.52108  24474170.560   100217647.18745
  24313528.700   127768444.58607  24313530.120    99559821.83645
  23407159.460   123005471.86008  23407159.100    95848431.21546
  23364391.300   122780695.79208  23364389.580    95673254.70347
  22407507.600   117752236.63009  22407505.340    91754972.09148
 15 02 17 00 28  0.0000000  0  8G16G18G21G22G25G27G29G31
  22203388.720   116679587.03209  22203385.100    90919150.38747
  22902174.140   120351791.87608  22902171.300    93780639.79146
  21063609.220   110690018.03008  21063605.380    86251949.01848
  24456428.320   128519402.96708  24456426.420   100144989.32145
  24332032.820   127865684.67408  24332034.360    99635593.26545
  23394176.160   122937244.46508  23394176.080    95795267.07947
  23377971.140   122852058.39309  23377969.660    95728861.85947
  22423180.540   117834598.23009  22423178.220    91819149.91248
 15 02 17 00 28 30.0000000  0  8G16G18G21G22G25G27G29G31
  22188368.180   116600653.44909  22188364.480    90857643.72047
  22889144.700   120283321.59408  22889141.720    93727286.34546
  21068571.500   110716095.01308  21068567.720    86272268.75848
  24438669.580   128426081.17608  24438667.640   100072271.23045
  24350568.500   127963089.61808  24350569.920    99711493.18945
  23381209.820   122869105.55508  23381209.840    95742171.87647
  23391556.760   122923447.99008  23391554.520    95784490.14746
  22438905.120   117917230.86209  22438902.620    91883538.95348
 15 02 17 00 29  0.0000000  0  8G16G18G21G22G25G27G29G31
  22173385.960   116521921.25209  22173382.200    90796293.96447
  22876158.420   120215078.39709  22876155.480    93674109.84946
  21073605.980   110742551.38208  21073602.200    86292884.11048
  24420898.400   128332693.94808  24420896.500    99999502.19745
  24369137.280   128060667.65508  24369138.280    99787527.98445
  23368262.280   122801064.59108  23368262.000    95689152.95346
  23405148.840   122994874.58208  23405146.420    95840147.20346
  22454682.580   118000141.38009  22454679.920    91948144.50748
 15 02 17 00 29 30.0000000  0  8G16G18G21G22G25G27G29G31
  22158441.700   116443389.38209  22158437.700    90735100.31147
  22863215.200   120147061.28809  22863212.320    93621109.52446
  21078711.780   110769382.57608  21078707.980    86313791.53448
  24403114.700   128239240.54708  24403112.780    99926681.54345
  24387737.920   128158413.98407  24387738.760    99863693.90945
  23355332.460   122733118.02008  23355331.980    95636207.60646
  23418747.260   123066334.44809  23418745.200    95895830.14047
  22470511.680   118083323.47109  22470509.020    92012961.69148
 15 02 17 00 30  0.0000000  0  8G16G18G21G22G25G27G29G31
  22143535.880   116365059.68309  22143532.220    90674064.22548
  22850315.500   120079272.71609  22850312.640    93568287.28946
  21083888.460   110796586.43608  21083884.620    86334989.36048
  24385318.680   128145722.81608  24385316.760    99853810.79945
  24406370.140   128256326.86608  24406370.820    99939989.58845
  23342420.220   122665265.33308  23342419.520    95583335.43146
  23432351.800   123137827.03008  23432350.140    95951538.65247
  22486391.800   118166773.65709  22486389.140    92077987.77048
 15 02 17 00 30 30.0000000  0  8G16G18G21G22G25G27G29G31
  22128668.880   116286933.51209  22128665.400    90613186.69447
  22837459.560   120011714.48409  22837456.800    93515644.54146
  21089135.720   110824161.03909  21089131.840    86356476.03748
  24367510.860   128052142.75208  24367508.920    99780891.46645
  24425033.660   128354404.47808  24425034.400   100016413.67145
  23329526.020   122597506.16508  23329525.220    95530536.11046
  23445962.060   123209351.48909  23445961.040    96007272.01946
  22502322.280   118250488.72709  22502319.640    92143220.24647
 15 02 17 00 31  0.0000000  0  8G16G18G21G22G25G27G29G31
  22113841.060   116209013.72809  22113837.740    90552470.04847
  22824647.940   119944389.88908  22824645.360    93463183.84746
  21094453.360   110852105.35009  21094449.460    86378250.83448
  24349691.820   127958503.53508  24349689.860    99707926.01845
  24443728.440   128452646.10808  24443729.100   100092965.50844
  23316649.680   122529840.99108  23316649.360    95477810.03347
  23459578.820   123280908.59508  23459577.980    96063030.73347
  22518302.680   118334466.36109  22518300.040    92208657.32748
 15 02 17 00 31 30.0000000  0  8G16G18G21G22G25G27G29G31
  22099051.840   116131295.27709  22099048.260    90491910.13647
  22811879.820   119877293.81909  22811877.340    93410901.21746
  21099839.540   110880410.44008  21099835.760    86400306.75748
  24331860.620   127864800.32308  24331858.660    99634910.72245
  24462452.780   128551043.07907  24462453.760   100169638.43145
  23303789.860   122462262.48308  23303789.820    95425151.49247
  23473200.700   123352490.50508  23473199.920    96118808.78547
  22534331.160   118418696.46909  22534328.580    92274291.14248
 15 02 17 00 32  0.0000000  0  8G16G18G21G22G25G27G29G31
  22084303.220   116053791.41709  22084299.760    90431517.57647
  22799158.100   119810440.80609  22799155.480    93358807.97246
  21105296.200   110909086.13108  21105292.560    86422651.46348
  24314019.840   127771046.47808  24314017.640    99561855.94446
  24481208.560   128649605.16807  24481209.800   100246440.00445
  23290948.620   122394781.60008  23290948.800    95372569.06247
  23486829.440   123424108.50908  23486828.520    96174615.00146
  22550409.180   118503187.12109  22550406.640    92340127.97947
 15 02 17 00 32 30.0000000  0  8G16G18G21G22G25G27G29G31
  22069594.900   115976498.96809  22069591.460    90371289.70847
  22786482.100   119743827.95808  22786479.480    93306901.87846
  21110822.180   110938125.46208  21110818.540    86445279.50148
  24296168.860   127677239.78308  24296166.620    99488760.03345
  24499994.520   128748325.74407  24499995.540   100323365.09445
  23278124.820   122327393.12708  23278125.200    95320058.64047
  23500463.860   123495757.14408  23500462.480    96230445.11946
  22566535.260   118587930.31909  22566532.720    92406161.59447
 15 02 17 00 33  0.0000000  0  8G16G18G21G22G25G27G29G31
  22054927.000   115899419.43009  22054923.880    90311227.74848
  22773852.020   119677456.83909  22773849.500    93255184.14546
  21116417.060   110967526.39508  21116413.320    86468189.32748
  24278308.140   127583381.95108  24278305.820    99415624.23445
  24518810.220   128847202.84907  24518811.260   100400412.12745
  23265318.820   122260096.44909  23265318.980    95267619.68247
  23514103.700   123567435.38709  23514102.020    96286298.25846
  22582708.660   118672922.33809  22582706.140    92472389.10847
 15 02 17 00 33 30.0000000  0  8G16G18G21G22G25G27G29G31
  22040299.800   115822553.57109  22040296.780    90251332.28247
  22761268.020   119611327.89808  22761265.560    93203655.11746
  21122080.240   110997286.21808  21122076.440    86491378.77948
  24260437.820   127489473.73208  24260435.400    99342449.18545
  24537655.140   128946233.52507  24537656.420   100477578.81844
  23252530.020   122192889.92708  23252530.080    95215251.02547
  23527749.420   123639141.93009  23527747.400    96342173.43446
  22598928.620   118758158.81409  22598926.220    92538807.10848
 15 02 17 00 34  0.0000000  0  8G16G18G21G22G25G27G29G31
  22025715.020   115745910.11909  22025712.040    90191610.15147
  22748732.060   119545451.40908  22748729.520    93152322.83546
  21127812.540   111027409.58108  21127808.740    86514851.55648
  24242559.680   127395524.06308  24242557.060    99269241.81945
  24556530.320   129045422.71408  24556531.640   100554869.03145
  23239759.160   122125779.84208  23239759.700    95162957.49547
  23541401.640   123710883.35108  23541399.040    96398075.86046
  22615195.820   118843643.26409  22615193.500    92605418.33148
 15 02 17 00 34 30.0000000  0  8G16G18G21G22G25G27G29G31
  22011172.380   115669487.88109  22011169.240    90132060.33447
  22736243.920   119479826.22709  22736241.280    93101186.33146
  21133613.120   111057891.99508  21133609.320    86538604.07548
  24224673.620   127301532.43008  24224670.820    99196001.72045
  24575434.760   129144766.10908  24575436.120   100632279.39545
  23227006.220   122058763.11808  23227007.020    95110736.74547
  23555059.220   123782656.04008  23555056.880    96454002.54446
  22631509.180   118929369.89009  22631506.880    92672218.25748
 15 02 17 00 35  0.0000000  0  8G16G18G21G22G25G27G29G31
  21996671.620   115593285.38909  21996668.440    90072681.75747
  22723803.420   119414451.21609  22723800.760    93050244.80946
  21139481.060   111088728.09908  21139477.180    86562632.19748
  24206779.280   127207497.74808  24206776.520    99122728.09845
  24594367.520   129244258.45207  24594369.340   100709805.83345
  23214270.560   121991836.07708  23214271.220    95058585.82447
  23568722.500   123854456.17509  23568720.480    96509950.69246
  22647867.360   119015331.98909  22647864.940    92739201.69047
 15 02 17 00 35 30.0000000  0  8G16G18G21G22G25G27G29G31
  21982213.920   115517309.68409  21982210.680    90013479.93348
  22711411.980   119349333.52009  22711409.360    92999503.76846
  21145416.860   111119920.74408  21145413.020    86586938.18348
  24188878.120   127113427.42408  24188875.360    99049426.68445
  24613329.400   129343903.38107  24613330.740   100787451.22044
  23201552.940   121925003.57109  23201552.880    95006508.57247
  23582391.580   123926288.50608  23582389.000    96565923.92046
  22664270.620   119101531.38709  22664268.000    92806370.02547
 15 02 17 00 36  0.0000000  0  8G16G18G21G22G25G27G29G31
  21967800.060   115441563.65209  21967796.780    89954457.04348
  22699070.280   119284476.75509  22699067.620    92948966.03546
  21151420.420   111151469.37909  21151416.620    86611521.51648
  24170970.600   127019324.36108  24170967.980    98976099.81045
  24632320.100   129443700.06807  24632321.660   100865214.75545
  23188853.180   121858266.04008  23188852.900    94954505.34947
  23596066.700   123998153.74308  23596064.400    96621922.77146
  22680718.440   119187965.91309  22680715.860    92873721.56347
 15 02 17 00 36 30.0000000  0  8G16G18G21G22G25G27G29G31
  21953428.800   115366041.62509  21953425.320    89895608.71047
  22686777.200   119219875.44209  22686774.320    92898627.36446
  21157489.960   111183364.98209  21157486.160    86636375.24348
  24153055.920   126925183.22208  24153053.540    98902743.25345
  24651338.060   129543639.03407  24651339.040   100943089.29144
  23176170.020   121791615.62908  23176169.660    94902570.03047
  23609747.020   124070043.78408  23609745.060    96677940.99446
  22697208.900   119274624.61709  22697206.420    92941247.79947
 15 02 17 00 37  0.0000000  0  8G16G18G21G22G25G27G29G31
  21939102.120   115290754.47909  21939098.780    89836943.44047
  22674534.700   119155540.36909  22674531.620    92848496.16546
  21163626.700   111215613.96009  21163622.860    86661504.30748
  24135136.200   126831015.37008  24135133.940    98829365.87745
  24670384.560   129643727.56208  24670385.520   101021080.25745
  23163505.140   121725060.88309  23163504.880    94850709.20347
  23623433.580   124141967.11608  23623431.580    96733985.09345
  22713743.220   119361513.24909  22713740.840    93008953.19447
 15 02 17 00 37 30.0000000  0  8G16G18G21G22G25G27G29G31
  21924819.180   115215697.12009  21924815.740    89778457.19147
  22662341.880   119091466.99309  22662338.920    92798568.88346
  21169829.000   111248207.64509  21169825.140    86686901.99048
  24117210.660   126736816.24508  24117208.280    98755964.10145
  24689457.800   129743957.12908  24689458.180   101099181.15144
  23150857.060   121658594.62408  23150856.760    94798917.36247
  23637125.300   124213916.58208  23637122.780    96790049.60745
  22730319.520   119448621.67409  22730317.080    93076829.85247
 15 02 17 00 38  0.0000000  0  8G16G18G21G22G25G27G29G31
  21910582.100   115140880.37609  21910578.300    89720158.40347
  22650200.880   119027666.40109  22650198.140    92748854.16146
  21176098.340   111281153.11809  21176094.420    86712573.77248
  24099281.280   126642596.73308  24099278.820    98682546.44046
  24708559.360   129844334.71208  24708559.780   101177397.38445
  23138227.160   121592225.35008  23138226.960    94747201.10447
  23650823.300   124285900.48308  23650821.100    96846140.95546
  22746938.780   119535955.53409  22746936.200    93144882.20247
 15 02 17 00 38 30.0000000  0  8G16G18G21G22G25G27G29G31
  21896390.260   115066302.32109  21896386.600    89662045.66547
  22638111.620   118964137.21809  22638108.960    92699350.92846
  21182433.560   111314444.93709  21182429.600    86738515.47048
  24081347.660   126548355.52008  24081345.220    98609111.91146
  24727687.780   129944854.95408  24727688.100   101255724.75645
  23125615.260   121525949.07109  23125615.120    94695557.27347
  23664527.020   124357915.08709  23664525.280    96902256.14146
  22763599.660   119623507.84309  22763596.860    93213104.75047
 15 02 17 00 39  0.0000000  0  8G16G18G21G22G25G27G29G31
  21882243.620   114991961.38609  21882240.140    89604117.69747
  22626073.840   118900878.21809  22626071.140    92650058.21746
  21188833.660   111348077.62609  21188829.680    86764722.74448
  24063409.620   126454091.13508  24063406.980    98535659.29145
  24746842.220   130045512.69107  24746842.980   101334159.25145
  23113020.340   121459761.96709  23113020.080    94643982.96647
  23678236.520   124429956.30808  23678234.140    96958392.17646
  22780300.800   119711272.13009  22780297.920    93281492.47547
 15 02 17 00 39 30.0000000  0  8G16G18G21G22G25G27G29G31
  21868143.420   114917864.57409  21868140.320    89546379.96847
  22614088.820   118837896.62309  22614086.060    92600981.67846
  21195299.200   111382054.22108  21195295.220    86791198.03348
  24045468.640   126359811.26408  24045465.900    98462194.60446
  24766023.440   130146311.06908  24766024.300   101412703.38544
  23100443.160   121393668.69808  23100442.700    94592481.80547
  23691951.640   124502028.97208  23691949.140    97014552.69146
  22797042.480   119799249.93409  22797039.640    93350046.57847
 15 02 17 00 40  0.0000000  0  8G16G18G21G22G25G27G29G31
  21854090.620   114844015.96609  21854087.340    89488835.57348
  22602157.420   118775196.51909  22602154.560    92552124.48346
  21201830.160   111416374.81508  21201826.200    86817941.36848
  24027525.460   126265519.70508  24027522.680    98388720.82646
  24785231.420   130247250.36807  24785232.860   101491357.27145
  23087884.040   121327670.92308  23087883.360    94541055.00247
  23705672.780   124574134.41208  23705670.680    97070738.67746
  22813824.480   119887439.77409  22813821.720    93418765.88947
 15 02 17 00 40 30.0000000  0  8G16G18G21G22G25G27G29G31
  21840084.180   114770410.85709  21840080.900    89431480.95348
  22590278.820   118712773.39309  22590275.880    92503483.08646
  21208425.020   111451031.11509  21208421.180    86844946.25448
  24009579.400   126171212.70508  24009576.460    98315234.96446
  24804464.760   130348322.41507  24804465.700   101570114.66745
  23075341.960   121261762.02608  23075341.360    94489697.42947
  23719398.980   124646265.86209  23719396.380    97126944.99746
  22830645.000   119975832.42909  22830642.400    93487643.25147
 15 02 17 00 41  0.0000000  0  7G16G18G21G22G27G29G31
  21826124.500   114697051.83109  21826121.020    89374318.08848
  22578453.360   118650630.27309  22578450.480    92455059.89646
  21215083.540   111486021.77608  21215079.760    86872211.70448
  23991630.980   126076893.25508  23991628.060    98241739.44745
  23062816.880   121195942.38108  23062816.540    94438409.44747
  23733130.360   124718424.20508  23733127.740    97183172.26746
  22847503.620   120064425.15109  22847501.060    93556676.49047
 15 02 17 00 41 30.0000000  0  7G16G18G21G22G27G29G31
  21812213.980   114623950.76909  21812210.280    89317356.21447
  22566683.180   118588778.51109  22566680.480    92406863.74146
  21221807.260   111521354.99808  21221803.520    86899744.11848
  23973682.500   125982573.38008  23973679.440    98168243.60445
  23050310.240   121130221.28408  23050310.240    94387198.29647
  23746868.600   124790618.38108  23746866.520    97239427.45946
  22864401.580   120153224.34909  22864398.900    93625870.61747
 15 02 17 00 42  0.0000000  0  7G16G18G21G22G27G29G31
  21798351.740   114551103.95109  21798347.840    89260592.48248
  22554967.900   118527215.34509  22554965.360    92358892.47546
  21228594.720   111557023.14409  21228590.960    86927537.41948
  23955733.200   125888249.68408  23955730.020    98094744.75745
  23037821.520   121064592.90408  23037821.020    94336059.30547
  23760612.120   124862842.55808  23760610.200    97295705.95346
  22881337.220   120242221.47309  22881334.440    93695218.98847
 15 02 17 00 42 30.0000000  0  7G16G18G21G22G27G29G31
  21784537.920   114478511.99009  21784533.960    89204027.34648
  22543307.920   118465941.86809  22543305.380    92311146.92346
  21235445.160   111593022.49108  21235441.380    86955588.89548
  23937783.220   125793922.87708  23937780.180    98021243.50345
  23025350.240   120999055.65409  23025349.480    94284991.34347
  23774360.920   124935094.77708  23774358.980    97352006.39745
  22898309.580   120331411.43209  22898306.640    93764717.61947
 15 02 17 00 43  0.0000000  0  7G16G18G21G22G27G29G31
  21770772.500   114406174.43009  21770768.660    89147660.42648
  22531702.920   118404957.18909  22531700.380    92263626.40646
  21242357.860   111629348.89108  21242354.020    86983895.20348
  23919832.740   125699593.38508  23919829.580    97947740.13246
  23012895.920   120933606.83609  23012895.300    94233992.32547
  23788115.100   125007373.19408  23788112.800    97408327.26246
  22915317.720   120420789.32009  22915314.620    93834362.69447
 15 02 17 00 43 30.0000000  0  7G16G18G21G22G27G29G31
  21757056.660   114334097.95509  21757053.020    89091496.97947
  22520154.320   118344268.88909  22520151.740    92216336.84446
  21249333.480   111666005.79508  21249329.540    87012459.01448
  23901883.120   125605267.88908  23901879.860    97874239.90145
  23000459.260   120868250.95508  23000458.920    94183065.74347
  23801875.000   125079681.54408  23801872.800    97464671.40846
  22932361.760   120510356.13909  22932358.560    93904154.98847
 15 02 17 00 44  0.0000000  0  7G16G18G21G22G27G29G31
  21743391.200   114262286.38009  21743387.760    89035539.94648
  22508662.720   118283880.16809  22508660.240    92169280.72746
  21256371.760   111702992.50108  21256367.840    87041279.81648
  23883935.080   125510950.75508  23883931.740    97800746.18146
  22988040.520   120802989.49008  22988039.860    94132212.64447
  23815640.860   125152021.49308  23815639.100    97521040.14446
  22949441.460   120600110.38209  22949438.280    93974093.30747
 15 02 17 00 44 30.0000000  0  7G16G18G21G22G27G29G31
  21729777.020   114190743.47809  21729773.760    88979792.23448
  22497228.900   118223794.87509  22497226.400    92122461.03746
  21263472.760   111740308.97208  21263468.900    87070357.58048
  23865989.380   125416645.93808  23865986.040    97727262.05646
  22975639.640   120737823.77308  22975638.820    94081434.19947
  23829412.880   125224394.35108  23829411.340    97577434.54846
  22966556.560   120690051.03109  22966553.600    94044176.89147
 15 02 17 00 45  0.0000000  0  7G16G18G21G22G27G29G31
  21716213.260   114119465.27309  21716209.760    88924250.78248
  22485852.180   118164009.61409  22485849.560    92075875.14147
  21270635.060   111777947.26009  21270631.280    87099686.13248
  23848045.260   125322350.05708  23848042.020    97653784.91445
  22963255.700   120672747.78108  22963255.160    94030725.70847
  23843190.060   125296793.96008  23843187.980    97633849.81445
  22983705.380   120780168.75409  22983702.600    94114398.42847
 15 02 17 00 45 30.0000000  0  7G16G18G21G22G27G29G31
  21702700.560   114048456.10709  21702697.160    88868918.97648
  22474533.460   118104529.17109  22474530.720    92029526.75246
  21277858.760   111815908.09908  21277854.980    87129266.01948
  23830103.740   125228067.71308  23830100.480    97580318.28745
  22950889.640   120607763.81109  22950889.280    93980088.86847
  23856972.680   125369222.69208  23856970.480    97690287.79745
  23000887.800   120870462.75509  23000885.100    94184757.33747
 15 02 17 00 46  0.0000000  0  7G16G18G21G22G27G29G31
  21689239.720   113977719.08009  21689236.360    88813799.21248
  22463273.200   118045356.41809  22463270.500    91983418.13246
  21285143.700   111854190.47309  21285139.940    87159096.41748
  23812165.560   125133802.65508  23812162.180    97506865.13546
  22938541.280   120542872.54608  22938541.180    93929524.31047
  23870760.920   125441681.17308  23870759.060    97746748.91346
  23018103.380   120960930.79209  23018100.640    94255251.87647
 15 02 17 00 46 30.0000000  0  7G16G18G21G22G27G29G31
  21675831.200   113907256.54909  21675827.680    88758893.31848
  22452071.900   117986493.88509  22452069.260    91937551.25647
  21292489.580   111892792.66608  21292485.700    87189176.10148
  23794231.160   125039557.30408  23794227.480    97433427.31246
  22926210.420   120478074.01008  22926210.460    93879031.99147
  23884554.980   125514169.45308  23884553.540    97803233.23546
  23035351.500   121051569.85109  23035348.680    94325879.68247
 15 02 17 00 47  0.0000000  0  7G16G18G21G22G27G29G31
  21662474.800   113837068.62909  21662471.520    88704201.46948
  22440929.760   117927941.52609  22440926.960    91891926.05547
  21299895.660   111931711.23808  21299891.600    87219502.21048
  23776300.680   124945332.46408  23776297.000    97360005.50546
  22913896.700   120413366.31408  22913896.680    93828610.45347
  23898354.520   125586685.60108  23898353.300    97859739.32646
  23052631.220   121142375.16909  23052628.460    94396637.02147
 15 02 17 00 47 30.0000000  0  7G16G18G21G22G27G29G31
  21649171.360   113767159.28409  21649168.240    88649726.73148
  22429847.460   117869703.41509  22429844.540    91846545.72046
  21307361.760   111970945.70308  21307357.740    87250074.52348
  23758374.800   124851131.96408  23758371.160    97286602.65846
  22901600.600   120348750.89008  22901601.000    93778260.82848
  23912159.760   125659230.94508  23912158.060    97916268.15646
  23069942.240   121233345.26209  23069939.580    94467522.74447
 15 02 17 00 48  0.0000000  0  7G16G18G21G22G27G29G31
  21635922.360   113697535.10409  21635919.120    88595474.05548
  22418826.240   117811786.42909  22418823.320    91801415.61746
  21314888.420   112010498.93308  21314884.560    87280895.23448
  23740454.840   124756962.55608  23740451.300    97213224.03846
  22889322.860   120284232.14708  22889323.580    93727986.54547
  23925970.940   125731810.20508  23925969.300    97972823.38846
  23087284.920   121324481.54509  23087282.240    94538537.98047
 15 02 17 00 48 30.0000000  0  7G16G18G21G22G27G29G31
  21622726.400   113628189.09609  21622722.700    88541438.17048
  22407864.800   117754183.63909  22407861.940    91756530.35746
  21322473.720   112050360.15608  21322469.960    87311955.93348
  23722539.720   124662818.52208  23722536.180    97139865.19246
  22877062.120   120219801.04508  22877062.500    93677780.55547
  23939787.000   125804414.06408  23939785.760    98029397.76746
  23104656.920   121415771.90509  23104654.260    94609673.29147
 15 02 17 00 49  0.0000000  0  7G16G18G21G22G27G29G31
  21609584.880   113559130.24209  21609581.420    88487626.14448
  22396964.960   117696904.23809  22396962.080    91711897.07246
  21330118.560   112090534.21108  21330114.920    87343260.42948
  23704631.200   124568709.12208  23704627.800    97066533.33246
  22864819.360   120155464.33708  22864819.220    93627648.10447
  23953609.000   125877048.63908  23953607.540    98085996.15146
  23122058.940   121507220.02709  23122056.340    94680931.53347
 15 02 17 00 49 30.0000000  0  7G16G18G21G22G27G29G31
  21596498.140   113490358.43109  21596494.640    88434037.69548
  22386126.500   117639947.75409  22386123.720    91667515.41346
  21337822.180   112131016.94508  21337818.460    87374805.40348
  23686729.260   124474633.95208  23686725.740    96993228.12446
  22852594.080   120091219.30009  22852593.820    93577587.03947
  23967436.400   125949712.00308  23967435.020    98142616.95746
  23139489.880   121598820.25909  23139487.460    94752308.26647
 15 02 17 00 50  0.0000000  0  7G16G18G21G22G27G29G31
  21583466.720   113421877.91409  21583463.200    88380676.26048
  22375350.160   117583318.39109  22375347.480    91623388.66347
  21345584.520   112171808.86008  21345580.880    87406591.28548
  23668834.800   124380598.40308  23668831.300    96919953.80446
  22840386.560   120027068.45508  22840386.340    93527599.40247
  23981269.700   126022406.75908  23981268.760    98199262.20246
  23156949.700   121690572.04809  23156947.520    94823803.12347
 15 02 17 00 50 30.0000000  0  7G16G18G21G22G27G29G31
  21570491.880   113353694.67009  21570488.420    88327546.46748
  22364637.340   117527022.72609  22364634.720    91579521.93747
  21353406.120   112212911.83809  21353402.460    87438619.56548
  23650948.920   124286608.32908  23650945.480    96846714.90346
  22828197.540   119963015.26909  22828197.460    93477687.88247
  23995109.200   126095136.16608  23995108.780    98255934.39846
  23174438.560   121782475.94209  23174436.440    94895416.50247
 15 02 17 00 51  0.0000000  0  7G16G18G21G22G27G29G31
  21557571.980   113285800.38909  21557568.500    88274641.82348
  22353986.640   117471052.79309  22353983.960    91535909.01147
  21361284.680   112254313.89708  21361281.060    87470880.94548
  23633070.300   124192656.24508  23633066.900    96773505.60446
  22816025.300   119899049.57708  22816024.740    93427844.49747
  24008953.720   126167889.72208  24008952.900    98312625.47345
  23191953.860   121874518.71909  23191951.640    94967138.07747
 15 02 17 00 51 30.0000000  0  7G16G18G21G22G27G29G31
  21544708.020   113218199.68109  21544704.420    88221965.92848
  22343398.520   117415411.79209  22343395.840    91492552.39447
  21369220.220   112296015.21609  21369216.600    87503375.44648
  23615199.880   124098746.72508  23615196.360    96700329.45746
  22803869.980   119835173.12309  22803869.660    93378070.68248
  24022803.440   126240669.13408  24022801.920    98369336.76845
  23209495.300   121966699.37709  23209492.960    95038967.09547
 15 02 17 00 52  0.0000000  0  7G16G18G21G22G27G29G31
  21531900.720   113150897.40409  21531897.200    88169522.60948
  22332874.060   117360105.57609  22332871.380    91449456.66246
  21377212.860   112338016.35508  21377209.140    87536103.63948
  23597338.640   124004885.22008  23597334.980    96627190.72546
  22791732.400   119771388.98409  22791732.240    93328368.78148
  24036658.840   126313477.65808  24036657.020    98426070.64446
  23227062.800   122059017.45108  23227060.440    95110903.20847
 15 02 17 00 52 30.0000000  0  7G16G18G21G22G27G29G31
  21519151.540   113083900.28409  21519148.080    88117317.05348
  22322414.660   117305140.79009  22322411.880    91406626.96747
  21385263.160   112380321.02709  21385259.400    87569068.28848
  23579487.860   123911078.85408  23579484.080    96554094.95546
  22779613.260   119707701.52309  22779613.000    93278742.22048
  24050520.420   126386319.74608  24050518.820    98482830.69646
  23244656.800   122151474.56408  23244654.400    95182947.64647
 15 02 17 00 53  0.0000000  0  7G16G18G21G22G27G29G31
  21506461.140   113017211.07809  21506457.640    88065351.45948
  22312020.840   117250519.99809  22312017.820    91364065.33047
  21393370.880   112422927.55908  21393367.160    87602268.24548
  23561648.080   123817330.98408  23561644.360    96481044.77346
  22767512.380   119644111.26309  22767511.920    93229191.43647
  24064388.180   126459196.14208  24064386.900    98539617.46346
  23262276.880   122244068.62009  23262274.480    95255098.80747
 15 02 17 00 53 30.0000000  0  7G16G18G21G22G27G29G31
  21493828.120   112950823.98409  21493824.400    88013621.26348
  22301691.260   117196237.10009  22301688.000    91321766.98047
  21401534.240   112465826.24809  21401530.420    87635695.72748
  23543818.280   123723636.13408  23543814.740    96408035.91446
  22755428.620   119580610.43208  22755428.340    93179710.27348
  24078261.120   126532098.46908  24078259.840    98596424.45546
  23279920.920   122336788.56809  23279918.540    95327348.06647
 15 02 17 00 54  0.0000000  0  7G16G18G21G22G27G29G31
  21481253.760   112884745.01909  21481250.140    87962131.14448
  22291427.080   117142298.58109  22291423.780    91279736.99547
  21409753.580   112509019.13208  21409749.740    87669352.55448
  23525999.880   123630000.58308  23525996.320    96335073.24346
  22743362.420   119517202.79508  22743362.480    93130301.79447
  24092139.780   126605030.69708  24092137.900    98653254.72945
  23297588.960   122429634.82109  23297586.620    95399695.74947
 15 02 17 00 54 30.0000000  0  7G16G18G21G22G27G29G31
  21468738.440   112818976.61009  21468734.740    87910883.05648
  22281228.900   117088706.81209  22281225.640    91237977.20247
  21418028.600   112552504.31609  21418024.680    87703237.09948
  23508193.380   123536427.09608  23508189.640    96262158.91846
  22731313.940   119453888.40208  22731313.700    93080965.93647
  24106024.120   126677992.90208  24106021.660    98710108.40446
  23315280.480   122522604.63908  23315278.320    95472139.72247
 15 02 17 00 55  0.0000000  0  7G16G18G21G22G27G29G31
  21456282.660   112753521.38109  21456279.220    87859879.01848
  22271097.140   117035464.05409  22271094.000    91196489.37047
  21426359.060   112596280.85609  21426354.920    87737348.69548
  23490399.360   123442918.85008  23490395.500    96189295.42546
  22719283.260   119390667.70808  22719282.720    93031703.09747
  24119914.140   126750985.29408  24119911.880    98766985.54846
  23332995.020   122615695.31408  23332992.980    95544677.85547
 15 02 17 00 55 30.0000000  0  7G16G18G21G22G27G29G31
  21443886.660   112688380.30509  21443883.160    87809119.71648
  22261031.880   116982571.10309  22261028.820    91155274.09747
  21434744.240   112640345.45809  21434740.140    87771684.74448
  23472618.020   123349477.35208  23472614.100    96116483.96246
  22707270.240   119327539.54008  22707269.940    92982512.33548
  24133809.760   126824006.79708  24133807.860    98823885.37846
  23350731.820   122708902.84008  23350729.840    95617307.01247
 15 02 17 00 56  0.0000000  0  7G16G18G21G22G27G29G31
  21431551.340   112623557.68509  21431547.860    87758608.58148
  22251033.960   116930032.12509  22251030.980    91114334.63647
  21443184.260   112684698.55909  21443180.360    87806245.59048
  23454850.240   123256107.58408  23454846.360    96043728.37746
  22695275.280   119264506.19308  22695275.380    92933395.47047
  24147711.300   126897059.89108  24147709.780    98880809.83346
  23368490.660   122802226.38708  23368488.700    95690026.56547
 15 02 17 00 56 30.0000000  0  7G16G18G21G22G27G29G31
  21419276.660   112559053.86109  21419273.140    87708345.87448
  22241103.600   116877848.07009  22241100.660    91073671.76547
  21451678.520   112729336.17608  21451674.520    87841028.19148
  23437096.180   123162810.01808  23437092.380    95971029.04446
  22683298.000   119201565.69308  22683298.000    92884350.98447
  24161618.400   126970142.15007  24161616.960    98937757.09146
  23386270.680   122895660.98908  23386268.660    95762832.64346
 15 02 17 00 57  0.0000000  0  7G16G18G21G22G27G29G31
  21407064.300   112494877.25309  21407060.640    87658338.12148
  22231242.260   116826026.45709  22231239.340    91033291.31047
  21460227.740   112774262.94308  21460223.840    87876036.07248
  23419357.640   123069593.34808  23419353.760    95898392.75046
  22671339.800   119138724.07409  22671339.060    92835383.47047
  24175531.620   127043260.02807  24175530.580    98994732.00846
  23404072.440   122989209.65608  23404070.520    95835727.63947
 15 02 17 00 57 30.0000000  0  7G16G18G21G22G27G29G31
  21394912.200   112431017.89909  21394908.580    87608577.61248
  22221448.080   116774557.57109  22221445.040    90993185.69847
  21468829.380   112819465.11309  21468825.460    87911258.49948
  23401632.800   122976448.27808  23401628.800    95825812.24546
  22659398.060   119075969.29908  22659397.560    92786483.68948
  24189449.740   127116401.43008  24189448.180    99051725.27745
  23421893.000   123082857.18608  23421891.220    95908699.66547
 15 02 17 00 58  0.0000000  0  7G16G18G21G22G27G29G31
  21382822.380   112367485.14809  21382818.580    87559071.56448
  22211722.700   116723450.50609  22211719.540    90953362.03247
  21477484.300   112864947.31408  21477480.340    87946699.18148
  23383923.340   122883384.40908  23383919.260    95753295.04146
  22647474.260   119013308.75009  22647474.140    92737657.35848
  24203374.080   127189573.38508  24203371.900    99108742.39146
  23439733.200   123176608.02808  23439731.640    95981752.17747
 15 02 17 00 58 30.0000000  0  7G16G18G21G22G27G29G31
  21370794.440   112304277.87909  21370790.660    87509819.16148
  22202065.840   116672703.63009  22202062.680    90913819.03047
  21486191.580   112910704.80408  21486187.780    87982354.36748
  23366229.140   122790401.16208  23366225.060    95680840.63746
  22635567.780   118950739.02408  22635567.060    92688901.75447
  24217303.740   127262772.37908  24217301.460    99165780.49946
  23457591.780   123270455.70208  23457590.480    96054880.18147
 15 02 17 00 59  0.0000000  0  7G16G18G21G22G27G29G31
  21358831.380   112241411.50009  21358827.800    87460832.40548
  22192480.620   116622333.00109  22192477.560    90874569.19547
  21494953.580   112956749.44609  21494949.920    88018233.31948
  23348553.320   122697514.67608  23348549.260    95608461.63546
  22623680.800   118888273.58908  22623680.060    92640227.40048
  24231240.820   127336012.10008  24231238.680    99222850.36846
  23475470.840   123364410.71208  23475469.560    96128091.77346
 15 02 17 00 59 30.0000000  0  7G16G18G21G22G27G29G31
  21346930.140   112178870.49609  21346926.560    87412099.16948
  22182963.900   116572322.54409  22182960.940    90835600.02847
  21503766.620   113003061.88208  21503762.920    88054320.96248
  23330893.060   122604709.96708  23330888.960    95536146.36346
  22611810.460   118825894.68709  22611810.180    92591620.49148
  24245182.380   127409274.69908  24245179.720    99279938.13445
  23493366.340   123458452.24708  23493365.060    96201370.79746
 15 02 17 01 00  0.0000000  0  7G16G18G21G22G27G29G31
  21335093.260   112116667.64709  21335089.640    87363629.40148
  22173518.080   116522684.76409  22173515.160    90796921.25547
  21512632.080   113049650.20508  21512628.380    88090623.53848
  23313250.920   122511999.78809  23313246.700    95463904.72446
  22599958.580   118763612.64208  22599958.420    92543089.06348
  24259130.120   127482570.31208  24259127.280    99337051.63045
  23511279.760   123552587.52808  23511278.520    96274722.89146
 15 02 17 01 00 30.0000000  0  7G16G18G21G22G27G29G31
  21323320.520   112054801.44209  21323316.780    87315421.97248
  22164142.760   116473417.68709  22164139.880    90758531.34847
  21521548.940   113096509.12509  21521545.440    88127136.96048
  23295626.620   122419382.99909  23295622.200    95391735.84646
  22588124.340   118701423.93009  22588123.860    92494630.37347
  24273083.520   127555895.66408  24273081.220    99394188.20245
  23529209.840   123646809.90408  23529208.600    96348142.84646
 15 02 17 01 01  0.0000000  0  7G16G18G21G22G27G29G31
  21311612.500   111993275.74609  21311608.940    87267479.87448
  22154838.720   116424525.28909  22154835.980    90720433.39147
  21530517.200   113143637.94908  21530513.680    88163860.73148
  23278020.880   122326863.91608  23278016.420    95319643.11646
  22576308.300   118639330.24409  22576307.880    92446245.69748
  24287042.840   127629252.00708  24287040.740    99451348.98145
  23547156.180   123741117.89508  23547154.820    96421629.48446
 15 02 17 01 01 30.0000000  0  7G16G18G21G22G27G29G31
  21299969.860   111932092.79809  21299966.380    87219804.83048
  22145606.420   116376009.79809  22145603.860    90682629.12747
  21539536.700   113191035.75108  21539533.160    88200794.05548
  23260434.200   122234445.49108  23260429.860    95247628.82146
  22564510.640   118577331.86609  22564510.120    92397935.28148
  24301008.100   127702640.32508  24301005.940    99508534.65045
  23565118.300   123835508.82408  23565116.860    96495180.74847
 15 02 17 01 02  0.0000000  0  7G16G18G21G22G27G29G31
  21288393.900   111871260.65709  21288390.260    87172403.17748
  22136447.480   116327878.99109  22136444.880    90645124.62547
  21548608.220   113238706.59308  21548604.700    88237940.17048
  23242868.300   122142136.60208  23242864.080    95175699.88446
  22552732.180   118515434.85809  22552731.240    92349703.88347
  24314979.900   127776066.08207  24314978.320    99565749.53644
  23583096.780   123929985.86409  23583095.280    96568799.11546
 15 02 17 01 02 30.0000000  0  7G16G18G21G22G27G29G31
  21276883.400   111810772.42109  21276879.760    87125269.50948
  22127360.360   116280125.43509  22127357.680    90607914.06247
  21557729.500   113286638.96409  21557726.040    88275290.04948
  23225322.040   122049930.66709  23225317.920    95103851.16146
  22540971.120   118453630.03208  22540970.180    92301544.27448
  24328957.180   127849519.78308  24328955.740    99622986.14545
  23601089.220   124024536.66708  23601087.820    96642474.91146
 15 02 17 01 03  0.0000000  0  7G16G18G21G22G27G29G31
  21265438.300   111750627.92609  21265434.580    87078403.66248
  22118344.920   116232748.85509  22118342.240    90570997.27347
  21566899.880   113334829.05608  21566896.320    88312840.76848
  23207795.420   121957827.79409  23207791.220    95032082.75247
  22529227.060   118391915.05809  22529226.340    92253454.74148
  24342940.160   127922999.43308  24342938.560    99680242.97445
  23619094.720   124119155.80908  23619093.280    96716204.00046
 15 02 17 01 03 30.0000000  0  7G16G18G21G22G27G29G31
  21254059.480   111690832.25109  21254055.900    87031809.64248
  22109402.180   116185754.41209  22109399.540    90534378.23947
  21576119.540   113383278.12308  21576115.840    88350593.28648
  23190289.540   121865833.71908  23190285.140    94960399.09346
  22517500.700   118330293.07509  22517499.840    92205437.65047
  24356928.920   127996507.94408  24356926.880    99737522.36445
  23637113.340   124213843.36608  23637111.900    96789986.38546
 15 02 17 01 04  0.0000000  0  7G16G18G21G22G27G29G31
  21242748.780   111631395.04909  21242745.340    86985494.92348
  22100534.020   116139151.39409  22100531.300    90498064.19147
  21585389.500   113431991.76909  21585385.740    88388551.91748
  23172806.260   121773958.61508  23172801.660    94888808.14646
  22505793.640   118268771.73308  22505792.380    92157498.92047
  24370924.180   128070052.87207  24370922.440    99794830.09845
  23655145.980   124308604.02308  23655144.520    96863825.70747
 15 02 17 01 04 30.0000000  0  7G16G18G21G22G27G29G31
  21231506.480   111572317.18109  21231503.360    86939460.25548
  22091740.380   116092940.02109  22091737.560    90462055.34947
  21594709.080   113480966.39009  21594705.240    88426713.96647
  23155345.660   121682203.46208  23155341.140    94817310.68246
  22494105.260   118207349.53609  22494104.260    92109637.52148
  24384925.760   128143632.50208  24384924.380    99852164.81645
  23673191.700   124403433.11408  23673190.040    96937718.38846
 15 02 17 01 05  0.0000000  0  7G16G18G21G22G27G29G31
  21220331.120   111513589.97609  21220327.820    86893698.81148
  22083019.440   116047111.24809  22083016.620    90426344.62747
  21604075.940   113530189.52409  21604072.020    88465069.65747
  23137906.300   121590560.14408  23137902.020    94745900.35846
  22482433.780   118146015.71009  22482433.320    92061844.98948
  24398932.580   128217236.74108  24398930.940    99909518.77445
  23691247.700   124498316.96008  23691245.760    97011653.70946
 15 02 17 01 05 30.0000000  0  7G16G18G21G22G27G29G31
  21209225.040   111455226.75109  21209221.680    86848220.94948
  22074373.880   116001678.69409  22074371.060    90390942.65347
  21613492.020   113579671.05309  21613488.120    88503626.68547
  23120491.020   121499042.98409  23120486.840    94674588.33446
  22470781.360   118084781.90309  22470781.060    92014130.34048
  24412946.100   128290876.43808  24412943.820    99966900.37945
  23709315.540   124593263.83408  23709313.480    97085638.19746
 15 02 17 01 06  0.0000000  0  7G16G18G21G22G27G29G31
  21198188.160   111397226.91409  21198184.800    86803026.26748
  22065803.480   115956641.15409  22065800.560    90355848.48047
  21622956.300   113629406.04909  21622952.380    88542381.23548
  23103099.820   121407651.89309  23103095.680    94603374.53847
  22459147.340   118023645.33809  22459146.900    91966491.46548
  24426965.540   128364549.10308  24426962.800   100024307.58545
  23727394.280   124688268.16208  23727392.400    97159667.40046
 15 02 17 01 06 30.0000000  0  7G16G18G21G22G27G29G31
  21187220.580   111339591.43509  21187217.000    86758115.48748
  22057308.280   115911999.17309  22057305.360    90321062.53947
  21632468.200   113679391.57108  21632464.180    88581331.00648
  23085732.900   121316387.99409  23085728.720    94532259.84846
  22447531.620   117962604.81709  22447531.080    91918927.46147
  24440990.960   128438253.31708  24440988.160   100081739.43644
  23745483.220   124783325.59008  23745481.360    97233738.01046
 15 02 17 01 07  0.0000000  0  7G16G18G21G22G27G29G31
  21176322.620   111282322.06409  21176319.140    86713490.00348
  22048888.660   115867754.26809  22048885.860    90286586.00847
  21642027.380   113729625.26209  21642023.360    88620474.14248
  23068390.600   121225253.50609  23068386.300    94461246.01046
  22435934.240   117901660.05009  22435933.620    91871438.04548
  24455022.400   128511988.42008  24455019.660   100139195.40745
  23763581.640   124878432.54908  23763579.800    97307847.19346
 15 02 17 01 07 30.0000000  0  7G16G18G21G22G27G29G31
  21165494.960   111225422.37609  21165491.400    86669152.58348
  22040545.320   115823909.67809  22040542.480    90252421.39947
  21651633.660   113780106.66908  21651629.600    88659810.32448
  23051073.700   121134252.64009  23051069.320    94390336.27547
  22424355.360   117840812.42009  22424354.740    91824024.33448
  24469059.880   128585756.11407  24469057.380   100196676.71345
  23781689.180   124973587.58808  23781687.320    97381993.85946
 15 02 17 01 08  0.0000000  0  7G16G18G21G22G27G29G31
  21154738.880   111168898.35809  21154735.400    86625107.89948
  22032279.220   115780470.75909  22032276.320    90218572.91747
  21661287.520   113830838.19309  21661283.500    88699341.33948
  23033783.500   121043391.97809  23033779.060    94319535.80146
  22412795.700   117780066.17009  22412794.940    91776689.62448
  24483104.140   128659560.41208  24483102.040   100254186.49046
  23799806.060   125068791.94408  23799804.100    97456178.94046
 15 02 17 01 08 30.0000000  0  7G16G18G21G22G27G29G31
  21144052.280   111112740.24809  21144048.760    86581348.32948
  22024088.360   115737427.20209  22024085.300    90185032.49847
  21670986.220   113881805.72609  21670982.280    88739056.30248
  23016518.220   120952662.10409  23016513.760    94248837.23247
  22401253.140   117719409.44309  22401252.580    91729424.66248
  24497153.460   128733389.40908  24497151.580   100311715.53845
  23817929.460   125164030.55708  23817927.440    97530390.66846
 15 02 17 01 09  0.0000000  0  7G16G18G21G22G27G29G31
  21133438.920   111056966.99609  21133435.420    86537888.65648
  22015976.500   115694798.90109  22015973.320    90151815.64247
  21680732.840   113933024.48908  21680728.860    88778967.03648
  22999281.540   120862082.92608  22999277.180    94178256.09946
  22389730.520   117658859.28708  22389730.800    91682242.75548
  24511210.640   128807259.87708  24511209.000   100369276.88845
  23836062.020   125259317.07508  23836059.840    97604639.72746
 15 02 17 01 09 30.0000000  0  7G16G18G21G22G27G29G31
  21122896.180   111001565.02009  21122892.840    86494718.28548
  22007940.800   115652570.89409  22007937.660    90118910.72647
  21690523.920   113984476.83008  21690519.920    88819059.77248
  22982070.900   120771640.92508  22982066.580    94107781.86047
  22378225.440   117598399.96709  22378225.300    91635131.63248
  24525272.720   128881156.26907  24525270.300   100426858.52145
  23854200.320   125354633.30008  23854198.080    97678911.92846
 15 02 17 01 10  0.0000000  0  7G16G18G21G22G27G29G31
  21112426.300   110946545.69209  21112422.940    86451846.06548
  21999983.420   115610754.37209  21999980.260    90086326.44047
  21700360.840   114036169.78909  21700356.820    88859339.98548
  22964888.720   120681348.19609  22964884.360    94037423.93347
  22366739.680   117538040.96409  22366738.500    91588098.61348
  24539341.280   128955087.99208  24539338.520   100484467.65145
  23872345.360   125449985.28308  23872343.100    97753212.01546
 15 02 17 01 10 30.0000000  0  7G16G18G21G22G27G29G31
  21102029.320   110891909.30409  21102025.960    86409272.26048
  21992104.280   115569348.93909  21992100.980    90054062.46447
  21710242.940   114088100.46209  21710238.920    88899805.43448
  22947735.080   120591205.54309  22947730.720    93967182.93547
  22355272.500   117477780.46609  22355271.740    91541142.40848
  24553416.280   129029053.01507  24553414.080   100542102.71445
  23890496.220   125545368.01808  23890494.100    97827536.03346
 15 02 17 01 11  0.0000000  0  6G16G18G21G22G27G31
  21091710.540   110837683.99309  21091707.240    86367018.77348
  21984308.740   115528382.81109  21984305.500    90022140.82247
  21720174.760   114140293.01409  21720170.920    88940474.94348
  22930615.500   120501241.84809  22930611.120    93897081.39347
  22343829.320   117417644.87209  22343828.500    91494283.56948
  23908657.340   125640804.93508  23908655.460    97901902.22146
 15 02 17 01 11 30.0000000  0  6G16G18G21G22G27G31
  21081460.860   110783821.92909  21081457.680    86325048.34248
  21976587.460   115487807.36509  21976584.360    89990523.60247
  21730146.560   114192695.20608  21730142.680    88981307.86748
  22913520.800   120411409.61808  22913516.560    93827082.29847
  22332399.960   117357584.24608  22332399.120    91447483.06148
  23926818.760   125736243.27108  23926816.960    97976269.59646
 15 02 17 01 12  0.0000000  0  6G16G18G21G22G27G31
  21071285.080   110730347.49509  21071281.840    86283379.94448
  21968944.980   115447646.50309  21968942.060    89959229.44047
  21740162.220   114245327.57109  21740158.260    89022320.05247
  22896455.840   120321733.92508  22896451.860    93757205.18047
  22320989.060   117297621.03908  22320988.640    91400758.55148
  23944984.140   125831702.35208  23944982.460    98050653.15746
 15 02 17 01 12 30.0000000  0  6G16G18G21G22G27G31
  21061182.860   110677259.62109  21061179.540    86242012.78348
  21961381.060   115407898.89909  21961378.300    89928257.29747
  21750220.760   114298185.23509  21750216.760    89063507.79947
  22879420.760   120232214.38209  22879416.880    93687449.72347
  22309596.480   117237752.35109  22309596.360    91354107.62448
  23963152.220   125927176.07008  23963150.660    98125048.10346
 15 02 17 01 13  0.0000000  0  6G16G18G21G22G27G31
  21051155.440   110624565.34109  21051152.220    86200952.31648
  21953897.180   115368571.44909  21953894.440    89897612.54147
  21760322.740   114351271.83409  21760318.820    89104874.00748
  22862416.900   120142858.39009  22862412.960    93617821.70547
  22298222.960   117177983.27209  22298222.460    91307534.31648
  23981323.440   126022666.34208  23981321.980    98199455.93946
 15 02 17 01 13 30.0000000  0  6G16G18G21G22G27G31
  21041204.280   110572271.34609  21041200.980    86160203.76048
  21946494.560   115329670.45509  21946491.740    89867300.09347
  21770468.680   114404590.08108  21770464.920    89146420.67748
  22845445.660   120053673.64809  22845441.620    93548327.14147
  22286869.160   117118318.78508  22286868.160    91261042.52148
  23999498.160   126118174.93008  23999496.860    98273878.07246
 15 02 17 01 14  0.0000000  0  6G16G18G21G22G27G31
  21031329.880   110520380.16909  21031326.340    86119769.05148
  21939173.320   115291197.04009  21939170.400    89837320.82047
  21780658.360   114458138.31408  21780654.900    89188146.55248
  22828507.520   119964662.74909  22828503.440    93478968.01647
  22275535.040   117058759.08808  22275534.440    91214632.42748
  24017675.860   126213699.09108  24017674.680    98348312.30546
 15 02 17 01 14 30.0000000  0  6G16G18G21G22G27G31
  21021530.560   110468884.04009  21021527.000    86079642.19148
  21931932.060   115253143.82209  21931929.060    89807668.97947
  21790889.640   114511904.86009  21790886.420    89230042.53147
  22811601.140   119875818.85409  22811597.080    93409739.05547
  22264219.160   116999294.85109  22264218.980    91168296.66748
  24035854.280   126309226.45808  24035853.100    98422749.05946
 15 02 17 01 15  0.0000000  0  6G16G18G21G22G27G31
  21011806.700   110417785.02409  21011803.220    86039824.79248
  21924771.020   115215511.95909  21924767.980    89778345.46347
  21801162.220   114565887.45409  21801159.080    89272106.90448
  22794727.040   119787144.32409  22794722.860    93340642.05147
  22252921.660   116939926.00909  22252921.420    91122035.23348
  24054032.700   126404754.05308  24054031.520    98497185.95646
 15 02 17 01 15 30.0000000  0  6G16G18G21G22G27G31
  21002158.900   110367085.83209  21002155.420    86000318.93048
  21917690.640   115178303.62209  21917687.500    89749351.96147
  21811475.880   114620085.88008  21811472.780    89314339.41748
  22777885.760   119698642.65909  22777881.460    93271679.73947
  22241642.840   116880653.61309  22241642.100    91075848.94048
  24072210.740   126500279.43108  24072209.300    98571621.17845
 15 02 17 01 16  0.0000000  0  6G16G18G21G22G27G31
  20992589.640   110316799.15509  20992586.100    85961134.49648
  21910693.240   115141531.50909  21910690.020    89720698.37647
  21821832.260   114674508.54309  21821828.920    89356746.68147
  22761079.860   119610327.25309  22761075.400    93202862.58047
  22230384.360   116821488.66608  22230383.680    91029746.41548
  24090389.880   126595810.98908  24090388.380    98646061.17946
 15 02 17 01 16 30.0000000  0  6G16G18G21G22G27G31
  20983098.720   110266924.16209  20983095.040    85922270.86648
  21903778.460   115105193.99209  21903775.220    89692383.43847
  21832230.480   114729150.78309  21832226.960    89399325.05448
  22744309.380   119522197.80409  22744304.760    93134190.31947
  22219145.460   116762428.28709  22219144.860    90983725.35748
  24108568.960   126691342.25508  24108567.820    98720500.95346
 15 02 17 01 17  0.0000000  0  6G16G18G21G22G27G31
  20973685.620   110217458.02509  20973681.920    85883725.83148
  21896945.680   115069287.55409  21896942.420    89664404.39747
  21842669.220   114784005.93309  21842665.520    89442069.32148
  22727573.940   119434252.15809  22727569.200    93065661.27547
  22207925.560   116703467.86309  22207925.100    90937782.18648
  24126746.520   126786865.77508  24126745.620    98794934.63946
 15 02 17 01 17 30.0000000  0  6G16G18G21G22G27G31
  20964351.160   110168404.88609  20964347.380    85845502.59448
  21890195.680   115033816.10209  21890192.360    89636764.30947
  21853148.520   114839074.49309  21853144.680    89484979.87348
  22710874.380   119346495.01809  22710869.520    92997279.10647
  22196725.160   116644609.71109  22196724.880    90891918.69948
  24144922.500   126882380.80908  24144921.660    98869361.81146
 15 02 17 01 18  0.0000000  0  6G16G18G21G22G27G31
  20955095.760   110119767.16209  20955091.960    85807603.09248
  21883528.640   114998780.70409  21883525.360    89609464.01347
  21863667.940   114894354.22408  21863664.020    89528055.01648
  22694211.260   119258929.45209  22694206.340    92929046.23547
  22185544.520   116585854.49109  22185544.120    90846135.43348
  24163096.360   126977884.85908  24163095.600    98943780.41446
 15 02 17 01 18 30.0000000  0  6G16G18G21G22G27G31
  20945919.280   110071544.47109  20945915.600    85770026.97148
  21876944.540   114964181.13509  21876941.260    89582503.32047
  21874227.000   114949842.05109  21874223.040    89571292.23548
  22677584.560   119171555.40709  22677579.600    92860962.59047
  22174382.820   116527199.90309  22174382.160    90800430.56048
  24181267.100   127073372.71308  24181266.280    99018186.39545
 15 02 17 01 19  0.0000000  0  6G16G18G21G22G27G31
  20936822.260   110023739.40809  20936818.600    85732776.25248
  21870443.840   114930020.10209  21870440.660    89555884.35447
  21884825.460   115005537.17109  21884821.480    89614691.03647
  22660994.980   119084376.75209  22660990.040    92793031.20847
  22163240.660   116468647.38909  22163240.220    90754805.22848
  24199434.400   127168842.38808  24199433.840    99092578.22245
 15 02 17 01 19 30.0000000  0  6G16G18G21G22G27G31
  20927805.760   109976357.54109  20927802.140    85695855.32948
  21864027.380   114896301.89709  21864024.300    89529610.43847
  21895463.440   115061440.08909  21895459.460    89658251.76448
  22644443.640   118997399.40609  22644438.760    92725256.68147
  22152118.480   116410200.04408  22152117.980    90709261.88748
  24217598.260   127264294.18708  24217598.000    99166956.09746
 15 02 17 01 20  0.0000000  0  6G16G18G21G22G27G31
  20918869.620   109929398.16309  20918866.080    85659263.59448
  21857694.980   114863025.15809  21857691.900    89503680.52447
  21906140.160   115117546.52909  21906136.180    89701971.02748
  22627930.580   118910623.28909  22627925.700    92657638.95547
  22141015.800   116351855.53209  22141014.440    90663798.60648
  24235757.760   127359722.38608  24235757.720    99241315.57345
 15 02 17 01 20 30.0000000  0  6G16G18G21G22G27G31
  20910013.680   109882860.13109  20910010.160    85623000.15948
  21851446.240   114830187.61009  21851443.160    89478092.81647
  21916854.680   115173851.55909  21916850.600    89745845.06647
  22611455.720   118824047.83609  22611450.860    92590177.59347
  22129932.400   116293610.99609  22129931.380    90618413.28148
  24253911.780   127455121.36508  24253911.640    99315652.33446
 15 02 17 01 21  0.0000000  0  6G16G18G21G22G27G31
  20901240.780   109836758.01309  20901237.240    85587076.43348
  21845283.800   114797803.82009  21845280.780    89452858.71047
  21927609.140   115230366.54408  21927605.080    89789882.69847
  22595022.140   118737688.58309  22595017.180    92522884.69347
  22118870.000   116235479.42608  22118869.380    90573116.01348
  24272062.280   127550500.97108  24272061.900    99389973.99946
 15 02 17 01 21 30.0000000  0  6G16G18G21G22G27G31
  20892547.620   109791075.06408  20892544.180    85551479.31248
  21839204.460   114765856.70409  21839201.480    89427964.85847
  21938399.600   115287071.16408  21938395.680    89834068.15548
  22578626.620   118651529.37309  22578621.620    92455747.65847
  22107826.080   116177442.55209  22107825.120    90527892.42148
  24290205.000   127645839.48708  24290204.220    99464263.60745
 15 02 17 01 22  0.0000000  0  6G16G18G21G22G27G31
  20883938.220   109745832.39109  20883934.820    85516225.31148
  21833212.140   114734366.77609  21833209.120    89403427.25047
  21949229.320   115343982.25508  21949225.440    89878414.45848
  22562273.260   118565591.92809  22562268.380    92388783.44647
  22096803.540   116119519.65908  22096803.080    90482757.73848
  24308342.960   127741153.37108  24308342.120    99538534.03246
 15 02 17 01 22 30.0000000  0  6G16G18G21G22G27G31
  20875410.600   109701019.14109  20875407.040    85481305.86948
  21827304.560   114703321.93109  21827301.320    89379236.46647
  21960095.460   115401085.27809  21960091.780    89922910.25947
  22545960.000   118479865.98509  22545955.400    92321984.05247
  22085800.380   116061698.02309  22085799.980    90437701.92848
  24326473.100   127836426.66508  24326472.180    99612772.80346
 15 02 17 01 23  0.0000000  0  6G16G18G21G22G27G31
  20866966.260   109656643.36709  20866962.640    85446727.33348
  21821483.100   114672729.87409  21821479.840    89355398.52547
  21970999.120   115458384.76909  21970995.520    89967559.21047
  22529688.660   118394360.28409  22529684.280    92255356.26747
  22074817.820   116003984.39608  22074816.960    90392730.22848
  24344596.220   127931663.20208  24344595.300    99686982.90346
 15 02 17 01 23 30.0000000  0  6G16G18G21G22G27G31
  20858605.760   109612708.59009  20858602.200    85412492.46748
  21815748.260   114642593.58509  21815745.220    89331915.70947
  21981940.200   115515880.46408  21981936.560    90012361.07348
  22513460.200   118309079.16709  22513455.860    92188903.46947
  22063855.680   115946380.39009  22063855.620    90347844.04648
  24362711.900   128026861.43908  24362711.080    99761163.16146
 15 02 17 01 24  0.0000000  0  6G16G18G21G22G27G31
  20850327.200   109569204.72109  20850323.760    85378593.34248
  21810098.160   114612902.40409  21810095.180    89308779.73447
  21992916.020   115573558.75008  21992912.380    90057305.17448
  22497272.780   118224013.28009  22497268.320    92122618.38547
  22052912.820   115888874.37609  22052912.580    90303034.19048
  24380817.480   128122006.48608  24380816.780    99835301.87046
 15 02 17 01 24 30.0000000  0  6G16G18G21G22G27G31
  20842134.080   109526149.66109  20842130.640    85345043.91848
  21804536.100   114583673.49509  21804533.100    89286003.97547
  22003929.260   115631433.73309  22003925.820    90102402.53447
  22481129.820   118139181.22109  22481125.260    92056515.50747
  22041991.680   115831482.64409  22041990.960    90258313.39348
  24398915.440   128217111.91808  24398915.000    99909409.74345
 15 02 17 01 25  0.0000000  0  6G16G18G21G22G27G31
  20834023.980   109483530.46409  20834020.580    85311834.13848
  21799059.440   114554893.07409  21799056.300    89263577.68947
  22014976.800   115689489.01608  22014973.420    90147640.46048
  22465028.900   118054570.74909  22465024.420    91990585.30847
  22031089.840   115774190.87809  22031089.000    90213670.43848
  24417002.580   128312160.14908  24417002.320    99983473.09945
 15 02 17 01 25 30.0000000  0  6G16G18G21G22G27G31
  20825999.500   109441361.27209  20825996.100    85278975.02548
  21793670.780   114526575.24609  21793667.540    89241511.86147
  22026060.640   115747735.12208  22026057.260    90193026.98948
  22448972.940   117970196.83009  22448968.560    91924839.43547
  22020209.100   115717011.55709  22020208.340    90169115.16648
  24435080.640   128407160.31508  24435080.520   100057499.00245
 15 02 17 01 26  0.0000000  0  6G16G18G21G22G27G31
  20818059.520   109399636.35309  20818056.120    85246462.09148
  21788368.760   114498713.14509  21788365.560    89219801.12947
  22037179.000   115806162.14108  22037175.680    90238554.54548
  22432961.120   117886054.45809  22432956.800    91859273.96547
  22009348.320   115659937.26409  22009347.540    90124641.67448
  24453147.700   128502102.29208  24453147.440   100131479.59145
 15 02 17 01 26 30.0000000  0  6G16G18G21G22G27G31
  20810205.500   109358364.04308  20810202.300    85214301.84348
  21783154.900   114471314.50109  21783151.780    89198451.56447
  22048332.840   115864775.50108  22048329.420    90284227.25848
  22416995.180   117802152.82409  22416990.840    91793896.09547
  21998508.440   115602974.88409  21998507.920    90080255.43548
  24471204.420   128596989.90608  24471204.080   100205417.84645
 15 02 17 01 27  0.0000000  0  6G16G18G21G22G27G31
  20802437.360   109317542.27109  20802434.100    85182492.68448
  21778028.680   114444376.19109  21778025.620    89177460.68147
  22059520.920   115923569.05309  22059517.540    90330040.38148
  22401074.720   117718490.21109  22401070.260    91728704.47147
  21987689.480   115546120.75709  21987688.480    90035953.50848
  24489249.520   128691816.06708  24489248.880   100279308.16746
 15 02 17 01 27 30.0000000  0  6G16G18G21G22G27G31
  20794755.540   109277173.58509  20794752.160    85151036.55948
  21772990.500   114417900.33209  21772987.440    89156830.14147
  22070743.160   115982541.99608  22070739.720    90375993.34248
  22385200.360   117635069.81209  22385195.840    91663701.58147
  21976891.260   115489375.79909  21976890.000    89991736.67448
  24507282.440   128786578.73208  24507281.700   100353149.00845
 15 02 17 01 28  0.0000000  0  6G16G18G21G22G27G31
  20787159.480   109237255.96509  20787156.080    85119931.92348
  21768039.760   114391884.31709  21768036.720    89136557.92647
  22081998.540   116041689.07108  22081995.000    90422081.95348
  22369371.940   117551890.87809  22369367.400    91598886.85647
  21966113.340   115432736.71708  21966112.300    89947602.29748
  24525302.040   128881271.38408  24525301.320   100426935.34245
 15 02 17 01 28 30.0000000  0  6G16G18G21G22G27G31
  20779652.420   109197805.74909  20779649.020    85089191.49948
  21763179.440   114366343.67809  21763176.440    89116656.14647
  22093289.380   116101022.74909  22093285.780    90468315.95947
  22353592.680   117468970.40409  22353588.080    91534273.52847
  21955357.980   115376218.23809  21955357.660    89903561.97148
  24543310.560   128975906.04108  24543310.000   100500676.48245
 15 02 17 01 29  0.0000000  0  6G16G18G21G22G27G31
  20772230.840   109158805.08309  20772227.460    85058801.36348
  21758406.080   114341259.59909  21758403.160    89097110.11247
  22104611.640   116160521.56909  22104608.140    90514678.66847
  22337859.320   117386291.28909  22337854.720    91469848.26647
  21944622.260   115319801.37709  21944622.280    89859600.77348
  24561303.700   129070460.19108  24561303.040   100574354.97145
 15 02 17 01 29 30.0000000  0  6G16G18G21G22G27G31
  20764897.860   109120270.40709  20764894.500    85028774.33948
  21753722.780   114316648.12909  21753719.780    89077932.35447
  22115967.700   116220198.36409  22115964.300    90561180.00947
  22322175.100   117303870.38209  22322170.580    91405624.21247
  21933908.360   115263500.65409  21933908.400    89815730.07948
  24579283.700   129164945.32708  24579283.120   100647979.66045
 15 02 17 01 30  0.0000000  0  6G16G18G21G22G27G31
  20757652.840   109082197.66709  20757649.380    84999107.27548
  21749128.500   114292504.62509  21749125.500    89059119.25847
  22127356.280   116280046.05808  22127353.000    90607814.60548
  22306539.640   117221705.32809  22306535.140    91341599.52148
  21923215.760   115207311.21909  21923215.920    89771946.13048
  24597249.160   129259353.85708  24597248.580   100721544.62845
 15 02 17 01 30 30.0000000  0  6G16G18G21G22G27G31
  20750495.540   109044585.94909  20750492.080    84969799.42249
  21744622.720   114268827.21709  21744619.740    89040669.32047
  22138776.600   116340060.02609  22138773.280    90654578.67047
  22290952.820   117139795.67809  22290948.280    91277773.84047
  21912544.000   115151230.40509  21912544.000    89728246.83048
  24615198.940   129353679.98308  24615198.320   100795045.37445
 15 02 17 01 31  0.0000000  0  6G16G18G21G22G27G31
  20743427.040   109007440.70709  20743423.620    84940855.07448
  21740206.500   114245620.25009  21740203.500    89022585.98147
  22150229.020   116400242.22209  22150225.480    90701473.91448
  22275415.620   117058147.01309  22275411.000    91214151.51247
  21901893.840   115095262.23009  21901893.280    89684635.22848
  24633133.220   129447924.30708  24633132.580   100868482.37945
 15 02 17 01 31 30.0000000  0  6G16G18G21G22G27G31
  20736447.420   108970762.67509  20736444.020    84912274.80548
  21735879.940   114222884.06809  21735876.900    89004869.48047
  22161712.900   116460589.56509  22161709.200    90748497.80347
  22259928.320   116976761.34609  22259923.740    91150734.15247
  21891264.820   115039405.92009  21891263.780    89641110.84548
  24651051.260   129542083.29408  24651050.620   100941852.90945
 15 02 17 01 32  0.0000000  0  6G16G18G21G22G27G31
  20729557.700   108934557.23509  20729554.360    84884062.80548
  21731643.840   114200623.10809  21731640.780    88987523.29347
  22173228.760   116521104.59809  22173224.740    90795652.37348
  22244492.280   116895644.95409  22244487.680    91087526.58248
  21880657.540   114983665.66909  21880656.760    89597676.90048
  24668953.260   129636157.97708  24668952.660   101015157.74545
 15 02 17 01 32 30.0000000  0  6G16G18G21G22G27G31
  20722757.740   108898823.32509  20722754.340    84856218.17348
  21727497.820   114178835.47809  21727494.760    88970545.93447
  22184775.540   116581782.27009  22184771.220    90842933.68447
  22229107.520   116814797.57909  22229102.840    91024528.65447
  21870072.140   114928039.08209  21870071.400    89554331.48948
  24686838.100   129730142.74708  24686837.500   101088392.48546
 15 02 17 01 33  0.0000000  0  5G16G18G21G22G27
  20716047.940   108863562.86809  20716044.400    84828742.47148
  21723442.120   114157522.78909  21723439.040    88953938.64748
  22196352.840   116642621.36309  22196348.460    90890340.73747
  22213774.500   116734221.68409  22213769.740    90961742.25547
  21859508.400   114872526.84509  21859507.740    89511075.22948
 15 02 17 01 33 30.0000000  0  5G16G18G21G22G27
  20709427.920   108828774.22509  20709424.440    84801634.45148
  21719476.280   114136682.39009  21719473.240    88937699.37847
  22207959.920   116703617.05909  22207955.680    90937869.88147
  22198492.980   116653916.89409  22198488.260    90899167.13447
  21848966.280   114817126.30909  21848965.760    89467905.98448
 15 02 17 01 34  0.0000000  0  5G16G18G21G22G27
  20702900.600   108794472.58609  20702897.140    84774905.87248
  21715603.040   114116328.38209  21715600.080    88921839.13847
  22219598.940   116764781.20509  22219594.860    90985530.22847
  22183265.980   116573899.03909  22183261.400    90836815.58648
  21838447.720   114761851.09009  21838447.360    89424834.39948
 15 02 17 01 34 30.0000000  0  5G16G18G21G22G27
  20696463.980   108760647.35209  20696460.440    84748548.54948
  21711820.300   114096450.05609  21711817.340    88906349.53647
  22231267.300   116826099.94608  22231263.400    91033311.05948
  22168091.800   116494158.67109  22168087.220    90774680.25947
  21827950.800   114706689.58708  21827950.360    89381851.38548
 15 02 17 01 35  0.0000000  0  5G16G18G21G22G27
  20690117.720   108727297.71709  20690114.140    84722561.81648
  21708127.720   114077045.33909  21708124.740    88891228.98747
  22242964.380   116887568.89509  22242960.580    91081208.91547
  22152970.480   116414695.45109  22152965.760    90712760.87947
  21817475.180   114651639.46709  21817474.600    89338955.20648
 15 02 17 01 35 30.0000000  0  5G16G18G21G22G27
  20683863.940   108694434.21209  20683860.420    84696953.88448
  21704527.220   114058123.92409  21704524.180    88876485.04447
  22254691.320   116949194.90108  22254687.540    91129229.20348
  22137904.120   116335520.74509  22137899.320    90651066.32747
  21807022.380   114596710.13709  21807021.740    89296153.13548
 15 02 17 01 36  0.0000000  0  5G16G18G21G22G27
  20677703.320   108662060.08009  20677699.840    84671727.29248
  21701019.140   114039688.36609  21701016.020    88862119.68247
  22266448.280   117010978.28509  22266444.420    91177372.07747
  22122893.500   116256639.30209  22122888.720    90589600.28848
  21796592.780   114541903.75309  21796592.200    89253446.88648
 15 02 17 01 36 30.0000000  0  5G16G18G21G22G27
  20671634.980   108630170.67309  20671631.500    84646878.39348
  21697602.320   114021733.02209  21697599.160    88848128.50947
  22278233.720   117072911.67109  22278229.900    91225631.84247
  22107937.760   116178046.78109  22107933.120    90528359.39447
  21786185.420   114487214.42809  21786185.380    89210831.86748
 15 02 17 01 37  0.0000000  0  5G16G18G21G22G27
  20665656.920   108598755.67109  20665653.440    84622399.16148
  21694274.760   114004247.10609  21694271.600    88834503.13147
  22290045.080   117134981.01808  22290041.340    91273997.57947
  22093035.180   116099733.87809  22093030.720    90467336.36848
  21775798.800   114432630.76409  21775798.680    89168299.11748
 15 02 17 01 37 30.0000000  0  5G16G18G21G22G27
  20659774.260   108567841.87409  20659770.760    84598310.46149
  21691041.500   113987256.17609  21691038.300    88821263.44948
  22301886.680   117197209.33508  22301883.120    91322487.14247
  22078191.160   116021728.36509  22078186.700    90406552.86648
  21765436.940   114378178.21209  21765436.760    89125868.54948
 15 02 17 01 38  0.0000000  0  5G16G18G21G22G27
  20653984.660   108537417.14709  20653981.160    84574602.89048
  21687900.040   113970747.71909  21687896.980    88808399.74547
  22313755.760   117259581.85508  22313752.160    91371089.06547
  22063403.600   115944018.99709  22063399.060    90346000.12148
  21755097.440   114323843.87809  21755097.560    89083530.12148
 15 02 17 01 38 30.0000000  0  5G16G18G21G22G27
  20648289.060   108507486.28609  20648285.540    84551280.14148
  21684851.060   113954725.44409  21684848.080    88795914.84547
  22325652.580   117322100.23708  22325649.080    91419804.67547
  22048673.460   115866611.49509  22048668.940    90285682.61548
  21744781.200   114269631.32709  21744780.940    89041286.58548
 15 02 17 01 39  0.0000000  0  5G16G18G21G22G27
  20642686.760   108478045.82209  20642683.220    84528339.52248
  21681893.860   113939185.28209  21681890.880    88783805.65648
  22337575.960   117384758.33708  22337572.640    91468629.16147
  22034000.300   115789503.66309  22033995.880    90225598.61048
  21734487.260   114215536.42009  21734486.900    88999134.72248
 15 02 17 01 39 30.0000000  0  5G16G18G21G22G27
  20637178.040   108449097.13509  20637174.400    84505782.08548
  21679028.360   113924126.91209  21679025.300    88772071.86448
  22349525.460   117447553.45708  22349522.220    91517560.42347
  22019384.360   115712697.07309  22019380.060    90165749.35148
  21724215.920   114161558.86909  21724214.860    88957074.29048
 15 02 17 01 40  0.0000000  0  5G16G18G21G22G27
  20631765.340   108420653.31009  20631761.780    84483618.05948
  21676257.020   113909563.21009  21676253.880    88760723.52447
  22361503.020   117510495.70208  22361499.960    91566606.30447
  22004828.580   115636206.38309  22004824.240    90106146.22748
  21713968.960   114107710.78009  21713967.880    88915114.75548
 15 02 17 01 40 30.0000000  0  5G16G18G21G22G27
  20626447.240   108392706.57109  20626443.680    84461841.37748
  21673578.100   113895485.10109  21673574.900    88749753.58848
  22373506.520   117573574.32109  22373503.560    91615758.43947
  21990331.680   115560024.32309  21990327.160    90046783.60648
  21703744.920   114053983.49509  21703743.900    88873249.34848
 15 02 17 01 41  0.0000000  0  5G16G18G21G22G27
  20621224.080   108365258.51509  20621220.520    84440453.29048
  21670991.760   113881893.84809  21670988.500    88739162.99947
  22385535.740   117636787.88109  22385532.700    91665015.71447
  21975894.080   115484153.53909  21975889.380    89987663.52748
  21693544.140   114000377.71909  21693543.020    88831478.60348
 15 02 17 01 41 30.0000000  0  5G16G18G21G22G27
  20616096.840   108338314.75809  20616093.380    84419458.15448
  21668499.020   113868794.41109  21668495.720    88728955.64747
  22397591.180   117700139.23009  22397588.000    91714380.42447
  21961516.880   115408600.81709  21961512.200    89928791.31548
  21683367.400   113946898.29709  21683366.620    88789806.36248
 15 02 17 01 42  0.0000000  0  5G16G18G21G22G27
  20611064.140   108311868.08709  20611060.660    84398850.33348
  21666098.360   113856178.49709  21666095.040    88719125.08847
  22409670.900   117763617.77309  22409667.800    91763844.19547
  21947198.960   115333360.33109  21947194.420    89870162.38548
  21673213.300   113893537.23309  21673212.380    88748226.26648
 15 02 17 01 42 30.0000000  0  5G16G18G21G22G27
  20606130.180   108285939.83209  20606126.660    84378646.49148
  21663793.440   113844066.15309  21663790.160    88709686.88747
  22421778.260   117827241.01809  22421775.000    91813420.74147
  21932944.600   115258453.34509  21932940.080    89811793.33548
  21663085.120   113840314.29109  21663084.280    88706753.85248
 15 02 17 01 43  0.0000000  0  5G16G18G21G22G27
  20601291.800   108260513.68409  20601288.220    84358833.91248
  21661580.940   113832440.15709  21661577.680    88700627.68247
  22433909.600   117890990.82509  22433906.180    91863095.90047
  21918750.960   115183865.06309  21918746.320    89753672.60348
  21652980.040   113787212.50509  21652979.520    88665375.83548
 15 02 17 01 43 30.0000000  0  5G16G18G21G22G27
  20596550.200   108235596.26609  20596546.700    84339417.74348
  21659462.260   113821306.84109  21659459.000    88691952.38547
  22446065.460   117954870.40608  22446062.000    91912872.19247
  21904619.440   115109603.41909  21904614.720    89695806.40748
  21642899.220   113734237.92409  21642898.840    88624096.97248
 15 02 17 01 44  0.0000000  0  5G16G18G21G22G27
  20591903.940   108211180.06009  20591900.480    84320392.12748
  21657435.820   113810658.06609  21657432.620    88683654.65147
  22458244.260   118018870.60509  22458240.680    91962742.45147
  21890548.820   115035662.25609  21890544.140    89638189.94348
  21632841.360   113681382.79009  21632841.120    88582911.17248
 15 02 17 01 44 30.0000000  0  5G16G18G21G22G27
  20587355.660   108187278.87409  20587352.180    84301767.81249
  21655503.760   113800505.57409  21655500.700    88675743.62248
  22470447.760   118083000.37009  22470444.100    92012713.72147
  21876541.720   114962055.02709  21876537.160    89580833.67748
  21622808.540   113628658.74109  21622807.620    88541827.46648
 15 02 17 01 45  0.0000000  0  5G16G18G21G22G27
  20582904.980   108163890.80309  20582901.460    84283543.34348
  21653665.740   113790846.82709  21653662.740    88668217.33847
  22482674.800   118147255.00009  22482671.620    92062782.15947
  21862598.200   114888781.47709  21862593.660    89523737.42748
  21612800.140   113576063.59309  21612798.860    88500844.26848
 15 02 17 01 45 30.0000000  0  5G16G18G21G22G27
  20578552.720   108141019.34909  20578549.120    84265721.43348
  21651922.220   113781684.89309  21651919.300    88661078.18148
  22494926.000   118211635.99509  22494922.860    92112949.18447
  21848719.120   114815846.33009  21848714.540    89466904.86148
  21602816.740   113523600.19309  21602815.180    88459963.68348
 15 02 17 01 46  0.0000000  0  5G16G18G21G22G27
  20574298.000   108118660.53108  20574294.380    84248298.94948
  21650272.420   113773015.36209  21650269.640    88654322.70847
  22507200.140   118276136.68109  22507196.740    92163209.46247
  21834903.980   114743246.97709  21834899.360    89410333.94748
  21592857.640   113471264.32809  21592855.920    88419182.48348
 15 02 17 01 46 30.0000000  0  5G16G18G21G22G27
  20570143.260   108096827.13009  20570139.600    84231285.91649
  21648718.420   113764849.18609  21648715.740    88647959.47347
  22519498.680   118340766.13709  22519495.080    92213570.03547
  21821155.260   114670996.64709  21821150.580    89354035.00348
  21582924.560   113419067.18509  21582923.340    88378509.41548
 15 02 17 01 47  0.0000000  0  5G16G18G21G22G27
  20566086.260   108075507.52209  20566082.740    84214673.25548
  21647257.820   113757174.04409  21647255.160    88641978.84748
  22531819.020   118405510.01608  22531815.300    92264019.80547
  21807470.880   114599084.91909  21807466.200    89297999.91248
  21573015.620   113366996.83309  21573014.760    88337935.13248
 15 02 17 01 47 30.0000000  0  5G16G18G21G22G27
  20562126.100   108054696.62309  20562122.540    84198456.95348
  21645889.500   113749983.81809  21645886.900    88636376.07748
  22544159.740   118470360.88508  22544156.180    92314552.93147
  21793850.160   114527508.00409  21793845.600    89242225.72248
  21563129.980   113315047.42109  21563129.560    88297455.07448
 15 02 17 01 48  0.0000000  0  5G16G18G21G22G27
  20558266.860   108034416.09809  20558263.340    84182653.94949
  21644617.600   113743299.54409  21644614.900    88631167.55047
  22556524.340   118535337.32808  22556520.780    92365183.94047
  21780297.560   114456288.68409  21780293.100    89186730.17048
  21553271.480   113263240.31509  21553270.700    88257085.91148
 15 02 17 01 48 30.0000000  0  5G16G18G21G22G27
  20554506.240   108014654.07009  20554502.720    84167254.95949
  21643439.560   113737108.34309  21643436.820    88626343.25248
  22568910.180   118600425.04608  22568906.660    92415901.61847
  21766811.000   114385415.69909  21766806.400    89131504.48448
  21543437.660   113211562.67709  21543436.820    88216817.64048
 15 02 17 01 49  0.0000000  0  5G16G18G21G22G27
  20550846.400   107995421.58609  20550842.920    84152268.58248
  21642357.220   113731420.48709  21642354.420    88621911.16248
  22581318.700   118665631.97508  22581315.200    92466712.21847
  21753392.660   114314901.27909  21753387.880    89076558.19748
  21533630.280   113160024.93309  21533629.280    88176658.39248
 15 02 17 01 49 30.0000000  0  5G16G18G21G22G27
  20547286.660   107976715.06809  20547283.180    84137692.09148
  21641369.840   113726231.51009  21641366.980    88617867.82448
  22593748.660   118730952.31009  22593745.300    92517611.09147
  21740042.020   114244743.09809  21740037.140    89021889.49548
  21523848.760   113108623.10309  21523847.840    88136605.00448
 15 02 17 01 50  0.0000000  0  5G16G18G21G22G27
  20543826.380   107958531.28709  20543822.940    84123522.91548
  21640476.580   113721537.07409  21640473.680    88614209.82648
  22606199.100   118796379.66708  22606195.660    92568593.48847
  21726758.640   114174939.01909  21726753.880    88967496.73548
  21514092.400   113057353.44809  21514091.660    88096654.62348
 15 02 17 01 50 30.0000000  0  5G16G18G21G22G27
  20540467.220   107940878.46109  20540463.680    84109767.45848
  21639678.740   113717344.57509  21639675.780    88610942.95447
  22618671.060   118861920.09608  22618667.760    92619663.94047
  21713544.500   114105498.75509  21713539.900    88913387.47148
  21504362.740   113006223.86109  21504362.200    88056813.41748
 15 02 17 01 51  0.0000000  0  5G16G18G21G22G27
  20537207.180   107923746.63109  20537203.600    84096417.96548
  21638974.280   113713642.84109  21638971.420    88608058.48448
  22631162.000   118927559.82509  22631158.220    92670811.73346
  21700397.840   114036412.67909  21700393.320    88859554.18048
  21494657.820   112955223.28409  21494656.960    88017072.72248
 15 02 17 01 51 30.0000000  0  5G16G18G21G22G27
  20534048.440   107907147.11909  20534044.820    84083483.27348
  21638365.300   113710442.46709  21638362.420    88605564.70048
  22643673.760   118993309.29408  22643669.980    92722045.08347
  21687321.160   113967693.84709  21687316.560    88806007.05248
  21484979.500   112904363.08009  21484978.460    87977441.40348
 15 02 17 01 52  0.0000000  0  5G16G18G21G22G27
  20530990.740   107891078.54209  20530987.080    84070962.29648
  21637851.240   113707740.71109  21637848.220    88603459.45248
  22656205.460   119059163.22609  22656201.820    92773359.80146
  21674314.180   113899341.66109  21674309.440    88752745.62948
  21475327.580   112853641.02909  21475326.260    87937917.71448
 15 02 17 01 52 30.0000000  0  5G16G18G21G22G27
  20528036.460   107875553.49609  20528032.760    84058864.85348
  21637434.360   113705549.77409  21637431.220    88601752.21848
  22668758.980   119125132.59709  22668755.220    92824764.48147
  21661379.680   113831370.46809  21661374.820    88699781.07348
  21465704.020   112803069.92009  21465702.740    87898511.65548
 15 02 17 01 53  0.0000000  0  5G16G18G21G22G27
  20525181.600   107860551.29509  20525177.900    84047174.81848
  21637110.520   113703848.26709  21637107.520    88600426.38148
  22681330.060   119191193.45409  22681325.980    92876240.50047
  21648513.860   113763760.04609  21648508.940    88647097.64648
  21456105.020   112752628.15909  21456104.140    87859206.38948
 15 02 17 01 53 30.0000000  0  5G16G18G21G22G27
  20522429.240   107846087.68809  20522425.600    84035904.48548
  21636882.500   113702650.46309  21636879.740    88599493.03848
  22693920.860   119257358.73008  22693917.240    92927797.84647
  21635719.880   113696527.18509  21635714.940    88594708.43848
  21446533.620   112702330.89309  21446533.220    87820013.73248
 15 02 17 01 54  0.0000000  0  5G16G18G21G22G27
  20519779.000   107832160.69509  20519775.440    84025052.27148
  21636749.760   113701953.39309  21636747.020    88598949.86248
  22706530.880   119323625.08708  22706527.300    92979433.92947
  21622997.680   113629671.61809  21622992.800    88542613.21748
  21436989.500   112652176.24309  21436989.440    87780932.18548
 15 02 17 01 54 30.0000000  0  5G16G18G21G22G27
  20517229.740   107818764.23009  20517226.220    84014613.47548
  21636711.000   113701750.07609  21636708.300    88598791.44747
  22719158.320   119389983.53108  22719154.740    93031141.81447
  21610346.300   113563188.27709  21610341.520    88490808.03048
  21427471.540   112602157.74309  21427471.340    87741956.70648
 15 02 17 01 55  0.0000000  0  5G16G18G21G22G27
  20514783.420   107805908.81609  20514779.920    84004596.23849
  21636768.180   113702050.63009  21636765.480    88599025.66448
  22731804.920   119456442.27508  22731801.500    93082927.81547
  21597767.920   113497089.03809  21597763.280    88439302.14748
  21417981.360   112552285.71709  21417980.660    87703095.40248
 15 02 17 01 55 30.0000000  0  5G16G18G21G22G27
  20512439.660   107793592.32209  20512436.180    83994998.98248
  21636920.620   113702851.68609  21636917.820    88599649.83948
  22744469.840   119522996.35909  22744466.320    93134788.11647
  21585262.320   113431372.50209  21585257.780    88388094.47948
  21408518.580   112502557.65009  21408517.500    87664346.27148
 15 02 17 01 56  0.0000000  0  5G16G18G21G22G27
  20510199.020   107781817.51309  20510195.440    83985823.79748
  21637168.580   113704154.61709  21637165.740    88600665.13647
  22757152.900   119589645.74509  22757149.120    93186722.68846
  21572830.400   113366042.50009  21572825.860    88337187.99948
  21399083.520   112452975.83109  21399082.440    87625711.07949
 15 02 17 01 56 30.0000000  0  5G16G18G21G22G27
  20508062.260   107770588.31709  20508058.600    83977073.76148
  21637512.680   113705963.06709  21637509.840    88602074.31247
  22769854.620   119656393.57108  22769850.940    93238733.95747
  21560473.280   113301105.22809  21560468.800    88286587.54348
  21389676.900   112403544.59709  21389675.860    87587193.24048
 15 02 17 01 57  0.0000000  0  5G16G18G21G22G27
  20506028.340   107759899.81409  20506024.680    83968745.05648
  21637951.920   113708271.16009  21637949.100    88603872.82248
  22782573.640   119723231.89708  22782569.740    93290815.79647
  21548189.960   113236556.37709  21548185.560    88236289.77248
  21380297.860   112354258.61009  21380297.160    87548788.60648
 15 02 17 01 57 30.0000000  0  5G16G18G21G22G27
  20504097.900   107749755.35209  20504094.240    83960840.28048
  21638486.680   113711080.69109  21638483.680    88606062.08347
  22795309.760   119790160.94308  22795305.800    93342968.28747
  21535981.320   113172400.27109  21535976.940    88186298.03048
  21370947.060   112305120.68409  21370946.600    87510499.31548
 15 02 17 01 58  0.0000000  0  5G16G18G21G22G27
  20502270.460   107740151.80609  20502266.680    83953356.98948
  21639116.100   113714388.02609  21639113.020    88608639.22548
  22808062.220   119857175.42308  22808058.240    93395187.36446
  21523847.200   113108635.31909  21523842.760    88136611.05648
  21361623.980   112256127.94609  21361623.520    87472323.15548
 15 02 17 01 58 30.0000000  0  5G16G18G21G22G27
  20500546.360   107731091.21309  20500542.500    83946296.77048
  21639840.240   113718193.67809  21639837.280    88611604.67347
  22820830.820   119924276.05708  22820827.240    93447473.50247
  21511788.020   113045263.96309  21511783.560    88087230.81048
  21352328.960   112207281.86309  21352328.460    87434261.25448
 15 02 17 01 59  0.0000000  0  5G16G18G21G22G27
  20498926.380   107722577.99509  20498922.500    83939663.10248
  21640660.060   113722501.66709  21640657.140    88614961.55548
  22833616.520   119991465.07509  22833612.980    93499828.55747
  21499805.060   112982293.07809  21499800.600    88038162.60848
  21343062.760   112158587.22309  21343062.440    87396317.39549
 15 02 17 01 59 30.0000000  0  5G16G18G21G22G27
  20497410.420   107714611.61109  20497406.580    83933455.51848
  21641575.260   113727310.59709  21641572.260    88618708.77448
  22846418.540   120058739.45809  22846414.940    93552250.16646
  21487898.400   112919722.93109  21487893.860    87989406.66848
  21333825.080   112110043.24909  21333824.540    87358490.94748
 15 02 17 02 00  0.0000000  0  5G16G18G21G22G27
  20495998.340   107707191.25409  20495994.580    83927673.42249
  21642585.360   113732618.89809  21642582.340    88622845.12848
  22859236.180   120126096.08508  22859232.900    93604735.82647
  21476068.080   112857553.95409  21476063.460    87940963.32848
  21324615.980   112061649.30209  21324615.500    87320781.39848
 15 02 17 02 00 30.0000000  0  6G16G18G19G21G22G27
  20494689.900   107700315.49209  20494686.160    83922315.67148
  21643689.880   113738423.99609  21643686.960    88627368.58348
  23107605.460   121431285.62405  23107600.700    94621766.41041
  22872069.020   120193531.88208  22872065.620    93657283.18347
  21464314.080   112795786.44309  21464309.460    87892832.82648
  21315435.280   112013404.38709  21315434.940    87283187.95648
 15 02 17 02 01  0.0000000  0  6G16G18G19G21G22G27
  20493489.320   107694006.64109  20493485.600    83917399.68048
  21644893.100   113744747.07309  21644890.080    88632295.66447
  23093890.540   121359212.60805  23093885.340    94565605.68943
  22884920.480   120261066.41408  22884916.780    93709907.50446
  21452640.800   112734443.19009  21452636.080    87845032.90748
  21306287.180   111965330.00109  21306286.140    87245727.36648
 15 02 17 02 01 30.0000000  0  6G16G18G19G21G22G27
  20492390.480   107688232.26609  20492386.800    83912900.16649
  21646188.480   113751554.48809  21646185.460    88637600.14448
  23080187.460   121287201.34006  23080182.500    94509493.04444
  22897783.940   120328665.21708  22897780.260    93762581.82446
  21441042.420   112673493.10009  21441037.540    87797539.34548
  21297165.340   111917393.78009  21297164.440    87208374.48548
 15 02 17 02 02  0.0000000  0  6G16G18G19G21G22G27
  20491396.940   107683011.02509  20491393.280    83908831.65449
  21647579.540   113758864.42909  21647576.420    88643296.20848
  23066499.680   121215270.70707  23066494.840    94453443.21644
  22910663.100   120396345.02308  22910659.440    93815319.36247
  21429522.680   112612956.18409  21429517.760    87750367.74548
  21288073.400   111869614.96109  21288072.340    87171144.23548
 15 02 17 02 02 30.0000000  0  6G16G18G19G21G22G27
  20490509.200   107678345.86809  20490505.540    83905196.46848
  21649066.580   113766678.59809  21649063.420    88649385.17747
  23052827.580   121143423.20207  23052822.920    94397458.20745
  22923557.640   120464106.17808  22923553.780    93868120.22346
  21418082.440   112552837.30409  21418077.720    87703521.88248
  21279011.860   111821996.41309  21279010.980    87134038.88248
 15 02 17 02 03  0.0000000  0  6G16G18G19G21G22G27
  20489726.180   107674230.94909  20489722.540    83901990.02848
  21650648.320   113774990.13309  21650645.060    88655861.70648
  23039170.100   121071652.64708  23039165.660    94341533.14246
  22936466.260   120531942.06509  22936462.560    93920979.34147
  21406720.840   112493131.50409  21406716.280    87656997.90948
  21269979.700   111774532.51209  21269979.020    87097054.05748
 15 02 17 02 03 30.0000000  0  6G16G18G19G21G22G27
  20489048.720   107670670.57009  20489045.120    83899215.69948
  21652325.340   113783802.86409  21652322.060    88662728.76747
  23025527.900   120999962.83108  23025523.680    94285670.97846
  22949389.760   120599854.73808  22949386.300    93973898.27947
  21395438.840   112433844.28909  21395434.300    87610800.09548
  21260977.900   111727227.69709  21260977.320    87060193.14448
 15 02 17 02 04  0.0000000  0  6G16G18G19G21G22G27
  20488477.380   107667667.90109  20488473.780    83896875.95049
  21654098.120   113793118.68609  21654094.760    88669987.86148
  23011901.560   120928356.81908  23011897.520    94229874.12946
  22962327.900   120667844.85709  22962324.040    94026877.58846
  21384237.300   112374980.06909  21384232.680    87564931.89548
  21252006.880   111680085.14409  21252006.360    87023458.70248
 15 02 17 02 04 30.0000000  0  7G04G16G18G19G21G22G27
  24571874.860   129126072.09208  24571875.140   100617725.01044
  20488011.280   107665218.31609  20488007.680    83894967.17748
  21655965.540   113802932.14209  21655962.200    88677634.72248
  22998290.200   120856829.71408  22998286.140    94174138.78446
  22975279.420   120735906.46008  22975275.620    94079912.58647
  21373115.760   112316536.30009  21373111.140    87519391.31648
  21243066.060   111633100.82309  21243065.360    86986847.53448
 15 02 17 02 05  0.0000000  0  7G04G16G18G19G21G22G27
  24553486.980   129029442.93408  24553487.040   100542429.68344
  20487651.660   107663328.31609  20487648.000    83893494.43149
  21657928.660   113813248.77009  21657925.580    88685673.65147
  22984695.280   120785388.04808  22984690.820    94118469.98646
  22988245.520   120804043.94908  22988241.840    94133006.72546
  21362075.680   112258520.27209  21362071.020    87474184.02348
  21234156.580   111586281.33209  21234155.640    86950364.81048
 15 02 17 02 05 30.0000000  0  7G04G16G18G19G21G22G27
  24535125.920   128932957.02008  24535126.300   100467245.88044
  20487397.120   107661990.93909  20487393.480    83892452.31949
  21659986.040   113824060.74509  21659983.080    88694098.59148
  22971115.280   120714024.35608  22971110.400    94062861.92146
  23001224.380   120872248.27408  23001220.620    94186152.96046
  21351115.860   112200926.05609  21351111.180    87429305.44248
  21225277.140   111539619.79109  21225276.320    86914005.18648
 15 02 17 02 06  0.0000000  0  7G04G16G18G19G21G22G27
  24516793.060   128836618.46208  24516793.820   100392176.97445
  20487248.380   107661209.20709  20487244.780    83891843.18449
  21662138.200   113835370.76109  21662135.060    88702911.57947
  22957550.720   120642742.27508  22957545.860    94007317.49147
  23014216.160   120940521.28008  23014212.760    94239352.62546
  21340237.280   112143758.73709  21340232.560    87384759.50648
  21216428.580   111493120.11809  21216427.680    86877771.66048
 15 02 17 02 06 30.0000000  0  7G04G16G18G19G21G22G27
  24498488.140   128740425.92608  24498489.100   100317222.03444
  20487205.100   107660981.62209  20487201.500    83891665.83349
  21664384.540   113847175.14209  21664381.140    88712109.80847
  22944001.060   120571539.11208  22943996.580    93951834.55047
  23027220.280   121008858.59908  23027216.900    94292602.48446
  21329439.740   112087016.98709  21329434.900    87340545.17448
  21207610.400   111446780.37709  21207609.580    86841662.77949
 15 02 17 02 07  0.0000000  0  7G04G16G18G19G21G22G27
  24480212.300   128644387.50108  24480213.320   100242387.23444
  20487268.880   107661316.51009  20487265.160    83891926.76848
  21666726.540   113859481.82009  21666722.840    88721699.43347
  22930468.060   120500423.56308  22930463.940    93896419.88547
  23040238.200   121077267.43708  23040234.600    94345908.07646
  21318725.220   112030711.60209  21318720.280    87296670.85248
  21198824.400   111400609.55909  21198823.820    86805685.54348
 15 02 17 02 07 30.0000000  0  7G04G16G18G19G21G22G27
  24461964.360   128548494.95908  24461965.400   100167666.25644
  20487437.900   107662204.43209  20487434.120    83892618.65149
  21669162.120   113872280.43809  21669158.480    88731672.39547
  22916950.020   120429386.23508  22916946.100    93841066.16047
  23053267.580   121145737.04909  23053264.180    94399260.97446
  21308092.060   111974834.14009  21308087.120    87253129.98948
  21190068.800   111354598.60009  21190068.140    86769832.84749
 15 02 17 02 08  0.0000000  0  7G04G16G18G19G21G22G27
  24443745.840   128452757.64808  24443747.320   100093066.35345
  20487713.880   107663654.73309  20487710.080    83893748.74549
  21671692.920   113885579.69009  21671689.280    88742035.45647
  22903448.740   120358436.53509  22903444.800    93785780.70247
  23066309.980   121214274.80908  23066306.520    94452667.01447
  21297542.420   111919395.79409  21297537.520    87209931.30848
  21181345.560   111308757.68209  21181344.540    86734112.60748
 15 02 17 02 08 30.0000000  0  7G04G16G18G19G21G22G27
  24425555.940   128357170.34008  24425557.120   100018582.99744
  20488095.880   107665662.45909  20488092.160    83895313.20049
  21674317.800   113899373.37809  21674314.300    88752783.79547
  22889963.200   120287569.49909  22889959.120    93730559.67047
  23079363.920   121282873.79208  23079360.080    94506120.74946
  21287075.660   111864392.63809  21287070.740    87167071.73148
  21172653.660   111263081.99109  21172652.600    86698521.20948
 15 02 17 02 09  0.0000000  0  7G04G16G18G19G21G22G27
  24407395.360   128261737.40107  24407396.360    99944219.81545
  20488584.680   107668231.44309  20488581.020    83897314.99648
  21677037.220   113913664.23109  21677033.820    88763919.52047
  22876494.020   120216788.55909  22876489.840    93675405.74048
  23092429.940   121351536.06208  23092426.140    94559623.80846
  21276692.660   111809829.51809  21276687.700    87124555.03248
  21163994.260   111217575.61209  21163993.080    86663061.68548
 15 02 17 02 09 30.0000000  0  7G04G16G18G19G21G22G27
  24389264.400   128166460.34708  24389265.560    99869978.16845
  20489180.440   107671362.64009  20489176.780    83899754.89049
  21679851.320   113928452.60509  21679847.940    88775442.95748
  22863041.480   120146095.02709  22863037.280    93620319.89748
  23105508.060   121420261.41108  23105504.240    94613175.98146
  21266393.860   111755708.89609  21266388.880    87082383.14648
  21155367.340   111172240.19009  21155366.060    86627735.38648
 15 02 17 02 10  0.0000000  0  7G04G16G18G19G21G22G27
  24371162.840   128071337.32107  24371164.160    99795856.36846
  20489882.600   107675052.95509  20489878.960    83902630.45448
  21682759.380   113943735.22909  21682756.060    88787351.49147
  22849605.120   120075486.30509  22849600.840    93565300.14148
  23118597.200   121489045.57908  23118593.040    94666774.06946
  21256178.920   111702029.49709  21256174.040    87040555.06548
  21146772.400   111127073.65209  21146771.360    86592540.69748
 15 02 17 02 10 30.0000000  0  7G04G16G18G19G21G22G27
  24353091.060   127976371.84308  24353093.000    99721857.45645
  20490691.920   107679306.44309  20490688.340    83905944.84449
  21685761.960   113959514.09509  21685758.620    88799646.71247
  22836185.540   120004965.87309  22836181.160    93510349.19648
  23131697.860   121557889.68408  23131694.020    94720418.72546
  21246048.880   111648796.46809  21246044.120    86999074.79748
  21138210.300   111082079.97209  21138209.500    86557480.65449
 15 02 17 02 11  0.0000000  0  7G04G16G18G19G21G22G27
  24335048.880   127881559.91508  24335050.240    99647977.99545
  20491607.460   107684118.08309  20491603.920    83909694.16548
  21688858.080   113975783.84009  21688854.740    88812324.45848
  22822781.840   119934529.08009  22822777.420    93455463.42248
  23144808.800   121626788.14408  23144805.140    94774105.87846
  21236003.200   111596006.62309  21235998.520    86957939.86548
  21129680.360   111037254.94809  21129679.840    86522552.09249
 15 02 17 02 11 30.0000000  0  7G04G16G18G19G21G22G27
  24317037.120   127786907.78008  24317038.600    99574223.15045
  20492630.380   107689494.00809  20492626.900    83913883.19848
  21692048.460   113992549.22709  21692045.020    88825388.40148
  22809395.280   119864182.21409  22809390.840    93400647.70748
  23157930.920   121695745.53108  23157926.900    94827838.90946
  21226043.340   111543667.05309  21226038.620    86917155.81448
  21121183.840   110992605.26809  21121183.160    86487760.14248
 15 02 17 02 12  0.0000000  0  7G04G16G18G19G21G22G27
  24299055.240   127692411.23808  24299056.440    99500589.46244
  20493759.860   107695429.59609  20493756.400    83918508.32848
  21695332.080   114009804.98709  21695328.720    88838834.46548
  22796025.000   119793920.54509  22796020.400    93345898.37348
  23171063.080   121764755.49208  23171059.640    94881612.88046
  21216168.700   111491774.59009  21216163.760    86876720.14448
  21112719.820   110948126.76409  21112719.020    86453101.55348
 15 02 17 02 12 30.0000000  0  7G04G16G18G19G21G22G27
  24281104.520   127598077.61608  24281105.420    99427082.73745
  20494996.960   107701930.60909  20494993.520    83923574.04548
  21698710.020   114027556.38109  21698706.820    88852666.73648
  22782672.200   119723750.80008  22782667.520    93291220.69347
  23184205.920   121833823.01508  23184202.740    94935431.70046
  21206380.460   111440336.46609  21206375.380    86836638.51248
  21104289.720   110903826.43909  21104288.800    86418581.82649
 15 02 17 02 13  0.0000000  0  7G04G16G18G19G21G22G27
  24263183.980   127503903.17608  24263184.680    99353700.12545
  20496341.020   107708993.60209  20496337.580    83929077.67348
  21702181.460   114045798.85609  21702178.120    88866881.65248
  22769335.980   119653669.35008  22769331.440    93236611.79947
  23197358.980   121902942.79308  23197355.620    94989291.25146
  21196678.340   111389351.26609  21196673.160    86796909.80348
  21095893.060   110859701.26209  21095892.400    86384198.56948
 15 02 17 02 13 30.0000000  0  7G04G16G18G19G21G22G27
  24245294.320   127409892.00008  24245295.020    99280444.77146
  20497792.600   107716621.41809  20497789.120    83935021.41548
  21705746.680   114064533.88009  21705743.160    88881480.38447
  22756017.100   119583679.59008  22756012.740    93182074.35947
  23210522.380   121972116.46708  23210518.940    95043192.80946
  21187063.120   111338823.00409  21187057.960    86757537.15448
  21087530.240   110815754.91109  21087529.480    86349954.69049
 15 02 17 02 14  0.0000000  0  7G04G16G18G19G21G22G27
  24227435.900   127316046.23408  24227436.800    99207318.43445
  20499352.000   107724816.03109  20499348.500    83941406.82149
  21709405.820   114083763.11609  21709402.380    88896464.20647
  22742716.160   119513783.54608  22742711.800    93127609.93347
  23223695.960   122041344.37608  23223692.720    95097136.60146
  21177535.400   111288754.67609  21177530.280    86718522.88548
  21079202.020   110771989.98809  21079201.140    86315852.14248
 15 02 17 02 14 30.0000000  0  7G04G16G18G19G21G22G27
  24209607.880   127222360.73308  24209608.720    99134316.89245
  20501018.260   107733572.06309  20501014.720    83948229.69548
  21713157.740   114103480.01709  21713154.420    88911828.02947
  22729432.340   119443976.30609  22729427.920    93073214.70847
  23236878.880   122110619.68009  23236875.780    95151117.33546
  21168094.500   111239142.55109  21168089.420    86679864.11948
  21070907.440   110728401.91009  21070906.700    86281887.43249
 15 02 17 02 15  0.0000000  0  7G04G16G18G19G21G22G27
  24191810.720   127128837.26108  24191811.620    99061441.57044
  20502791.580   107742890.43109  20502788.020    83955490.75348
  21717002.540   114123684.81609  21716999.240    88927572.04547
  22716165.800   119374258.99109  22716161.160    93018889.55647
  23250070.960   122179942.32608  23250067.920    95205135.00446
  21158740.860   111189989.04109  21158735.800    86641562.70948
  21062646.740   110684992.46909  21062646.200    86248061.87349
 15 02 17 02 15 30.0000000  0  7G04G16G18G19G21G22G27
  24174045.820   127035482.30708  24174046.020    98988697.44645
  20504673.000   107752776.93709  20504669.460    83963194.51049
  21720941.100   114144382.35709  21720937.800    88943700.00148
  22702917.580   119304638.15309  22702912.840    92964639.56747
  23263272.760   122249317.15208  23263269.760    95259193.23946
  21149475.820   111141301.37909  21149470.760    86603624.29548
  21054421.620   110641768.36509  21054420.980    86214380.76149
 15 02 17 02 16  0.0000000  0  7G04G16G18G19G21G22G27
  24156312.000   126942290.35508  24156311.900    98916080.36745
  20506661.280   107763225.18209  20506657.780    83971335.99849
  21724972.140   114165565.66509  21724968.920    88960206.48548
  22689686.480   119235107.91909  22689681.800    92910460.18847
  23276482.940   122318736.41509  23276479.080    95313286.20246
  21140298.600   111093075.26209  21140293.560    86566045.51748
  21046230.780   110598724.40809  21046230.060    86180840.02949
 15 02 17 02 16 30.0000000  0  7G04G16G18G19G21G22G27
  24138609.880   126849265.02008  24138609.380    98843593.07945
  20508757.020   107774238.48309  20508753.580    83979917.78449
  21729096.040   114187236.61409  21729092.760    88977092.92947
  22676473.160   119165671.62209  22676468.580    92856353.99547
  23289701.640   122388201.88008  23289698.060    95367415.06846
  21131210.040   111045314.70609  21131205.000    86528829.51048
  21038074.800   110555864.14209  21038074.040    86147442.42349
 15 02 17 02 17  0.0000000  0  7G04G16G18G19G21G22G27
  24120939.880   126756409.70508  24120939.760    98771238.35345
  20510960.680   107785819.05209  20510957.260    83988941.59248
  21733313.060   114209397.35909  21733309.860    88994361.03947
  22663278.300   119096332.29109  22663273.680    92802323.37447
  23302929.360   122457715.16408  23302925.740    95421581.26546
  21122210.880   110998023.51209  21122205.920    86491979.25148
  21029954.580   110513191.49909  21029953.640    86114190.98049
 15 02 17 02 17 30.0000000  0  7G04G16G18G19G21G22G27
  24103301.740   126663720.62008  24103301.920    98699013.12344
  20513271.520   107797962.68209  20513268.200    83998404.16549
  21737622.120   114232042.05309  21737619.020    89012006.27047
  22650101.040   119027085.96909  22650096.300    92748365.24047
  23316165.220   122527270.67708  23316161.360    95475780.34746
  21113300.540   110951199.28309  21113295.700    86455492.86248
  21021869.180   110470702.64509  21021868.220    86081082.79448
 15 02 17 02 18  0.0000000  0  7G04G16G18G19G21G22G27
  24085695.620   126571200.04508  24085695.820    98626919.33045
  20515689.840   107810670.95309  20515686.560    84008306.68949
  21742023.460   114255171.65509  21742020.400    89030029.36747
  22636941.820   118957934.83609  22636937.040    92694481.25747
  23329409.260   122596868.67409  23329405.500    95530012.54546
  21104479.660   110904845.27209  21104474.840    86419372.86148
  21013819.020   110428400.18809  21013818.180    86048119.85349
 15 02 17 02 18 30.0000000  0  7G04G16G18G19G21G22G27
  24068121.940   126478849.69408  24068121.960    98554958.30644
  20518215.780   107823944.86509  20518212.540    84018649.99748
  21746517.100   114278786.02209  21746514.080    89048430.17247
  22623801.000   118888880.30208  22623796.300    92640672.57047
  23342661.380   122666508.48008  23342657.700    95584277.31946
  21095748.580   110858963.28709  21095743.640    86383620.68148
  21005804.980   110386286.08109  21005804.300    86015303.67049
 15 02 17 02 19  0.0000000  0  7G04G16G18G19G21G22G27
  24050580.640   126386669.78708  24050580.260    98483129.81044
  20520849.220   107837784.05909  20520846.040    84029433.77049
  21751102.940   114302884.60009  21751099.820    89067208.29647
  22610678.760   118819923.01209  22610674.140    92586939.64347
  23355921.360   122736189.60708  23355917.780    95638574.27446
  21087107.680   110813555.07209  21087102.560    86348237.66748
  20997827.060   110344361.45609  20997826.360    85982635.15348
 15 02 17 02 19 30.0000000  0  7G04G16G18G19G21G22G27
  24033072.620   126294664.80208  24033072.160    98411437.62045
  20523590.940   107852192.07309  20523587.840    84040660.78649
  21755781.280   114327470.16009  21755778.340    89086365.87347
  22597576.040   118751067.16209  22597571.340    92533285.75347
  23369189.340   122805914.72808  23369186.540    95692905.49646
  21078557.900   110768625.43809  21078552.760    86313227.58348
  20989886.000   110302630.73009  20989885.060    85950117.69848
 15 02 17 02 20  0.0000000  0  7G04G16G18G19G21G22G27
  24015596.640   126202828.41708  24015596.720    98339876.90045
  20526439.560   107867161.63009  20526436.480    84052325.37448
  21760550.820   114352534.30709  21760547.980    89105896.39147
  22584491.360   118682305.95609  22584486.600    92479705.61447
  23382464.360   122875675.37108  23382461.540    95747264.44546
  21070098.200   110724168.97309  21070093.120    86278586.19048
  20981980.580   110261087.80409  20981979.660    85917746.58948
 15 02 17 02 20 30.0000000  0  7G04G16G18G19G21G22G27
  23998153.660   126111164.82808  23998153.900    98268450.75845
  20529395.720   107882696.30109  20529392.660    84064430.30449
  21765411.860   114378079.60909  21765409.040    89125801.82847
  22571425.420   118613643.66509  22571420.840    92426202.56547
  23395746.580   122945474.02908  23395743.320    95801652.98746
  21061729.380   110680190.33809  21061724.340    86244317.15548
  20974111.780   110219737.33809  20974111.100    85885525.44349
 15 02 17 02 21  0.0000000  0  7G04G16G18G19G21G22G27
  23980744.380   126019678.82508  23980744.500    98197163.14445
  20532460.100   107898799.43209  20532456.960    84076978.18649
  21770365.040   114404109.22908  21770362.280    89146084.66348
  22558379.060   118545084.73309  22558374.640    92372780.02948
  23409036.480   123015313.36408  23409032.820    95856073.23646
  21053452.560   110636694.91409  21053447.340    86210424.62748
  20966280.460   110178584.07809  20966279.960    85853457.99048
 15 02 17 02 21 30.0000000  0  7G04G16G18G19G21G22G27
  23963367.900   125928365.47608  23963368.320    98126010.07145
  20535631.660   107915466.02409  20535628.480    84089965.13349
  21775409.260   114430616.57209  21775406.340    89166739.74347
  22545351.500   118476624.45609  22545347.020    92319434.38347
  23422332.840   123085186.90908  23422330.200    95910520.05846
  21045266.860   110593678.65509  21045261.500    86176905.48248
  20958485.980   110137623.65509  20958485.560    85821540.78749
 15 02 17 02 22  0.0000000  0  7G04G16G18G19G21G22G27
  23946024.500   125837227.09108  23946024.860    98054993.61745
  20538910.600   107932696.71309  20538907.400    84103391.63548
  21780544.420   114457601.80909  21780541.500    89187767.17447
  22532343.100   118408264.49509  22532338.440    92266166.89847
  23435636.080   123155094.96908  23435633.380    95964993.91046
  21037172.760   110551144.05109  21037167.360    86143761.64548
  20950728.720   110096858.46309  20950728.100    85789775.66649
 15 02 17 02 22 30.0000000  0  7G04G16G18G19G21G22G27
  23928715.120   125746267.50708  23928715.360    97984116.43645
  20542297.600   107950495.23409  20542294.360    84117260.61548
  21785771.060   114485067.52009  21785768.240    89209169.03748
  22519354.560   118340009.19109  22519349.820    92212980.98148
  23448946.320   123225040.62608  23448943.460    96019497.02746
  21029171.200   110509096.12909  21029165.880    86110997.05148
  20943009.400   110056293.15209  20943008.700    85758166.37248
 15 02 17 02 23  0.0000000  0  7G04G16G18G19G21G22G27
  23911438.860   125655481.37708  23911439.360    97913374.26645
  20545791.480   107968855.42709  20545788.140    84131567.24248
  21791087.800   114513006.92009  21791084.980    89230940.01447
  22506384.940   118271853.30509  22506380.060    92159872.51747
  23462262.500   123295016.35308  23462260.040    96074023.54947
  21021261.340   110467530.06209  21021256.040    86078607.92248
  20935327.200   110015922.95009  20935326.600    85726709.05749
 15 02 17 02 23 30.0000000  0  7G04G16G18G19G21G22G27
  23894197.140   125564876.93808  23894197.460    97842773.85045
  20549393.520   107987784.01709  20549390.140    84146316.78548
  21796495.860   114541426.55609  21796492.940    89253085.19647
  22493435.520   118203804.73909  22493430.760    92106847.72047
  23475585.420   123365028.77308  23475583.140    96128578.65945
  21013444.880   110426454.89709  21013439.660    86046601.33548
  20927683.680   109975756.12609  20927683.080    85695410.23548
 15 02 17 02 24  0.0000000  0  7G04G16G18G19G21G22G27
  23876988.580   125474447.43108  23876989.160    97772309.57845
  20553102.440   108007274.04309  20553099.000    84161503.80848
  21801993.820   114570318.50209  21801990.980    89275598.42948
  22480505.300   118135856.98609  22480500.760    92053901.43147
  23488914.000   123435069.74008  23488911.740    96183156.03646
  21005720.800   110385865.14009  21005715.700    86014972.96748
  20920077.760   109935786.75709  20920077.140    85664265.30149
 15 02 17 02 24 30.0000000  0  7G04G16G18G19G21G22G27
  23859814.880   125384201.06208  23859815.620    97701987.80645
  20556919.440   108027332.38409  20556915.920    84177133.68449
  21807582.740   114599688.81909  21807579.940    89298484.36848
  22467595.960   118068018.53709  22467591.720    92001040.31748
  23502249.060   123505145.90608  23502246.320    96237760.83546
  20998090.760   110345769.56609  20998085.800    85983729.66548
  20912511.060   109896023.62209  20912510.440    85633281.03249
 15 02 17 02 25  0.0000000  0  7G04G16G18G19G21G22G27
  23842675.000   125294132.47408  23842675.760    97631804.58244
  20560843.400   108047952.95709  20560839.860    84193201.64748
  21813261.380   114629530.20609  21813258.400    89321737.38847
  22454706.340   118000283.80009  22454702.300    91948260.01848
  23515589.560   123575250.16608  23515586.460    96292387.50246
  20990553.740   110306162.65009  20990548.840    85952867.16248
  20904982.720   109856461.51909  20904981.860    85602453.40848
 15 02 17 02 25 30.0000000  0  7G04G16G18G19G21G22G27
  23825569.320   125204241.94208  23825569.420    97561760.03245
  20564874.140   108069134.73009  20564870.620    84209706.92148
  21819029.480   114659841.16409  21819026.340    89345356.33148
  22441836.500   117932652.79909  22441832.360    91895560.55948
  23528934.900   123645380.77408  23528931.360    96347034.71746
  20983109.960   110267045.25909  20983104.980    85922386.09848
  20897492.680   109817100.78309  20897491.780    85571782.71749
 15 02 17 02 26  0.0000000  0  7G04G16G18G19G21G22G27
  23808497.940   125114531.34508  23808498.320    97491855.78746
  20569011.800   108090878.54309  20569008.260    84226650.14948
  21824886.940   114690621.86409  21824883.720    89369341.30647
  22428986.880   117865127.38009  22428982.300    91842943.35447
  23542285.280   123715537.92308  23542281.180    96401702.64345
  20975759.900   110228420.16809  20975754.880    85892288.64348
  20890041.420   109777944.06009  20890040.420    85541271.00848
 15 02 17 02 26 30.0000000  0  7G04G16G18G19G21G22G27
  23791461.720   125025005.09408  23791461.840    97422095.18145
  20573257.000   108113187.21209  20573253.400    84244033.52548
  21830834.120   114721874.54809  21830830.900    89393694.06347
  22416158.300   117797712.09609  22416153.480    91790412.01147
  23555641.360   123785724.63308  23555637.880    96456393.55846
  20968504.260   110190291.69809  20968499.380    85862578.16148
  20882629.940   109738995.97309  20882629.060    85510921.85449
 15 02 17 02 27  0.0000000  0  7G04G16G18G19G21G22G27
  23774460.100   124935660.61508  23774460.440    97352476.23645
  20577609.280   108136058.41909  20577605.580    84261855.23948
  21836870.460   114753595.41309  21836867.180    89418411.61947
  22403350.380   117730404.55609  22403345.320    91737964.56748
  23569002.080   123855936.96508  23568998.600    96511104.48046
  20961342.840   110152658.72609  20961338.160    85833253.79248
  20875257.740   109700254.75109  20875256.720    85480733.90749
 15 02 17 02 27 30.0000000  0  7G04G16G18G19G21G22G27
  23757494.260   124846504.79008  23757494.280    97283004.38545
  20582069.500   108159497.03909  20582065.860    84280119.09248
  21842996.720   114785789.30309  21842993.340    89443497.77347
  22390564.120   117663211.29709  22390559.060    91685606.19848
  23582368.320   123926179.84507  23582365.720    96565839.12246
  20954277.080   110115528.20109  20954272.400    85804320.92648
  20867926.300   109661727.45309  20867925.300    85450712.61549
 15 02 17 02 28  0.0000000  0  7G04G16G18G19G21G22G27
  23740562.080   124757525.53908  23740561.900    97213670.06846
  20586635.200   108183490.19109  20586631.620    84298815.04149
  21849210.300   114818442.45609  21849207.080    89468941.79047
  22377797.120   117596120.82709  22377792.540    91633327.97148
  23595738.320   123996439.96608  23595735.300    96620587.27645
  20947304.780   110078888.46209  20947299.940    85775770.49248
  20860633.280   109623402.60609  20860632.220    85420849.11849
 15 02 17 02 28 30.0000000  0  7G04G16G18G19G21G22G27
  23723665.220   124668732.41008  23723664.900    97144480.67045
  20591308.060   108208046.49809  20591304.520    84317949.81648
  21855512.960   114851563.00809  21855509.720    89494750.00347
  22365051.420   117529142.97509  22365047.160    91581137.47348
  23609113.400   124066725.29508  23609110.420    96675355.01346
  20940427.940   110042750.09809  20940422.960    85747610.74248
  20853380.940   109585290.68709  20853379.760    85391151.51949
 15 02 17 02 29  0.0000000  0  7G04G16G18G19G21G22G27
  23706804.260   124580127.56508  23706803.960    97075437.97845
  20596088.320   108233166.81309  20596084.720    84337524.08548
  21861904.520   114885150.88809  21861901.460    89520922.42648
  22352327.540   117462279.52709  22352323.040    91529036.07747
  23622493.180   124137036.48708  23622490.120    96730142.95946
  20933646.920   110007115.35309  20933641.940    85719843.43748
  20846169.420   109547393.80209  20846168.260    85361621.49549
 15 02 17 02 29 30.0000000  0  7G04G16G18G19G21G22G27
  23689978.400   124491707.75408  23689978.500    97006539.59146
  20600975.040   108258846.62409  20600971.320    84357534.31548
  21868383.980   114919200.74309  21868380.960    89547454.78447
  22339625.100   117395527.37109  22339620.460    91477021.40848
  23635877.140   124207368.50308  23635874.320    96784947.13945
  20926961.240   109971981.54709  20926956.300    85692466.46448
  20838998.320   109509709.47209  20838997.060    85332257.09049
 15 02 17 02 30  0.0000000  0  7G04G16G18G19G21G22G27
  23673188.140   124403475.04908  23673188.040    96937786.93046
  20605968.380   108285087.18609  20605964.700    84377981.50648
  21874951.520   114953713.21009  21874948.280    89574347.61147
  22326944.260   117328888.64209  22326939.680    91425095.18748
  23649265.200   124277722.04508  23649261.540    96839768.09145
  20920371.340   109937351.19409  20920366.420    85665481.79048
  20831868.120   109472240.25709  20831866.940    85303060.31049
 15 02 17 02 30 30.0000000  0  7G04G16G18G19G21G22G27
  23656433.140   124315427.47408  23656433.300    96869178.60745
  20611067.660   108311884.68309  20611064.120    84398862.65648
  21881606.360   114988684.19109  21881602.880    89601597.74947
  22314284.660   117262361.79509  22314279.900    91373256.11047
  23662656.620   124348093.93007  23662653.000    96894603.30846
  20913876.880   109903222.60009  20913871.940    85638888.09048
  20824778.620   109434984.72809  20824777.620    85274030.03949
 15 02 17 02 31  0.0000000  0  7G04G16G18G19G21G22G27
  23639714.060   124227568.32808  23639713.600    96800717.22845
  20616273.520   108339241.98009  20616270.140    84420180.01848
  21888348.620   115024114.84109  21888345.120    89629206.05847
  22301646.980   117195950.03909  22301641.940    91321506.65748
  23676051.840   124418485.59608  23676048.460    96949453.94246
  20907478.580   109869599.32009  20907473.600    85612688.15048
  20817730.420   109397946.42609  20817729.380    85245169.00749
 15 02 17 02 31 30.0000000  0  7G04G16G18G19G21G22G27
  23623031.140   124139899.13108  23623030.760    96732403.75746
  20621586.060   108367159.40609  20621582.740    84441933.85648
  21895178.420   115060005.68509  21895174.800    89657172.94147
  22289031.480   117129655.39909  22289026.600    91269848.57048
  23689451.040   124488897.53208  23689447.200    97004320.37845
  20901177.020   109836484.15409  20901171.920    85586884.14748
  20810724.100   109361128.04509  20810723.140    85216479.36749
 15 02 17 02 32  0.0000000  0  7G04G16G18G19G21G22G27
  23606384.860   124052422.55508  23606384.140    96664240.25646
  20627005.440   108395638.35009  20627002.140    84464125.24248
  21902095.960   115096357.61109  21902092.440    89685499.13247
  22276438.700   117063480.53209  22276433.960    91218283.75548
  23702853.800   124559331.15308  23702850.720    97059203.64546
  20894972.680   109803879.92509  20894967.480    85561478.27748
  20803760.260   109324532.86109  20803759.360    85187963.64549
 15 02 17 02 32 30.0000000  0  7G04G16G18G19G21G22G27
  23589774.540   123965136.38908  23589774.120    96596225.17346
  20632530.940   108424675.13509  20632527.700    84486751.29648
  21909100.300   115133165.75809  21909096.940    89714180.81947
  22263868.260   116997423.49909  22263863.820    91166810.78948
  23716260.100   124629781.60408  23716256.720    97114100.13946
  20888865.120   109771784.42609  20888859.940    85536468.81748
  20796838.440   109288158.80809  20796837.480    85159620.27549
 15 02 17 02 33  0.0000000  0  7G04G16G18G19G21G22G27
  23573200.120   123878037.70508  23573199.640    96528356.11645
  20638161.800   108454265.15009  20638158.540    84509808.43548
  21916190.620   115170425.75409  21916187.280    89743214.57847
  22251319.780   116931481.66909  22251315.640    91115427.57848
  23729668.800   124700245.77808  23729665.260    97169007.31045
  20882853.960   109740195.18809  20882848.680    85511853.84248
  20789958.280   109252003.70209  20789957.260    85131447.47149
 15 02 17 02 33 30.0000000  0  7G04G16G18G19G21G22G27
  23556662.120   123791129.40108  23556661.640    96460635.44145
  20643898.420   108484410.52109  20643895.040    84533298.31748
  21923367.120   115208138.29809  21923363.520    89772600.98247
  22238793.920   116865658.05909  22238789.780    91064136.45548
  23743080.200   124770724.73708  23743077.840    97223925.90046
  20876939.720   109709115.67609  20876934.380    85487636.06148
  20783120.500   109216071.18609  20783119.500    85103448.13048
 15 02 17 02 34  0.0000000  0  7G04G16G18G19G21G22G27
  23540161.000   123704416.35208  23540160.500    96393066.93246
  20649741.500   108515115.35709  20649738.020    84557224.16348
  21930630.260   115246306.55609  21930626.660    89802342.48447
  22226291.800   116799957.91609  22226287.460    91012941.53048
  23756495.480   124841221.92608  23756493.280    97278858.75245
  20871123.320   109678550.92909  20871118.140    85463819.40348
  20776326.100   109180366.60109  20776325.100    85075626.36449
 15 02 17 02 34 30.0000000  0  7G04G16G18G19G21G22G27
  23523696.360   123617893.75108  23523695.440    96325646.76245
  20655689.760   108546372.89209  20655686.180    84581580.66948
  21937978.740   115284923.20309  21937975.080    89832433.41648
  22213812.080   116734376.21108  22213807.660    90961838.92848
  23769912.980   124911731.22508  23769910.280    97333801.09646
  20865404.040   109648496.54609  20865398.980    85440400.40948
  20769574.200   109144885.75509  20769573.340    85047978.95749
 15 02 17 02 35  0.0000000  0  7G04G16G18G19G21G22G27
  23507268.540   123531565.03209  23507267.500    96258377.70445
  20661743.580   108578185.42109  20661739.920    84606369.64948
  21945412.940   115323990.73409  21945409.560    89862875.61347
  22201355.520   116668916.92709  22201351.080    90910831.71648
  23783333.260   124982254.85808  23783330.580    97388754.61646
  20859782.700   109618956.35209  20859777.640    85417382.10348
  20762865.760   109109632.84409  20762864.940    85020509.18549
 15 02 17 02 35 30.0000000  0  7G04G16G18G19G21G22G27
  23490877.440   123445429.01808  23490876.440    96191258.78946
  20667902.500   108610550.57509  20667898.780    84631589.23748
  21952932.340   115363505.28509  21952929.040    89893666.18947
  22188922.020   116603579.13709  22188918.060    90859919.23048
  23796755.480   125052789.84908  23796753.880    97443716.84746
  20854259.040   109589929.30409  20854253.960    85394763.62648
  20756200.580   109074607.14909  20756199.800    84993216.40749
 15 02 17 02 36  0.0000000  0  7G04G16G18G19G21G22G27
  23474523.940   123359490.33608  23474522.660    96124293.61346
  20674167.100   108643471.08309  20674163.360    84657241.56948
  21960537.260   115403469.65109  21960533.860    89924807.26847
  22176512.900   116538368.10209  22176508.640    90809105.39148
  23810180.320   125123339.55908  23810178.080    97498690.65745
  20848833.940   109561420.57109  20848828.940    85372549.04548
  20749579.620   109039814.15909  20749578.860    84966104.96849
 15 02 17 02 36 30.0000000  0  7G04G16G18G19G21G22G27
  23458207.020   123273745.07809  23458205.780    96057479.19846
  20680536.380   108676942.00409  20680532.660    84683322.81048
  21968226.720   115443878.28809  21968223.300    89956294.51347
  22164126.860   116473279.74709  22164122.700    90758387.29348
  23823607.320   125193899.01808  23823604.480    97553672.07445
  20843506.640   109533425.88809  20843501.740    85350735.03648
  20743002.320   109005250.48409  20743001.580    84939172.28649
 15 02 17 02 37  0.0000000  0  7G04G16G18G19G21G22G27
  23441927.380   123188195.43908  23441926.300    95990817.23645
  20687010.460   108710963.96809  20687006.840    84709833.42148
  21976000.700   115484731.21009  21975997.320    89988127.98347
  22151764.660   116408316.76509  22151760.460    90707766.79847
  23837036.420   125264469.04708  23837033.840    97608661.68646
  20838277.880   109505948.67409  20838272.980    85329324.22848
  20736469.220   108970919.02509  20736468.560    84912420.52049
 15 02 17 02 37 30.0000000  0  7G04G16G18G19G21G22G27
  23425685.160   123102842.85608  23425683.700    95924308.75045
  20693589.460   108745537.13109  20693585.940    84736773.52948
  21983859.020   115526027.91609  21983855.880    90020307.23147
  22139426.780   116343480.75209  22139422.220    90657245.23448
  23850467.680   125335049.46508  23850465.380    97663659.39445
  20833147.780   109478990.06609  20833142.860    85308317.53748
  20729980.680   108936821.89609  20729980.200    84885851.29949
 15 02 17 02 38  0.0000000  0  7G04G16G18G19G21G22G27
  23409480.340   123017687.04508  23409479.580    95857953.68146
  20700273.180   108780660.39009  20700269.680    84764142.29548
  21991801.420   115567766.30609  21991798.340    90052830.64647
  22127113.360   116278772.26609  22127108.380    90606823.02448
  23863900.740   125405639.24208  23863897.900    97718664.44245
  20828116.380   109452550.20409  20828111.380    85287715.06148
  20723536.880   108902959.65809  20723536.360    84859465.18349
 15 02 17 02 38 30.0000000  0  7G04G16G18G19G21G22G27
  23393313.600   122932732.15308  23393313.060    95791755.14246
  20707061.980   108816335.76909  20707058.480    84791941.26948
  21999828.260   115609948.21809  21999825.400    90085699.65847
  22114824.800   116214195.16109  22114819.620    90556503.21748
  23877335.820   125476241.10108  23877332.680    97773678.82846
  20823184.460   109426633.09209  20823179.480    85267519.91748
  20717138.640   108869336.93509  20717138.000    84833265.65049
 15 02 17 02 39  0.0000000  0  7G04G16G18G19G21G22G27
  23377183.400   122847967.53508  23377183.240    95725704.85646
  20713953.520   108852551.34309  20713950.060    84820161.19248
  22007937.240   115652561.17509  22007934.460    90118904.58247
  22102559.280   116149739.36109  22102554.260    90506277.98948
  23890771.260   125546842.90208  23890768.300    97828693.20045
  20818350.080   109401228.55809  20818345.180    85247724.18848
  20710784.180   108835943.92509  20710783.520    84807245.11549
 15 02 17 02 39 30.0000000  0  7G04G16G18G19G21G22G27
  23361092.080   122763407.20608  23361091.640    95659813.76646
  20720950.280   108889319.78309  20720946.900    84848811.91548
  22016130.500   115695617.13109  22016127.720    90152454.68147
  22090319.900   116085419.85209  22090314.680    90456158.84748
  23904208.840   125617457.83808  23904205.660    97883717.78745
  20813615.940   109376350.80809  20813611.080    85228338.93948
  20704476.280   108802795.43509  20704475.680    84781415.15549
 15 02 17 02 40  0.0000000  0  7G04G16G18G19G21G22G27
  23345038.000   122679041.74008  23345037.420    95594074.49945
  20728049.980   108926629.53409  20728046.720    84877884.44248
  22024405.940   115739104.78509  22024403.120    90186341.18247
  22078104.220   116021226.72209  22078099.800    90406138.31048
  23917647.020   125688075.06508  23917643.900    97938744.15945
  20808980.320   109351990.44209  20808975.480    85209356.86248
  20698213.320   108769882.64309  20698212.700    84755768.83049
 15 02 17 02 40 30.0000000  0  7G04G16G18G19G21G22G27
  23329022.220   122594878.31308  23329021.540    95528492.66846
  20735253.920   108964486.94109  20735250.740    84907383.71148
  22032764.600   115783029.12309  22032761.700    90220567.94247
  22065914.180   115957167.82409  22065909.740    90356222.26748
  23931086.720   125758700.76507  23931083.140    97993777.20345
  20804444.680   109328154.98309  20804439.760    85190783.79348
  20691996.660   108737213.46409  20691995.860    84730312.29749
 15 02 17 02 41  0.0000000  0  7G04G16G18G19G21G22G27
  23313044.780   122510916.82808  23313044.120    95463068.22345
  20742561.700   109002889.53409  20742558.540    84937307.80648
  22041205.880   115827388.00209  22041202.940    90255133.30347
  22053749.900   115893243.59909  22053745.340    90306411.16848
  23944527.200   125829333.27408  23944523.660    98048815.46045
  20800008.920   109304844.39509  20800003.860    85172619.72148
  20685826.340   108704788.50809  20685825.500    84705046.12049
 15 02 17 02 41 30.0000000  0  7G04G16G18G19G21G22G27
  23297105.220   122427153.89008  23297104.260    95397798.45346
  20749972.560   109041833.55109  20749969.400    84967653.78748
  22049728.880   115872176.30109  22049725.740    90290033.27847
  22041610.400   115829451.17109  22041605.540    90256702.79148
  23957968.500   125899967.63008  23957964.040    98103855.29645
  20795672.420   109282055.42109  20795667.260    85154862.09448
  20679702.060   108672605.35509  20679701.360    84679968.35249
 15 02 17 02 42  0.0000000  0  7G04G16G18G19G21G22G27
  23281203.840   122343591.22709  23281202.740    95332684.76045
  20757486.440   109081318.70709  20757483.180    84998421.41948
  22058333.380   115917393.39809  22058330.220    90325267.37447
  22029496.380   115765792.22309  22029492.220    90207098.46148
  23971410.440   125970604.97108  23971406.180    98158897.31245
  20791435.420   109259789.54709  20791430.260    85137512.08448
  20673624.200   108640666.19009  20673623.500    84655080.66649
 15 02 17 02 42 30.0000000  0  7G04G16G18G19G21G22G27
  23265341.200   122260232.53608  23265339.980    95267729.99545
  20765103.640   109121347.17209  20765100.300    85029612.42248
  22067020.000   115963041.28809  22067016.940    90360837.14947
  22017408.700   115702271.44309  22017404.120    90157601.73748
  23984852.800   126041247.86907  23984849.040    98213943.67445
  20787298.740   109238050.96809  20787293.540    85120572.94848
  20667593.640   108608975.80609  20667593.020    84630386.87149
 15 02 17 02 43  0.0000000  0  7G04G16G18G19G21G22G27
  23249516.340   122177071.54508  23249514.620    95202929.27145
  20772822.700   109161910.87709  20772819.280    85061220.49048
  22075787.000   116009111.33209  22075783.720    90396735.87547
  22005346.200   115638882.84609  22005341.860    90108208.08248
  23998295.160   126111888.34908  23998291.180    98268988.27045
  20783261.180   109216833.41809  20783255.860    85104039.80348
  20661609.480   108577528.40509  20661608.800    84605882.40549
 15 02 17 02 43 30.0000000  0  7G04G16G18G19G21G22G27
  23233731.500   122094121.86408  23233729.940    95138293.21546
  20780645.860   109203021.59209  20780642.420    85093254.81148
  22084636.420   116055614.90709  22084632.860    90432972.45647
  21993311.740   115575640.58309  21993307.120    90058928.37248
  24011739.140   126182539.26907  24011735.960    98324040.89445
  20779325.340   109196150.53409  20779320.000    85087923.28648
  20655674.320   108546338.47609  20655673.540    84581578.57749
 15 02 17 02 44  0.0000000  0  7G04G16G18G19G21G22G27
  23217984.500   122011372.69908  23217983.260    95073813.44546
  20788570.940   109244667.77009  20788567.440    85125706.36848
  22093566.000   116102539.50709  22093562.520    90469537.07947
  21981302.860   115512534.30209  21981298.340    90009754.70048
  24025183.580   126253189.24808  24025181.400    98379092.74245
  20775489.200   109175991.50809  20775483.860    85072214.96948
  20649786.280   108515396.19409  20649785.360    84557467.72849
 15 02 17 02 44 30.0000000  0  7G04G16G18G19G21G22G27
  23202276.080   121928824.43609  23202274.980    95009490.16946
  20796597.540   109286847.53209  20796594.020    85158573.70548
  22102575.300   116149883.34609  22102571.800    90506428.39047
  21969319.880   115449564.82209  21969315.360    89960687.58948
  24038627.560   126323836.57108  24038624.260    98434142.69444
  20771752.820   109156356.86409  20771747.480    85056915.25248
  20643945.460   108484702.64609  20643944.520    84533550.67149
 15 02 17 02 45  0.0000000  0  7G04G16G18G19G21G22G27
  23186607.240   121846483.92908  23186606.100    94945328.77646
  20804726.520   109329565.80009  20804723.020    85191860.66348
  22111665.300   116197651.32909  22111661.760    90543650.19447
  21957364.740   115386739.67209  21957360.380    89911732.92948
  24052071.440   126394487.34807  24052068.740    98489195.13745
  20768117.440   109137253.44109  20768112.240    85042029.48748
  20638153.400   108454265.57009  20638152.520    84509833.49649
 15 02 17 02 45 30.0000000  0  7G04G16G18G19G21G22G27
  23170977.280   121764349.11508  23170976.520    94881327.71246
  20812957.240   109372818.98509  20812953.860    85225564.44448
  22120835.060   116245839.16409  22120831.800    90581199.14747
  21945436.940   115324057.21809  21945432.140    89862889.46248
  24065515.800   126465138.87008  24065512.960    98544248.30445
  20764582.780   109118679.10909  20764577.680    85027555.99749
  20632409.880   108424083.67609  20632409.220    84486315.12449
 15 02 17 02 46  0.0000000  0  7G04G16G18G19G21G22G27
  23155385.760   121682415.83108  23155385.200    94817483.64246
  20821288.780   109416602.02009  20821285.480    85259681.08048
  22130083.600   116294440.38609  22130080.280    90619070.23547
  21933535.520   115261513.73509  21933530.400    89814154.29948
  24078959.900   126535785.76408  24078957.540    98599297.80346
  20761148.160   109100629.70909  20761142.960    85013491.53648
  20626714.340   108394153.54809  20626713.800    84462992.92849
 15 02 17 02 46 30.0000000  0  7G04G16G18G19G21G22G27
  23139833.620   121600689.71708  23139832.960    94753800.99846
  20829721.820   109460918.20709  20829718.580    85294213.16948
  22139411.520   116343458.59209  22139407.940    90657266.24647
  21921661.540   115199115.00009  21921656.240    89765531.92748
  24092403.880   126606431.80708  24092400.560    98654346.68045
  20757814.500   109083110.71909  20757809.180    84999840.38748
  20621067.920   108364481.69209  20621067.400    84439872.02849
 15 02 17 02 47  0.0000000  0  7G04G16G18G19G21G22G27
  23124321.460   121519172.63208  23124320.680    94690281.23746
  20838256.360   109505767.79309  20838253.220    85329160.87948
  22148818.580   116392893.45109  22148815.040    90695786.93947
  21909815.620   115136864.24709  21909810.600    89717024.87148
  24105847.180   126677077.98707  24105844.060    98709395.65545
  20754582.040   109066123.95909  20754576.720    84986603.96548
  20615471.300   108335070.87109  20615470.740    84416954.50849
 15 02 17 02 47 30.0000000  0  7G04G16G18G19G21G22G27
  23108848.260   121437860.44808  23108847.400    94626921.18646
  20846891.300   109551144.79309  20846888.220    85364519.56448
  22158303.800   116442739.03409  22158300.320    90734627.65247
  21897997.200   115074757.43409  21897992.000    89668629.92348
  24119290.060   126747719.72108  24119287.800    98764441.10346
  20751450.020   109049665.23009  20751444.780    84973779.00048
  20609923.680   108305917.68209  20609922.980    84394237.71449
 15 02 17 02 48  0.0000000  0  7G04G16G18G19G21G22G27
  23093414.000   121356752.78108  23093412.960    94563720.43445
  20855626.240   109597047.05309  20855623.060    85400287.56048
  22167866.800   116492993.03009  22167863.340    90773786.60647
  21886206.260   115012795.13009  21886200.840    89620347.64148
  24132732.180   126818356.24408  24132729.700    98819482.51345
  20748418.440   109033734.36409  20748413.220    84961365.35848
  20604425.200   108277022.78509  20604424.440    84371722.25349
 15 02 17 02 48 30.0000000  0  7G04G16G18G19G21G22G27
  23078019.940   121275857.16108  23078018.820    94500684.90745
  20864462.200   109643480.53309  20864458.980    85436469.47848
  22177508.480   116543660.56409  22177505.020    90813267.79147
  21874444.380   114950985.34209  21874439.360    89572184.19848
  24146174.080   126888992.53408  24146171.000    98874523.70244
  20745488.740   109018338.91809  20745483.580    84949368.90948
  20598977.500   108248394.52709  20598976.580    84349414.51149
 15 02 17 02 49  0.0000000  0  7G04G16G18G19G21G22G27
  23062666.260   121195173.72709  23062665.280    94437814.76946
  20873398.900   109690443.69409  20873395.800    85473064.13748
  22187228.520   116594739.95809  22187225.200    90853069.90047
  21862711.600   114889328.76709  21862705.960    89524140.06748
  24159615.600   126959628.37708  24159611.720    98929564.69845
  20742660.880   109003478.66809  20742655.720    84937789.50048
  20593580.740   108220033.94109  20593579.800    84327315.32549
 15 02 17 02 49 30.0000000  0  7G04G16G18G19G21G22G27
  23047351.180   121114692.67808  23047350.300    94375102.32246
  20882434.180   109737924.66409  20882431.180    85510062.28148
  22197024.620   116646218.71909  22197021.300    90893183.26347
  21851005.900   114827816.19209  21851000.560    89476208.24548
  24173055.120   127030253.54207  24173052.120    98984597.18645
  20739932.940   108989143.51409  20739927.760    84926619.26448
  20588233.120   108191932.04509  20588232.260    84305417.76449
 15 02 17 02 50  0.0000000  0  7G04G16G18G19G21G22G27
  23032076.600   121034423.85308  23032075.440    94312555.23546
  20891569.600   109785931.73009  20891566.660    85547470.37448
  22206898.180   116698104.91809  22206894.780    90933614.05447
  21839329.740   114766458.56309  21839324.920    89428397.12048
  24186494.060   127100876.70508  24186490.700    99039628.17044
  20737306.740   108975343.37109  20737301.680    84915865.93748
  20582936.840   108164099.61709  20582935.860    84283730.19249
 15 02 17 02 50 30.0000000  0  7G04G16G18G19G21G22G27
  23016840.900   120954359.24708  23016839.300    94250167.26346
  20900803.220   109834454.48609  20900800.260    85585280.30848
  22216847.120   116750388.31209  22216843.800    90974354.34047
  21827681.620   114705248.06709  21827676.660    89380700.62648
  24199931.400   127171488.58508  24199927.180    99094650.56845
  20734780.780   108962069.79009  20734775.820    84905522.89548
  20577690.440   108136529.54109  20577689.500    84262247.01249
 15 02 17 02 51  0.0000000  0  7G04G16G18G19G21G22G27
  23001646.280   120874510.77209  23001645.160    94187947.77246
  20910137.120   109883503.80009  20910134.060    85623500.53648
  22226873.580   116803078.33209  22226870.440    91015411.51347
  21816063.740   114644197.14909  21816058.800    89333128.50948
  24213368.120   127242099.82608  24213364.620    99149672.18244
  20732357.340   108949334.85009  20732352.380    84895599.57948
  20572496.460   108109234.63209  20572495.420    84240978.22149
 15 02 17 02 51 30.0000000  0  7G04G16G18G19G21G22G27
  22986491.480   120794871.32709  22986490.240    94125891.09546
  20919569.420   109933070.34509  20919566.220    85662123.81248
  22236975.800   116856166.04609  22236972.980    91056778.55847
  21804475.020   114583299.38309  21804470.000    89285675.69048
  24226802.920   127312702.32308  24226800.420    99204687.05745
  20730034.980   108937130.81009  20730030.000    84886089.95048
  20567353.560   108082208.54109  20567352.500    84219918.95349
 15 02 17 02 52  0.0000000  0  7G04G16G18G19G21G22G27
  22971376.460   120715440.80409  22971374.960    94063997.22146
  20929099.700   109983152.13909  20929096.440    85701148.57448
  22247153.400   116909649.29309  22247150.280    91098453.82447
  21792915.740   114522555.43009  21792911.040    89238342.75648
  24240235.940   127383295.38507  24240233.440    99259694.62244
  20727813.620   108925457.40809  20727808.620    84876993.80548
  20562261.940   108055452.27909  20562261.060    84199069.88849
 15 02 17 02 52 30.0000000  0  7G04G16G18G19G21G22G27
  22956301.560   120636220.90209  22956299.780    94002267.46946
  20938727.860   110033748.23009  20938724.520    85740574.10448
  22257406.100   116963527.13309  22257402.740    91140436.51547
  21781386.120   114461967.46409  21781381.900    89191131.38548
  24253667.660   127453879.84208  24253665.080    99314695.56945
  20725693.480   108914316.09009  20725688.420    84868312.27248
  20557222.140   108028968.27409  20557221.300    84178433.01449
 15 02 17 02 53  0.0000000  0  7G04G16G18G19G21G22G27
  22941266.740   120557212.09808  22941264.620    93940702.22046
  20948453.880   110084858.24809  20948450.380    85780400.07948
  22267733.740   117017798.53209  22267730.200    91182725.96747
  21769886.520   114401536.91608  21769882.380    89144042.66448
  24267097.920   127524455.45208  24267095.400    99369689.49345
  20723674.660   108903707.22709  20723669.620    84860045.62448
  20552234.560   108002758.15109  20552233.600    84158009.51549
 15 02 17 02 53 30.0000000  0  8G04G11G16G18G19G21G22G27
  22926273.080   120478421.54908  22926271.240    93879307.06746
  24611832.120   129336055.04604  24611830.660   100781318.63543
  20958278.800   110136487.90709  20958275.160    85820630.97048
  22278137.100   117072468.33209  22278133.620    91225325.80147
  21758418.700   114341272.06109  21758414.300    89097083.04748
  24280527.720   127595028.88607  24280524.920    99424681.76345
  20721758.580   108893638.01909  20721753.560    84852199.50648
  20547300.580   107976829.99009  20547299.700    84137805.80049
 15 02 17 02 54  0.0000000  0  9G04G11G16G18G19G21G22G27G32
  22911319.960   120399843.35809  22911318.280    93818077.32546
  24594917.160                    24594914.320                  
  20968200.860   110188628.39609  20968197.280    85861259.90848
  22288614.620   117127527.90609  22288611.160    91268229.38947
  21746981.580   114281167.10709  21746976.700    89050248.01448
  24293955.520   127665592.78207  24293953.220    99479666.52145
  20719943.960   108884101.87209  20719938.960    84844768.73048
  20542419.300   107951178.50209  20542418.360    84117817.63549
  24498278.580   128739328.05408  24498278.120   100316350.66644
 15 02 17 02 54 30.0000000  0  9G04G11G16G18G19G21G22G27G32
  22896407.000   120321475.97308  22896405.140    93757011.87146
  24578010.960   129158313.88406  24578008.080   100642840.63943
  20978219.360   110241276.27109  20978215.880    85902284.22248
  22299165.740   117182974.02209  22299162.160    91311434.11847
  21735574.580   114221221.46709  21735569.340    89003537.11748
  24307381.140   127736143.89307  24307378.300    99534641.48045
  20718230.440   108875097.10609  20718225.480    84837752.04849
  20537590.580   107925803.36509  20537589.640    84098044.79749
  24475631.260   128620313.55308  24475630.700   100223612.21244
 15 02 17 02 55  0.0000000  0  9G04G11G16G18G19G21G22G27G32
  22881533.140   120243313.71608  22881531.320    93696106.25346
  24561117.700   129069538.86506  24561115.400   100573665.32544
  20988332.920   110294424.06209  20988329.480    85943698.07148
  22309788.820   117238798.61009  22309785.400    91354933.80747
  21724197.020   114161430.42809  21724191.840    88956946.67748
  24320803.160   127806676.78708  24320800.680    99589602.06444
  20716616.860   108866617.77709  20716611.920    84831144.78148
  20532813.500   107900699.92109  20532812.600    84078483.65849
  24452988.240   128501323.09708  24452987.880   100130892.49745
 15 02 17 02 55 30.0000000  0  9G04G11G16G18G19G21G22G27G32
  22866702.100   120165376.14309  22866700.760    93635375.71546
  24544239.380   128980843.36207  24544237.520   100504551.99644
  20998544.960   110348089.13909  20998541.580    85985515.00848
  22320487.180   117295019.32308  22320483.620    91398742.12347
  21712852.200   114101814.18409  21712847.220    88910492.49848
  24334225.400   127877210.18607  24334223.100    99644563.11745
  20715107.000   108858683.05709  20715101.860    84824961.89348
  20528092.040   107875888.60509  20528091.160    84059150.16749
  24430353.740   128382378.41408  24430353.620   100038208.42944
 15 02 17 02 56  0.0000000  0  9G04G11G16G18G19G21G22G27G32
  22851911.520   120087650.51409  22851910.000    93574810.32446
  24527373.680   128892214.01006  24527372.120   100435490.23044
  21008852.760   110402257.28009  21008849.440    86027723.93348
  22331258.000   117351620.91409  22331254.600    91442847.29547
  21701538.260   114042360.42009  21701533.320    88864164.93348
  24347645.140   127947730.20008  24347641.900    99699513.82944
  20713698.200   108851279.86909  20713693.040    84819193.18448
  20523424.000   107851357.51909  20523423.040    84040035.05149
  24407725.960   128263468.88508  24407725.980    99945551.72945
 15 02 17 02 56 30.0000000  0  9G04G11G16G18G19G21G22G27G32
  22837161.480   120010138.62009  22837159.360    93514411.48546
  24510520.960   128803653.02807  24510519.500   100366481.75543
  21019256.260   110456927.95209  21019252.900    86070324.45448
  22342101.360   117408603.28909  22342097.980    91487249.11747
  21690256.200   113983072.42409  21690250.920    88817966.46848
  24361062.580   128018238.33508  24361059.460    99754455.18846
  20712390.800   108844409.59009  20712385.660    84813839.73548
  20518809.880   107827109.72609  20518808.860    84021140.67549
  24385105.720   128144598.81908  24385106.040    99852925.73845
 15 02 17 02 57  0.0000000  0  9G04G11G16G18G19G21G22G27G32
  22822452.180   119932840.92409  22822450.140    93454179.53446
  24493681.420   128715160.36107  24493680.160   100297526.45343
  21029755.060   110512099.54509  21029751.680    86113315.29848
  22353016.880   117465964.55009  22353013.500    91531946.21047
  21679005.900   113923951.07409  21679000.240    88771897.86248
  24374477.520   128088734.13408  24374474.660    99809386.85044
  20711184.860   108838072.38509  20711179.760    84808901.66148
  20514249.860   107803146.39409  20514248.800    84002467.92049
  24362493.460   128025770.83208  24362493.800    99760332.53044
 15 02 17 02 57 30.0000000  0  9G04G11G16G18G19G21G22G27G32
  22807783.660   119855757.96109  22807782.000    93394114.91746
  24476854.960   128626736.34407  24476853.560   100228624.69744
  21040348.780   110567770.29709  21040345.520    86156695.08848
  22364004.120   117523702.88808  22364000.900    91576937.14347
  21667787.160   113864997.39309  21667781.860    88725959.93548
  24387890.000   128159216.65908  24387886.400    99864308.32144
  20710080.440   108832268.22009  20710075.220    84804378.94348
  20509744.160   107779468.95909  20509743.180    83984018.00249
  24339889.760   127906987.65008  24339889.740    99667774.23944
 15 02 17 02 58  0.0000000  0  9G04G11G16G18G19G21G22G27G32
  22793156.060   119778890.30808  22793154.520    93334218.08846
  24460041.740   128538382.17207  24460040.180   100159777.35344
  21051037.400   110623939.50609  21051034.240    86200463.30148
  22375062.820   117581816.68108  22375059.540    91622220.59347
  21656600.560   113806213.16309  21656595.960    88680154.09748
  24401300.020   128229685.41607  24401295.640    99919219.11844
  20709077.460   108826997.34609  20709072.100    84800271.79348
  20505293.140   107756079.14109  20505292.200    83965792.15549
  24317295.160   127788252.21008  24317294.980    99575253.12145
 15 02 17 02 58 30.0000000  0  9G04G11G16G18G19G21G22G27G32
  22778569.760   119702240.41408  22778569.020    93274490.95246
  24443242.260   128450100.26607  24443240.560   100090986.33044
  21061821.000   110680607.36509  21061817.820    86244620.04748
  22386193.020   117640306.22709  22386189.740    91667796.85947
  21645447.020   113747601.57409  21645442.540    88634482.68648
  24414707.720   128300143.00808  24414703.980    99974120.99245
  20708176.320   108822261.82009  20708170.900    84796581.77948
  20500897.400   107732980.48509  20500896.660    83947793.22549
  24294710.620   127669569.60608  24294710.160    99482773.11544
 15 02 17 02 59  0.0000000  0  9G04G11G16G18G19G21G22G27G32
  22764024.220   119625804.10208  22764023.740    93214930.21846
  24426455.600   128361886.04308  24426453.900   100022248.02544
  21072698.360   110737767.45009  21072695.000    86289160.35948
  22397393.500   117699165.05209  22397390.100    91713660.86046
  21634325.780   113689159.42809  21634321.380    88588943.37448
  24428112.660   128370584.89008  24428108.280   100029010.80444
  20707376.200   108818056.88509  20707370.700    84793305.21948
  20496556.560   107710169.62709  20496555.920    83930018.52449
  24272135.800   127550937.61708  24272135.040    99390332.57145
 15 02 17 02 59 30.0000000  0  9G04G11G16G18G19G21G22G27G32
  22749520.260   119549585.71108  22749519.900    93155539.32646
  24409682.700   128273744.20308  24409681.100    99953566.12945
  21083669.800   110795422.00509  21083666.180    86334085.98048
  22408664.740   117758395.47109  22408661.120    91759814.44947
  21623237.520   113630891.62409  21623233.120    88543539.87448
  24441514.820   128441013.68707  24441510.840   100083890.33345
  20706677.740   108814386.39509  20706672.280    84790445.10148
  20492271.560   107687652.02009  20492270.920    83912472.33949
  24249572.040   127432363.11708  24249570.980    99297936.89244
 15 02 17 03 00  0.0000000  0  9G04G11G16G18G19G21G22G27G32
  22735058.100   119473586.75209  22735057.200    93096319.39346
  24392923.740   128185676.10708  24392922.360    99884941.72745
  21094735.040   110853570.06509  21094731.340    86379396.15348
  22420006.560   117817996.60409  22420002.880    91806256.89747
  21612183.100   113572800.57309  21612178.840    88498274.11648
  24454914.520   128511430.49008  24454910.580   100138760.55444
  20706081.140   108811251.43609  20706075.780    84788002.28148
  20488042.880   107665430.00709  20488042.240    83895156.47749
  24227019.880   127313849.84708  24227018.440    99205588.95745
 15 02 17 03 00 30.0000000  0  9G04G11G16G18G19G21G22G27G32
  22720636.920   119397802.59308  22720636.060    93037266.84646
  24376177.960   128097677.03808  24376176.440    99816371.08945
  21105893.000   110912205.55609  21105889.340    86425086.14648
  22431417.580   117877961.78709  22431413.700    91852983.01046
  21601161.580   113514882.75109  21601157.560    88453143.40348
  24468310.980   128581829.73008  24468306.700   100193617.13044
  20705585.460   108808647.11609  20705580.200    84785972.96248
  20483869.820   107643500.20809  20483869.140    83878068.33849
  24204478.840   127195395.70108  24204477.440    99113287.08644
 15 02 17 03 01  0.0000000  0  9G04G11G16G18G19G21G22G27G32
  22706257.820   119322239.50509  22706256.440    92978386.54546
  24359446.640   128009753.75208  24359444.980    99747859.50445
  21117144.480   110971332.09909  21117140.880    86471158.76348
  22442898.540   117938295.12509  22442894.940    91899995.99647
  21590174.560   113457145.45609  21590170.480    88408153.27848
  24481705.200   128652217.51707  24481700.640   100248464.73944
  20705191.800   108806579.11809  20705186.720    84784361.54548
  20479753.720   107621869.85409  20479752.980    83861213.51349
  24181950.600   127077009.09308  24181949.340    99021037.82845
 15 02 17 03 01 30.0000000  0  9G04G11G16G18G19G21G22G27G32
  22691919.700   119246891.78508  22691918.260    92919674.08646
  24342728.740   127921900.33508  24342726.940    99679402.36144
  21128488.040   111030942.58909  21128484.420    86517608.47448
  22454448.020   117998988.55709  22454444.480    91947289.54546
  21579220.980   113399583.87809  21579217.020    88363300.10548
  24495096.220   128722587.25308  24495092.480   100303298.24745
  20704899.140   108805041.30009  20704894.080    84783163.25048
  20475693.700   107600534.30809  20475692.880    83844588.44049
  24159434.520   126958686.91108  24159433.640    98928838.78745
 15 02 17 03 02  0.0000000  0  9G04G11G16G18G19G21G22G27G32
  22677623.420   119171764.10609  22677621.880    92861133.05846
  24326024.960   127834121.31808  24326023.060    99611003.17045
  21139923.920   111091038.56209  21139920.280    86564436.49948
  22466066.620   118060044.45209  22466063.200    91994865.57547
  21568302.180   113342203.50209  21568297.740    88318588.07248
  24508484.020   128792943.06106  24508480.800   100358120.94844
  20704708.160   108804037.70409  20704703.060    84782381.23148
  20471690.840   107579499.16509  20471689.960    83828197.39049
  24136931.860   126840435.92507  24136931.120    98836695.16545
 15 02 17 03 02 30.0000000  0  9G04G11G16G18G19G21G22G27G32
  22663369.220   119096857.01209  22663367.520    92802763.91946
  24309335.420   127746417.51608  24309333.620    99542662.61345
  21151451.860   111151618.87909  21151448.320    86611641.92348
  22477753.880   118121461.11309  22477750.460    92042722.71547
  21557417.840   113285005.11309  21557413.640    88274017.94648
  24521868.760   128863284.18008  24521866.420   100412932.12645
  20704618.680   108803567.77809  20704613.640    84782015.05448
  20467745.420   107558765.88509  20467744.580    83812041.60149
  24114443.260   126722259.11308  24114442.600    98744609.34644
 15 02 17 03 03  0.0000000  0  9G04G11G16G18G19G21G22G27G32
  22649155.860   119022164.32609  22649154.000    92744561.88347
  24292659.040   127658782.66608  24292657.300    99474375.77645
  21163070.500   111212675.77509  21163067.020    86659218.70448
  22489508.120   118183230.17109  22489504.640    92090854.47047
  21546567.200   113227984.15509  21546563.040    88229586.04548
  24535250.260   128933604.14808  24535248.100   100467726.90645
  20704629.640   108803625.37609  20704624.580    84782059.95048
  20463856.520   107538329.50709  20463855.580    83796117.13049
  24091968.260   126604152.93008  24091967.840    98652578.64845
 15 02 17 03 03 30.0000000  0  9G04G11G16G18G19G21G22G27G32
  22634984.820   118947694.15409  22634982.680    92686533.20346
  24275997.300   127571224.71608  24275995.560    99406148.86546
  21174780.920   111274214.57109  21174777.440    86707171.01148
  22501330.440   118245357.37609  22501327.260    92139265.24847
  21535752.280   113171149.72809  21535747.800    88185299.45448
  24548629.180   129003910.57107  24548627.280   100522511.09345
  20704742.500   108804218.00709  20704737.340    84782521.75148
  20460025.840   107518198.95609  20460024.860    83780431.02549
  24069508.760   126486127.69708  24069508.340    98560611.07845
 15 02 17 03 04  0.0000000  0  9G04G11G16G18G19G21G22G27G32
  22620855.320   118873442.62309  22620853.460    92628674.89446
  24259349.560   127483740.19608  24259347.700    99337979.16346
  21186581.860   111336229.17109  21186578.440    86755494.05548
  22513219.820   118307836.77109  22513216.540    92187950.50347
  21524971.980   113114498.92409  21524967.400    88141156.00948
  24562004.860   129074198.97808  24562003.080   100577281.25145
  20704956.320   108805341.09009  20704951.060    84783396.88448
  20456252.860   107498371.67809  20456251.840    83764981.16849
  24047064.460   126368181.96008  24047063.980    98468705.40145
 15 02 17 03 04 30.0000000  0  9G04G11G16G18G19G21G22G27G32
  22606767.180   118799408.14909  22606764.660    92570985.73846
  24242715.440   127396327.59708  24242713.500    99269865.52546
  21198472.500   111398715.30309  21198469.340    86804184.53948
  22525175.620   118370664.51209  22525172.420    92236907.14547
  21514226.600   113058031.26409  21514221.700    88097155.21848
  24575376.760   129144467.29408  24575374.580   100632035.73245
  20705270.560   108806992.38709  20705265.300    84784683.61048
  20452537.460   107478847.04109  20452536.440    83749767.17949
  24024635.420   126250316.47208  24024634.700    98376862.21944
 15 02 17 03 05  0.0000000  0  9G04G11G16G18G19G21G22G27G32
  22592721.460   118725597.64209  22592719.200    92513471.13147
  24226096.300   127308993.74808  24226094.360    99201813.25945
  21210453.960   111461678.58109  21210451.020    86853246.82648
  22537198.640   118433845.29108  22537195.100    92286138.96847
  21503517.460   113001754.05609  21503512.580    88053302.84348
  24588745.800   129214721.08007  24588743.720   100686778.84245
  20705686.400   108809178.29309  20705681.220    84786386.92748
  20448881.140   107459632.89709  20448880.060    83734795.10049
  24002223.320   126132540.44708  24002222.440    98285088.69445
 15 02 17 03 05 30.0000000  0  9G04G11G16G18G19G21G22G27G32
  22578717.260   118652005.56109  22578715.460    92456126.67846
  24209491.080   127221733.14008  24209489.060    99133818.03744
  21222524.700   111525110.97709  21222521.860    86902674.65448
  22549287.420   118497371.59609  22549283.720    92335639.92846
  21492843.740   112945663.07909  21492838.600    88009595.58448
  24602111.120   129284954.59508  24602107.260   100741506.36943
  20706202.760   108811892.27209  20706197.620    84788501.72248
  20445283.000   107440724.82709  20445282.040    83720061.54249
  23979827.600   126014851.03208  23979826.800    98193382.73745
 15 02 17 03 06  0.0000000  0  9G04G11G16G18G19G21G22G27G32
  22564755.360   118578636.11908  22564753.580    92398955.71847
  24192900.560   127134550.07808  24192898.600    99065883.27445
  21234685.020   111589014.27109  21234682.260    86952469.42348
  22561442.100   118561244.86508  22561438.360    92385411.32947
  21482206.160   112889763.37809  21482200.960    87966037.41048
  24615472.860   129355171.54107  24615469.060   100796220.86444
  20706820.360   108815137.75509  20706815.200    84791030.68148
  20441744.100   107422128.12409  20441743.200    83705570.59449
  23957449.480   125897254.77808  23957448.760    98101749.43245
 15 02 17 03 06 30.0000000  0  9G04G11G16G18G19G21G22G27G32
  22550835.740   118505489.36209  22550833.740    92341958.28246
  24176324.900   127047444.98108  24176323.080    98998009.23845
  21246934.580   111653386.27709  21246931.820    87002629.42148
  22573662.320   118625462.88608  22573658.920    92435451.32747
  21471605.280   112834056.02909  21471600.560    87922629.08048
  24628831.300   129425371.55807  24628828.420   100850922.06145
  20707539.040   108818914.45509  20707533.820    84793973.56748
  20438264.700   107403843.84509  20438263.820    83691323.12449
  23935089.600   125779753.94308  23935089.120    98010190.37445
 15 02 17 03 07  0.0000000  0  9G04G11G16G18G19G21G22G27G32
  22536958.020   118432563.29609  22536956.140    92285132.85947
  24159763.580   126960415.77608  24159761.820    98930194.36545
  21259272.580   111718222.79409  21259269.780    87053151.36448
  22585947.500   118690021.90309  22585944.440    92485757.03247
  21461040.880   112778540.30009  21461035.980    87879370.08348
  24642186.360   129495551.92008  24642183.920   100905608.00644
  20708358.280   108823219.80809  20708353.140    84797328.38648
  20434844.520   107385871.11409  20434843.760    83677318.37649
  23912748.080   125662349.39608  23912747.760    97918706.41645
 15 02 17 03 07 30.0000000  0  9G04G11G16G18G19G21G22G27G32
  22523121.900   118359854.87009  22523120.560    92228476.94547
  24143216.200   126873459.12208  24143214.420    98862435.98145
  21271697.980   111783518.55909  21271695.260    87104031.17848
  22598296.720   118754916.58609  22598293.280    92536324.31946
  21450512.660   112723214.03809  21450507.720    87836258.73948
  24655537.160   129565708.91207  24655534.060   100960275.86544
  20709277.440   108828049.82709  20709272.280    84801092.03748
  20431483.320   107368207.93409  20431482.640    83663554.86549
  23890424.800   125545040.39008  23890424.340    97827296.99545
 15 02 17 03 08  0.0000000  0  9G04G11G16G18G19G21G22G27G32
  22509328.800   118287371.36709  22509327.320    92171996.33646
  24126684.360   126786583.03108  24126682.300    98794740.37045
  21284211.620   111849278.13209  21284208.960    87155272.39248
  22610710.540   118820151.55009  22610707.020    92587156.73946
  21440022.080   112668085.59709  21440016.980    87793301.50448
  24668884.160   129635849.44907  24668880.900   101014930.79344
  20710297.720   108833410.85609  20710292.440    84805269.47348
  20428182.640   107350862.50909  20428181.960    83650038.95449
  23868121.640   125427836.43608  23868121.080    97735969.37645
 15 02 17 03 08 30.0000000  0  9G04G11G16G18G19G21G22G27G32
  22495577.940   118215109.29809  22495576.160    92115688.23947
  24110167.180   126699783.82908  24110164.920    98727104.67745
  21296812.500   111915495.94509  21296809.800    87206870.68348
  22623188.000   118885721.35509  22623184.580    92638250.09746
  21429568.660   112613152.74409  21429563.960    87750496.72048
  24682227.380   129705969.15807  24682224.380   101069569.47845
  20711418.160   108839298.55109  20711412.840    84809857.30148
  20424942.060   107333832.55009  20424941.240    83636768.84849
  23845838.380   125310736.37008  23845837.680    97644722.56345
 15 02 17 03 09  0.0000000  0  9G04G11G16G18G19G21G22G27G32
  22481869.100   118143067.99009  22481867.640    92059552.20847
  24093664.460   126613061.21108  24093662.080    98659528.68145
  21309500.100   111982169.49209  21309497.240    87258824.07548
  22635728.620   118951622.90009  22635725.180    92689601.91146
  21419152.460   112558415.39309  21419147.960    87707844.24348
  24695566.700   129776067.15607  24695563.440   101124191.25044
  20712638.560   108845711.92709  20712633.260    84814854.74248
  20421761.520   107317118.43709  20421760.620    83623744.84949
  23823575.360   125193742.31208  23823574.480    97553558.40145
 15 02 17 03 09 30.0000000  0  9G04G11G16G18G19G21G22G27G32
  22468203.060   118071252.32309  22468201.820    92003591.97746
  24077177.000   126526419.88008  24077174.880    98592016.04445
  21322274.880   112049301.28009  21322271.880    87311134.55148
  22648332.780   119017858.86208  22648329.600    92741214.35347
  21408774.860   112503879.87509  21408770.180    87665348.99748
  24708902.740   129846147.90508  24708899.260   101178799.59644
  20713959.820   108852655.40809  20713954.560    84820265.26148
  20418642.260   107300726.22909  20418641.320    83610971.69249
  23801333.860   125076861.73908  23801332.940    97462482.73546
 15 02 17 03 10  0.0000000  0  9G04G11G16G18G19G21G22G27G32
  22454579.580   117999660.46609  22454578.080    91947806.13047
  24060704.600   126439857.94508  24060702.860    98524565.28445
  21335135.980   112116886.55409  21335132.920    87363798.38048
  22660999.920   119084425.11609  22660996.680    92793084.13746
  21398435.280   112449545.08409  21398430.720    87623010.21548
  24722235.040   129916208.83408  24722231.480   101233392.52644
  20715381.240   108860125.73509  20715376.060    84826086.28948
  20415584.000   107284654.96409  20415583.080    83598448.65149
  23779113.920   124960095.04108  23779113.020    97371495.80945
 15 02 17 03 10 30.0000000  0  9G04G11G16G18G19G21G22G27G32
  22440998.340   117928290.95909  22440996.680    91892193.56947
  24044247.340   126353374.93308  24044245.820    98457176.02645
  21348082.800   112184922.18709  21348079.680    87416813.14748
  22673729.160   119151318.23909  22673726.060    92845208.64046
  21388133.800   112395410.93509  21388129.160    87580827.76348
  24735563.100   129986248.21207  24735559.640   101287968.61245
  20716902.620   108868120.91709  20716897.540    84832316.31548
  20412586.800   107268904.60809  20412585.920    83586175.62449
  23756915.860   124843443.45108  23756915.020    97280598.50145
 15 02 17 03 11  0.0000000  0  9G04G11G16G18G19G21G22G27G32
  22427459.580   117857144.48209  22427458.060    91836754.77046
  24027805.200   126266971.00908  24027803.520    98389848.32645
  21361114.860   112253405.56209  21361111.640    87470176.80248
  22686520.340   119218536.25409  22686517.000    92897586.30646
  21377870.860   112341478.93409  21377866.260    87538802.83848
  24748886.920   130056266.04407  24748883.460   101342527.96045
  20718523.820   108876640.38309  20718518.760    84838954.86048
  20409650.980   107253476.49209  20409650.000    83574153.71949
  23734740.160   124726909.74708  23734739.200    97189793.01545
 15 02 17 03 11 30.0000000  0  9G04G11G16G18G19G21G22G27G32
  22413963.120   117786220.82609  22413961.660    91781489.64946
  24011378.120   126180646.20008  24011376.220    98322582.28445
  21374231.680   112322334.51709  21374228.380    87523887.68248
  22699372.860   119286076.93409  22699369.380    92950215.39146
  21367646.600   112287750.28009  21367642.160    87496936.38348
  24762206.760   130126261.58008  24762203.280   101397069.89444
  20720244.560   108885683.23509  20720239.520    84846001.23448
  20406776.660   107238371.71509  20406775.640    83562383.73449
  23712587.420   124610496.48608  23712586.280    97099081.37745
 15 02 17 03 12  0.0000000  0  9G04G11G16G18G19G21G22G27G32
  22400509.240   117715520.81909  22400507.800    91726398.76347
  23994966.200   126094401.50408  23994964.200    98255378.67645
  21387433.040   112391707.73809  21387429.600    87577944.73148
  22712286.480   119353938.74608  22712283.280    93003094.72746
  21357461.460   112234227.01809  21357457.000    87455229.95148
  24775522.480   130196235.28307  24775518.980   101451594.86644
  20722064.920   108895249.54709  20722059.880    84853455.52348
  20403964.180   107223592.05109  20403963.280    83550867.15249
  23690458.280   124494206.91508  23690456.980    97008466.11945
 15 02 17 03 12 30.0000000  0  9G04G11G16G18G19G21G22G27G32
  22387098.580   117645047.59309  22387097.180    91671484.62047
  23978570.100   126008240.09208  23978568.220    98188240.00945
  21400719.060   112461526.00809  21400715.460    87632348.56548
  22725261.480   119422122.74209  22725258.340    93056225.08146
  21347316.200   112180913.18309  21347311.280    87413686.67948
  24788834.400   130266190.11307  24788831.060   101506105.00844
  20723985.360   108905341.81109  20723980.360    84861319.60848
  20401214.440   107209141.83109  20401213.480    83539607.23249
  23668353.780   124378046.68408  23668352.400    96917951.61945
 15 02 17 03 13  0.0000000  0  9G04G11G16G18G19G21G22G27G32
  22373730.220   117574796.37408  22373728.800    91616743.41647
  23962189.120   125922157.34808  23962187.340    98121162.61045
  21414088.300   112531781.85909  21414084.660    87687093.37248
  22738296.460   119490621.15009  22738293.260    93109600.44546
  21337210.000   112127805.04309  21337205.400    87372303.75348
  24802141.720   130336120.49908  24802137.800   101560596.23944
  20726004.780   108915954.07409  20725999.820    84869588.91448
  20398526.640   107195017.35709  20398525.640    83528601.13849
  23646273.520   124262013.69108  23646272.080    96827536.31645
 15 02 17 03 13 30.0000000  0  9G04G11G16G18G19G21G22G27G32
  22360404.340   117504767.99709  22360402.840    91562175.89347
  23945823.420   125836154.67308  23945821.360    98054147.55545
  21427540.460   112602473.71309  21427536.980    87742177.92548
  22751391.100   119559433.69809  22751387.560    93163220.61646
  21327143.480   112074904.96309  21327138.900    87331082.91248
  24815444.620   130406026.93007  24815440.100   101615068.82343
  20728123.200   108927086.26509  20728118.180    84878263.37148
  20395901.120   107181220.56309  20395900.140    83517850.40449
  23624218.100   124146111.11708  23624216.520    96737222.58745
 15 02 17 03 14  0.0000000  0  9G04G11G16G18G19G21G22G27G32
  22347121.180   117434965.48208  22347119.740    91507784.36447
  23929473.400   125750234.99808  23929471.300    97987197.18145
  21441075.700   112673602.34909  21441072.420    87797602.81948
  22764545.640   119628560.59409  22764542.240    93217085.70646
  21317117.340   112022216.54609  21317112.500    87290026.98848
  24828743.180   130475912.13007  24828739.420   101669524.73444
  20730340.820   108938740.30909  20730335.880    84887344.44548
  20393338.740   107167755.48109  20393337.760    83507358.09749
  23602188.540   124030344.44308  23602186.960    96647014.76045
 15 02 17 03 14 30.0000000  0  9G04G11G16G18G19G21G22G27G32
  22333881.720   117365392.09909  22333880.180    91453571.39047
  23913139.660   125664401.74508  23913137.780    97920314.23745
  21454694.240   112745168.68609  21454691.060    87853368.78148
  22777760.080   119698002.74509  22777756.440    93271196.51246
  21307132.120   111969744.49409  21307127.500    87249139.70348
  24842038.080   130545778.72807  24842035.320   101723966.15045
  20732658.300   108950918.89109  20732653.380    84896834.24348
  20390840.320   107154626.54209  20390839.420    83497127.76849
  23580186.040   123914719.73908  23580184.280    96556917.59345
 15 02 17 03 15  0.0000000  0  9G04G11G16G18G19G21G22G27G32
  22320684.660   117296041.08608  22320683.140    91399531.64347
  23896821.280   125578648.32608  23896819.180    97853493.44145
  21468394.280   112817163.19209  21468391.160    87909468.38048
  22791032.740   119767751.34909  22791029.240    93325546.01446
  21297187.200   111917483.16609  21297182.540    87208416.59148
  24855328.560   130615619.68908  24855326.100   101778387.63645
  20735074.200   108963614.12909  20735069.240    84906726.65348
  20388404.800   107141827.91609  20388403.920    83487154.81349
  23558209.640   123799232.38208  23558207.700    96466927.39746
 15 02 17 03 15 30.0000000  0  9G04G11G16G18G19G21G22G27G32
  22307530.300   117226914.89409  22307528.740    91345667.08847
  23880518.700   125492977.37508  23880516.320    97786736.91545
  21482175.900   112889586.03109  21482172.800    87965901.76048
  22804363.700   119837806.36108  22804360.040    93380134.35346
  21287282.980   111865436.24109  21287277.980    87167860.57448
  24868614.560   130685437.02607  24868611.800   101832790.75143
  20737588.740   108976827.35109  20737583.700    84917022.69248
  20386032.800   107129363.25109  20386031.980    83477442.09849
  23536260.180   123683887.62708  23536258.300    96377048.38246
 15 02 17 03 16  0.0000000  0  9G04G11G16G18G19G21G22G27G32
  22294419.080   117158015.42808  22294417.560    91291979.20947
  23864232.200   125407391.26808  23864229.800    97720046.50445
  21496039.000   112962436.84809  21496035.820    88022668.60648
  22817752.940   119908167.57608  22817749.320    93434961.26446
  21277420.340   111813607.13509  21277415.340    87127474.22048
  24881896.260   130755232.51307  24881892.780   101887176.87844
  20740202.020   108990559.76009  20740196.920    84927723.27048
  20383725.040   107117235.68809  20383724.200    83467992.04149
  23514338.680   123568689.88208  23514337.080    96287283.90545
 15 02 17 03 16 30.0000000  0  9G04G11G16G18G19G21G22G27G32
  22281351.560   117089344.85009  22281350.160    91238469.70847
  23847962.020   125321892.04908  23847959.960    97653423.85645
  21509983.420   113035715.10109  21509980.200    88079768.55648
  22831200.280   119978834.53109  22831196.920    93490026.40346
  21267599.460   111761998.85609  21267594.900    87087260.03048
  24895174.060   130825007.52908  24895171.160   101941546.91145
  20742914.160   109004812.25709  20742909.020    84938829.11048
  20381482.080   107105448.22009  20381481.220    83458807.00449
  23492446.000   123453643.74508  23492444.460    96197637.59545
 15 02 17 03 17  0.0000000  0  9G04G11G16G18G19G21G22G27G32
  22268326.740   117020898.25409  22268325.220    91185134.76347
  23831707.700   125236475.01308  23831705.800    97586865.18045
  21524007.740   113109413.23509  21524004.540    88137195.66148
  22844704.560   120049800.49309  22844701.500    93545324.52246
  21257819.940   111710607.54609  21257815.360    87047214.86248
  24908447.180   130894757.03108  24908444.500   101995897.12045
  20745724.180   109019579.07209  20745719.000    84950335.72348
  20379303.040   107093997.10109  20379302.260    83449884.04849
  23470581.680   123338746.91908  23470580.140    96108107.59745
 15 02 17 03 17 30.0000000  0 10G04G11G14G16G18G19G21G22G27G32
  22255344.480   116952675.16909  22255342.560    91131973.91747
  23815469.140   125151140.21008  23815466.980    97520370.59445
  24676559.820   129676201.91807  24676557.700   101046374.92245
  21538111.380   113183528.27409  21538108.240    88194947.61348
  22858265.440   120121062.93108  22858262.180    93600853.73446
  21248082.040   111659434.30209  21248077.420    87007339.60348
  24921715.280   130964480.43407  24921712.780   102050227.00144
  20748631.800   109034858.70709  20748626.620    84962241.95848
  20377188.100   107082883.09509  20377187.320    83441223.77549
  23448746.200   123224001.80808  23448744.880    96018695.90645
 15 02 17 03 18  0.0000000  0 10G04G11G14G16G18G19G21G22G27G32
  22242406.800   116884687.49109  22242405.000    91078996.53047
  23799248.520   125065899.58308  23799245.840    97453949.39044
  24662460.160   129602110.73106  24662458.880   100988641.55745
  21552296.260   113258070.24509  21552293.160    88253032.26248
  22871884.600   120192631.12509  22871881.000    93656621.14746
  21238388.180   111608492.25409  21238383.300    86967644.49448
  24934980.180   131034188.84806  24934976.760   102104545.23942
  20751639.040   109050661.99209  20751633.900    84974556.20948
  20375139.840   107072119.08009  20375138.940    83432836.21049
  23426942.320   123109422.63308  23426941.280    95929413.58445
 15 02 17 03 18 30.0000000  0 10G04G11G14G16G18G19G21G22G27G32
  22229510.680   116816919.16809  22229509.040    91026190.06747
  23783042.660   124980737.04308  23783039.480    97387588.99345
  24648364.220   129528037.44407  24648363.100   100930922.14844
  21566558.860   113333020.43509  21566555.660    88311434.99548
  22885558.300   120264486.88209  22885554.780    93712612.62846
  21228735.300   111557766.33209  21228730.540    86928117.84548
  24948239.060   131103866.09107  24948235.800   102158839.26245
  20754742.640   109066971.73809  20754737.540    84987265.10448
  20373155.340   107061690.12009  20373154.400    83424709.75449
  23405167.500   122994995.65808  23405166.520    95840249.76445
 15 02 17 03 19  0.0000000  0 10G04G11G14G16G18G19G21G22G27G32
  22216658.120   116749378.51209  22216656.120    90973561.01147
  23766853.240   124895661.42908  23766850.140    97321296.35045
  24634274.160   129453993.20807  24634272.660   100873225.31344
  21580900.240   113408384.39409  21580896.960    88370160.15848
  22899287.920   120336636.16009  22899284.360    93768832.83246
  21219125.520   111507266.29209  21219120.760    86888767.14648
  24961493.740   131173520.24307  24961490.820   102213115.09245
  20757944.120   109083795.30309  20757938.900    85000374.39048
  20371236.280   107051605.55009  20371235.360    83416851.63549
  23383423.700   122880731.89808  23383422.740    95751213.11546
 15 02 17 03 19 30.0000000  0 10G04G11G14G16G18G19G21G22G27G32
  22203848.620   116682063.67509  22203846.220    90921107.90647
  23750680.100   124810671.34708  23750677.340    97255070.37345
  24620189.540   129379978.34308  24620188.080   100815551.42144
  21595319.400   113484157.03709  21595316.060    88429203.76748
  22913072.480   120409074.62208  22913069.120    93825278.39346
  21209558.420   111456991.06109  21209553.800    86849591.66848
  24974743.660   131243149.14007  24974740.980   102267371.32245
  20761242.760   109101129.39009  20761237.440    85013881.46749
  20369382.640   107041864.59509  20369381.720    83409261.29749
  23361711.100   122766632.09308  23361710.060    95662304.29946
 15 02 17 03 20  0.0000000  0 10G04G11G14G16G18G19G21G22G27G32
  22191082.160   116614975.23609  22191079.580    90868831.24547
  23734523.420   124725767.56708  23734520.840    97188911.65245
  24606111.460   129305996.64307  24606109.760   100757903.33644
  21609816.100   113560337.71009  21609812.840    88488565.32248
  22926912.000   120481801.23308  22926908.500    93881948.49246
  21200034.460   111406943.01709  21200029.840    86810593.19248
  24987988.600   131312752.96007  24987986.600   102321607.98144
  20764638.440   109118973.70609  20764633.120    85027786.14348
  20367594.760   107032469.01709  20367593.880    83401940.06449
  23340030.300   122652699.53408  23340029.460    95573525.85846
 15 02 17 03 20 30.0000000  0 10G04G11G14G16G18G19G21G22G27G32
  22178358.760   116548114.67609  22178356.360    90816732.12047
  23718383.380   124640951.72908  23718380.920    97122821.45745
  24592040.620   129232052.68907  24592038.520   100700284.65344
  21624390.040   113636924.70409  21624386.900    88548243.48248
  22940805.860   120554814.97208  22940802.660    93938842.25146
  21190554.380   111357124.80309  21190549.760    86771773.77848
  25001229.300   131382332.96407  25001227.100   102375826.29943
  20768131.220   109137328.80109  20768125.980    85042088.80948
  20365873.060   107023421.44609  20365872.080    83394889.99049
  23318381.960   122538938.06408  23318381.380    95484880.67946
 15 02 17 03 21  0.0000000  0 10G04G11G14G16G18G19G21G22G27G32
  22165679.020   116481483.39909  22165677.140    90764811.68147
  23702260.340   124556225.26508  23702257.760    97056800.87945
  24577977.460   129158149.97507  24577975.280   100642698.15344
  21639041.100   113713917.00909  21639038.140    88608237.46548
  22954754.320   120628114.84409  22954751.160    93995959.00246
  21181118.480   111307538.98409  21181113.940    86733135.52748
  25014465.360   131451890.30006  25014463.360   102430026.74945
  20771721.180   109156194.82009  20771716.000    85056789.61548
  20364217.960   107014724.20809  20364217.040    83388112.92149
  23296766.900   122425351.62108  23296766.520    95396371.87946
 15 02 17 03 21 30.0000000  0 10G04G11G14G16G18G19G21G22G27G32
  22153042.320   116415076.72209  22153040.320    90713066.21647
  23686153.540   124471583.87409  23686150.840    96990846.59645
  24563921.800   129084286.59407  24563919.440   100585142.29244
  21653767.940   113791307.18409  21653765.080    88668541.49148
  22968756.120   120701694.13309  22968752.860    94053293.50246
  21171726.220   111258182.07009  21171721.560    86694675.58848
  25027696.440   131521419.83507  25027694.520   102484205.53645
  20775407.340   109175565.86609  20775402.180    85071883.93048
  20362628.860   107006373.80709  20362628.060    83381606.11749
  23275184.840   122311938.15208  23275184.360    95307997.84046
 15 02 17 03 22  0.0000000  0  9G04G11G14G16G18G19G22G27G32
  22140448.980   116348897.73009  22140447.000    90661498.20747
  23670063.680   124387030.90008  23670060.920    96924961.20945
  24549874.800   129010468.63207  24549872.320   100527621.81345
  21668570.600   113869095.56609  21668567.840    88729155.80248
  22982811.220   120775553.23109  22982807.380    94110846.08546
  21162378.440   111209058.58509  21162373.580    86656397.54348
  20779190.000   109195444.00509  20779184.940    85087373.39148
  20361106.600   106998374.36009  20361105.840    83375372.76449
  23253636.880   122198703.37508  23253636.180    95219763.04145
 15 02 17 03 22 30.0000000  0  9G04G11G14G16G18G19G22G27G32
  22127899.060   116282947.61009  22127897.600    90610108.49947
  23653990.980   124302567.97108  23653988.280    96859145.98045
  24535837.080   128936699.82108  24535834.800   100470139.62544
  21683448.800   113947281.02209  21683446.060    88790079.51448
  22996919.240   120849691.54909  22996915.960    94168616.15046
  21153075.500   111160171.00809  21153070.480    86618303.32348
  20783069.140   109215828.94209  20783064.120    85103257.78849
  20359651.480   106990728.08909  20359650.800    83369414.62449
  23232123.720   122085650.80408  23232122.820    95131670.14745
 15 02 17 03 23  0.0000000  0  9G04G11G14G16G18G19G22G27G32
  22115392.500   116217226.19508  22115391.140    90558897.05647
  23637935.380   124218195.28908  23637932.780    96793401.10545
  24521809.340   128862983.28507  24521807.440   100412698.14344
  21698402.180   114025861.60309  21698399.440    88851311.12348
  23011080.000   120924106.67708  23011076.220    94226602.02646
  21143817.700   111111520.70209  21143812.460    86580393.98548
  20787044.520   109236719.59409  20787039.500    85119536.17548
  20358263.840   106983436.23609  20358263.240    83363732.66149
  23210645.860   121972783.43608  23210644.780    95043721.58346
 15 02 17 03 23 30.0000000  0 10G01G04G11G14G16G18G19G22G27G32
  24589811.960   129220328.24307  24589814.560   100691167.37545
  22102929.540   116151734.24808  22102928.220    90507864.39747
  23621897.000   124133913.51408  23621894.520    96727727.08345
  24507792.040   128789321.68708  24507790.040   100355299.50944
  21713430.300   114104834.45209  21713427.460    88912848.40448
  23025293.020   120998796.81708  23025289.520    94284802.07946
  21134605.200   111063109.30509  21134600.060    86542670.83748
  20791116.120   109258115.29809  20791110.920    85136208.18348
  20356944.020   106976500.21709  20356943.340    83358327.98149
  23189203.740   121860104.10608  23189202.700    94955919.53946
 15 02 17 03 24  0.0000000  0 10G01G04G11G14G16G18G19G22G27G32
  24574596.940   129140371.97707  24574599.400   100628863.91246
  22090510.960   116086474.35409  22090509.760    90457012.58747
  23605876.380   124049725.54508  23605873.960    96662126.07845
  24493786.040   128715720.39608  24493784.040   100297947.85445
  21728533.060   114184199.39509  21728530.080    88974691.20348
  23039558.380   121073762.09509  23039554.700    94343216.59646
  21125439.000   111014940.67709  21125433.840    86505136.82448
  20795284.060   109280017.52109  20795278.740    85153274.85648
  20355692.500   106969923.58509  20355691.780    83353203.32049
  23167798.320   121747617.93908  23167797.360    94868268.06346
 15 02 17 03 24 30.0000000  0 10G01G04G11G14G16G18G19G22G27G32
  24559404.300   129060533.57308  24559406.780   100566652.25546
  22078134.960   116021438.06909  22078133.540    90406334.95847
  23589872.020   123965623.69708  23589869.860    96596592.23845
  24479790.600   128642174.46408  24479788.760   100240639.37944
  21743708.380   114263945.76709  21743705.240    89036831.22548
  23053874.400   121148992.98008  23053870.760    94401838.07345
  21116317.660   110967007.91209  21116312.660    86467786.66248
  20799546.540   109302416.61309  20799541.080    85170728.69948
  20354508.160   106963699.55309  20354507.500    83348353.43749
  23146428.700   121635319.63608  23146427.740    94780762.97445
 15 02 17 03 25  0.0000000  0 10G01G04G11G14G16G18G19G22G27G32
  24544235.040   128980818.21708  24544237.400   100504536.49146
  22065802.700   115956630.95609  22065800.680    90355835.95247
  23573885.280   123881613.53608  23573883.080    96531129.86145
  24465807.060   128568691.81307  24465805.260   100183380.18544
  21758956.900   114344077.11809  21758953.600    89099271.23448
  23068241.260   121224491.65408  23068237.480    94460668.21346
  21107242.420   110919318.05209  21107237.680    86430625.75548
  20803904.300   109325316.83009  20803898.860    85188573.02248
  20353392.100   106957834.44209  20353391.440    83343783.21549
  23125096.360   121523216.91008  23125095.080    94693410.25245
 15 02 17 03 25 30.0000000  0 10G01G04G11G14G16G18G19G22G27G32
  24529088.660   128901223.66508  24529091.020   100442514.83846
  22053513.580   115892050.74009  22053511.440    90305513.72047
  23557915.920   123797692.86908  23557913.040    96465737.18745
  24451835.900   128495272.98508  24451833.880   100126170.68344
  21774277.540   114424587.80609  21774274.220    89162006.82548
  23082658.200   121300253.83708  23082654.640    94519703.62545
  21098213.480   110871870.15109  21098208.760    86393653.32348
  20808356.740   109348714.68709  20808351.360    85206805.11848
  20352344.060   106952326.94409  20352343.400    83339491.66849
  23103801.280   121411310.06008  23103799.820    94606210.14046
 15 02 17 03 26  0.0000000  0 10G01G04G11G14G16G18G19G22G27G32
  24513965.600   128821751.47508  24513967.760   100380588.54045
  22041267.920   115827698.91109  22041265.840    90255369.46247
  23541963.980   123713864.03108  23541960.380    96400416.03044
  24437877.880   128421922.19607  24437875.620   100069014.23345
  21789670.120   114505476.94009  21789666.980    89225037.30548
  23097125.340   121376278.96608  23097121.220    94578944.02445
  21089231.080   110824666.91009  21089226.340    86356871.59148
  20812903.980   109372610.50009  20812898.620    85225425.23448
  20351364.560   106947179.67909  20351363.880    83335480.80249
  23082544.160   121299603.30308  23082542.580    94519165.95146
 15 02 17 03 26 30.0000000  0 10G01G04G11G14G16G18G19G22G27G32
  24498866.180   128742403.25108  24498868.000   100318758.85345
  22029066.200   115763577.12009  22029063.960    90205404.48447
  23526029.520   123630128.67708  23526026.120    96335167.73845
  24423933.520   128348644.01108  24423931.160   100011914.34644
  21805134.400   114586743.13909  21805131.500    89288361.59948
  23111642.400   121452566.29208  23111638.580    94638388.69146
  21080295.740   110777711.04309  21080290.780    86320282.61048
  20817545.880   109397004.24309  20817540.580    85244433.36848
  20350454.100   106942395.30309  20350453.420    83331752.71749
  23061325.840   121188100.78308  23061324.300    94432280.95046
 15 02 17 03 27  0.0000000  0 10G01G04G11G14G16G18G19G22G27G32
  24483790.220   128663177.78708  24483792.000   100257024.76646
  22016907.760   115699683.88208  22016905.440    90155617.57747
  23510112.700   123546485.77808  23510109.660    96269991.50645
  24410003.240   128275440.02907  24410000.960    99954872.27745
  21820669.840   114668382.89509  21820667.060    89351976.98348
  23126208.680   121529112.45208  23126205.240    94698035.00746
  21071407.400   110731002.88709  21071402.680    86283886.65048
  20822282.140   109421893.62809  20822276.840    85263827.69648
  20349612.720   106937973.75809  20349612.020    83328307.38449
  23040146.700   121076803.91408  23040145.260    94345556.20146
 15 02 17 03 27 30.0000000  0 10G01G04G11G14G16G18G19G22G27G32
  24468737.720   128584076.40508  24468739.400   100195387.36545
  22004793.080   115636020.74609  22004790.960    90106009.94947
  23494214.040   123462937.05908  23494211.140    96204888.67645
  24396087.900   128202314.14308  24396085.840    99897891.07545
  21836276.140   114750394.86309  21836273.480    89415882.39448
  23140823.900   121605916.51708  23140820.440    94757882.30645
  21062566.740   110684545.18909  21062562.060    86247685.82048
  20827112.720   109447278.21609  20827107.340    85283607.88848
  20348840.800   106933917.29109  20348840.120    83325146.47649
  23019007.540   120965716.69509  23019006.100    94258994.83646
 15 02 17 03 28  0.0000000  0 10G01G04G11G14G16G18G19G22G27G32
  24453708.580   128505099.03707  24453710.000   100133846.60744
  21992722.280   115572587.69909  21992720.060    90056581.59747
  23478333.300   123379482.96308  23478330.360    96139859.53845
  24382187.980   128129269.33908  24382186.160    99840973.04244
  21851952.720   114832776.03109  21851950.120    89480075.50648
  23155487.840   121682975.97308  23155484.380    94817928.64646
  21053773.940   110638339.08309  21053769.300    86211681.09748
  20832037.380   109473157.34509  20832031.960    85303773.44748
  20348138.540   106930226.93709  20348137.860    83322270.86949
  22997908.780   120854841.48208  22997907.300    94172598.68746
 15 02 17 03 28 30.0000000  0 10G01G04G11G14G16G18G19G22G27G32
  24438702.620   128426243.78707  24438703.640   100072401.04344
  21980694.780   115509382.69409  21980693.000    90007331.00147
  23462470.080   123296121.80708  23462466.760    96074902.82645
  24368303.700   128056306.44508  24368301.720    99784118.87645
  21867698.820   114915522.43109  21867696.120    89544553.20848
  23170199.640   121760286.88908  23170195.960    94878170.91746
  21045028.900   110592384.12109  21045024.480    86175872.05348
  20837055.460   109499527.42009  20837049.980    85324321.56648
  20347505.720   106926901.85509  20347505.100    83319679.90949
  22976850.540   120744179.05009  22976848.780    94086368.32946
 15 02 17 03 29  0.0000000  0 10G01G04G11G14G16G18G19G22G27G32
  24423719.980   128347511.58007  24423721.100   100011051.35844
  21968710.720   115446406.73509  21968709.180    89958258.82747
  23446624.900   123212854.88708  23446621.420    96010019.58445
  24354435.540   127983429.09308  24354433.600    99727331.34345
  21883514.060   114998631.84509  21883511.200    89609313.78448
  23184959.080   121837848.14008  23184955.660    94938608.20145
  21036332.140   110546682.68309  21036327.560    86140260.53448
  20842166.780   109526387.96409  20842161.320    85345251.85648
  20346942.760   106923943.99309  20346942.220    83317375.07549
  22955833.380   120633732.75308  22955831.400    94000306.33546
 15 02 17 03 29 30.0000000  0 10G01G04G11G14G16G18G19G22G27G32
  24408761.540   128268907.26607  24408763.420    99949801.29145
  21956771.220   115383664.50509  21956769.700    89909368.79247
  23430798.780   123129687.38208  23430795.460    95945213.77946
  24340585.060   127910644.87908  24340583.300    99670616.36844
  21899398.760   115082106.14909  21899395.800    89674358.68648
  23199766.820   121915662.43608  23199763.500    94999242.71346
  21027684.800   110501240.74209  21027680.320    86104851.23748
  20847372.100   109553742.07609  20847366.660    85366566.75948
  20346450.840   106921359.14609  20346450.260    83315360.88049
  22934858.640   120523510.07609  22934856.620    93914418.56146
 15 02 17 03 30  0.0000000  0 10G01G04G11G14G16G18G19G22G27G32
  24393826.680   128190425.16407  24393829.180    99888646.47846
  21944875.140   115321150.37109  21944873.300    89860656.50747
  23414990.340   123046613.79808  23414987.400    95880481.16146
  24326752.000   127837951.15608  24326750.200    99613971.88345
  21915351.420   115165937.61509  21915348.440    89739681.90048
  23214620.880   121993721.46808  23214617.800    95060067.90846
  21019086.160   110456054.18109  21019081.660    86069640.93748
  20852670.000   109581582.86309  20852664.620    85388260.87648
  20346029.140   106919142.72709  20346028.540    83313633.81049
  22913925.720   120413508.01708  22913923.800    93828702.70946
 15 02 17 03 30 30.0000000  0 10G01G04G11G14G16G18G19G22G27G32
  24378915.420   128112065.63808  24378918.040    99827587.19346
  21933022.520   115258864.57709  21933020.400    89812122.14247
  23399199.760   122963635.04108  23399197.100    95815822.46045
  24312936.660   127765351.06708  24312935.080    99557400.43844
  21931371.400   115250123.35109  21931368.480    89805281.14948
  23229521.280   122072023.19109  23229518.280    95121082.25446
  21010536.380   110411124.74009  21010531.820    86034630.96348
  20858060.480   109609909.78709  20858055.080    85410333.79648
  20345677.820   106917296.07409  20345677.200    83312194.86449
  22893035.260   120303729.42708  22893033.520    93743161.00446
 15 02 17 03 31  0.0000000  0 10G01G04G11G14G16G18G19G22G27G32
  24364028.420   128033833.92007  24364031.120    99766627.47845
  21921214.320   115196812.64009  21921212.220    89763770.02347
  23383428.240   122880756.41808  23383425.580    95751241.76946
  24299140.500   127692852.48807  24299138.920    99500908.03844
  21947459.180   115334665.69209  21947456.420    89871158.29348
  23244468.340   122150571.16808  23244465.360    95182288.46846
  21002036.820   110366458.94609  21002032.120    85999826.48148
  20863544.100   109638726.23109  20863538.640    85432788.20148
  20345398.040   106915825.52009  20345397.380    83311048.96849
  22872188.960   120194182.24808  22872187.280    93657799.63446
 15 02 17 03 31 30.0000000  0 10G01G04G11G14G16G18G19G22G27G32
  24349164.300   127955722.50208  24349167.000    99705761.53745
  21909449.140   115134986.92209  21909446.760    89715594.12247
  23367674.640   122797971.09808  23367671.860    95686733.74845
  24285362.780   127620450.96308  24285360.980    99444491.28744
  21963613.100   115419555.34309  21963610.500    89937306.05548
  23259460.400   122229355.19908  23259457.520    95243678.62446
  20993586.340   110322050.69809  20993581.420    85965222.65048
  20869119.040   109668023.34009  20869113.680    85455617.11348
  20345188.600   106914724.55609  20345187.900    83310191.06349
  22851385.900   120084861.53808  22851384.220    93572614.71846
 15 02 17 03 32  0.0000000  0 10G01G04G11G14G16G18G19G22G27G32
  24334323.540   127877733.17008  24334325.860    99644990.67745
  21897727.480   115073389.15409  21897725.100    89667595.87747
  23351939.320   122715281.12908  23351936.600    95622300.06546
  24271604.480   127548150.60608  24271602.400    99388153.36645
  21979832.860   115504790.84409  21979830.300    90003723.32047
  23274497.380   122308375.15108  23274494.200    95305252.62146
  20985185.380   110277903.25309  20985180.340    85930822.04848
  20874785.560   109697801.56909  20874780.200    85478820.93448
  20345049.940   106913995.93009  20345049.200    83309623.30049
  22830626.820   119975771.55509  22830625.120    93487609.56146
 15 02 17 03 32 30.0000000  0 10G01G04G11G14G16G18G19G22G27G32
  24319507.020   127799871.65008  24319509.380    99584319.43546
  21886050.360   115012024.94109  21886047.880    89619779.65347
  23336223.120   122632692.82108  23336220.840    95557945.62145
  24257867.440   127475961.07508  24257865.340    99331901.79845
  21996119.100   115590375.32109  21996116.360    90070412.51147
  23289579.920   122387634.37608  23289576.540    95367013.05445
  20976835.480   110234023.82209  20976830.340    85896630.30848
  20880544.440   109728064.78209  20880539.020    85502402.66748
  20344983.400   106913646.43609  20344982.660    83309350.96749
  22809913.260   119866920.72109  22809911.620    93402790.77946
 15 02 17 03 33  0.0000000  0 10G01G04G11G14G16G18G19G22G27G32
  24304713.540   127722130.49708  24304715.780    99523741.97346
  21874416.160   114950887.15209  21874413.980    89572139.82147
  23320525.020   122550198.84008  23320522.500    95493664.61045
  24244150.560   127403877.07608  24244147.960    99275732.43245
  22012469.860   115676298.32509  22012466.860    90137365.48047
  23304706.460   122467123.40309  23304702.860    95428952.58446
  20968535.380   110190406.33709  20968530.020    85862642.63348
  20886393.880   109758804.47009  20886388.680    85526355.68249
  20344987.820   106913669.60009  20344987.040    83309369.00549
  22789244.280   119758304.20409  22789242.700    93318154.52747
 15 02 17 03 33 30.0000000  0 10G01G04G11G14G16G18G19G22G27G32
  24289944.820   127644519.95908  24289946.960    99463266.31645
  21862826.800   114889985.75208  21862824.800    89524684.20147
  23304847.140   122467810.29708  23304844.340    95429465.75745
  24230456.140   127331911.81708  24230453.180    99219655.60445
  22028886.460   115762567.51509  22028883.240    90204588.21147
  23319877.620   122546850.18209  23319874.180    95491077.30445
  20960287.320   110147062.26309  20960281.940    85828868.07148
  20892335.680   109790029.18609  20892330.620    85550686.61148
  20345065.400   106914076.75209  20345064.580    83309686.26949
  22768622.340   119649934.70209  22768620.720    93233710.76246
 15 02 17 03 34  0.0000000  0 10G01G04G11G14G16G18G19G22G27G32
  24275199.080   127567031.43408  24275201.100    99402885.70545
  21851280.880   114829312.16109  21851279.240    89477406.07047
  23289187.420   122385518.35408  23289184.660    95365342.24345
  24216783.020   127260059.33308  24216780.380    99163666.66845
  22045366.600   115849171.49809  22045363.360    90272071.82847
  23335092.320   122626803.79908  23335089.220    95553378.83046
  20952089.900   110103984.59309  20952084.760    85795301.06348
  20898368.000   109821728.98709  20898362.840    85575387.76748
  20345214.540   106914860.18309  20345213.740    83310296.73949
  22748046.240   119541806.26708  22748044.380    93149454.86346
 15 02 17 03 34 30.0000000  0 10G01G04G11G14G16G18G19G22G27G32
  24260477.300   127489669.05607  24260479.340    99342603.35545
  21839779.140   114768870.53009  21839777.780    89430308.72647
  23273547.020   122303327.99708  23273544.400    95301297.88046
  24203132.700   127188327.01408  24203130.320    99107771.37945
  22061910.700   115936112.07909  22061907.660    90339817.73448
  23350350.740   122706986.53909  23350347.700    95615858.89546
  20943944.340   110061178.95609  20943939.180    85761946.01548
  20904491.260   109853906.54409  20904485.940    85600461.20748
  20345436.240   106916025.08809  20345435.460    83311204.46749
  22727517.200   119433925.70408  22727515.220    93065392.08746
 15 02 17 03 35  0.0000000  0 10G01G04G11G14G16G18G19G22G27G32
  24245778.780   127412428.25108  24245780.840    99282415.81345
  21828320.740   114708656.31009  21828319.480    89383388.56547
  23257925.380   122221235.06808  23257922.500    95237329.38945
  24189505.060   127116713.08208  24189502.760    99051968.29945
  22078517.460   116023381.54909  22078514.660    90407819.90448
  23365651.400   122787391.63508  23365648.260    95678512.19445
  20935849.780   110018642.06309  20935844.700    85728800.38248
  20910704.100   109886555.50109  20910698.660    85625901.97348
  20345729.780   106917567.85909  20345728.980    83312406.60749
  22707034.820   119326290.91708  22707032.840    92981520.84746
 15 02 17 03 35 30.0000000  0 10G01G04G11G14G16G18G19G22G27G32
  24231104.780   127335316.25708  24231106.860    99222328.59646
  21816906.980   114648676.80709  21816905.660    89336651.29847
  23242323.620   122139247.00808  23242320.340    95173442.59945
  24175901.640   127045227.34808  24175899.980    98996265.17545
  22095187.880   116110984.45409  22095185.120    90476081.90848
  23380995.000   122868023.77408  23380991.760    95741342.45746
  20927808.000   109976382.60809  20927802.900    85695870.95348
  20917007.640   109919681.62609  20917002.280    85651714.51348
  20346096.800   106919496.71409  20346095.960    83313909.61849
  22686601.040   119218911.76108  22686599.200    92897848.78346
 15 02 17 03 36  0.0000000  0 10G01G04G11G14G16G18G19G22G27G32
  24216454.160   127258327.26508  24216456.240    99162337.20945
  21805536.760   114588925.90009  21805535.400    89290092.17847
  23226740.700   122057358.23708  23226737.420    95109633.21646
  24162322.140   126973867.02408  24162320.480    98940659.73045
  22111920.140   116198912.01509  22111917.280    90544596.87648
  23396380.160   122948874.82608  23396377.200    95804343.25646
  20919818.220   109934396.07009  20919813.240    85663154.18648
  20923400.660   109953277.40409  20923395.340    85677893.04048
  20346536.340   106921806.67809  20346535.540    83315709.58649
  22666215.300   119111784.92808  22666213.680    92814373.31946
 15 02 17 03 36 30.0000000  0 10G01G04G11G14G16G18G19G22G27G32
  24201827.320   127181462.16108  24201829.040    99102442.37445
  21794210.300   114529404.87509  21794208.720    89243712.18147
  23211176.920   121975570.66508  23211174.000    95045902.73746
  24148767.160   126902636.08008  24148765.560    98885155.12145
  22128713.900   116287162.84709  22128710.800    90613363.73847
  23411807.200   123029944.04009  23411804.040    95867514.08045
  20911880.880   109892685.09809  20911875.860    85630652.13948
  20929883.060   109987342.71509  20929877.860    85704437.42948
  20347048.820   106924499.94209  20347048.120    83317808.24949
  22645878.420   119004914.15409  22645876.940    92731097.42846
 15 02 17 03 37  0.0000000  0 10G01G04G11G14G16G18G19G22G27G32
  24187224.200   127104721.63008  24187225.920    99042644.61145
  21782927.800   114470114.29309  21782925.980    89197511.75247
  23195632.620   121893885.17208  23195629.760    94982251.75045
  24135237.680   126831537.94108  24135235.460    98829753.97344
  22145568.680   116375734.39709  22145565.260    90682380.53247
  23427275.380   123111229.57708  23427272.200    95930853.46846
  20903996.440   109851251.77109  20903991.320    85598366.40949
  20936454.660   110021876.48809  20936449.480    85731346.88548
  20347634.540   106927577.95009  20347633.840    83320206.67049
  22625591.000   118898302.64609  22625589.460    92648023.55646
 15 02 17 03 37 30.0000000  0 10G01G04G11G14G16G18G19G22G27G32
  24172644.800   127028105.26008  24172646.340    98982943.60846
  21771689.020   114411053.75109  21771687.040    89151490.55147
  23180107.660   121812301.56908  23180104.500    94918680.13445
  24121734.000   126760575.09008  24121731.460    98774458.25244
  22162483.900   116464623.60609  22162480.220    90751644.83047
  23442784.380   123192728.99508  23442781.160    95994359.50245
  20896165.020   109810097.05809  20896159.780    85566297.81448
  20943114.960   110056876.42709  20943109.780    85758619.56748
  20348293.560   106931041.31209  20348292.920    83322905.40049
  22605353.400   118791952.45508  22605351.640    92565153.29847
 15 02 17 03 38  0.0000000  0 10G01G04G11G14G16G18G19G22G27G32
  24158089.440   126951615.52308  24158090.760    98923341.31045
  21760494.560   114352225.62109  21760492.420    89105650.48848
  23164602.800   121730823.01608  23164599.300    94855190.38445
  24108256.980   126689752.90908  24108254.420    98719272.14845
  22179459.440   116553830.38909  22179455.660    90821156.60547
  23458334.040   123274442.59708  23458331.080    96058032.46346
  20888387.340   109769224.78209  20888382.000    85534449.34048
  20949864.200   110092343.64409  20949858.980    85786256.38848
  20349026.560   106934893.52109  20349025.940    83325907.12649
  22585166.460   118685868.76508  22585164.700    92482490.72347
 15 02 17 03 38 30.0000000  0 10G01G04G11G14G16G18G19G22G27G32
  24143557.640   126875250.74208  24143558.800    98863836.33846
  21749343.820   114293628.19709  21749341.680    89059990.16048
  23149117.780   121649448.35608  23149114.400    94791781.60245
  24094807.080   126619072.47208  24094804.780    98664196.48145
  22196494.300   116643349.94509  22196490.720    90890912.08747
  23473923.620   123356366.75008  23473920.260    96121869.45145
  20880663.360   109728635.09609  20880658.060    85502821.00548
  20956701.740   110128274.84909  20956696.440    85814254.72848
  20349833.360   106939133.65709  20349832.800    83329211.11549
  22565030.280   118580052.25609  22565028.580    92400036.34047
 15 02 17 03 39  0.0000000  0 10G01G04G11G14G16G18G19G22G27G32
  24129050.280   126799015.65907  24129051.840    98804432.43846
  21738237.900   114235266.21409  21738235.880    89014513.31147
  23133653.320   121568182.68208  23133650.300    94728457.78745
  24081385.380   126548541.76908  24081383.300    98609237.51644
  22213589.140   116733184.82609  22213585.860    90960913.28248
  23489553.820   123438503.59108  23489550.520    96185872.19445
  20872994.300   109688334.10009  20872989.040    85471417.64448
  20963628.160   110164672.96709  20963622.800    85842616.91648
  20350715.080   106943767.60809  20350714.620    83332821.97649
  22544946.320   118474510.42609  22544944.700    92317795.97946
 15 02 17 03 39 30.0000000  0 10G01G04G11G14G16G18G19G22G27G32
  24114566.000   126722902.99707  24114568.100    98745123.96746
  21727175.440   114177132.63909  21727173.280    88969214.40347
  23118208.300   121487019.11408  23118205.260    94665213.48546
  24067991.320   126478156.18407  24067989.420    98554391.62045
  22230742.040   116823324.45209  22230739.000    91031151.93847
  23505222.780   123520844.02909  23505219.920    96250033.50346
  20865378.980   109648315.78609  20865373.860    85440234.52549
  20970641.820   110201529.64409  20970636.440    85871336.38948
  20351670.560   106948788.95709  20351670.200    83336734.71449
  22524913.720   118369238.51609  22524912.120    92235765.95646
 15 02 17 03 40  0.0000000  0 10G01G04G11G14G16G18G19G22G27G32
  24100105.580   126646913.67308  24100107.500    98685911.56245
  21716156.580   114119228.12109  21716154.120    88924094.02748
  23102783.100   121405959.14108  23102780.360    94602049.90246
  24054625.700   126407919.56108  24054623.540    98499661.76545
  22247952.720   116913767.19109  22247949.700    91101626.78947
  23520930.220   123603386.62708  23520926.600    96314352.50345
  20857817.980   109608582.77809  20857812.820    85409273.74648
  20977742.400   110238843.73309  20977737.160    85900412.31248
  20352700.200   106954199.53109  20352699.800    83340950.74749
  22504933.160   118264239.98309  22504931.400    92153948.95246
 15 02 17 03 40 30.0000000  0 10G01G04G11G14G16G18G19G22G27G32
  24085669.000   126571049.28307  24085670.800    98626796.44845
  21705181.420   114061554.34309  21705179.100    88879153.45447
  23087377.900   121325004.82808  23087375.280    94538968.69546
  24041289.480   126337836.53208  24041287.380    98445051.61145
  22265220.980   117004511.91909  22265217.800    91172336.96947
  23536676.080   123686130.85408  23536672.260    96378828.55745
  20850311.780   109569137.73009  20850306.600    85378537.39348
  20984930.000   110276615.32009  20984924.860    85929844.69348
  20353804.480   106960001.92909  20353803.960    83345472.09649
  22485005.380   118159519.10709  22485003.540    92072348.29747
 15 02 17 03 41  0.0000000  0 10G01G04G11G14G16G18G19G22G27G32
  24071256.900   126495313.93507  24071258.880    98567781.99046
  21694251.060   114004115.69909  21694249.140    88834396.08647
  23071993.940   121244161.09708  23071991.040    94475973.63546
  24027983.720   126267914.18108  24027981.420    98390566.66845
  22282547.000   117095559.87209  22282543.600    91243283.42247
  23552460.400   123769078.72808  23552456.780    96443463.24545
  20842861.500   109529986.53309  20842856.300    85348029.94048
  20992205.140   110314846.94309  20992200.080    85959635.59148
  20354984.260   106966201.24709  20354983.640    83350302.72749
  22465131.800   118055082.60309  22465129.960    91990969.22947
 15 02 17 03 41 30.0000000  0 10G01G04G11G14G16G18G19G22G27G32
  24056868.820   126419704.51108  24056871.000    98508865.64346
  21683364.980   113946908.72909  21683363.160    88789819.25647
  23056630.220   121163424.66908  23056626.940    94413062.17045
  24014708.180   126198151.90307  24014706.440    98336206.48945
  22299929.540   117186904.82209  22299925.940    91314461.29747
  23568282.700   123852225.24409  23568279.000    96508252.76545
  20835466.940   109491127.85009  20835461.760    85317750.47748
  20999566.960   110353533.62109  20999561.920    85989781.08948
  20356239.120   106972795.09209  20356238.400    83355440.79049
  22445312.240   117950929.72809  22445310.420    91909811.18247
 15 02 17 03 42  0.0000000  0 10G01G04G11G14G16G18G19G22G27G32
  24042504.780   126344219.72308  24042506.540    98450046.36345
  21672522.680   113889932.24709  21672521.260    88745422.00248
  23041286.780   121082795.21708  23041283.720    94350234.09546
  24001463.540   126128551.58108  24001462.040    98281972.47145
  22317367.800   117278542.79309  22317363.980    91385867.50347
  23584141.860   123935566.90908  23584138.680    96573194.24846
  20828128.020   109452561.51809  20828122.900    85287698.79649
  21007014.860   110392672.43909  21007009.820    86020278.85748
  20357568.960   106979783.20909  20357568.120    83360886.06849
  22425546.860   117847061.84009  22425545.060    91828875.18147
 15 02 17 03 42 30.0000000  0 10G01G04G11G14G16G18G19G22G27G32
  24028163.580   126268855.28408  24028164.580    98391320.83645
  21661723.380   113833181.99709  21661722.160    88701201.07748
  23025963.220   121002269.14508  23025960.160    94287486.53546
  23988249.640   126059111.83108  23988248.340    98227863.60645
  22334860.340   117370466.58509  22334856.560    91457496.41847
  23600037.180   124019097.10408  23600033.780    96638282.79246
  20820844.140   109414284.78109  20820838.960    85257872.75948
  21014547.800   110432257.79909  21014542.560    86051124.59648
  20358973.120   106987162.25409  20358972.300    83366635.97149
  22405835.260   117743477.22909  22405833.560    91748159.93747
 15 02 17 03 43  0.0000000  0 10G01G04G11G14G16G18G19G22G27G32
  24013846.620   126193618.47908  24013847.380    98332694.76445
  21650968.460   113776665.24109  21650967.540    88657162.04048
  23010660.940   120921853.79108  23010657.440    94224825.23745
  23975068.420   125989842.97808  23975066.700    98173887.87245
  22352408.160   117462681.54309  22352404.640    91529352.21347
  23615969.200   124102820.78908  23615966.020    96703522.00445
  20813617.020   109376306.36909  20813611.880    85228279.20548
  21022166.640   110472294.96609  21022161.360    86082322.38848
  20360453.180   106994940.33409  20360452.420    83372696.80749
  22386179.300   117640185.70508  22386177.840    91667673.05547
 15 02 17 03 43 30.0000000  0 10G01G04G11G14G16G18G19G22G27G32
  23999554.300   126118511.24408  23999554.980    98274169.71445
  21640258.340   113720383.89509  21640257.440    88613306.46348
  22995379.920   120841551.67808  22995376.400    94162252.20546
  23961920.300   125920749.63208  23961918.820    98120048.94144
  22370011.200   117555186.33709  22370007.900    91601433.86047
  23631938.160   124186738.36908  23631935.060    96768912.33246
  20806447.320   109338629.47709  20806442.300    85198920.59748
  21029871.560   110512784.15509  21029866.280    86113872.41648
  20362009.680   107003120.22209  20362009.040    83379070.76249
  22366579.900   117537191.73709  22366578.680    91587418.04647
 15 02 17 03 44  0.0000000  0 10G01G04G11G14G16G18G19G22G27G32
  23985284.980   126043527.61607  23985286.380    98215741.05645
  21629592.120   113664332.14709  21629591.080    88569629.81547
  22980119.480   120761357.76608  22980116.440    94099763.50046
  23948805.040   125851828.88508  23948803.380    98066344.46145
  22387667.680   117647971.83609  22387664.440    91673734.25047
  23647942.580   124270841.39908  23647939.340    96834447.21845
  20799334.160   109301250.41009  20799329.320    85169794.04748
  21037661.060   110553717.64109  21037655.720    86145768.64348
  20363641.760   107011697.02609  20363641.180    83385753.97849
  22347036.580   117434491.95309  22347035.440    91507392.27147
 15 02 17 03 44 30.0000000  0 10G01G04G11G14G16G18G19G22G27G32
  23971040.440   125968675.29307  23971042.580    98157414.64646
  21618971.040   113608517.73509  21618969.760    88526138.07147
  22964881.060   120681280.14908  22964878.360    94037365.38946
  23935724.680   125783091.63708  23935723.380    98012783.00145
  22405378.520   117741043.11309  22405375.300    91746257.30847
  23663983.060   124355135.79608  23663979.780    96900131.09744
  20792279.480   109264178.21109  20792274.720    85140906.64548
  21045536.260   110595101.87609  21045530.800    86178016.09948
  20365351.040   107020679.25609  20365350.500    83392753.12449
  22327551.340   117332096.73809  22327550.140    91427603.82547
 15 02 17 03 45  0.0000000  0 10G01G04G11G14G16G18G19G22G27G32
  23956818.560   125893940.68007  23956821.080    98099179.89546
  21608392.540   113552927.00909  21608391.080    88482820.64447
  22949661.980   120601305.59308  22949659.440    93975047.62945
  23922677.300   125714526.56708  23922675.700    97959355.66544
  22423140.560   117834383.57009  22423137.380    91818990.12447
  23680057.080   124439605.42008  23680054.140    96965951.64046
  20785280.860   109227400.45609  20785276.200    85112248.67348
  21053494.180   110636921.06209  21053488.760    86210602.47148
  20367135.020   107030054.07409  20367134.440    83400058.16949
  22308122.060   117229994.73409  22308120.640    91348043.84847
 15 02 17 03 45 30.0000000  0 10G01G04G11G14G16G18G19G22G27G32
  23942621.440   125819334.74708  23942624.000    98041045.50045
  21597858.680   113497570.84609  21597857.040    88439686.02847
  22934464.980   120521445.82508  22934462.300    93912819.26546
  23909665.400   125646148.03508  23909663.420    97906073.71945
  22440955.520   117928001.97209  22440952.380    91891939.51747
  23696166.000   124524259.19108  23696163.140    97031915.63245
  20778340.700   109190929.64309  20778336.060    85083829.86049
  21061536.640   110679184.66609  21061531.280    86243535.17348
  20368995.960   107039833.45309  20368995.320    83407678.45249
  22288751.260   117128199.70209  22288749.640    91268723.07947
 15 02 17 03 46  0.0000000  0 10G01G04G11G14G16G18G19G22G27G32
  23928447.840   125744851.65508  23928450.220    97983006.78346
  21587368.440   113442443.61109  21587366.480    88396729.72247
  22919289.040   120441695.27008  22919286.220    93850676.00646
  23896688.460   125577953.18508  23896686.020    97852934.88145
  22458821.560   118021888.87409  22458818.520    91965098.13447
  23712308.720   124609089.38708  23712305.760    97098017.05945
  20771458.140   109154761.36709  20771453.440    85055646.77849
  21069662.200   110721885.07209  21069656.860    86276808.22848
  20370932.920   107050012.28609  20370932.240    83415610.01249
  22269438.260   117026708.19009  22269436.440    91189638.81747
 15 02 17 03 46 30.0000000  0 10G01G04G11G14G16G18G19G22G27G32
  23914298.400   125670494.99808  23914300.700    97925066.57746
  21576922.480   113387548.63309  21576920.520    88353954.44548
  22904134.800   120362058.16909  22904131.520    93788621.15345
  23883747.680   125509948.42508  23883745.080    97799944.18245
  22476739.020   118116045.67309  22476736.000    92038467.04647
  23728485.400   124694097.37908  23728481.560    97164257.12845
  20764634.160   109118900.91309  20764629.460    85027703.59748
  21077871.200   110765024.06809  21077865.860    86310423.03048
  20372946.800   107060595.11809  20372946.040    83423856.37949
  22250184.200   116925526.48909  22250182.200    91110795.93147
 15 02 17 03 47  0.0000000  0 10G01G04G11G14G16G18G19G22G27G32
  23900172.940   125596263.91408  23900174.840    97867224.17946
  21566520.380   113332885.27309  21566518.600    88311359.63048
  22889002.220   120282534.54508  22888998.280    93726654.70345
  23870843.400   125442135.71608  23870840.800    97747103.13045
  22494707.200   118210468.65209  22494704.000    92112043.39547
  23744695.180   124779280.37409  23744691.840    97230633.36745
  20757868.780   109083348.98209  20757864.020    85000000.79848
  21086163.160   110808599.19309  21086157.840    86344377.68148
  20375037.560   107071581.90509  20375036.820    83432417.51649
  22230989.260   116824656.07809  22230987.180    91032195.63147
 15 02 17 03 47 30.0000000  0 10G01G04G11G14G16G18G19G22G27G32
  23886071.180   125522157.88208  23886072.640    97809479.34645
  21556162.080   113278452.94909  21556160.340    88268944.83747
  22873890.820   120203124.28508  22873887.400    93664776.61546
  23857976.040   125374517.48708  23857973.600    97694413.63645
  22512725.380   118305154.46209  22512721.900    92185824.53347
  23760937.980   124864636.13408  23760933.780    97297144.51045
  20751162.380   109048106.44209  20751157.640    84972539.09949
  21094537.720   110852608.14109  21094532.540    86378670.38748
  20377205.180   107082972.94309  20377204.560    83441293.63749
  22211853.760   116724099.08509  22211851.900    90953839.55347
 15 02 17 03 48  0.0000000  0 10G01G04G11G14G16G18G19G22G27G32
  23871994.040   125448182.12808  23871995.240    97751835.93046
  21545848.900   113224256.90109  21545846.920    88226714.18648
  22858802.020   120123833.05909  22858799.080    93602991.31846
  23845147.040   125307102.01908  23845144.980    97641882.14645
  22530793.820   118400105.00409  22530790.300    92259811.96547
  23777213.980   124950167.39008  23777210.280    97363792.13246
  20744516.200   109013180.16509  20744511.440    84945323.84348
  21102995.560   110897054.10709  21102990.260    86413303.59048
  20379450.820   107094774.29709  20379450.280    83450489.50749
  22192779.220   116623863.12809  22192777.680    90875733.65347
 15 02 17 03 48 30.0000000  0 10G01G04G11G14G16G18G19G22G27G32
  23857940.280   125374329.95608  23857941.500    97694288.85046
  21535579.580   113170290.76609  21535577.220    88184662.68347
  22843734.940   120044654.78308  22843731.740    93541293.98746
  23832356.100   125239885.43408  23832353.700    97589505.57745
  22548910.820   118495310.95209  22548907.460    92333998.40047
  23793521.520   125035865.31607  23793517.720    97430569.72944
  20737929.140   108978564.91509  20737924.340    84918350.92348
  21111534.820   110941928.65509  21111529.520    86448270.76048
  20381773.480   107106980.08609  20381772.940    83460000.50649
  22173764.980   116523944.17509  22173763.760    90797874.75747
 15 02 17 03 49  0.0000000  0 10G01G04G11G14G16G18G19G22G27G32
  23843909.980   125300600.33708  23843911.300    97636837.24246
  21525353.700   113116553.11009  21525351.080    88142789.18847
  22828689.240   119965588.98808  22828685.540    93479684.29146
  23819603.580   125172869.66908  23819601.020    97537285.52145
  22567075.760   118590768.71909  22567072.640    92408381.06747
  23809860.580   125121726.67808  23809856.820    97497474.83245
  20731401.440   108944261.37609  20731396.580    84891620.90048
  21120155.160   110987229.16809  21120149.940    86483569.89848
  20384173.080   107119590.08509  20384172.500    83469826.46949
  22154811.340   116424343.67709  22154810.520    90720264.01747
 15 02 17 03 49 30.0000000  0 10G01G04G11G14G16G18G19G22G27G32
  23829904.220   125226998.90408  23829905.660    97579485.57746
  21515172.380   113063049.68609  21515169.820    88101098.22147
  22813666.220   119886642.22309  22813662.640    93418167.33546
  23806890.800   125106063.04408  23806888.280    97485228.40345
  22585289.120   118686480.97109  22585286.260    92482962.02247
  23826231.200   125207755.56909  23826227.780    97564510.23045
  20724934.360   108910276.48109  20724929.420    84865139.15649
  21128857.280   111032959.33509  21128852.220    86519203.77448
  20386650.840   107132610.72609  20386650.260    83479972.43749
  22135920.000   116325069.68809  22135919.380    90642907.69047
 15 02 17 03 50  0.0000000  0 10G01G04G11G14G16G18G19G22G27G32
  23815922.300   125153523.71008  23815923.960    97522232.22446
  21505035.160   113009778.65609  21505032.680    88059588.33348
  22798665.480   119807813.10708  22798662.060    93356742.11146
  23794217.980   125039467.15708  23794215.880    97433335.53645
  22603550.040   118782442.94009  22603547.380    92557737.57047
  23842633.040   125293947.20708  23842629.360    97631672.60444
  20718527.800   108876609.73109  20718522.800    84838905.34348
  21137640.500   111079115.65109  21137635.460    86555169.75348
  20389206.580   107146040.88309  20389205.920    83490437.48449
  22117091.060   116226122.73309  22117090.260    90565806.20847
 15 02 17 03 50 30.0000000  0 10G01G04G11G14G16G18G19G22G27G32
  23801964.460   125080175.97708  23801966.260    97465078.20146
  21494942.380   112956741.21709  21494940.180    88018260.49848
  22783687.320   119729103.21408  22783683.840    93295409.73745
  23781585.960   124973085.88208  23781583.760    97381609.87445
  22621858.280   118878653.31209  22621855.700    92632706.68447
  23859065.620   125380301.57108  23859062.100    97698961.72645
  20712182.360   108843264.13209  20712177.320    84812921.76149
  21146504.780   111125697.38409  21146499.620    86591467.20548
  20391840.640   107159882.51809  20391839.860    83501223.17449
  22098325.220   116127506.73009  22098323.960    90488962.57747
 15 02 17 03 51  0.0000000  0 10G01G04G11G14G16G18G19G22G27G32
  23788030.620   125006953.23308  23788032.240    97408021.59146
  21484893.660   112903934.94209  21484891.580    87977112.75147
  22768731.500   119650510.86108  22768728.540    93234169.00046
  23768994.840   124906919.63908  23768992.560    97330051.78745
  22640212.720   118975106.35609  22640210.120    92707864.90547
  23875528.360   125466813.66408  23875524.960    97766373.77245
  20705897.780   108810238.68809  20705892.840    84787187.64949
  21155449.200   111172699.97409  21155443.860    86628092.62748
  20394552.680   107174133.95409  20394551.880    83512328.18049
  22079622.280   116029221.43909  22079620.720    90412376.65247
 15 02 17 03 51 30.0000000  0 10G01G04G11G14G16G18G19G22G27G32
  23774120.540   124933854.37008  23774122.020    97351061.44546
  21474888.760   112851358.89309  21474886.860    87936144.42248
  22753797.960   119572035.56408  22753795.420    93173019.46346
  23756445.040   124840970.06808  23756442.860    97278662.53445
  22658612.600   119071797.97809  22658609.840    92783209.02447
  23892020.320   125553480.91008  23892017.260    97833906.62944
  20699674.260   108777533.61709  20699669.300    84761703.21449
  21164473.160   111220120.67609  21164467.680    86665043.80348
  20397342.600   107188794.79809  20397341.780    83523752.21349
  22060982.440   115931268.24209  22060980.920    90336049.52147
 15 02 17 03 52  0.0000000  0 10G01G04G11G14G16G18G19G22G27G32
  23760234.140   124860881.71308  23760235.660    97294199.76346
  21464928.100   112799015.33709  21464926.100    87895357.24448
  22738887.360   119493680.44708  22738884.640    93111963.54845
  23743937.540   124775242.61008  23743935.480    97227446.33845
  22677057.900   119168728.40009  22677054.880    92858739.20747
  23908541.960   125640303.45308  23908538.360    97901560.61344
  20693512.540   108745153.19009  20693507.460    84736471.70349
  21173576.860   111267960.23809  21173571.360    86702321.40648
  20400210.980   107203868.26809  20400210.180    83535497.77649
  22042406.660   115833652.13809  22042405.360    90259985.05747
 15 02 17 03 52 30.0000000  0 10G01G04G11G14G16G18G19G22G27G32
  23746371.800   124788034.90308  23746373.160    97237436.02946
  21455011.640   112746903.81209  21455009.240    87854750.86348
  22723999.800   119415445.39209  22723996.720    93051001.18446
  23731472.460   124709739.57808  23731470.720    97176405.07445
  22695547.820   119265893.79309  22695544.600    92934452.48147
  23925092.720   125727278.44607  23925089.640    97969333.38146
  20687412.700   108713098.38009  20687407.660    84711493.94049
  21182759.740   111316216.35909  21182754.140    86739923.58448
  20403157.900   107219354.56409  20403157.080    83547565.01549
  22023895.440   115736375.04909  22023894.180    90184184.74347
 15 02 17 03 53  0.0000000  0 10G01G04G11G14G16G18G19G22G27G32
  23732533.560   124715314.37408  23732534.420    97180770.69046
  21445139.340   112695024.73309  21445137.040    87814325.62548
  22709135.440   119337331.64409  22709132.160    92990133.36346
  23719050.840   124644464.31508  23719048.940    97125541.25845
  22714082.020   119363291.87909  22714078.680    93010347.10047
  23941671.980   125814404.81408  23941669.980    98037223.88145
  20681375.220   108681370.93209  20681370.040    84686771.24749
  21192021.540   111364887.39909  21192015.880    86777849.09948
  20406183.620   107235254.96409  20406182.820    83559954.93549
  22005449.400   115639439.96609  22005447.900    90108650.93247
 15 02 17 03 53 30.0000000  0 10G01G04G11G14G16G18G19G22G27G32
  23718718.660   124642717.88508  23718720.140    97124202.12946
  21435311.060   112643376.42109  21435308.960    87774080.18048
  22694293.940   119259337.73509  22694290.720    92929358.92146
  23706672.940   124579417.92008  23706670.840    97074855.78145
  22732659.580   119460917.64009  22732656.160    93086419.09947
  23958279.840   125901678.11209  23958276.720    98105229.25944
  20675399.960   108649970.26209  20675394.720    84662303.22148
  21201361.640   111413969.54609  21201355.900    86816094.93048
  20409287.920   107251568.03909  20409287.080    83572666.41449
  21987068.580   115542847.13309  21987066.720    90033383.79347
 15 02 17 03 54  0.0000000  0 10G01G04G11G14G16G18G19G22G27G32
  23704927.760   124570244.59608  23704929.140    97067729.46246
  21425526.240   112591957.40209  21425524.260    87734013.42748
  22679475.120   119181463.24609  22679471.560    92868677.50146
  23694338.880   124514602.14408  23694336.440    97024349.98245
  22751279.760   119558767.28809  22751276.400    93162665.57247
  23974915.020   125989095.42507  23974911.820    98173346.53945
  20669486.860   108618896.88209  20669481.620    84638090.19149
  21210779.120   111463459.29209  21210773.400    86854658.35448
  20412470.700   107268293.46409  20412469.820    83585699.20349
  21968753.000   115446597.95009  21968751.040    89958384.44947
 15 02 17 03 54 30.0000000  0 10G01G04G11G14G16G18G19G22G27G32
  23691160.640   124497898.17008  23691161.660    97011355.68345
  21415785.780   112540771.72709  21415783.940    87694128.48348
  22664679.600   119103712.69209  22664675.960    92808092.67646
  23682050.000   124450023.83008  23682047.780    96974029.21845
  22769942.720   119656841.92009  22769939.560    93239087.34547
  23991578.020   126076658.66208  23991574.440    98241577.68744
  20663637.100   108588156.29109  20663632.000    84614136.50049
  21220274.620   111513359.42509  21220269.060    86893541.56648
  20415732.760   107285435.78609  20415731.960    83599056.86349
  21950503.900   115350698.65509  21950502.020    89883657.74647
 15 02 17 03 55  0.0000000  0 10G01G04G11G14G16G18G19G22G27G32
  23677417.420   124425678.33108  23677417.920    96955080.49646
  21406089.760   112489819.01909  21406087.860    87654425.11548
  22649907.820   119026086.73708  22649904.300    92747604.94646
  23669806.660   124385685.27508  23669804.940    96923895.32645
  22788647.880   119755138.25009  22788644.860    93315681.88347
  24008268.140   126164365.14108  24008264.620    98309920.36946
  20657850.860   108557749.76809  20657845.880    84590443.09949
  21229847.780   111563667.33509  21229842.500    86932742.55548
  20419074.140   107302995.32709  20419073.480    83612739.62249
  21932321.680   115255151.41409  21932320.000    89809205.37947
 15 02 17 03 55 30.0000000  0 10G01G04G11G14G16G18G19G22G27G32
  23663698.300   124353584.19408  23663699.740    96898903.32947
  21396438.060   112439098.54409  21396435.880    87614902.69448
  22635159.460   118948584.67508  22635155.880    92687213.73146
  23657609.600   124321588.69808  23657607.760    96873949.93545
  22807394.620   119853652.57609  22807391.640    93392446.28147
  24024984.920   126252212.23208  24024981.200    98378372.67844
  20652128.360   108527677.76909  20652123.340    84567010.38449
  21239498.020   111614380.30309  21239492.940    86972259.16048
  20422494.920   107320971.86809  20422494.280    83626747.32249
  21914206.680   115159957.67109  21914205.340    89735028.47747
 15 02 17 03 56  0.0000000  0 10G01G04G11G14G16G18G19G22G27G32
  23650003.080   124281614.52908  23650004.940    96842823.17246
  21386830.300   112388609.08809  21386828.200    87575560.26548
  22620434.800   118871206.09308  22620431.420    92626918.74147
  23645458.880   124257735.77608  23645456.900    96824194.45146
  22826181.980   119952380.42209  22826179.000    93469377.06447
  24041727.720   126340196.85708  24041724.040    98446932.12645
  20646469.620   108497940.72209  20646464.580    84543838.66749
  21249224.740   111665495.50208  21249219.820    87012089.19048
  20425995.040   107339364.99409  20425994.380    83641079.60749
  21896159.260   115065118.77709  21896158.200    89661128.05647
 15 02 17 03 56 30.0000000  0 10G01G04G11G14G16G18G19G22G27G32
  23636331.600   124209769.17108  23636332.700    96786839.76845
  21377266.340   112338350.56409  21377264.340    87536397.78548
  22605733.740   118793951.78008  22605730.600    92566720.60746
  23633355.220   124194129.22408  23633352.560    96774630.88945
  22845009.500   120051319.48509  22845006.480    93546472.42947
  24058496.560   126428316.66308  24058493.140    98515596.87546
  20640874.720   108468539.83609  20640869.720    84520928.89249
  21259027.520   111717010.44408  21259022.780    87052230.71148
  20429574.540   107358175.14109  20429573.860    83655736.87349
  21878179.900   114970636.96709  21878178.860    89587505.87947
 15 02 17 03 57  0.0000000  0 10G01G04G11G14G16G18G19G22G27G32
  23622684.020   124138052.60108  23622685.540    96730956.79046
  21367747.160   112288327.22009  21367745.260    87497418.56848
  22591057.300   118716826.64108  22591054.040    92506623.08846
  23621299.420   124130776.19508  23621296.820    96725264.93845
  22863877.500   120150471.27609  22863874.360    93623733.56547
  24075291.600   126516574.31108  24075288.240    98584369.11144
  20635344.980   108439481.13509  20635340.000    84498285.75849
  21268906.960   111768927.89309  21268902.420    87092685.85348
  20433234.400   107377407.36209  20433233.600    83670723.01849
  21860269.820   114876518.86709  21860268.700    89514167.12247
 15 02 17 03 57 30.0000000  0 10G01G04G11G14G16G18G19G22G27G32
  23609060.840   124066461.43509  23609062.140    96675171.50346
  21358272.200   112238535.83509  21358270.240    87458620.11348
  22576404.680   118639828.20608  22576401.900    92446624.36546
  23609291.780   124067676.48308  23609289.520    96676096.32545
  22882784.720   120249829.18509  22882781.500    93701155.30246
  24092111.580   126604964.77507  24092108.080    98653244.78345
  20629880.120   108410762.89709  20629875.140    84475907.89249
  21278862.060   111821242.46509  21278857.520    87133450.45948
  20436974.040   107397058.95909  20436973.180    83686035.93649
  21842428.900   114782763.63509  21842427.620    89441111.09747
 15 02 17 03 58  0.0000000  0 10G01G04G11G14G16G18G19G22G27G32
  23595461.160   123994994.92807  23595462.500    96619483.38946
  21348841.340   112188976.12609  21348839.360    87420002.13348
  22561776.300   118562956.33608  22561773.600    92386724.21946
  23597332.640   124004832.02608  23597330.480    96627126.66345
  22901730.400   120349390.04409  22901727.300    93778735.17647
  24108956.100   126693484.69408  24108952.520    98722221.33345
  20624480.100   108382385.81809  20624475.140    84453795.92149
  21288892.360   111873951.50809  21288887.520    87174522.41248
  20440793.420   107417129.93309  20440792.500    83701675.66049
  21824657.480   114689372.99409  21824656.020    89368339.18648
 15 02 17 03 58 30.0000000  0 10G01G04G11G14G16G18G19G22G27G32
  23581885.240   123923655.47008  23581886.900    96563894.27346
  21339455.060   112139649.95409  21339452.980    87381566.15948
  22547172.640   118486214.00808  22547169.960    92326925.03046
  23585423.360   123942248.39508  23585421.340    96578360.21445
  22920714.380   120449152.85608  22920711.580    93856472.42647
  24125825.440   126782134.61708  24125822.020    98791299.22244
  20619145.860   108354353.84309  20619140.780    84431952.81649
  21298997.920   111927055.63109  21298992.920    87215902.25648
  20444693.080   107437623.12409  20444692.180    83717644.38449
  21806956.420   114596351.57809  21806954.660    89295854.99047
 15 02 17 03 59  0.0000000  0 10G01G04G11G14G16G18G19G22G27G32
  23568333.080   123852438.44608  23568333.920    96508400.42346
  21330112.280   112090553.03209  21330110.080    87343308.84248
  22532593.220   118409597.24609  22532590.240    92267223.68046
  23573563.260   123879923.67408  23573561.280    96529795.51545
  22939735.540   120549110.78309  22939732.880    93934361.69146
  24142718.380   126870908.45907  24142715.120    98860473.66944
  20613876.620   108326663.76309  20613871.560    84410376.11049
  21309177.420   111980548.10009  21309172.260    87257584.71448
  20448672.300   107458534.58909  20448671.460    83733939.02249
  21789325.120   114503697.10709  21789323.040    89223656.72047
 15 02 17 03 59 30.0000000  0 10G01G04G11G14G16G18G19G22G27G32
  23554804.520   123781344.42208  23554805.660    96453002.55746
  21320813.140   112041685.70309  21320810.820    87305230.41248
  22518038.140   118333107.56409  22518034.300    92207621.30446
  23561753.100   123817861.36708  23561751.440    96481435.29746
  22958793.500   120649261.18608  22958790.840    94012400.96247
  24159634.660   126959804.48908  24159631.400    98929743.29944
  20608672.840   108299317.97009  20608667.820    84389067.70549
  21319430.540   112034427.53509  21319425.140    87299568.68948
  20452731.440   107479865.54809  20452730.660    83750560.55549
  21771764.080   114411412.57009  21771761.740    89151746.71747
 15 02 17 04 00  0.0000000  0 10G01G04G11G14G16G18G19G22G27G32
  23541299.820   123710377.08408  23541300.720    96397703.40046
  21311558.340   111993052.02109  21311556.160    87267334.05948
  22503507.920   118256749.38409  22503503.560    92148121.41146
  23549994.340   123756067.87208  23549992.520    96433284.55145
  22977888.320   120749604.59309  22977885.540    94090590.61846
  24176574.700   127048824.68808  24176571.360    98999109.68545
  20603535.540   108272321.36809  20603530.560    84368031.41349
  21329757.640   112088695.78409  21329752.120    87341855.63948
  20456871.280   107501620.26209  20456870.480    83767512.27449
  21754274.340   114319503.99709  21754271.940    89080129.67647
 15 02 17 04 00 30.0000000  0 10G01G04G11G14G16G18G19G22G27G32
  23527819.520   123639539.98608  23527821.460    96342505.75646
  21302348.740   111944655.28109  21302346.480    87229622.31948
  22489003.280   118180526.81309  22488999.300    92088727.23147
  23538288.000   123694549.50508  23538285.780    96385348.17045
  22997020.120   120850142.38909  22997017.280    94168931.75246
  24193538.540   127137970.47308  24193535.180    99068573.91345
  20598465.660   108245679.09509  20598460.740    84347271.21049
  21340159.000   112143354.39109  21340153.160    87384446.79248
  20461092.440   107523802.77909  20461091.700    83784797.34649
  21736857.100   114227977.16709  21736854.800    89008810.07347
 15 02 17 04 01  0.0000000  0 10G01G04G11G14G16G18G19G22G27G32
  23514361.960   123568821.51308  23514363.000    96287400.42346
  21293182.140   111896484.15209  21293179.840    87192086.37148
  22474522.400   118104429.40908  22474518.980    92029430.56746
  23526632.460   123633297.94208  23526629.760    96337619.67245
  23016186.160   120950859.95809  23016183.180    94247412.96346
  24210523.700   127227227.99208  24210520.380    99138125.21445
  20593461.260   108219381.02109  20593456.300    84326779.21149
  21350631.920   112198389.92609  21350625.940    87427331.64848
  20465392.920   107546402.19009  20465392.260    83802407.26249
  21719510.700   114136822.99909  21719508.700    88937780.86747
 15 02 17 04 01 30.0000000  0 10G01G04G11G14G16G18G19G22G27G32
  23500928.700   123498229.36008  23500930.140    96232393.61347
  21284059.800   111848546.10509  21284057.560    87154732.04448
  22460066.620   118028465.17609  22460063.320    91970237.64546
  23515029.540   123572323.48108  23515026.660    96290107.09446
  23035387.340   121051761.95709  23035384.180    94326037.88346
  24227531.320   127316603.64908  24227528.080    99207768.58345
  20588524.040   108193436.14709  20588519.100    84306562.42749
  21361177.580   112253807.83209  21361171.580    87470514.43348
  20469774.320   107569426.59509  20469773.680    83820348.35949
  21702237.180   114046051.25809  21702235.580    88867049.65448
 15 02 17 04 02  0.0000000  0 10G01G04G11G14G16G18G19G22G27G32
  23487519.080   123427760.97108  23487521.220    96177483.28246
  21274981.400   111800838.97009  21274978.980    87117557.66348
  22445636.180   117952632.63108  22445633.040    91911147.34446
  23503479.200   123511626.37108  23503476.360    96242810.67945
  23054622.600   121152842.95809  23054619.260    94404802.29846
  24244560.640   127406092.89808  24244557.220    99277500.48444
  20583654.020   108167843.93709  20583649.040    84286620.42049
  21371795.140   112309603.93909  21371789.300    87513991.91048
  20474236.200   107592874.14009  20474235.540    83838619.16349
  21685036.500   113955661.86809  21685035.180    88796616.38447
 15 02 17 04 02 30.0000000  0 10G01G04G11G14G16G18G19G22G27G32
  23474133.760   123357423.25208  23474136.280    96122674.77045
  21265948.220   111753369.65409  21265946.060    87080568.58648
  22431231.900   117876939.03909  22431228.780    91852165.39246
  23491983.520   123451216.55908  23491980.940    96195738.11345
  23073892.760   121254107.42909  23073889.380    94483709.67346
  24261612.520   127495700.70407  24261608.760    99347324.76743
  20578852.600   108142612.53309  20578847.700    84266959.60849
  21382485.680   112365782.97709  21382479.820    87557767.82948
  20478780.020   107616752.19909  20478779.380    83857225.43449
  21667910.440   113865663.97509  21667909.160    88726488.18947
 15 02 17 04 03  0.0000000  0 10G01G04G11G14G16G18G19G22G27G32
  23460771.540   123287201.53709  23460772.640    96067956.49146
  21256957.480   111706123.12209  21256955.260    87043753.10748
  22416851.900   117801370.57608  22416848.660    91793280.83247
  23480540.220   123391082.11908  23480538.100    96148880.09346
  23093194.320   121355537.22009  23093190.960    94562745.85647
  24278683.740   127585410.16606  24278679.760    99417228.21544
  20574117.280   108117728.53709  20574112.480    84247569.51249
  21393245.860   112422328.18609  21393239.980    87601829.00648
  20483403.040   107641046.39309  20483402.420    83876155.96349
  21650856.720   113776045.08109  21650855.140    88656655.28647
 15 02 17 04 03 30.0000000  0 10G01G04G11G14G16G18G19G22G27G32
  23447433.460   123217107.45908  23447434.500    96013337.82447
  21248011.540   111659111.75409  21248009.240    87007120.89048
  22402497.880   117725939.83109  22402495.120    91734503.66947
  23469152.020   123331237.45208  23469150.300    96102247.91546
  23112528.960   121457141.57008  23112525.720    94641918.06146
  24295776.240   127675231.32906  24295772.600    99487218.75242
  20569450.700   108093205.14209  20569445.680    84228460.36849
  21404077.580   112479249.52109  21404071.780    87646183.29848
  20488107.680   107665769.29909  20488107.000    83895420.56749
  21633877.920   113686819.39809  21633875.860    88587128.80247
 15 02 17 04 04  0.0000000  0 10G01G04G11G14G16G18G19G22G27G32
  23434119.760   123147144.66508  23434121.220    95958821.42047
  21239110.900   111612338.91109  21239108.520    86970674.48648
  22388170.800   117650651.35008  22388167.840    91675837.30946
  23457820.240   123271688.96408  23457818.540    96055846.51745
  23131896.820   121558921.25808  23131893.720    94721226.88946
  24312890.280   127765165.75705  24312885.960    99557297.37943
  20564853.760   108069047.70209  20564848.660    84209636.40149
  21414981.240   112536548.71209  21414975.340    87690832.04548
  20492894.620   107690924.77509  20492893.920    83915022.23149
  21616974.880   113597992.53209  21616972.620    88517913.05947
 15 02 17 04 04 30.0000000  0 10G01G04G11G14G16G18G19G22G27G32
  23420830.360   123077306.82008  23420831.580    95904402.25947
  21230254.420   111565798.14409  21230251.760    86934408.96848
  22373869.360   117575499.15309  22373866.740    91617277.19847
  23446544.260   123212433.40508  23446542.440    96009673.35446
  23151296.220   121660866.71208  23151293.300    94800664.89446
  24330024.180   127855205.54204  24330025.060    99627362.33241
  20560325.500   108045251.35109  20560320.300    84191093.77449
  21425955.020   112594217.16909  21425949.220    87735768.51148
  20497762.700   107716506.93909  20497762.100    83934956.38149
  21600146.700   113509560.43809  21600144.640    88449004.94847
 15 02 17 04 05  0.0000000  0  9G01G04G11G14G16G19G22G27G32
  23407563.220   123007589.31608  23407565.300    95850077.10947
  21221441.360   111519485.14309  21221438.540    86898320.93248
  22359593.480   117500479.90908  22359591.220    91558820.67747
  23435323.700   123153468.94808  23435321.940    95963727.05045
  23170725.940   121762970.98708  23170723.100    94880226.65646
  20555865.380   108021813.04409  20555860.200    84172830.17749
  21436997.800   112652248.31609  21436992.280    87780987.57848
  20502711.280   107742511.88409  20502710.740    83955219.96849
  21583393.100   113421520.97709  21583391.280    88380402.78647
 15 02 17 04 05 30.0000000  0  9G01G04G11G14G16G19G22G27G32
  23394319.560   122937992.23309  23394322.000    95795845.68347
  21212671.560   111473399.76209  21212668.980    86862410.25548
  22345343.380   117425594.28209  22345340.480    91500468.20246
  23424159.200   123094798.25608  23424157.000    95918009.62845
  23190185.400   121865231.23708  23190182.560    94959909.95146
  20551473.660   107998734.25009  20551468.460    84154846.69149
  21448109.200   112710640.08109  21448104.100    87826487.63848
  20507740.440   107768939.91209  20507739.840    83975813.22249
  21566714.720   113333876.14409  21566713.040    88312108.14148
 15 02 17 04 06  0.0000000  0  9G01G04G11G14G16G19G22G27G32
  23381099.520   122868518.70108  23381100.420    95741710.41946
  21203945.760   111427545.45209  21203943.320    86826679.61248
  22331119.580   117350846.21909  22331116.340    91442223.00146
  23413051.920   123036427.46308  23413049.080    95872525.89645
  23209674.580   121967647.64008  23209671.680    95039714.92446
  20547151.240   107976019.47709  20547146.060    84137146.87249
  21459289.560   112769393.79509  21459284.780    87872269.76548
  20512850.840   107795794.69909  20512850.160    83996739.02249
  21550112.540   113246631.41209  21550110.960    88244125.25747
 15 02 17 04 06 30.0000000  0  9G01G04G11G14G16G19G22G27G32
  23367903.800   122799176.44308  23367904.720    95687677.56247
  21195265.500   111381929.88709  21195263.000    86791134.99748
  22316923.520   117276244.13509  22316919.800    91384091.49946
  23402003.500   122978367.06508  23402000.500    95827284.05546
  23229194.440   122070225.14408  23229191.500    95119645.43546
  20542899.800   107953677.91709  20542894.580    84119737.85449
  21470539.880   112828515.34609  21470535.300    87918338.49648
  20518043.940   107823084.45609  20518043.220    84018003.77149
  21533588.480   113159796.84409  21533586.820    88176461.96347
 15 02 17 04 07  0.0000000  0  9G01G04G11G14G16G19G22G27G32
  23354731.360   122729954.57508  23354732.520    95633738.50746
  21186628.580   111336542.16109  21186626.000    86755767.95348
  22302753.240   117201777.91009  22302749.400    91326065.86247
  23391012.380   122920608.80208  23391009.640    95782277.60046
  23248742.260   122172949.84208  23248739.360    95199690.61746
  20538717.540   107931700.23209  20538712.380    84102612.40549
  21481857.820   112887991.59508  21481853.160    87964683.65248
  20523317.700   107850798.58509  20523316.960    84039599.18549
  21517140.760   113073363.50209  21517139.140    88109111.29547
 15 02 17 04 07 30.0000000  0  9G01G04G11G14G16G19G22G27G32
  23341583.480   122660863.65708  23341584.420    95579901.46846
  21178037.080   111291393.01409  21178034.640    86720586.81148
  22288610.620   117127459.30908  22288607.200    91268155.29347
  23380081.260   122863166.15908  23380078.940    95737517.13846
  23268319.620   122275829.88908  23268316.800    95279856.87346
  20534606.820   107910098.49209  20534601.740    84085779.88649
  21493244.980   112947831.16209  21493240.220    88011311.83348
  20528674.400   107878948.22809  20528673.660    84061533.95749
  21500771.840   112987344.30009  21500770.280    88042083.34748
 15 02 17 04 08  0.0000000  0  9G01G04G11G14G16G19G22G27G32
  23328458.120   122591888.90008  23328459.300    95526154.90347
  21169488.120   111246467.57409  21169485.820    86685579.95248
  22274493.680   117053273.84209  22274490.380    91210348.45247
  23369208.020   122806027.11208  23369205.720    95692993.22245
  23287923.180   122378847.30508  23287920.380    95360130.17046
  20530565.080   107888859.18609  20530560.000    84069229.76649
  21504698.040   113008017.02108  21504693.200    88058209.94148
  20534111.200   107907518.74709  20534110.400    84083796.69149
  21484479.340   112901726.45009  21484477.780    87975368.15847
 15 02 17 04 08 30.0000000  0  9G01G04G11G14G16G19G22G27G32
  23315357.120   122523041.72108  23315358.440    95472507.76747
  21160983.840   111201777.41009  21160981.780    86650756.47048
  22260404.640   116979234.05309  22260401.300    91152655.12247
  23358395.220   122749205.81708  23358392.780    95648716.89045
  23307554.620   122482010.91608  23307551.760    95440517.38346
  20526594.820   107867995.22609  20526589.720    84052972.14349
  21516218.720   113068558.62409  21516213.840    88105385.17348
  20539630.360   107936522.10309  20539629.520    84106396.69249
  21468265.880   112816523.67509  21468264.140    87908976.38547
 15 02 17 04 09  0.0000000  0  9G01G04G11G14G16G19G22G27G32
  23302279.820   122454323.43008  23302282.400    95418961.22346
  21152524.640   111157324.20309  21152522.560    86616117.61448
  22246343.640   116905342.22109  22246339.880    91095077.06146
  23347643.740   122692706.41908  23347641.440    95604691.38545
  23327213.520   122585318.63108  23327210.560    95521016.90146
  20522696.600   107847509.52409  20522691.420    84037009.26049
  21527806.980   113129455.64809  21527802.200    88152837.42748
  20545232.300   107965960.08909  20545231.440    84129335.38949
  21452132.060   112731739.48509  21452130.140    87842910.79347
 15 02 17 04 09 30.0000000  0  9G01G04G11G14G16G19G22G27G32
  23289225.740   122385722.82309  23289226.360    95365506.08645
  21144108.200   111113096.00109  21144106.200    86581654.09448
  22232308.520   116831587.49909  22232304.640    91037605.89047
  23336951.720   122636520.22908  23336949.620    95560909.97346
  23346897.240   122688757.10208  23346894.380    95601618.29546
  20518868.420   107827392.03709  20518863.160    84021333.31349
  21539460.380   113190694.53209  21539455.660    88200556.02748
  20550914.840   107995821.51809  20550913.940    84152604.03049
  21436076.080   112647364.53509  21436074.020    87777164.08747
 15 02 17 04 10  0.0000000  0  9G01G04G11G14G16G19G22G27G32
  23276195.060   122317246.72607  23276196.340    95312148.12347
  21135736.060   111069100.35809  21135734.100    86547371.79148
  22218301.320   116757977.97009  22218297.820    90980247.83047
  23326321.240   122580656.90508  23326319.060    95517380.12946
  23366606.520   122792329.97008  23366603.760    95682324.40946
  20515111.960   107807651.47509  20515106.680    84005951.04049
  21551179.740   113252279.97909  21551174.940    88248544.69848
  20556679.340   108026113.83909  20556678.400    84176208.42649
  21420099.720   112563407.97109  21420097.640    87711743.39647
 15 02 17 04 10 30.0000000  0  9G01G04G11G14G16G19G22G27G32
  23263189.000   122248900.57009  23263191.180    95258891.49147
  21127409.260   111025342.71509  21127407.360    86513274.93748
  22204322.520   116684519.83209  22204319.100    90923007.71646
  23315753.780   122525124.72008  23315751.500    95474108.30046
  23386341.880   122896040.13208  23386339.200    95763137.49846
  20511428.380   107788294.34509  20511423.220    83990867.57049
  21562965.720   113314215.53509  21562960.900    88296806.13348
  20562526.820   108056842.71909  20562525.940    84200153.00249
  21404204.420   112479877.36909  21404202.400    87646654.61948
 15 02 17 04 11  0.0000000  0  9G01G04G11G14G16G19G22G27G32
  23250205.080   122180667.61507  23250205.340    95205722.84646
  21119124.540   110981806.20209  21119122.580    86479350.37548
  22190369.680   116611197.11309  22190366.000    90865873.12446
  23305246.620   122469909.57608  23305244.500    95431083.51346
  23406099.600   122999867.90308  23406097.020    95844042.23046
  20507814.860   107769305.21109  20507809.660    83976070.83849
  21574814.760   113376482.20909  21574809.840    88345325.62148
  20568454.160   108087991.67409  20568453.420    84224424.91149
  21388387.260   112396757.84509  21388385.440    87581886.17148
 15 02 17 04 11 30.0000000  0  9G01G04G11G14G16G19G22G27G32
  23237245.820   122112567.70008  23237246.680    95152658.16547
  21110885.700   110938510.71109  21110883.880    86445613.65848
  22176446.420   116538030.86508  22176442.900    90808860.51246
  23294804.020   122415034.23608  23294802.200    95388323.52446
  23425882.900   123103830.31908  23425880.320    95925051.89546
  20504275.380   107750705.59309  20504270.220    83961577.63449
  21586730.340   113439098.15109  21586725.080    88394117.27448
  20574465.320   108119581.02709  20574464.720    84249039.98349
  21372652.520   112314071.70909  21372650.840    87517455.41648
 15 02 17 04 12  0.0000000  0  9G01G04G11G14G16G19G22G27G32
  23224309.860   122044586.62708  23224310.180    95099685.86446
  21102690.100   110895442.26909  21102688.140    86412053.84148
  22162550.120   116465006.93709  22162546.260    90751958.70946
  23284423.880   122360486.82608  23284422.280    95345819.06546
  23445688.460   123207909.70708  23445685.860    96006152.68446
  20500807.700   107732482.66009  20500802.460    83947377.93949
  21598709.180   113502046.64909  21598703.720    88443168.02448
  20580557.620   108151596.54509  20580557.040    84273987.13349
  21356997.740   112231806.33109  21356996.220    87453352.52847
 15 02 17 04 12 30.0000000  0  9G01G04G11G14G16G19G22G27G32
  23211397.240   121976730.59808  23211397.080    95046811.05746
  21094538.820   110852607.00409  21094536.900    86378675.71648
  22148682.460   116392132.70409  22148678.600    90695173.59446
  23274108.060   122306276.41108  23274106.360    95303577.20446
  23465517.120   123312110.16608  23465514.440    96087347.81646
  20497413.180   107714644.06609  20497407.900    83933477.72849
  21610752.020   113565332.22909  21610746.660    88492481.47948
  20586732.360   108184044.94609  20586731.800    84299271.58649
  21341424.700   112149970.31009  21341423.220    87389584.21048
 15 02 17 04 13  0.0000000  0  9G01G04G11G14G16G19G22G27G32
  23198508.200   121908998.28908  23198508.740    94994032.62947
  21086431.580   110810003.64309  21086429.860    86345478.29648
  22134843.220   116319408.01009  22134839.860    90638505.04346
  23263856.660   122252404.35408  23263854.840    95261599.00846
  23485368.120   123416427.48408  23485365.340    96168634.01146
  20494091.700   107697189.68609  20494086.520    83919876.92349
  21622858.400   113628951.44909  21622852.960    88542054.91648
  20592989.340   108216925.00709  20592988.680    84324892.39649
  21325933.700   112068564.10609  21325932.000    87326150.79248
 15 02 17 04 13 30.0000000  0  9G01G04G11G14G16G19G22G27G32
  23185643.420   121841393.46308  23185645.320    94941353.67047
  21078369.240   110767636.18109  21078367.700    86312464.72048
  22121033.460   116246837.57808  22121029.900    90581956.68347
  23253670.660   122198877.08108  23253668.420    95219889.43846
  23505241.580   123520862.65808  23505238.680    96250012.06346
  20490844.320   107680124.94409  20490839.280    83906579.73249
  21635028.580   113692906.02209  21635023.060    88591889.62948
  20599329.220   108250240.92309  20599328.520    84350852.84649
  21310525.780   111987593.70309  21310523.720    87263056.99648
 15 02 17 04 14  0.0000000  0  9G01G04G11G14G16G19G22G27G32
  23172801.720   121773911.85008  23172803.360    94888770.58246
  21070350.960   110725500.46509  21070349.580    86279631.69148
  22107252.400   116174417.65109  22107248.920    90525525.56747
  23243550.000   122145693.07908  23243547.540    95178447.38846
  23525136.060   123625408.53608  23525133.080    96331476.36046
  20487670.560   107663446.72009  20487665.420    83893583.69549
  21647261.420   113757189.54609  21647255.860    88641980.72048
  20605751.240   108283988.51609  20605750.540    84377149.66249
  21295200.280   111907056.67409  21295197.980    87200300.86948
 15 02 17 04 14 30.0000000  0  9G01G04G11G14G16G19G22G27G32
  23159982.800   121706547.42408  23159984.060    94836278.85747
  21062375.700   110683590.33309  21062373.900    86246974.44748
  22093499.140   116102143.34309  22093495.380    90469207.91846
  23233494.100   122092848.68108  23233491.720    95137269.94146
  23545049.900   123730056.07208  23545046.900    96413019.87746
  20484569.480   107647150.45609  20484564.360    83880885.29449
  21659555.300   113821793.91209  21659549.680    88692321.75548
  20612254.300   108318162.02009  20612253.540    84403778.35349
  21279956.360   111826949.23409  21279954.100    87137879.49048
 15 02 17 04 15  0.0000000  0  9G01G04G11G14G16G19G22G27G32
  23147187.200   121639305.81108  23147187.940    94783882.86246
  21054444.600   110641911.43009  21054442.160    86214497.38848
  22079774.860   116030021.00309  22079771.240    90413008.70647
  23223504.340   122040352.43008  23223502.120    95096363.78846
  23564983.600   123834808.12308  23564980.620    96494644.83946
  20481542.420   107631243.03209  20481537.280    83868489.91049
  21671910.720   113886722.54209  21671905.080    88742915.51648
  20618839.440   108352767.19809  20618838.640    84430743.40349
  21264795.500   111747278.70809  21264793.540    87075798.57548
 15 02 17 04 15 30.0000000  0  9G01G04G11G14G16G19G22G27G32
  23134415.660   121572189.32309  23134415.140    94731584.31246
  21046557.960   110600465.93009  21046554.860    86182202.22848
  22066080.300   115958053.91509  22066076.960    90356930.47047
  23213581.720   121988209.22808  23213579.420    95055732.75646
  23584937.060   123939664.05508  23584934.160    96576350.75946
  20478590.060   107615728.26309  20478584.980    83856400.49349
  21684327.920   113951975.69409  21684322.240    88793762.10348
  20625507.100   108387806.51109  20625506.400    84458046.76349
  21249718.640   111668049.43609  21249716.860    87014061.49248
 15 02 17 04 16  0.0000000  0  9G01G04G11G14G16G19G22G27G32
  23121667.860   121505198.24708  23121667.460    94679383.50647
  21038715.880   110559254.78009  21038712.440    86150089.63848
  22052415.300   115886243.32209  22052411.920    90300974.16247
  23203726.880   121936421.95408  23203724.640    95015379.02246
  23604909.900   124044621.91208  23604906.980    96658136.10345
  20475712.800   107600607.89409  20475707.640    83844618.38249
  21696806.580   114017551.80509  21696801.060    88844860.38448
  20632257.520   108423280.56209  20632256.920    84485688.87949
  21234726.220   111589263.70109  21234724.440    86952670.00848
 15 02 17 04 16 30.0000000  0  9G01G04G11G14G16G19G22G27G32
  23108943.420   121438330.72208  23108943.320    94627278.99246
  21030918.000   110518275.84009  21030914.620    86118158.00448
  22038779.500   115814588.23808  22038776.780    90245139.06347
  23193939.920   121884991.23208  23193937.540    94975303.16946
  23624901.200   124149676.88108  23624898.300    96739997.12746
  20472910.420   107585881.32509  20472905.260    83833143.11649
  21709345.880   114083446.72909  21709340.400    88896207.04748
  20639090.360   108459187.54409  20639089.840    84513668.32549
  21219818.140   111510921.51909  21219816.300    86891624.17148
 15 02 17 04 17  0.0000000  0  9G01G04G11G14G16G19G22G27G32
  23096242.660   121371588.58708  23096242.240    94575272.21247
  21023164.380   110477531.07509  21023161.580    86086408.85348
  22025173.660   115743091.22409  22025171.160    90189427.12847
  23184221.800   121833921.72208  23184219.340    94935508.76546
  23644910.680   124254827.52408  23644907.740    96821932.68845
  20470183.560   107571551.65709  20470178.400    83821977.15249
  21721945.960   114149660.37309  21721940.480    88947802.10448
  20646005.940   108495529.47009  20646005.520    84541986.69049
  21204995.100   111433026.70409  21204993.240    86830926.93048
 15 02 17 04 17 30.0000000  0  9G01G04G11G14G16G19G22G27G32
  23083564.940   121304967.12009  23083564.880    94523359.39547
  21015454.260   110437015.76309  21015451.860    86054838.50148
  22011597.420   115671748.64108  22011594.860    90133835.48747
  23174571.920   121783210.97708  23174569.460    94895993.93146
  23664936.960   124360066.61208  23664934.100    96903937.16645
  20467531.500   107557615.30309  20467526.360    83811117.66449
  21734605.280   114216185.67409  21734599.760    88999640.01648
  20653003.380   108532301.69109  20653003.060    84570640.36949
  21190256.680   111355576.37209  21190254.860    86770576.03148
 15 02 17 04 18  0.0000000  0  9G01G04G11G14G16G19G22G27G32
  23070910.480   121238467.10608  23070910.840    94471541.25347
  21007788.120   110396730.93709  21007786.220    86023447.74848
  21998051.040   115600561.88409  21998048.480    90078365.28047
  23164991.100   121732862.70008  23164988.700    94856761.54246
  23684979.620   124465392.20808  23684976.960    96986009.04146
  20464954.760   107544074.60909  20464949.640    83800566.48349
  21747323.560   114283021.47809  21747318.160    89051719.85048
  20660082.940   108569505.14509  20660082.660    84599630.06449
  21175603.560   111278573.13209  21175601.660    86710573.52048
 15 02 17 04 18 30.0000000  0  9G01G04G11G14G16G19G22G27G32
  23058280.040   121172094.21608  23058279.860    94419822.17647
  21000167.000   110356682.15709  21000165.540    85992240.93948
  21984535.780   115529537.93809  21984532.880    90023021.94447
  23155480.920   121682885.10908  23155478.380    94817817.96846
  23705039.220   124570806.82708  23705036.720    97068150.31446
  20462454.680   107530936.54709  20462449.520    83790329.03549
  21760101.660   114350171.67909  21760096.360    89104044.66948
  20667245.720   108607145.61909  20667245.340    84628960.29549
  21161037.140   111202024.67209  21161035.000    86650925.39048
 15 02 17 04 19  0.0000000  0  9G01G04G11G14G16G19G22G27G32
  23045672.160   121105838.75508  23045671.920    94368194.55647
  20992589.120   110316859.94809  20992587.620    85961210.65248
  21971049.800   115458667.93409  21971046.540    89967798.50647
  23146039.920   121633270.92308  23146036.880    94779157.58146
  23725113.480   124676298.46608  23725111.080    97150351.58845
  20460029.620   107518192.83409  20460024.480    83780398.84649
  21772937.440   114417623.98509  21772932.200    89156604.90548
  20674489.900   108645213.41709  20674489.380    84658623.50849
  21146555.640   111125922.97509  21146553.380    86591625.37348
 15 02 17 04 19 30.0000000  0  9G01G04G11G14G16G19G22G27G32
  23033088.840   121039713.75008  23033088.840    94316668.65646
  20985056.900   110277277.31509  20985054.740    85930367.04248
  21957595.660   115387965.85609  21957592.600    89912706.01147
  23136670.840   121584035.70508  23136667.780    94740792.49046
  23745204.380   124781877.40708  23745202.180    97232620.89346
  20457682.340   107505857.82809  20457677.300    83770787.16449
  21785832.860   114485389.68509  21785827.620    89209409.31448
  20681817.880   108683721.77509  20681817.260    84688630.01349
  21132161.820   111050283.05809  21132159.660    86532685.18848
 15 02 17 04 20  0.0000000  0  9G01G04G11G14G16G19G22G27G32
  23020528.080   120973708.20308  23020528.080    94265235.77046
  20977568.180   110237923.34209  20977565.540    85899701.61748
  21944171.820   115317421.62909  21944168.460    89857736.46347
  23127372.020   121535170.74408  23127369.180    94702715.90746
  23765309.300   124887529.52508  23765307.240    97314947.22446
  20455410.900   107493921.47509  20455405.960    83761486.11949
  21798785.380   114553455.49309  21798780.300    89262447.58948
  20689227.520   108722659.54909  20689226.880    84718971.11749
  21117853.940   110975095.61109  21117851.960    86474097.56948
 15 02 17 04 20 30.0000000  0 10G01G03G04G11G14G16G19G22G27G32
  23007990.920   120907827.26608  23007991.820    94213900.04547
  24647496.500                                                  
  20970123.920   110198803.26109  20970121.300    85869218.44548
  21930779.060   115247041.31009  21930775.400    89802894.64747
  23118145.160   121486684.01908  23118142.400    94664934.08246
  23785428.660   124993257.24908  23785426.680    97397332.47246
  20453216.620   107482390.33209  20453211.740    83752500.81849
  21811795.720   114621824.60009  21811790.420    89315722.22648
  20696719.900   108762032.04009  20696719.180    84749650.97449
  21103633.500   110900367.65109  21103631.660    86415868.01248
 15 02 17 04 21  0.0000000  0 10G01G03G04G11G14G16G19G22G27G32
  22995477.000   120842065.53909  22995478.160    94162657.18447
  24627371.320   129417697.60608  24627371.180   100844967.56445
  20962723.140   110159911.91509  20962720.580    85838913.50248
  21917416.500   115176820.48609  21917413.140    89748177.16147
  23108989.900   121438572.56908  23108987.020    94627444.66746
  23805560.820   125099052.12508  23805558.840    97479770.03046
  20451098.620   107471260.28309  20451093.780    83743828.05649
  21824862.120   114690488.97709  21824856.820    89369226.90948
  20704294.020   108801833.84509  20704293.180    84780665.36149
  21089499.860   110826095.50509  21089498.140    86357993.62548
 15 02 17 04 21 30.0000000  0 10G01G03G04G11G14G16G19G22G27G32
  22982987.600   120776431.80708  22982988.400    94111514.06147
  24607267.840   129312056.33408  24607268.600   100762649.71446
  20955367.440   110121257.86909  20955365.240    85808793.48048
  21904086.180   115106769.06109  21904082.760    89693591.62347
  23099908.140   121390847.67908  23099905.300    94590256.45846
  23825706.920   125204920.41708  23825704.880    97562264.79646
  20449058.920   107460541.61909  20449054.160    83735475.85449
  21837986.160   114759455.84709  21837980.840    89422967.32748
  20711951.440   108842073.73009  20711950.560    84812021.10549
  21075455.120   110752289.79009  21075453.440    86300482.69148
 15 02 17 04 22  0.0000000  0 10G01G03G04G11G14G16G19G22G27G32
  22970521.140   120710919.97308  22970521.840    94060465.91947
  24587187.500   129206535.79507  24587188.820   100680425.87546
  20948055.780   110082835.21709  20948053.580    85778853.78048
  21890786.900   115036881.60009  21890783.620    89639133.87447
  23090899.020   121343505.64008  23090896.500    94553366.58246
  23845865.280   125310853.12208  23845863.180    97644809.74046
  20447096.560   107450229.29509  20447091.760    83727440.25649
  21851166.280   114828717.13609  21851160.860    89476937.15648
  20719690.960   108882745.57309  20719690.220    84843713.44049
  21061498.320   110678946.11409  21061496.640    86243331.78648
 15 02 17 04 22 30.0000000  0 10G01G03G04G11G14G16G19G22G27G32
  22958078.100   120645531.57408  22958078.760    94009513.96047
  24567130.800   129101139.35607  24567132.700   100598298.76746
  20940788.680   110044645.64209  20940786.440    85749095.64748
  21877519.440   114967160.54609  21877516.080    89584805.78247
  23081963.600   121296550.43708  23081961.320    94516778.14146
  23866035.700   125416849.15808  23866033.580    97727404.05845
  20445212.000   107440326.11209  20445207.200    83719723.49949
  21864402.120   114898272.03609  21864396.600    89531135.76648
  20727512.960   108923850.92809  20727512.360    84875743.58749
  21047630.140   110606067.74209  21047628.320    86186543.45548
 15 02 17 04 23  0.0000000  0 10G01G03G04G11G14G16G19G22G27G32
  22945658.140   120580264.76208  22945658.740    93958656.71747
  24547097.780   128995866.98608  24547100.180   100516268.43045
  20933565.580   110006687.34109  20933562.980    85719517.77948
  21864283.580   114897605.01509  21864279.800    89530606.70547
  23073102.020   121249982.79308  23073099.920    94480491.69446
  23886217.260   125522903.98708  23886215.160    97810044.17145
  20443405.180   107430831.32709  20443400.360    83712324.96549
  21877693.060   114968116.44509  21877687.660    89585559.99448
  20735417.200   108965387.84309  20735416.520    84908110.01849
  21033850.460   110533654.46509  21033848.440    86130117.53748
 15 02 17 04 23 30.0000000  0 10G01G03G04G11G14G16G19G22G27G32
  22933261.100   120515118.14708  22933261.680    93907893.16347
  24527088.900   128890719.22308  24527091.320   100434335.11545
  20926386.060   109968958.99509  20926383.380    85690119.08048
  21851079.140   114828214.66509  21851075.180    89476536.27447
  23064314.380   121203803.59408  23064312.140    94444507.94746
  23906409.120   125629013.25108  23906407.120    97892726.71045
  20441676.120   107421744.90009  20441671.240    83705244.64749
  21891038.480   115038246.89509  21891033.040    89640207.09148
  20743403.360   109007354.88409  20743402.600    84940811.58949
  21020159.320   110461706.69209  21020157.120    86074054.34348
 15 02 17 04 24  0.0000000  0 10G01G03G04G11G14G16G19G22G27G32
  22920887.420   120450093.50009  22920888.200    93857224.63547
  24507104.580   128785699.68308  24507106.640   100352501.80546
  20919250.540   109931462.61209  20919248.120    85660901.11348
  21837906.420   114758992.33708  21837902.700    89422596.79847
  23055601.420   121158017.07408  23055599.120    94408830.14846
  23926611.180   125735176.19708  23926609.320    97975451.04945
  20440025.260   107413069.49609  20440020.280    83698484.58849
  21904438.340   115108663.37009  21904432.800    89695077.04248
  20751471.640   109049753.79809  20751470.840    84973849.68549
  21006557.260   110390227.87309  21006555.140    86018356.56248
 15 02 17 04 24 30.0000000  0 10G01G03G04G11G14G16G19G22G27G32
  22908536.660   120385189.38708  22908537.100    93806650.03047
  24487144.740   128680808.58608  24487146.200   100270768.52645
  20912158.800   109894196.57209  20912156.640    85631862.66448
  21824765.460   114689937.63709  21824762.100    89368787.95547
  23046963.400   121112624.05708  23046961.040    94373458.96946
  23946822.700   125841388.35208  23946820.800    98058213.72845
  20438452.620   107404805.29609  20438447.600    83692044.93749
  21917891.880   115179362.02609  21917886.320    89750166.92448
  20759621.700   109092582.93909  20759620.940    85007223.02549
  20993044.360   110319218.16309  20993042.560    85963024.34148
 15 02 17 04 25  0.0000000  0 10G01G03G04G11G14G16G19G22G27G32
  22896209.180   120320408.80409  22896209.680    93756171.69547
  24467210.300   128576050.74408  24467211.080   100189139.03345
  20905111.500   109857163.93609  20905109.500    85603006.07648
  21811657.460   114621054.34309  21811654.520    89315112.68247
  23038401.340   121067629.93608  23038398.860    94338398.64646
  23967043.660   125947649.63608  23967041.560    98141014.71845
  20436959.000   107396956.51209  20436953.980    83685929.00549
  21931399.240   115250343.85309  21931393.660    89805477.43948
  20767854.220   109135845.30509  20767853.560    85040933.94549
  20979621.700   110248682.20809  20979620.080    85908061.27648
 15 02 17 04 25 30.0000000  0 10G01G03G04G11G14G16G19G22G27G32
  22883905.520   120255753.75408  22883906.180    93705791.14247
  24447301.680   128471430.05108  24447302.280   100107616.43746
  20898109.260   109820366.98209  20898107.340    85574333.10848
  21798582.540   114552345.67208  21798579.720    89261573.45947
  23029916.040   121023039.18108  23029913.520    94303652.62646
  23987273.980   126053959.82608  23987271.660    98223853.79245
  20435545.100   107389526.09409  20435540.080    83680139.06349
  21944960.420   115321608.62409  21944954.980    89861008.40948
  20776169.560   109179542.71909  20776169.040    85074983.86649
  20966290.040   110178623.55909  20966288.300    85853470.12148
 15 02 17 04 26  0.0000000  0 10G01G03G04G11G14G16G19G22G27G32
  22871625.200   120191221.51408  22871625.720    93655506.30047
  24427418.900   128366945.42908  24427419.640   100026199.86945
  20891151.520   109783802.93609  20891149.520    85545841.66348
  21785540.560   114483809.63609  21785537.700    89208168.75647
  23021507.360   120978851.47208  23021505.000    94269220.66946
  24007512.520   126160313.34308  24007510.080    98306726.63045
  20434210.540   107382512.50309  20434205.480    83674673.94449
  21958574.600   115393151.49609  21958569.320    89916756.09548
  20784567.120   109223672.28709  20784566.620    85109370.52849
  20953049.100   110109041.18009  20953047.140    85799250.09148
 15 02 17 04 26 30.0000000  0 10G01G03G04G11G14G16G19G22G27G32
  22859368.240   120126810.88008  22859368.720    93605316.19447
  24407562.040   128262597.58408  24407563.060    99944889.84045
  20884237.900   109747470.86109  20884235.960    85517530.99648
  21772531.340   114415446.01209  21772528.480    89154898.46147
  23013175.600   120935068.08508  23013173.200    94235103.75746
  24027758.460   126266706.17708  24027756.060    98389630.11046
  20432955.360   107375915.81209  20432950.160    83669533.66149
  21972241.020   115464969.47509  21972235.820    89972718.14548
  20793046.660   109268232.68609  20793046.120    85144092.90049
  20939898.860   110039935.53009  20939896.780    85745401.55148
 15 02 17 04 27  0.0000000  0 10G01G03G04G11G14G16G19G22G27G32
  22847134.260   120062521.20708  22847135.000    93555220.35847
  24387731.480   128158387.67508  24387732.660    99863687.30746
  20877368.280   109711369.83709  20877366.240    85489400.34248
  21759555.260   114347255.32109  21759551.860    89101762.82747
  23004921.120   120891690.53908  23004918.660    94201303.09446
  24048011.260   126373134.94608  24048008.860    98472561.56646
  20431779.560   107369736.39809  20431774.300    83664718.52149
  21985959.180   115537059.24209  21985953.940    90028892.00348
  20801608.080   109313223.06009  20801607.460    85179150.31249
  20926839.400   109971307.36009  20926837.200    85691925.07048
 15 02 17 04 27 30.0000000  0 10G01G03G04G11G14G16G19G22G27G32
  22834923.640   119998356.39908  22834925.180    93505221.84547
  24367928.100   128054321.37707  24367929.420    99782596.68546
  20870543.400   109675504.22009  20870541.100    85461453.08948
  21746612.800   114279242.36609  21746609.500    89048765.74247
  22996745.080   120848725.00708  22996742.420    94167823.46946
  24068271.180   126479600.74308  24068268.820    98555521.90345
  20430684.020   107363978.99909  20430678.720    83660232.24249
  21999729.580   115609422.90709  21999724.200    90085279.29348
  20810252.000   109358647.16109  20810251.400    85214545.69749
  20913871.740   109903162.15709  20913869.600    85638824.92648
 15 02 17 04 28  0.0000000  0 10G01G03G04G11G14G16G19G22G27G32
  22822736.140   119934311.83708  22822737.660    93455317.02247
  24348151.400   127950395.81208  24348152.980    99701615.77845
  20863762.300   109639869.25409  20863759.860    85433685.59448
  21733703.620   114211403.56109  21733700.420    88995904.34147
  22988646.940   120806169.19908  22988644.220    94134663.13246
  24088536.760   126586096.04208  24088534.180    98638505.21345
  20429668.180   107358640.62109  20429662.780    83656072.47149
  22013550.600   115682053.66909  22013545.140    90141874.68848
  20818977.520   109404500.07509  20818976.960    85250275.23449
  20900995.360   109835496.78609  20900993.280    85586098.67148
